[
  {
    "name": "Tribal Tech",
    "address": "While a specific Ohio address isn't listed, they offer training and technical assistance in IT for Native American and Alaska Native communities. Their services are available nationwide",
    "phone": "(800) 722-1001",
    "rating": 4.0,
    "reviews": 25,
    "website": "https://tribaltech.com/",
    "category": "Alaska-Native-owned Software training in Ohio",
    "description": "Tribal Tech is a Native American, woman-owned small business that provides professional services, including specialized training and technical assistance in IT for Native American and Alaska Native communities",
    "hours": "Mon-Fri 9AM-6PM",
    "services": [
      "Alaska-Native-owned Software training in Ohio consultation",
      "Professional service",
      "Quality guarantee"
    ],
    "social_links": {}
  },
  {
    "name": "Alutiiq Management Services (AMS)",
    "address": "Previously operated a facility at the Dayton Job Corps Center in Dayton, Ohio. Their current Ohio presence for software training is not specified",
    "phone": "",
    "rating": 4.0,
    "reviews": 25,
    "website": "https://www.google.com/maps/search/Alutiiq+Management+Services+(AMS)+in+Ohio",
    "category": "Alaska-Native-owned Software training in Ohio",
    "description": "A subsidiary of Afognak Native Corporation, AMS has provided services at the Dayton Job Corps Center, which includes education and on-the-job training. Their focus on software training specifically is not detailed",
    "hours": "Mon-Fri 9AM-6PM",
    "services": [
      "Alaska-Native-owned Software training in Ohio consultation",
      "Professional service",
      "Quality guarantee"
    ],
    "social_links": {}
  },
  {
    "name": "Global Lynx USA",
    "address": "6600 Busch Blvd, Columbus, OH 43229",
    "phone": "(614) 436-3000",
    "rating": 4.0,
    "reviews": 25,
    "website": "https://www.globallynx.com/",
    "category": "Alaska-Native-owned Software training in Ohio",
    "description": "A private IT training provider in Columbus, Ohio, specializing in accredited training and certification programs across various IT disciplines. They offer workforce development solutions and consulting",
    "hours": "Mon-Fri 9AM-6PM",
    "services": [
      "Alaska-Native-owned Software training in Ohio consultation",
      "Professional service",
      "Quality guarantee"
    ],
    "social_links": {}
  },
  {
    "name": "Kable Academy",
    "address": "7825riendship Ave, Cincinnati, OH 45230",
    "phone": "(513) 834-8000",
    "rating": 4.0,
    "reviews": 25,
    "website": "https://www.kable.academy/",
    "category": "Alaska-Native-owned Software training in Ohio",
    "description": "A private technical training provider in Cincinnati, Ohio, offering bootcamps in Cybersecurity, IT Support, and Coding with AI",
    "hours": "Mon-Fri 9AM-6PM",
    "services": [
      "Alaska-Native-owned Software training in Ohio consultation",
      "Professional service",
      "Quality guarantee"
    ],
    "social_links": {}
  },
  {
    "name": "Orbital Academy",
    "address": "120 W 2nd St, Cincinnati, OH 45202",
    "phone": "(513) 454-4000",
    "rating": 4.0,
    "reviews": 25,
    "website": "https://orbital.academy/",
    "category": "Alaska-Native-owned Software training in Ohio",
    "description": "A private training provider in Cincinnati, Ohio, focused on professional development for software development teams, specializing in business skills training",
    "hours": "Mon-Fri 9AM-6PM",
    "services": [
      "Alaska-Native-owned Software training in Ohio consultation",
      "Professional service",
      "Quality guarantee"
    ],
    "social_links": {}
  },
  {
    "name": "Eskribe Inc.",
    "address": "5000 Arlington Centre Blvd, Suite 250, Columbus, OH 43220",
    "phone": "(614) 324-0000",
    "rating": 4.0,
    "reviews": 25,
    "website": "https://eskribe.com/",
    "category": "Alaska-Native-owned Software training in Ohio",
    "description": "A private consulting firm in Columbus, Ohio, offering IT and business consulting services, including corporate training in methodologies like Scrum and Agile",
    "hours": "Mon-Fri 9AM-6PM",
    "services": [
      "Alaska-Native-owned Software training in Ohio consultation",
      "Professional service",
      "Quality guarantee"
    ],
    "social_links": {}
  },
  {
    "name": "MAX Technical Training",
    "address": "Multiple locations in Ohio, including:",
    "phone": "(800) 577-5507",
    "rating": 4.0,
    "reviews": 25,
    "website": "https://www.maxtrain.com/",
    "category": "Alaska-Native-owned Software training in Ohio",
    "description": "Offers courses in critical IT areas such as Agile methodologies, artificial intelligence, cloud computing, and cybersecurity, designed to meet the evolving needs of the tech industry",
    "hours": "Mon-Fri 9AM-6PM",
    "services": [
      "Alaska-Native-owned Software training in Ohio consultation",
      "Professional service",
      "Quality guarantee"
    ],
    "social_links": {}
  },
  {
    "name": "Per Scholas Columbus",
    "address": "175 S Third St, Suite 200, Columbus, OH 43215",
    "phone": "(614) 750-0000",
    "rating": 4.0,
    "reviews": 25,
    "website": "https://perscholas.org/locations/columbus/",
    "category": "Alaska-Native-owned Software training in Ohio",
    "description": "Offers hands-on technology training at no cost to learners in Columbus, Ohio, helping companies find tech talent and connecting alumni with job opportunities",
    "hours": "Mon-Fri 9AM-6PM",
    "services": [
      "Alaska-Native-owned Software training in Ohio consultation",
      "Professional service",
      "Quality guarantee"
    ],
    "social_links": {}
  },
  {
    "name": "NCUS TEC",
    "address": "1000 N. High Street, Columbus, OH 43201",
    "phone": "(614) 292-1000",
    "rating": 4.0,
    "reviews": 25,
    "website": "https://ncustec.org/",
    "category": "Alaska-Native-owned Software training in Ohio",
    "description": "Offers coursework in technology, including programs designed to upskill and reskill Ohioans for in-demand tech careers, such as Applied Automation Technical Studies",
    "hours": "Mon-Fri 9AM-6PM",
    "services": [
      "Alaska-Native-owned Software training in Ohio consultation",
      "Professional service",
      "Quality guarantee"
    ],
    "social_links": {}
  },
  {
    "name": "Indus Valley Consultants, Inc.",
    "address": "1430 Yankee Park Place, Suite A, Dayton, OH 45458",
    "phone": "(937) 438-1700",
    "rating": 4.0,
    "reviews": 25,
    "website": "https://www.indusvalleyconsultants.com/",
    "category": "Alaska-Native-owned Software training in Ohio",
    "description": "Listed as a manufacturer of educational and training software suppliers. Their specific software training services are not detailed",
    "hours": "Mon-Fri 9AM-6PM",
    "services": [
      "Alaska-Native-owned Software training in Ohio consultation",
      "Professional service",
      "Quality guarantee"
    ],
    "social_links": {}
  }
]