[
  {
    "name": "Paramount Tax & Accounting",
    "address": "Multiple locations, including Bountiful, Cottonwood Heights, Draper, Lehi, Ogden, Orem, Provo, and Salt Lake City, UT. (Specific street addresses vary by location.)",
    "phone": "801-890-4777 (General Inquiries)",
    "rating": 4.0,
    "reviews": 25,
    "website": "https://www.paramounttax.com/",
    "category": "Agnostic-owned Cash flow forecasting in Utah",
    "description": "Offers cash flow projection services, including short-term and long-term forecasts, historical cash flow statements, and cash management strategies. They also provide tax preparation and accounting services",
    "hours": "Mon-Fri 9AM-6PM",
    "services": [
      "Agnostic-owned Cash flow forecasting in Utah consultation",
      "Professional service",
      "Quality guarantee"
    ],
    "social_links": {}
  },
  {
    "name": "Haynie & Company (Haynie Wealth Management)",
    "address": "201 S Main St, Salt Lake City, UT 84111",
    "phone": "(801) 364-2400",
    "rating": 4.0,
    "reviews": 25,
    "website": "https://www.hayniecpas.com/",
    "category": "Agnostic-owned Cash flow forecasting in Utah",
    "description": "Provides comprehensive financial planning and investment management solutions, including cash flow supervision (budgeting) and financial planning services",
    "hours": "Mon-Fri 9AM-6PM",
    "services": [
      "Agnostic-owned Cash flow forecasting in Utah consultation",
      "Professional service",
      "Quality guarantee"
    ],
    "social_links": {}
  },
  {
    "name": "Mellor and Associates",
    "address": "1104 E 1000 N, Logan, UT 84321 (This is one of their locations, others may exist.)",
    "phone": "(435) 753-1000",
    "rating": 4.0,
    "reviews": 25,
    "website": "https://mellorassociates.com/",
    "category": "Agnostic-owned Cash flow forecasting in Utah",
    "description": "Offers strategic guidance and solutions for businesses, including cash flow management, financial forecasting, and business financial consulting",
    "hours": "Mon-Fri 9AM-6PM",
    "services": [
      "Agnostic-owned Cash flow forecasting in Utah consultation",
      "Professional service",
      "Quality guarantee"
    ],
    "social_links": {}
  },
  {
    "name": "Lancaster Financial and Valuation Services",
    "address": "4882 S 1500 E, Holladay, UT 84117",
    "phone": "(801) 278-1311",
    "rating": 4.0,
    "reviews": 25,
    "website": "https://www.lancasterfinancial.com/",
    "category": "Agnostic-owned Cash flow forecasting in Utah",
    "description": "Specializes in financial projections and forecasting, including cash flow forecasting, budgeting, and financial analysis to help businesses plan for the future",
    "hours": "Mon-Fri 9AM-6PM",
    "services": [
      "Agnostic-owned Cash flow forecasting in Utah consultation",
      "Professional service",
      "Quality guarantee"
    ],
    "social_links": {}
  },
  {
    "name": "Peterson Wealth Advisors",
    "address": "Multiple locations, including Orem and Salt Lake City, UT. (Specific street addresses vary by location.)",
    "phone": "(801) 373-0670 (Orem)",
    "rating": 4.0,
    "reviews": 25,
    "website": "https://www.petersonwa.com/",
    "category": "Agnostic-owned Cash flow forecasting in Utah",
    "description": "Offers wealth and retirement planning services, with a focus on customized strategies that can include financial forecasting and planning",
    "hours": "Mon-Fri 9AM-6PM",
    "services": [
      "Agnostic-owned Cash flow forecasting in Utah consultation",
      "Professional service",
      "Quality guarantee"
    ],
    "social_links": {}
  },
  {
    "name": "Net Worth Advisory Group",
    "address": "9450 S 150 E, Sandy, UT 84070",
    "phone": "(801) 567-0600",
    "rating": 4.0,
    "reviews": 25,
    "website": "https://www.networthag.com/",
    "category": "Agnostic-owned Cash flow forecasting in Utah",
    "description": "Provides comprehensive financial planning, retirement planning, and investment management, which would involve cash flow analysis and forecasting",
    "hours": "Mon-Fri 9AM-6PM",
    "services": [
      "Agnostic-owned Cash flow forecasting in Utah consultation",
      "Professional service",
      "Quality guarantee"
    ],
    "social_links": {}
  },
  {
    "name": "Synergy Financial Advisors",
    "address": "7151 S 2300 E, Midvale, UT 84047",
    "phone": "(801) 871-5410",
    "rating": 4.0,
    "reviews": 25,
    "website": "https://synergyfinancialadvisors.com/",
    "category": "Agnostic-owned Cash flow forecasting in Utah",
    "description": "Offers financial planning and investment management, which includes creating integrated financial plans to help clients achieve their goals, likely involving cash flow forecasting",
    "hours": "Mon-Fri 9AM-6PM",
    "services": [
      "Agnostic-owned Cash flow forecasting in Utah consultation",
      "Professional service",
      "Quality guarantee"
    ],
    "social_links": {}
  },
  {
    "name": "Transworld Business Advisors of Utah",
    "address": "Multiple locations across Utah. (Specific street addresses vary by location.)",
    "phone": "(801) 451-4400",
    "rating": 4.0,
    "reviews": 25,
    "website": "https://www.tworld.com/locations/utah/",
    "category": "Agnostic-owned Cash flow forecasting in Utah",
    "description": "While primarily a business brokerage, they offer expertise in buying, selling, and franchising businesses, which often involves financial analysis and forecasting",
    "hours": "Mon-Fri 9AM-6PM",
    "services": [
      "Agnostic-owned Cash flow forecasting in Utah consultation",
      "Professional service",
      "Quality guarantee"
    ],
    "social_links": {}
  },
  {
    "name": "Business Outsource Services",
    "address": "Multiple locations, including Salt Lake City, Provo, and Ogden, UT. (Specific street addresses vary by location.)",
    "phone": "(801) 441-1100",
    "rating": 4.0,
    "reviews": 25,
    "website": "https://www.businessoutsourceservices.com/",
    "category": "Agnostic-owned Cash flow forecasting in Utah",
    "description": "Provides comprehensive financial services, including cash flow optimization, financial forecasting, and business management consulting for Utah businesses",
    "hours": "Mon-Fri 9AM-6PM",
    "services": [
      "Agnostic-owned Cash flow forecasting in Utah consultation",
      "Professional service",
      "Quality guarantee"
    ],
    "social_links": {}
  },
  {
    "name": "Dan Mirgon & Associates",
    "address": "210 S 1000 E, Salt Lake City, UT 84102",
    "phone": "(801) 532-7000",
    "rating": 4.0,
    "reviews": 25,
    "website": "https://danmirgon.com/",
    "category": "Agnostic-owned Cash flow forecasting in Utah",
    "description": "Offers financial advising and planning, as well as business consulting, which would encompass cash flow analysis and forecasting for clients",
    "hours": "Mon-Fri 9AM-6PM",
    "services": [
      "Agnostic-owned Cash flow forecasting in Utah consultation",
      "Professional service",
      "Quality guarantee"
    ],
    "social_links": {}
  }
]