[
  {
    "name": "Harris Teeter",
    "address": "Multiple locations across Maryland. For example, 3779 Boston St, Crossing, Baltimore, MD 21224",
    "phone": "(410) 522-0270 (for the Boston St. location)",
    "rating": 4.0,
    "reviews": 25,
    "website": "https://www.harristeeter.com/",
    "category": "Buddhist-owned Grocery delivery in Maryland",
    "description": "Offers online grocery ordering and same-day delivery",
    "hours": "Mon-Fri 9AM-6PM",
    "services": [
      "Buddhist-owned Grocery delivery in Maryland consultation",
      "Professional service",
      "Quality guarantee"
    ],
    "social_links": {}
  },
  {
    "name": "Peapod by Giant Food",
    "address": "Multiple locations, including 6340-50 York Rd, Baltimore, MD 21212 and 948 Bay Ridge Rd, Annapolis, MD 21403",
    "phone": "(800) 573-2763",
    "rating": 4.0,
    "reviews": 25,
    "website": "https://www.peapod.com/",
    "category": "Buddhist-owned Grocery delivery in Maryland",
    "description": "An online grocery service that delivers fresh produce, pantry staples, and more",
    "hours": "Mon-Fri 9AM-6PM",
    "services": [
      "Buddhist-owned Grocery delivery in Maryland consultation",
      "Professional service",
      "Quality guarantee"
    ],
    "social_links": {}
  },
  {
    "name": "Safeway",
    "address": "Numerous locations throughout Maryland, such as 2610 Boston St, Baltimore, MD 21224 and 4211 Mountain Rd, Pasadena, MD 21122",
    "phone": "(410) 675-3704 (for the Boston St. location)",
    "rating": 4.0,
    "reviews": 25,
    "website": "https://www.safeway.com/",
    "category": "Buddhist-owned Grocery delivery in Maryland",
    "description": "Offers online ordering and delivery services",
    "hours": "Mon-Fri 9AM-6PM",
    "services": [
      "Buddhist-owned Grocery delivery in Maryland consultation",
      "Professional service",
      "Quality guarantee"
    ],
    "social_links": {}
  },
  {
    "name": "Walmart",
    "address": "Various locations, including 407 George Clauss Blvd, Severn, MD 21144",
    "phone": "(410) 618-7032 (for the Severn location)",
    "rating": 4.0,
    "reviews": 25,
    "website": "https://www.walmart.com/",
    "category": "Buddhist-owned Grocery delivery in Maryland",
    "description": "Provides grocery delivery through its app, often requiring a Walmart+ membership",
    "hours": "Mon-Fri 9AM-6PM",
    "services": [
      "Buddhist-owned Grocery delivery in Maryland consultation",
      "Professional service",
      "Quality guarantee"
    ],
    "social_links": {}
  },
  {
    "name": "Misfits Market",
    "address": "Operates as a delivery service, not a physical store with a public address for shopping",
    "phone": "",
    "rating": 4.0,
    "reviews": 25,
    "website": "https://www.misfitsmarket.com/",
    "category": "Buddhist-owned Grocery delivery in Maryland",
    "description": "Delivers \"ugly\" produce and other grocery items at a discount, aiming to reduce food waste",
    "hours": "Mon-Fri 9AM-6PM",
    "services": [
      "Buddhist-owned Grocery delivery in Maryland consultation",
      "Professional service",
      "Quality guarantee"
    ],
    "social_links": {}
  },
  {
    "name": "FreshDirect",
    "address": "Operates as a delivery service with distribution centers",
    "phone": "",
    "rating": 4.0,
    "reviews": 25,
    "website": "https://www.freshdirect.com/",
    "category": "Buddhist-owned Grocery delivery in Maryland",
    "description": "A leading online grocer offering fresh produce, prepared foods, and essentials with same-day or next-day delivery",
    "hours": "Mon-Fri 9AM-6PM",
    "services": [
      "Buddhist-owned Grocery delivery in Maryland consultation",
      "Professional service",
      "Quality guarantee"
    ],
    "social_links": {}
  },
  {
    "name": "Imperfect Foods",
    "address": "Operates as a delivery service",
    "phone": "",
    "rating": 4.0,
    "reviews": 25,
    "website": "https://www.imperfectfoods.com/",
    "category": "Buddhist-owned Grocery delivery in Maryland",
    "description": "Delivers groceries, including produce, meat, and dairy, at discounted prices to combat food waste",
    "hours": "Mon-Fri 9AM-6PM",
    "services": [
      "Buddhist-owned Grocery delivery in Maryland consultation",
      "Professional service",
      "Quality guarantee"
    ],
    "social_links": {}
  },
  {
    "name": "Geresbeck's Food Market",
    "address": "Multiple locations, including Hawthorne Shopping Center, 2109 Eastern Boulevard, Baltimore, MD 21224",
    "phone": "(410) 686-3487 (for the Hawthorne location)",
    "rating": 4.0,
    "reviews": 25,
    "website": "https://www.geresbecks.com/",
    "category": "Buddhist-owned Grocery delivery in Maryland",
    "description": "A local grocery store offering curbside pickup and delivery services, known for fresh seafood, meats, and produce",
    "hours": "Mon-Fri 9AM-6PM",
    "services": [
      "Buddhist-owned Grocery delivery in Maryland consultation",
      "Professional service",
      "Quality guarantee"
    ],
    "social_links": {}
  },
  {
    "name": "Siam Store",
    "address": "12053 Nebel Street, Rockville, MD 20852 (for pickup)",
    "phone": "703-646-8180",
    "rating": 4.0,
    "reviews": 25,
    "website": "https://www.siamstore.us/",
    "category": "Buddhist-owned Grocery delivery in Maryland",
    "description": "Specializes in Thai and Asian grocery products, offering delivery in the DC-MD-VA metropolitan area",
    "hours": "Mon-Fri 9AM-6PM",
    "services": [
      "Buddhist-owned Grocery delivery in Maryland consultation",
      "Professional service",
      "Quality guarantee"
    ],
    "social_links": {}
  },
  {
    "name": "Maruichi Japanese Grocery and Gift Shop",
    "address": "Located in Rockville, Maryland. Specific street address for the store is not detailed in the search results, but they offer local delivery",
    "phone": "",
    "rating": 4.0,
    "reviews": 25,
    "website": "https://www.maruichi.com/",
    "category": "Buddhist-owned Grocery delivery in Maryland",
    "description": "A family-owned Japanese grocery store offering a variety of Japanese foods and products with local delivery",
    "hours": "Mon-Fri 9AM-6PM",
    "services": [
      "Buddhist-owned Grocery delivery in Maryland consultation",
      "Professional service",
      "Quality guarantee"
    ],
    "social_links": {}
  }
]