[
  {
    "name": "Pro Car Care",
    "address": "1701 W McNeese St, Lake Charles, LA 70605",
    "phone": "(337) 478-4444",
    "rating": 4.5,
    "reviews": 25,
    "website": "https://www.procarcarelc.com/",
    "category": "Chinese-speaking Alternator repair in Louisiana",
    "description": "Offers a wide range of automotive repair services, including alternator repair",
    "hours": "Mon-Fri 9AM-6PM",
    "services": [
      "Chinese-speaking Alternator repair in Louisiana consultation",
      "Professional service",
      "Quality guarantee"
    ],
    "social_links": {}
  },
  {
    "name": "CNC Auto Repair",
    "address": "1414 S Airline Hwy, Gonzales, LA 70737",
    "phone": "(225) 644-7500",
    "rating": 4.8,
    "reviews": 25,
    "website": "https://www.cncautorepair.com/",
    "category": "Chinese-speaking Alternator repair in Louisiana",
    "description": "Specializes in full-service auto repair for all Asian and domestic cars, trucks, vans, and SUVs",
    "hours": "Mon-Fri 9AM-6PM",
    "services": [
      "Chinese-speaking Alternator repair in Louisiana consultation",
      "Professional service",
      "Quality guarantee"
    ],
    "social_links": {}
  },
  {
    "name": "Chabill's Tire & Auto Service",
    "address": "Multiple locations across Southern Louisiana (e.g., 1001 E Pinhook Rd, Lafayette, LA 70501)",
    "phone": "(337) 234-7000 (Lafayette location)",
    "rating": 4.5,
    "reviews": 25,
    "website": "https://chabillstire.com/",
    "category": "Chinese-speaking Alternator repair in Louisiana",
    "description": "Provides auto electrical system repair services, including alternators, across various locations in Louisiana",
    "hours": "Mon-Fri 9AM-6PM",
    "services": [
      "Chinese-speaking Alternator repair in Louisiana consultation",
      "Professional service",
      "Quality guarantee"
    ],
    "social_links": {}
  },
  {
    "name": "Renaissance Motors",
    "address": "681 E I-10 Service Rd, Slidell, LA 70461",
    "phone": "(985) 545-3922",
    "rating": 4.7,
    "reviews": 25,
    "website": "https://renaissancemotors.com/",
    "category": "Chinese-speaking Alternator repair in Louisiana",
    "description": "Offers battery, starter, and alternator repair services",
    "hours": "Mon-Fri 9AM-6PM",
    "services": [
      "Chinese-speaking Alternator repair in Louisiana consultation",
      "Professional service",
      "Quality guarantee"
    ],
    "social_links": {}
  },
  {
    "name": "Davilco Electric Motor Repair Services",
    "address": "5445 Choctaw Dr, Baton Rouge, LA 70805",
    "phone": "(225) 357-0500",
    "rating": 4.9,
    "reviews": 25,
    "website": "https://davilcoelectric.com/",
    "category": "Chinese-speaking Alternator repair in Louisiana",
    "description": "Specializes in repairing starters, alternators, and DC electric motors, serving Baton Rouge and South Louisiana",
    "hours": "Mon-Fri 9AM-6PM",
    "services": [
      "Chinese-speaking Alternator repair in Louisiana consultation",
      "Professional service",
      "Quality guarantee"
    ],
    "social_links": {}
  },
  {
    "name": "Blanchard's Quality Car Care",
    "address": "42100 Hwy 44, Prairieville, LA 70769",
    "phone": "(225) 673-1111",
    "rating": 4.9,
    "reviews": 25,
    "website": "https://www.blanchardscarcare.com/",
    "category": "Chinese-speaking Alternator repair in Louisiana",
    "description": "AAA Certified and ASE Certified Master Mechanic specializing in Lexus and Toyota repair, which includes electrical systems",
    "hours": "Mon-Fri 9AM-6PM",
    "services": [
      "Chinese-speaking Alternator repair in Louisiana consultation",
      "Professional service",
      "Quality guarantee"
    ],
    "social_links": {}
  },
  {
    "name": "Siegen Car Care",
    "address": "5747 Siegen Ln, Baton Rouge, LA 70809",
    "phone": "(225) 296-3007",
    "rating": 4.7,
    "reviews": 25,
    "website": "https://siegencarcare.com/",
    "category": "Chinese-speaking Alternator repair in Louisiana",
    "description": "Offers honest, expert auto repair services for all makes and models, including electrical system diagnostics",
    "hours": "Mon-Fri 9AM-6PM",
    "services": [
      "Chinese-speaking Alternator repair in Louisiana consultation",
      "Professional service",
      "Quality guarantee"
    ],
    "social_links": {}
  },
  {
    "name": "One Stop Auto Repair Shop",
    "address": "Multiple locations (e.g., 1901 Manhattan Blvd, Westwego, LA 70094)",
    "phone": "(504) 340-3111 (Westwego location)",
    "rating": 4.5,
    "reviews": 25,
    "website": "https://onestopautorepairshop.com/",
    "category": "Chinese-speaking Alternator repair in Louisiana",
    "description": "Provides a wide range of auto repair and maintenance services",
    "hours": "Mon-Fri 9AM-6PM",
    "services": [
      "Chinese-speaking Alternator repair in Louisiana consultation",
      "Professional service",
      "Quality guarantee"
    ],
    "social_links": {}
  },
  {
    "name": "Integrity Imports",
    "address": "3030 E Texas St, Bossier City, LA 71111",
    "phone": "(318) 741-6687",
    "rating": 4.9,
    "reviews": 25,
    "website": "https://integrityimports.com/",
    "category": "Chinese-speaking Alternator repair in Louisiana",
    "description": "Specializes in Asian import auto repair and service",
    "hours": "Mon-Fri 9AM-6PM",
    "services": [
      "Chinese-speaking Alternator repair in Louisiana consultation",
      "Professional service",
      "Quality guarantee"
    ],
    "social_links": {}
  },
  {
    "name": "Bass Automotive, Inc.",
    "address": "2421 N Third Street, Baton Rouge, LA 70802",
    "phone": "(225) 344-2886",
    "rating": 4.8,
    "reviews": 25,
    "website": "https://bassautomotiveinc.com/",
    "category": "Chinese-speaking Alternator repair in Louisiana",
    "description": "A full-service auto repair facility specializing in Asian vehicles",
    "hours": "Mon-Fri 9AM-6PM",
    "services": [
      "Chinese-speaking Alternator repair in Louisiana consultation",
      "Professional service",
      "Quality guarantee"
    ],
    "social_links": {}
  }
]