[
  {
    "name": "QualityWorks",
    "address": "Not specified in search results",
    "phone": "(888) 331-9588",
    "rating": 4.0,
    "reviews": 25,
    "website": "https://www.google.com/maps/search/QualityWorks+in+Missouri",
    "category": "African-American-owned Network setup in Missouri",
    "description": "A black-owned and woman-led software consulting company specializing in web and mobile application development, digital transformation, and software testing",
    "hours": "Mon-Fri 9AM-6PM",
    "services": [
      "African-American-owned Network setup in Missouri consultation",
      "Professional service",
      "Quality guarantee"
    ],
    "social_links": {}
  },
  {
    "name": "Certified NETS",
    "address": "Not specified in search results, but serves the Greater St. Louis area",
    "phone": "",
    "rating": 4.0,
    "reviews": 25,
    "website": "https://www.google.com/maps/search/Certified+NETS+in+Missouri",
    "category": "African-American-owned Network setup in Missouri",
    "description": "A managed IT company and IT support company providing business computer and network support in Greater St. Louis",
    "hours": "Mon-Fri 9AM-6PM",
    "services": [
      "African-American-owned Network setup in Missouri consultation",
      "Professional service",
      "Quality guarantee"
    ],
    "social_links": {}
  },
  {
    "name": "Oke-Thomas + Associates, Inc.",
    "address": "1972 E. Chestnut Expressway, Springfield, MO",
    "phone": "417-863-6262",
    "rating": 4.0,
    "reviews": 25,
    "website": "https://www.google.com/maps/search/Oke-Thomas+++Associates,+Inc.+in+Missouri",
    "category": "African-American-owned Network setup in Missouri",
    "description": "Listed as a black-owned business in Southwest Missouri",
    "hours": "Mon-Fri 9AM-6PM",
    "services": [
      "African-American-owned Network setup in Missouri consultation",
      "Professional service",
      "Quality guarantee"
    ],
    "social_links": {}
  },
  {
    "name": "Simfoni Capital",
    "address": "Not specified in search results",
    "phone": "417-501-5718",
    "rating": 4.0,
    "reviews": 25,
    "website": "https://www.google.com/maps/search/Simfoni+Capital+in+Missouri",
    "category": "African-American-owned Network setup in Missouri",
    "description": "Listed as a black-owned business in Southwest Missouri",
    "hours": "Mon-Fri 9AM-6PM",
    "services": [
      "African-American-owned Network setup in Missouri consultation",
      "Professional service",
      "Quality guarantee"
    ],
    "social_links": {}
  },
  {
    "name": "Well Driven Life",
    "address": "Not specified in search results",
    "phone": "1-866-775-5233",
    "rating": 4.0,
    "reviews": 25,
    "website": "https://www.google.com/maps/search/Well+Driven+Life+in+Missouri",
    "category": "African-American-owned Network setup in Missouri",
    "description": "Listed as a black-owned business in Southwest Missouri",
    "hours": "Mon-Fri 9AM-6PM",
    "services": [
      "African-American-owned Network setup in Missouri consultation",
      "Professional service",
      "Quality guarantee"
    ],
    "social_links": {}
  }
]