[
  {
    "name": "B&M Catering Co.",
    "address": "560 York Ave, Pawtucket, RI 02861, USA",
    "phone": "(401) 725-0001",
    "rating": 4.0,
    "reviews": 25,
    "website": "http://www.bandmcatering.com/",
    "category": "African-American-owned Buffet catering in Rhode-Island",
    "description": "Full-service catering company offering various service types, including buffet style. They have been in business since 1984",
    "hours": "Mon-Fri 9AM-6PM",
    "services": [
      "African-American-owned Buffet catering in Rhode-Island consultation",
      "Professional service",
      "Quality guarantee"
    ],
    "social_links": {}
  },
  {
    "name": "Distinguish Catering",
    "address": "Online Business, Providence, RI 02904",
    "phone": "",
    "rating": 4.0,
    "reviews": 25,
    "website": "https://www.distinguishcatering.com/",
    "category": "African-American-owned Buffet catering in Rhode-Island",
    "description": "Offers Afro Soul Food Fusion, integrating Liberian cuisine with African American Soul Food. They cater for events at work or home",
    "hours": "Mon-Fri 9AM-6PM",
    "services": [
      "African-American-owned Buffet catering in Rhode-Island consultation",
      "Professional service",
      "Quality guarantee"
    ],
    "social_links": {}
  },
  {
    "name": "Caribbean Soul",
    "address": "70 Westfield Street, Providence, RI 02909, USA",
    "phone": "",
    "rating": 4.0,
    "reviews": 25,
    "website": "https://www.caribbeansoulri.com/",
    "category": "African-American-owned Buffet catering in Rhode-Island",
    "description": "Rhode Island's premier catering, meal prep, and vending service, offering Caribbean cuisine. They provide catering for special events",
    "hours": "Mon-Fri 9AM-6PM",
    "services": [
      "African-American-owned Buffet catering in Rhode-Island consultation",
      "Professional service",
      "Quality guarantee"
    ],
    "social_links": {}
  },
  {
    "name": "Gee Gee's Southern Cuisine",
    "address": "539 Smith St, Providence, RI 02903",
    "phone": "(401) 919-8090",
    "rating": 4.0,
    "reviews": 25,
    "website": "https://www.gegeesri.com/",
    "category": "African-American-owned Buffet catering in Rhode-Island",
    "description": "Offers Southern Cuisine and catering services for events",
    "hours": "Mon-Fri 9AM-6PM",
    "services": [
      "African-American-owned Buffet catering in Rhode-Island consultation",
      "Professional service",
      "Quality guarantee"
    ],
    "social_links": {}
  },
  {
    "name": "Glorious West African Restaurant",
    "address": "1230 Elmwood Ave, Providence, RI 02907",
    "phone": "(401) 228-7070",
    "rating": 4.0,
    "reviews": 25,
    "website": "https://www.google.com/maps/search/Glorious+West+African+Restaurant+Rhode+Island",
    "category": "African-American-owned Buffet catering in Rhode-Island",
    "description": "Serves authentic West African cuisine and is available for catering orders",
    "hours": "Mon-Fri 9AM-6PM",
    "services": [
      "African-American-owned Buffet catering in Rhode-Island consultation",
      "Professional service",
      "Quality guarantee"
    ],
    "social_links": {}
  },
  {
    "name": "Afrique D'Lounge",
    "address": "145 Dean Street, Providence, RI 02903",
    "phone": "(401) 563-8265",
    "rating": 4.0,
    "reviews": 25,
    "website": "https://www.google.com/maps/search/Afrique+D'Lounge+Rhode+Island",
    "category": "African-American-owned Buffet catering in Rhode-Island",
    "description": "Offers Liberian cuisine and is available for private events and celebrations",
    "hours": "Mon-Fri 9AM-6PM",
    "services": [
      "African-American-owned Buffet catering in Rhode-Island consultation",
      "Professional service",
      "Quality guarantee"
    ],
    "social_links": {}
  },
  {
    "name": "The Village Restaurant",
    "address": "100 Fountain St, Providence, RI 02903 (also has a Pawtucket location)",
    "phone": "",
    "rating": 4.0,
    "reviews": 25,
    "website": "https://www.google.com/maps/search/The+Village+Restaurant+Rhode+Island",
    "category": "African-American-owned Buffet catering in Rhode-Island",
    "description": "Serves authentic Nigerian food and offers catering services",
    "hours": "Mon-Fri 9AM-6PM",
    "services": [
      "African-American-owned Buffet catering in Rhode-Island consultation",
      "Professional service",
      "Quality guarantee"
    ],
    "social_links": {}
  },
  {
    "name": "Island House Restaurant",
    "address": "Broad Street, Providence, RI",
    "phone": "",
    "rating": 4.0,
    "reviews": 25,
    "website": "https://www.google.com/maps/search/Island+House+Restaurant+Rhode+Island",
    "category": "African-American-owned Buffet catering in Rhode-Island",
    "description": "Offers Jamaican-fusion cuisine and soul food, and is available for catering",
    "hours": "Mon-Fri 9AM-6PM",
    "services": [
      "African-American-owned Buffet catering in Rhode-Island consultation",
      "Professional service",
      "Quality guarantee"
    ],
    "social_links": {}
  },
  {
    "name": "148 Pavillion Bar & Lounge",
    "address": "148 Pavillion Ave, Providence, RI 02905",
    "phone": "(401) 467-0148",
    "rating": 4.0,
    "reviews": 25,
    "website": "https://www.google.com/maps/search/148+Pavillion+Bar+&+Lounge+Rhode+Island",
    "category": "African-American-owned Buffet catering in Rhode-Island",
    "description": "Offers a variety of food options and is mentioned as a place for events",
    "hours": "Mon-Fri 9AM-6PM",
    "services": [
      "African-American-owned Buffet catering in Rhode-Island consultation",
      "Professional service",
      "Quality guarantee"
    ],
    "social_links": {}
  },
  {
    "name": "Flames Restaurant",
    "address": "734 Eddy St, Providence, RI 02903",
    "phone": "(401) 331-2225",
    "rating": 4.0,
    "reviews": 25,
    "website": "https://www.google.com/maps/search/Flames+Restaurant+Rhode+Island",
    "category": "African-American-owned Buffet catering in Rhode-Island",
    "description": "A restaurant that is listed as Black-owned, and may offer catering services",
    "hours": "Mon-Fri 9AM-6PM",
    "services": [
      "African-American-owned Buffet catering in Rhode-Island consultation",
      "Professional service",
      "Quality guarantee"
    ],
    "social_links": {}
  }
]