[
  {
    "name": "The Tox Boutique",
    "address": "Roanoke, VA",
    "phone": "",
    "rating": 4.0,
    "reviews": 25,
    "website": "https://www.thetoxboutique.com/",
    "category": "Bengali-speaking Eyebrow tinting in Virginia",
    "description": "Offers professional eyebrow lamination and tint services",
    "hours": "Mon-Fri 9AM-6PM",
    "services": [
      "Bengali-speaking Eyebrow tinting in Virginia consultation",
      "Professional service",
      "Quality guarantee"
    ],
    "social_links": {}
  },
  {
    "name": "Elite Brow Studio",
    "address": "Leesburg, VA and Manassas, VA",
    "phone": "",
    "rating": 4.0,
    "reviews": 25,
    "website": "https://www.elitebrowstudio.com/",
    "category": "Bengali-speaking Eyebrow tinting in Virginia",
    "description": "Provides threading, waxing, eyebrow & eyelash tinting, henna, and brow lamination",
    "hours": "Mon-Fri 9AM-6PM",
    "services": [
      "Bengali-speaking Eyebrow tinting in Virginia consultation",
      "Professional service",
      "Quality guarantee"
    ],
    "social_links": {}
  },
  {
    "name": "Sage & Vine Aesthetics",
    "address": "Richmond, VA (Mechanicsville, VA)",
    "phone": "(804) 517-5168",
    "rating": 4.0,
    "reviews": 25,
    "website": "https://sagevineaesthetics.com/",
    "category": "Bengali-speaking Eyebrow tinting in Virginia",
    "description": "Offers brow tinting and henna brows, with a focus on enhancing natural beauty",
    "hours": "Mon-Fri 9AM-6PM",
    "services": [
      "Bengali-speaking Eyebrow tinting in Virginia consultation",
      "Professional service",
      "Quality guarantee"
    ],
    "social_links": {}
  },
  {
    "name": "TLC Medispa",
    "address": "McLean, VA",
    "phone": "",
    "rating": 4.0,
    "reviews": 25,
    "website": "https://tlcmedispa.com/",
    "category": "Bengali-speaking Eyebrow tinting in Virginia",
    "description": "Provides brow tinting and shaping services, aiming for natural, full-looking brows",
    "hours": "Mon-Fri 9AM-6PM",
    "services": [
      "Bengali-speaking Eyebrow tinting in Virginia consultation",
      "Professional service",
      "Quality guarantee"
    ],
    "social_links": {}
  },
  {
    "name": "Eyebrow Threading & Spa",
    "address": "Centreville, VA",
    "phone": "",
    "rating": 4.0,
    "reviews": 25,
    "website": "https://www.google.com/maps/search/Eyebrow+Threading+&+Spa+in+Virginia",
    "category": "Bengali-speaking Eyebrow tinting in Virginia",
    "description": "Offers eyebrow threading, lash tinting, waxing, and facials",
    "hours": "Mon-Fri 9AM-6PM",
    "services": [
      "Bengali-speaking Eyebrow tinting in Virginia consultation",
      "Professional service",
      "Quality guarantee"
    ],
    "social_links": {}
  },
  {
    "name": "European Wax Center",
    "address": "Reston, VA and Virginia Beach - Hilltop Plaza, VA",
    "phone": "",
    "rating": 4.0,
    "reviews": 25,
    "website": "https://www.waxcenter.com/",
    "category": "Bengali-speaking Eyebrow tinting in Virginia",
    "description": "Offers eyebrow wax and tint services, with multiple shades available",
    "hours": "Mon-Fri 9AM-6PM",
    "services": [
      "Bengali-speaking Eyebrow tinting in Virginia consultation",
      "Professional service",
      "Quality guarantee"
    ],
    "social_links": {}
  },
  {
    "name": "Elegant Brows Threading & Salon",
    "address": "Fredericksburg, VA",
    "phone": "(540) 272-2121",
    "rating": 4.0,
    "reviews": 25,
    "website": "https://elegantbrowsva.com/",
    "category": "Bengali-speaking Eyebrow tinting in Virginia",
    "description": "Specializes in eyebrow threading, tinting, shaping, waxing, facials, and more",
    "hours": "Mon-Fri 9AM-6PM",
    "services": [
      "Bengali-speaking Eyebrow tinting in Virginia consultation",
      "Professional service",
      "Quality guarantee"
    ],
    "social_links": {}
  },
  {
    "name": "Skintelligence Partners",
    "address": "Vienna, VA",
    "phone": "(703) 255-7237",
    "rating": 4.0,
    "reviews": 25,
    "website": "https://skintelligencepartners.com/",
    "category": "Bengali-speaking Eyebrow tinting in Virginia",
    "description": "Offers eyebrow and eyelash tinting, brow lamination, and lash lifts",
    "hours": "Mon-Fri 9AM-6PM",
    "services": [
      "Bengali-speaking Eyebrow tinting in Virginia consultation",
      "Professional service",
      "Quality guarantee"
    ],
    "social_links": {}
  },
  {
    "name": "Sechoir Beauty Bar",
    "address": "Vienna, VA",
    "phone": "",
    "rating": 4.0,
    "reviews": 25,
    "website": "https://sechoirbeautybar.com/",
    "category": "Bengali-speaking Eyebrow tinting in Virginia",
    "description": "Provides eyebrow threading, lash tinting, and eyebrow tinting services",
    "hours": "Mon-Fri 9AM-6PM",
    "services": [
      "Bengali-speaking Eyebrow tinting in Virginia consultation",
      "Professional service",
      "Quality guarantee"
    ],
    "social_links": {}
  },
  {
    "name": "Serenity Rx Spa",
    "address": "Virginia Beach, VA",
    "phone": "",
    "rating": 4.0,
    "reviews": 25,
    "website": "https://www.serenityrxspa.com/",
    "category": "Bengali-speaking Eyebrow tinting in Virginia",
    "description": "Offers a range of eyebrow services including threading, tinting, shaping, and lamination",
    "hours": "Mon-Fri 9AM-6PM",
    "services": [
      "Bengali-speaking Eyebrow tinting in Virginia consultation",
      "Professional service",
      "Quality guarantee"
    ],
    "social_links": {}
  }
]