[
  {
    "name": "Zip Moving And Storage, Inc.",
    "address": "6055 Barfield Rd NE, Atlanta, GA 30328",
    "phone": "(770) 452-1554",
    "rating": 4.7,
    "reviews": 25,
    "website": "https://zipmoving.com/",
    "category": "Asian-owned Moving protection plans in Georgia",
    "description": "Offers local and long-distance residential and commercial moving services, including packing, unpacking, and crating. They have strong customer reviews and an A+ rating from the Better Business Bureau",
    "hours": "Mon-Fri 9AM-6PM",
    "services": [
      "Asian-owned Moving protection plans in Georgia consultation",
      "Professional service",
      "Quality guarantee"
    ],
    "social_links": {}
  },
  {
    "name": "Wirks Moving & Storage, Inc.",
    "address": "1000 Cobb International Pkwy SE, Ste 100, Kennesaw, GA 30152",
    "phone": "(770) 795-0460",
    "rating": 4.7,
    "reviews": 25,
    "website": "https://www.wirksmoving.com/",
    "category": "Asian-owned Moving protection plans in Georgia",
    "description": "Provides local and long-distance moving services with a focus on professionalism and reliability. They offer packing and storage solutions",
    "hours": "Mon-Fri 9AM-6PM",
    "services": [
      "Asian-owned Moving protection plans in Georgia consultation",
      "Professional service",
      "Quality guarantee"
    ],
    "social_links": {}
  },
  {
    "name": "Atlanta's Furniture Taxi Moving & Storage",
    "address": "1000 Cobb International Pkwy SE, Kennesaw, GA 30152",
    "phone": "(770) 795-0460",
    "rating": 4.48,
    "reviews": 25,
    "website": "https://www.furnituretaximoving.com/",
    "category": "Asian-owned Moving protection plans in Georgia",
    "description": "A local moving company in Georgia known for its service in the Atlanta area, offering moving and storage solutions",
    "hours": "Mon-Fri 9AM-6PM",
    "services": [
      "Asian-owned Moving protection plans in Georgia consultation",
      "Professional service",
      "Quality guarantee"
    ],
    "social_links": {}
  },
  {
    "name": "The Armstrong Company",
    "address": "3500 Parkway Ln, Norcross, GA 30092",
    "phone": "(770) 449-4000",
    "rating": 4.64,
    "reviews": 25,
    "website": "https://www.armstrongmovers.com/",
    "category": "Asian-owned Moving protection plans in Georgia",
    "description": "Offers a comprehensive range of moving services, including local, long-distance, and international moves, with a focus on customer care",
    "hours": "Mon-Fri 9AM-6PM",
    "services": [
      "Asian-owned Moving protection plans in Georgia consultation",
      "Professional service",
      "Quality guarantee"
    ],
    "social_links": {}
  },
  {
    "name": "Safeway Moving",
    "address": "1000 Cobb International Pkwy SE, Suite 100, Kennesaw, GA 30152",
    "phone": "(888) 757-9711",
    "rating": 4.85,
    "reviews": 25,
    "website": "https://safewaymoving.com/",
    "category": "Asian-owned Moving protection plans in Georgia",
    "description": "Specializes in long-distance and interstate moves, providing services such as packing, unpacking, and storage. They aim for a seamless moving experience",
    "hours": "Mon-Fri 9AM-6PM",
    "services": [
      "Asian-owned Moving protection plans in Georgia consultation",
      "Professional service",
      "Quality guarantee"
    ],
    "social_links": {}
  },
  {
    "name": "American Van Lines",
    "address": "1400 NW 167th St, Miami Gardens, FL 33169 (operates in Georgia)",
    "phone": "(877) 590-4997",
    "rating": 4.5,
    "reviews": 25,
    "website": "https://www.americanvanlines.com/",
    "category": "Asian-owned Moving protection plans in Georgia",
    "description": "A carrier that provides moves to and from Georgia, offering flat-rate pricing and various moving services including packing and storage",
    "hours": "Mon-Fri 9AM-6PM",
    "services": [
      "Asian-owned Moving protection plans in Georgia consultation",
      "Professional service",
      "Quality guarantee"
    ],
    "social_links": {}
  },
  {
    "name": "Allied Van Lines",
    "address": "1000 Cobb International Pkwy SE, Suite 100, Kennesaw, GA 30152 (agent locations throughout Georgia)",
    "phone": "(800) 692-5543",
    "rating": 4.75,
    "reviews": 25,
    "website": "https://www.allied.com/",
    "category": "Asian-owned Moving protection plans in Georgia",
    "description": "Offers local and long-distance services in Georgia, with 24/7 online shipment tracking and deposit-free booking. They handle moves globally",
    "hours": "Mon-Fri 9AM-6PM",
    "services": [
      "Asian-owned Moving protection plans in Georgia consultation",
      "Professional service",
      "Quality guarantee"
    ],
    "social_links": {}
  },
  {
    "name": "Bulldog Movers",
    "address": "3259 Buford Hwy NE, Atlanta, GA 30329",
    "phone": "(404) 668-0677",
    "rating": 4.0,
    "reviews": 25,
    "website": "https://www.bulldogmovers.com/",
    "category": "Asian-owned Moving protection plans in Georgia",
    "description": "A large and trusted moving company in Atlanta, offering local, interstate, and international moves with a focus on superior service and transparent pricing. They have an A+ rating with the Better Business Bureau",
    "hours": "Mon-Fri 9AM-6PM",
    "services": [
      "Asian-owned Moving protection plans in Georgia consultation",
      "Professional service",
      "Quality guarantee"
    ],
    "social_links": {}
  },
  {
    "name": "Peachtree Movers",
    "address": "2355 Perimeter Center Pkwy NE, Atlanta, GA 30346",
    "phone": "(404) 355-8877",
    "rating": 4.0,
    "reviews": 25,
    "website": "https://www.peachtreemovers.com/",
    "category": "Asian-owned Moving protection plans in Georgia",
    "description": "A long-standing Atlanta moving company offering residential and commercial moving, packing, and storage services. They emphasize consistent service and experienced movers",
    "hours": "Mon-Fri 9AM-6PM",
    "services": [
      "Asian-owned Moving protection plans in Georgia consultation",
      "Professional service",
      "Quality guarantee"
    ],
    "social_links": {}
  },
  {
    "name": "Georgia Pack & Load Moving and Storage, INC.",
    "address": "1000 Cobb International Pkwy SE, Suite 100, Kennesaw, GA 30152",
    "phone": "(770) 452-1554",
    "rating": 4.0,
    "reviews": 25,
    "website": "https://www.gapackandload.com/",
    "category": "Asian-owned Moving protection plans in Georgia",
    "description": "A highly-rated moving company in Georgia known for its value, professionalism, and excellent customer service. They offer local moves and handle belongings with care",
    "hours": "Mon-Fri 9AM-6PM",
    "services": [
      "Asian-owned Moving protection plans in Georgia consultation",
      "Professional service",
      "Quality guarantee"
    ],
    "social_links": {}
  }
]