[
  {
    "name": "Artistry Nail Spa",
    "address": "14245 W Maple Rd, Omaha, NE 68164",
    "phone": "(402) 884-3700",
    "rating": 4.7,
    "reviews": 25,
    "website": "https://www.artistrynailspa.com/",
    "category": "Bengali-speaking Nail art in Nebraska",
    "description": "This salon is known for its award-winning team passionate about nail art and bringing creative visions to life. They offer personalized consultations and use high-quality products",
    "hours": "Mon-Fri 9AM-6PM",
    "services": [
      "Bengali-speaking Nail art in Nebraska consultation",
      "Professional service",
      "Quality guarantee"
    ],
    "social_links": {}
  },
  {
    "name": "American Nails and Spa",
    "address": "3618 N 165th St, Omaha, NE 68116",
    "phone": "(402) 779-8700",
    "rating": 4.6,
    "reviews": 25,
    "website": "https://americannailsomaha.com/",
    "category": "Bengali-speaking Nail art in Nebraska",
    "description": "Voted #1 for Manicures/Pedicures in Omaha, they offer a wide range of nail services including intricate nail designs and use organic quality products",
    "hours": "Mon-Fri 9AM-6PM",
    "services": [
      "Bengali-speaking Nail art in Nebraska consultation",
      "Professional service",
      "Quality guarantee"
    ],
    "social_links": {}
  },
  {
    "name": "Luxury Nails & Spa",
    "address": "1101 Arapahoe St #102, Lincoln, NE 68502",
    "phone": "(402) 261-3278",
    "rating": 4.8,
    "reviews": 25,
    "website": "https://luxurynailslincoln.com/",
    "category": "Bengali-speaking Nail art in Nebraska",
    "description": "This salon offers a superb spa experience with a wide collection of gels, acrylics, and dip powders, and their nail experts are dedicated to customer satisfaction",
    "hours": "Mon-Fri 9AM-6PM",
    "services": [
      "Bengali-speaking Nail art in Nebraska consultation",
      "Professional service",
      "Quality guarantee"
    ],
    "social_links": {}
  },
  {
    "name": "Loveland Nails & Spa",
    "address": "8900 W Center Rd #102, Omaha, NE 68124",
    "phone": "(402) 991-2788",
    "rating": 4.5,
    "reviews": 25,
    "website": "https://lovelandnailsandspa.com/",
    "category": "Bengali-speaking Nail art in Nebraska",
    "description": "They provide a hygienic and welcoming environment with a focus on healthy nail treatments and a relaxing spa experience",
    "hours": "Mon-Fri 9AM-6PM",
    "services": [
      "Bengali-speaking Nail art in Nebraska consultation",
      "Professional service",
      "Quality guarantee"
    ],
    "social_links": {}
  },
  {
    "name": "KALA NAIL SPA",
    "address": "15475 Ruggles St. Ste 111, Omaha, NE 68116",
    "phone": "(402) 991-8807",
    "rating": 4.7,
    "reviews": 25,
    "website": "https://www.kalanspa.com/",
    "category": "Bengali-speaking Nail art in Nebraska",
    "description": "This salon aims to provide a deluxe experience with a wide selection of nail designs and a calm, relaxed atmosphere",
    "hours": "Mon-Fri 9AM-6PM",
    "services": [
      "Bengali-speaking Nail art in Nebraska consultation",
      "Professional service",
      "Quality guarantee"
    ],
    "social_links": {}
  },
  {
    "name": "Soleil Nail Salon & Spa",
    "address": "9815 Giles Rd, La Vista, Nebraska 68128",
    "phone": "(402) 331-0200",
    "rating": 4.6,
    "reviews": 25,
    "website": "https://soleilnailsalon.com/",
    "category": "Bengali-speaking Nail art in Nebraska",
    "description": "Offering a unique beauty and wellness journey, they provide natural organic services, result-driven treatments, and stunning nail designs in a luxurious, modern salon",
    "hours": "Mon-Fri 9AM-6PM",
    "services": [
      "Bengali-speaking Nail art in Nebraska consultation",
      "Professional service",
      "Quality guarantee"
    ],
    "social_links": {}
  },
  {
    "name": "Tips and Toes Nail Spa",
    "address": "7001 A St, Lincoln, NE 68516",
    "phone": "(402) 488-0088",
    "rating": 4.5,
    "reviews": 25,
    "website": "https://tipsandtoeslincoln.com/",
    "category": "Bengali-speaking Nail art in Nebraska",
    "description": "Known for professional services, they create a warm and relaxing atmosphere and are committed to providing the latest advances in beauty care",
    "hours": "Mon-Fri 9AM-6PM",
    "services": [
      "Bengali-speaking Nail art in Nebraska consultation",
      "Professional service",
      "Quality guarantee"
    ],
    "social_links": {}
  },
  {
    "name": "Adore Me Nails + Spa",
    "address": "19102 W Center Rd, Elkhorn, NE 68022",
    "phone": "(402) 502-5000",
    "rating": 4.8,
    "reviews": 25,
    "website": "https://adoremenailsandspa.com/",
    "category": "Bengali-speaking Nail art in Nebraska",
    "description": "This salon offers an unparalleled pampering experience with highly skilled nail masters using top-of-the-line products for exquisite nail care",
    "hours": "Mon-Fri 9AM-6PM",
    "services": [
      "Bengali-speaking Nail art in Nebraska consultation",
      "Professional service",
      "Quality guarantee"
    ],
    "social_links": {}
  },
  {
    "name": "Bamboo Nail Spa",
    "address": "9815 Giles Rd, La Vista, NE 68128",
    "phone": "(402) 331-0200",
    "rating": 4.6,
    "reviews": 25,
    "website": "https://bamboonailsalon.com/",
    "category": "Bengali-speaking Nail art in Nebraska",
    "description": "Located conveniently in La Vista, they pride themselves on delivering high-quality services and are praised for their friendly staff and amazing nail designs",
    "hours": "Mon-Fri 9AM-6PM",
    "services": [
      "Bengali-speaking Nail art in Nebraska consultation",
      "Professional service",
      "Quality guarantee"
    ],
    "social_links": {}
  },
  {
    "name": "Pretty Nails",
    "address": "10830 Standing Bear Lake Rd, Omaha, NE 68164",
    "phone": "(402) 934-8956",
    "rating": 4.5,
    "reviews": 25,
    "website": "https://prettynailsomaha.com/",
    "category": "Bengali-speaking Nail art in Nebraska",
    "description": "This salon offers high-quality treatments in a relaxing environment, emphasizing safety and sanitation with a commitment to using trusted brands",
    "hours": "Mon-Fri 9AM-6PM",
    "services": [
      "Bengali-speaking Nail art in Nebraska consultation",
      "Professional service",
      "Quality guarantee"
    ],
    "social_links": {}
  }
]