[
  {
    "name": "Comfort Plus Family Dental",
    "address": "716 32nd St S, Birmingham, AL 35233",
    "phone": "(205) 833-5405",
    "rating": 5.0,
    "reviews": 25,
    "website": "https://www.google.com/maps/search/Comfort+Plus+Family+Dental+in+Alabama",
    "category": "Bengali-speaking Dentists in Alabama",
    "description": "Offers general and cosmetic dentistry services, including exams, dental implants, fillings, crowns, veneers, and teeth whitening. They emphasize patient comfort and affordability",
    "hours": "Mon-Fri 9AM-6PM",
    "services": [
      "Bengali-speaking Dentists in Alabama consultation",
      "Professional service",
      "Quality guarantee"
    ],
    "social_links": {}
  },
  {
    "name": "Alabama Smile Design",
    "address": "1104 Hillcrest Rd, Mobile, AL 36608",
    "phone": "(251) 344-4994",
    "rating": 4.0,
    "reviews": 25,
    "website": "https://www.google.com/maps/search/Alabama+Smile+Design+in+Alabama",
    "category": "Bengali-speaking Dentists in Alabama",
    "description": "A general family dentistry practice specializing in cosmetic and implant dentistry. Patients travel from various locations to receive care here",
    "hours": "Mon-Fri 9AM-6PM",
    "services": [
      "Bengali-speaking Dentists in Alabama consultation",
      "Professional service",
      "Quality guarantee"
    ],
    "social_links": {}
  },
  {
    "name": "Caldwell Crossings Dentistry",
    "address": "205 Caldwell Drive, Birmingham, AL 35242",
    "phone": "(205) 991-5343",
    "rating": 4.0,
    "reviews": 25,
    "website": "https://www.google.com/maps/search/Caldwell+Crossings+Dentistry+in+Alabama",
    "category": "Bengali-speaking Dentists in Alabama",
    "description": "Provides family and cosmetic dentistry services with experienced dentists. Services include exams, dental implants, fillings, crowns, veneers, and teeth whitening",
    "hours": "Mon-Fri 9AM-6PM",
    "services": [
      "Bengali-speaking Dentists in Alabama consultation",
      "Professional service",
      "Quality guarantee"
    ],
    "social_links": {}
  },
  {
    "name": "Tyson Dental",
    "address": "1000 Old Monrovia Rd NW, Huntsville, AL 35806",
    "phone": "(256) 258-9333",
    "rating": 4.0,
    "reviews": 25,
    "website": "https://www.google.com/maps/search/Tyson+Dental+in+Alabama",
    "category": "Bengali-speaking Dentists in Alabama",
    "description": "Known for a caring dentist and exceptionally nice staff, they can accommodate emergency appointments",
    "hours": "Mon-Fri 9AM-6PM",
    "services": [
      "Bengali-speaking Dentists in Alabama consultation",
      "Professional service",
      "Quality guarantee"
    ],
    "social_links": {}
  },
  {
    "name": "Dr. D. Kennon Curtis Pediatric Dentistry",
    "address": "101 Hughes Rd, Madison, AL 35758",
    "phone": "(256) 724-1625",
    "rating": 4.0,
    "reviews": 25,
    "website": "https://www.google.com/maps/search/Dr.+D.+Kennon+Curtis+Pediatric+Dentistry+in+Alabama",
    "category": "Bengali-speaking Dentists in Alabama",
    "description": "A leading dental care practice specializing in pediatric dentistry",
    "hours": "Mon-Fri 9AM-6PM",
    "services": [
      "Bengali-speaking Dentists in Alabama consultation",
      "Professional service",
      "Quality guarantee"
    ],
    "social_links": {}
  },
  {
    "name": "Central Avenue Dentistry",
    "address": "2901 Central Ave, Homewood, AL 35209",
    "phone": "(205) 870-1363",
    "rating": 3.4,
    "reviews": 25,
    "website": "https://www.google.com/maps/search/Central+Avenue+Dentistry+in+Alabama",
    "category": "Bengali-speaking Dentists in Alabama",
    "description": "Dr. Chelsea Maniscalco practices here, focusing on improving oral health in the Birmingham community",
    "hours": "Mon-Fri 9AM-6PM",
    "services": [
      "Bengali-speaking Dentists in Alabama consultation",
      "Professional service",
      "Quality guarantee"
    ],
    "social_links": {}
  },
  {
    "name": "Alabama Dental Associates",
    "address": "3920 Grants Mill Road, Birmingham, AL 35210",
    "phone": "(205) 956-8977",
    "rating": 4.0,
    "reviews": 25,
    "website": "https://www.google.com/maps/search/Alabama+Dental+Associates+in+Alabama",
    "category": "Bengali-speaking Dentists in Alabama",
    "description": "Dr. Robert Richesin specializes in cosmetic, restorative, and preventative dentistry",
    "hours": "Mon-Fri 9AM-6PM",
    "services": [
      "Bengali-speaking Dentists in Alabama consultation",
      "Professional service",
      "Quality guarantee"
    ],
    "social_links": {}
  },
  {
    "name": "Haywood Family and Cosmetic Dentist",
    "address": "[Not available in search results]",
    "phone": "",
    "rating": 4.0,
    "reviews": 25,
    "website": "https://www.google.com/maps/search/Haywood+Family+and+Cosmetic+Dentist+in+Alabama",
    "category": "Bengali-speaking Dentists in Alabama",
    "description": "Dr. John Haywood aims to create a practice where patients feel like family, offering high-quality care in a compassionate environment",
    "hours": "Mon-Fri 9AM-6PM",
    "services": [
      "Bengali-speaking Dentists in Alabama consultation",
      "Professional service",
      "Quality guarantee"
    ],
    "social_links": {}
  },
  {
    "name": "Alabama Family Dental (Mobile)",
    "address": "[Specific address not available in search results, but located in Mobile, AL]",
    "phone": "",
    "rating": 4.0,
    "reviews": 25,
    "website": "https://www.google.com/maps/search/Alabama+Family+Dental+(Mobile)+in+Alabama",
    "category": "Bengali-speaking Dentists in Alabama",
    "description": "Offers a range of dental services, including cosmetic and restorative dentistry, with a patient-centered approach. They have received positive reviews for their staff and care",
    "hours": "Mon-Fri 9AM-6PM",
    "services": [
      "Bengali-speaking Dentists in Alabama consultation",
      "Professional service",
      "Quality guarantee"
    ],
    "social_links": {}
  },
  {
    "name": "Prime Smile Dental Care",
    "address": "2151 Old Rocky Ridge Rd Ste 110, Birmingham, AL 35244 (Inverness/Childersburg area)",
    "phone": "256-378-5442",
    "rating": 4.0,
    "reviews": 25,
    "website": "https://www.google.com/maps/search/Prime+Smile+Dental+Care+in+Alabama",
    "category": "Bengali-speaking Dentists in Alabama",
    "description": "Provides general, family, and cosmetic dentistry. Dr. Prattipati has over 20 years of experience and focuses on quality and minimally invasive dentistry",
    "hours": "Mon-Fri 9AM-6PM",
    "services": [
      "Bengali-speaking Dentists in Alabama consultation",
      "Professional service",
      "Quality guarantee"
    ],
    "social_links": {}
  }
]