[
  {
    "name": "Black Point Insurance",
    "address": "92738 Knapp Road, Port Orford, OR 97465",
    "phone": "(541) 622-3383",
    "rating": 4.0,
    "reviews": 25,
    "website": "https://www.google.com/maps/search/Black+Point+Insurance+in+Oregon",
    "category": "Black-owned Auto insurance in Oregon",
    "description": "Offers Medicare Advantage Plans, Medicare Supplement Plans, and Part D Prescription Drug Plans",
    "hours": "Mon-Fri 9AM-6PM",
    "services": [
      "Black-owned Auto insurance in Oregon consultation",
      "Professional service",
      "Quality guarantee"
    ],
    "social_links": {}
  },
  {
    "name": "HCP National Insurance Services, Inc.",
    "address": "Not specified for Oregon, operates nationwide",
    "phone": "",
    "rating": 4.0,
    "reviews": 25,
    "website": "https://www.google.com/maps/search/HCP+National+Insurance+Services,+Inc.+in+Oregon",
    "category": "Black-owned Auto insurance in Oregon",
    "description": "A national commercial insurance brokerage owned and managed by a Black minority woman, with a diverse team. They focus on reducing insurance costs for businesses",
    "hours": "Mon-Fri 9AM-6PM",
    "services": [
      "Black-owned Auto insurance in Oregon consultation",
      "Professional service",
      "Quality guarantee"
    ],
    "social_links": {}
  },
  {
    "name": "Alley Insurance Agency",
    "address": "Tigard, Oregon (specific street address not provided in search results)",
    "phone": "503-819-8600",
    "rating": 4.0,
    "reviews": 25,
    "website": "https://www.google.com/maps/search/Alley+Insurance+Agency+in+Oregon",
    "category": "Black-owned Auto insurance in Oregon",
    "description": "An independent insurance agency offering auto, home, business, property, and recreational vehicle insurance in the Tigard, Oregon area",
    "hours": "Mon-Fri 9AM-6PM",
    "services": [
      "Black-owned Auto insurance in Oregon consultation",
      "Professional service",
      "Quality guarantee"
    ],
    "social_links": {}
  },
  {
    "name": "Chamberlain Insurance Agency",
    "address": "Portland, Oregon (specific street address not provided in search results)",
    "phone": "503-256-1448",
    "rating": 4.0,
    "reviews": 25,
    "website": "https://www.google.com/maps/search/Chamberlain+Insurance+Agency+in+Oregon",
    "category": "Black-owned Auto insurance in Oregon",
    "description": "A local independent insurance agency offering car, home, life, business, and renters insurance in Portland, Oregon",
    "hours": "Mon-Fri 9AM-6PM",
    "services": [
      "Black-owned Auto insurance in Oregon consultation",
      "Professional service",
      "Quality guarantee"
    ],
    "social_links": {}
  },
  {
    "name": "BK Insurance Services",
    "address": "Portland, Oregon (specific street address not provided in search results)",
    "phone": "503-297-1500",
    "rating": 4.0,
    "reviews": 25,
    "website": "https://www.google.com/maps/search/BK+Insurance+Services+in+Oregon",
    "category": "Black-owned Auto insurance in Oregon",
    "description": "Specializes in Medicare Supplement Insurance Plans and Medicare Advantage Plan coverage options for individuals 65 and older or on Medicare disability",
    "hours": "Mon-Fri 9AM-6PM",
    "services": [
      "Black-owned Auto insurance in Oregon consultation",
      "Professional service",
      "Quality guarantee"
    ],
    "social_links": {}
  }
]