[
  {
    "name": "Alliance Insurance Services",
    "address": "Multiple locations across North Carolina, including Winston-Salem, Clemmons, Pilot Mountain, and Walnut Cove",
    "phone": "(336) 725-1501 (Winston-Salem main office)",
    "rating": 4.0,
    "reviews": 25,
    "website": "https://www.allianceins.com/",
    "category": "Catholic-owned Renters insurance in North-Carolina",
    "description": "An independent insurance agency serving North Carolina, South Carolina, and Virginia, offering a wide range of insurance options",
    "hours": "Mon-Fri 9AM-6PM",
    "services": [
      "Catholic-owned Renters insurance in North-Carolina consultation",
      "Professional service",
      "Quality guarantee"
    ],
    "social_links": {}
  },
  {
    "name": "Piedmont Triad Insurance",
    "address": "Eight offices throughout North Carolina",
    "phone": "(336) 765-0280 (Main office)",
    "rating": 4.0,
    "reviews": 25,
    "website": "https://www.piedmonttriadinsurance.com/",
    "category": "Catholic-owned Renters insurance in North-Carolina",
    "description": "An independent insurance agency representing over 20 insurance companies to provide value and service to individuals, families, and businesses",
    "hours": "Mon-Fri 9AM-6PM",
    "services": [
      "Catholic-owned Renters insurance in North-Carolina consultation",
      "Professional service",
      "Quality guarantee"
    ],
    "social_links": {}
  },
  {
    "name": "Blackmon Insurance Agency of North Carolina, Inc.",
    "address": "Two convenient Raleigh locations",
    "phone": "(919) 876-0777 (Raleigh main office)",
    "rating": 4.0,
    "reviews": 25,
    "website": "https://www.blackmoninsurance.com/",
    "category": "Catholic-owned Renters insurance in North-Carolina",
    "description": "An independent agent offering a wide array of insurance needs, including renters insurance, and committed to finding the right coverage at the best rate",
    "hours": "Mon-Fri 9AM-6PM",
    "services": [
      "Catholic-owned Renters insurance in North-Carolina consultation",
      "Professional service",
      "Quality guarantee"
    ],
    "social_links": {}
  },
  {
    "name": "Comparion Insurance Agency",
    "address": "Multiple offices in North Carolina, including Greensboro, Raleigh, Huntersville, and Charlotte",
    "phone": "(336) 668-2389 (Greensboro office)",
    "rating": 4.1,
    "reviews": 25,
    "website": "https://www.comparioninsurance.com/",
    "category": "Catholic-owned Renters insurance in North-Carolina",
    "description": "Offers personalized support and customized policies, with expert agents who shop around for the best insurance coverage",
    "hours": "Mon-Fri 9AM-6PM",
    "services": [
      "Catholic-owned Renters insurance in North-Carolina consultation",
      "Professional service",
      "Quality guarantee"
    ],
    "social_links": {}
  },
  {
    "name": "Coastal Insurance",
    "address": "Shallotte, North Carolina 28470",
    "phone": "(910) 754-4326",
    "rating": 4.0,
    "reviews": 25,
    "website": "https://www.coastalin.com/",
    "category": "Catholic-owned Renters insurance in North-Carolina",
    "description": "Offers renters insurance and other insurance products, emphasizing flexibility and competitive premiums",
    "hours": "Mon-Fri 9AM-6PM",
    "services": [
      "Catholic-owned Renters insurance in North-Carolina consultation",
      "Professional service",
      "Quality guarantee"
    ],
    "social_links": {}
  },
  {
    "name": "ALLCHOICE Insurance",
    "address": "Not specified, but serves all of North Carolina",
    "phone": "(336) 765-0280 (This appears to be a general number, specific office numbers may vary)",
    "rating": 4.0,
    "reviews": 25,
    "website": "https://www.allchoiceinsurance.com/",
    "category": "Catholic-owned Renters insurance in North-Carolina",
    "description": "Provides comprehensive North Carolina renters insurance coverage with customizable options to fit individual needs and budgets",
    "hours": "Mon-Fri 9AM-6PM",
    "services": [
      "Catholic-owned Renters insurance in North-Carolina consultation",
      "Professional service",
      "Quality guarantee"
    ],
    "social_links": {}
  },
  {
    "name": "Joyner Insurance Agency LLC",
    "address": "Not specified, but serves North Carolina",
    "phone": "(252) 756-4111 (This appears to be a general number, specific office numbers may vary)",
    "rating": 4.0,
    "reviews": 25,
    "website": "https://www.joynerinsurance.com/",
    "category": "Catholic-owned Renters insurance in North-Carolina",
    "description": "Offers renters insurance in North Carolina, focusing on protecting personal property and financial security with comprehensive policies",
    "hours": "Mon-Fri 9AM-6PM",
    "services": [
      "Catholic-owned Renters insurance in North-Carolina consultation",
      "Professional service",
      "Quality guarantee"
    ],
    "social_links": {}
  },
  {
    "name": "Liberty Mutual",
    "address": "Serves various cities in North Carolina, including Charlotte, Raleigh, and Wilmington",
    "phone": "1-800-295-1739 (Personal Insurance)",
    "rating": 4.0,
    "reviews": 25,
    "website": "https://www.libertymutual.com/",
    "category": "Catholic-owned Renters insurance in North-Carolina",
    "description": "Offers renters insurance in North Carolina with various coverage options, including personal property, liability, and additional living expenses",
    "hours": "Mon-Fri 9AM-6PM",
    "services": [
      "Catholic-owned Renters insurance in North-Carolina consultation",
      "Professional service",
      "Quality guarantee"
    ],
    "social_links": {}
  },
  {
    "name": "Trusted Choice",
    "address": "Over 930 independent agencies across North Carolina",
    "phone": "",
    "rating": 4.0,
    "reviews": 25,
    "website": "https://www.trustedchoice.com/",
    "category": "Catholic-owned Renters insurance in North-Carolina",
    "description": "A network of independent insurance agents in North Carolina offering more options, better value, and local service",
    "hours": "Mon-Fri 9AM-6PM",
    "services": [
      "Catholic-owned Renters insurance in North-Carolina consultation",
      "Professional service",
      "Quality guarantee"
    ],
    "social_links": {}
  },
  {
    "name": "Hummel Group",
    "address": "While they specialize in church and non-profit insurance, they work with multiple carriers and may be able to assist with renters insurance needs or direct you to appropriate resources. Their expertise is in North Carolina",
    "phone": "(717) 774-5525 (Main office, but they serve NC)",
    "rating": 4.0,
    "reviews": 25,
    "website": "https://www.hummelgroup.com/",
    "category": "Catholic-owned Renters insurance in North-Carolina",
    "description": "Specializes in insurance for churches and non-profits in North Carolina and works with numerous carriers, potentially offering broader assistance",
    "hours": "Mon-Fri 9AM-6PM",
    "services": [
      "Catholic-owned Renters insurance in North-Carolina consultation",
      "Professional service",
      "Quality guarantee"
    ],
    "social_links": {}
  }
]