[
  {
    "name": "Navis Pack & Ship of Philadelphia",
    "address": "701B Ashland Ave, Philadelphia, PA 19032",
    "phone": "(610) 534-0750",
    "rating": 4.0,
    "reviews": 25,
    "website": "https://www.gonavis.com/pack-ship/pa/philadelphia/",
    "category": "Arabic-speaking Artwork moving in Pennsylvania",
    "description": "Offers custom packing, crating, and expert art shipping services for artwork of any size or material. They serve museums, art galleries, auction houses, and private collectors",
    "hours": "Mon-Fri 9AM-6PM",
    "services": [
      "Arabic-speaking Artwork moving in Pennsylvania consultation",
      "Professional service",
      "Quality guarantee"
    ],
    "social_links": {}
  },
  {
    "name": "Pak Mail of Easton",
    "address": "3700 Nicholas St, Easton, PA 18045",
    "phone": "(610) 252-3000",
    "rating": 4.0,
    "reviews": 25,
    "website": "https://www.pakmail.com/locations/easton-pa-3700-nicholas-st/",
    "category": "Arabic-speaking Artwork moving in Pennsylvania",
    "description": "Provides custom packing, crating, and shipping services for fine art, collectibles, and fragile items, serving commercial and non-commercial clients worldwide",
    "hours": "Mon-Fri 9AM-6PM",
    "services": [
      "Arabic-speaking Artwork moving in Pennsylvania consultation",
      "Professional service",
      "Quality guarantee"
    ],
    "social_links": {}
  },
  {
    "name": "Suburban Solutions",
    "address": "1235 W Chester Pike, Havertown, PA 19083",
    "phone": "(610) 314-6868",
    "rating": 4.0,
    "reviews": 25,
    "website": "https://suburbansolutions.com/",
    "category": "Arabic-speaking Artwork moving in Pennsylvania",
    "description": "Offers specialty moving solutions for high-value, oversized, or fragile items, including artwork, for both residential and commercial customers in the Greater Philadelphia area",
    "hours": "Mon-Fri 9AM-6PM",
    "services": [
      "Arabic-speaking Artwork moving in Pennsylvania consultation",
      "Professional service",
      "Quality guarantee"
    ],
    "social_links": {}
  },
  {
    "name": "Ramsey's Moving Systems",
    "address": "4 Man o War Dr, Media, PA 19063",
    "phone": "(610) 566-0240",
    "rating": 4.0,
    "reviews": 25,
    "website": "https://ramseysmoving.com/",
    "category": "Arabic-speaking Artwork moving in Pennsylvania",
    "description": "Licensed, bonded, and insured fine art movers with years of experience in safely moving all shapes, sizes, and types of art and statues for residential and commercial clients",
    "hours": "Mon-Fri 9AM-6PM",
    "services": [
      "Arabic-speaking Artwork moving in Pennsylvania consultation",
      "Professional service",
      "Quality guarantee"
    ],
    "social_links": {}
  },
  {
    "name": "The Packaging Store",
    "address": "325 Chestnut St Ste 800, Philadelphia, PA 19106",
    "phone": "(215) 361-6940",
    "rating": 4.0,
    "reviews": 25,
    "website": "https://www.gopackagingstore.com/locations/pa/philadelphia/325-chestnut-st-ste-800/",
    "category": "Arabic-speaking Artwork moving in Pennsylvania",
    "description": "Specializes in art shipping with over 30 years of experience, offering custom packing, crating, insurance, storage, and transport for fine antiquities and sculptures",
    "hours": "Mon-Fri 9AM-6PM",
    "services": [
      "Arabic-speaking Artwork moving in Pennsylvania consultation",
      "Professional service",
      "Quality guarantee"
    ],
    "social_links": {}
  },
  {
    "name": "McNaughton Moving & Storage",
    "address": "777 E Main St, Ephrata, PA 17522",
    "phone": "(717) 733-0348",
    "rating": 4.0,
    "reviews": 25,
    "website": "https://mcnaughtonmoving.com/",
    "category": "Arabic-speaking Artwork moving in Pennsylvania",
    "description": "Offers specialty moving services for fine art, antiques, pianos, lab equipment, and more, with over 100 years of experience serving families and businesses in Pennsylvania",
    "hours": "Mon-Fri 9AM-6PM",
    "services": [
      "Arabic-speaking Artwork moving in Pennsylvania consultation",
      "Professional service",
      "Quality guarantee"
    ],
    "social_links": {}
  },
  {
    "name": "Pak Mail Pittsburgh Crate & Ship",
    "address": "1005 W Liberty Ave, Pittsburgh, PA 15226",
    "phone": "(412) 341-3300",
    "rating": 4.0,
    "reviews": 25,
    "website": "https://www.pakmailpittsburgh.com/",
    "category": "Arabic-speaking Artwork moving in Pennsylvania",
    "description": "Specializes in packing, crating, and shipping fine art and artwork, serving the Greater Pittsburgh area and surrounding regions with various transport modes",
    "hours": "Mon-Fri 9AM-6PM",
    "services": [
      "Arabic-speaking Artwork moving in Pennsylvania consultation",
      "Professional service",
      "Quality guarantee"
    ],
    "social_links": {}
  },
  {
    "name": "O'Brien's Moving & Storage",
    "address": "3530 W Liberty Ave, Pittsburgh, PA 15216",
    "phone": "(412) 561-0100",
    "rating": 4.0,
    "reviews": 25,
    "website": "https://www.obriensmoving.com/",
    "category": "Arabic-speaking Artwork moving in Pennsylvania",
    "description": "Provides high-quality, competitively priced antiques and fine art moving services, with air-ride trucks, packing and crating, and guaranteed pickup and delivery dates",
    "hours": "Mon-Fri 9AM-6PM",
    "services": [
      "Arabic-speaking Artwork moving in Pennsylvania consultation",
      "Professional service",
      "Quality guarantee"
    ],
    "social_links": {}
  },
  {
    "name": "Stumpf Moving & Storage",
    "address": "1000 Washington Ave, Pittsburgh, PA 15215",
    "phone": "(412) 781-1100",
    "rating": 4.0,
    "reviews": 25,
    "website": "https://stumpfmoving.com/",
    "category": "Arabic-speaking Artwork moving in Pennsylvania",
    "description": "Specializes in fine art handling and moving, including custom packing solutions and secure professional moving for paintings, sculptures, and gallery collections",
    "hours": "Mon-Fri 9AM-6PM",
    "services": [
      "Arabic-speaking Artwork moving in Pennsylvania consultation",
      "Professional service",
      "Quality guarantee"
    ],
    "social_links": {}
  },
  {
    "name": "LiteMovers",
    "address": "307 East Church Road, King of Prussia, PA 19406",
    "phone": "(610) 755-5535",
    "rating": 4.0,
    "reviews": 25,
    "website": "https://www.litemovers.com/",
    "category": "Arabic-speaking Artwork moving in Pennsylvania",
    "description": "Offers specialized art gallery relocation services with museum-quality handling, custom crating, climate-controlled transport, and comprehensive insurance",
    "hours": "Mon-Fri 9AM-6PM",
    "services": [
      "Arabic-speaking Artwork moving in Pennsylvania consultation",
      "Professional service",
      "Quality guarantee"
    ],
    "social_links": {}
  }
]