[
  {
    "name": "Black Diamond Pest Control",
    "address": "Multiple locations in and around Indianapolis, IN",
    "phone": "(317) 537-0996",
    "rating": 4.0,
    "reviews": 25,
    "website": "https://www.blackdiamondpestcontrol.com/",
    "category": "Arabic-speaking Bee control in Indiana",
    "description": "Offers comprehensive pest control services, including treatment for insects, termites, and wildlife",
    "hours": "Mon-Fri 9AM-6PM",
    "services": [
      "Arabic-speaking Bee control in Indiana consultation",
      "Professional service",
      "Quality guarantee"
    ],
    "social_links": {}
  },
  {
    "name": "America's Best Bees",
    "address": "Serves Northwest Indiana and Illinois",
    "phone": "",
    "rating": 4.0,
    "reviews": 25,
    "website": "https://americasbestbees.com/",
    "category": "Arabic-speaking Bee control in Indiana",
    "description": "Specializes in bee removal and relocation, with a focus on conservation",
    "hours": "Mon-Fri 9AM-6PM",
    "services": [
      "Arabic-speaking Bee control in Indiana consultation",
      "Professional service",
      "Quality guarantee"
    ],
    "social_links": {}
  },
  {
    "name": "Hawx Pest Control Indianapolis",
    "address": "Serves Indianapolis, IN and surrounding neighborhoods",
    "phone": "",
    "rating": 4.0,
    "reviews": 25,
    "website": "https://www.hawxpestcontrol.com/locations/indiana/indianapolis/",
    "category": "Arabic-speaking Bee control in Indiana",
    "description": "Provides general pest control, termite treatment, and other specialized pest management services",
    "hours": "Mon-Fri 9AM-6PM",
    "services": [
      "Arabic-speaking Bee control in Indiana consultation",
      "Professional service",
      "Quality guarantee"
    ],
    "social_links": {}
  },
  {
    "name": "Pest Control of Northwest Indiana (Pest Authority)",
    "address": "Serves Northwest Indiana",
    "phone": "",
    "rating": 4.0,
    "reviews": 25,
    "website": "https://www.pestauthority.com/locations/indiana/northwest-indiana/",
    "category": "Arabic-speaking Bee control in Indiana",
    "description": "Offers bee control, hornet nest removal, and other pest management solutions",
    "hours": "Mon-Fri 9AM-6PM",
    "services": [
      "Arabic-speaking Bee control in Indiana consultation",
      "Professional service",
      "Quality guarantee"
    ],
    "social_links": {}
  },
  {
    "name": "Freedom Pest Control",
    "address": "Serves Central Indiana",
    "phone": "(317) 537-0996",
    "rating": 4.0,
    "reviews": 25,
    "website": "https://freedompestcontrol.com/",
    "category": "Arabic-speaking Bee control in Indiana",
    "description": "A top-rated pest control company offering residential and commercial services",
    "hours": "Mon-Fri 9AM-6PM",
    "services": [
      "Arabic-speaking Bee control in Indiana consultation",
      "Professional service",
      "Quality guarantee"
    ],
    "social_links": {}
  },
  {
    "name": "Maley's Bee Removal",
    "address": "Serves Northeast Indiana and Northwest Ohio",
    "phone": "",
    "rating": 4.0,
    "reviews": 25,
    "website": "https://maleysbeeremoval.com/",
    "category": "Arabic-speaking Bee control in Indiana",
    "description": "Specializes in bee removal, including honey bee relocation and removal of other stinging insects",
    "hours": "Mon-Fri 9AM-6PM",
    "services": [
      "Arabic-speaking Bee control in Indiana consultation",
      "Professional service",
      "Quality guarantee"
    ],
    "social_links": {}
  },
  {
    "name": "Greenix Pest Control Indianapolis",
    "address": "Serves Indianapolis, IN and surrounding areas",
    "phone": "",
    "rating": 4.0,
    "reviews": 25,
    "website": "https://www.greenixpc.com/locations/indiana/indianapolis/",
    "category": "Arabic-speaking Bee control in Indiana",
    "description": "Offers a range of pest control services, including wasp, mosquito, and rodent control",
    "hours": "Mon-Fri 9AM-6PM",
    "services": [
      "Arabic-speaking Bee control in Indiana consultation",
      "Professional service",
      "Quality guarantee"
    ],
    "social_links": {}
  },
  {
    "name": "Indy Bee Removal",
    "address": "Fishers, Indiana 46038",
    "phone": "(317) 294-3944",
    "rating": 4.0,
    "reviews": 25,
    "website": "https://indybeeremoval.com/",
    "category": "Arabic-speaking Bee control in Indiana",
    "description": "Specializes in the removal of bees, wasps, and hornets in Indianapolis and surrounding cities",
    "hours": "Mon-Fri 9AM-6PM",
    "services": [
      "Arabic-speaking Bee control in Indiana consultation",
      "Professional service",
      "Quality guarantee"
    ],
    "social_links": {}
  },
  {
    "name": "Trio Pest Control",
    "address": "3158 E Thompson Rd, Indianapolis, IN 46227",
    "phone": "(317) 676-4500 or (317) 902-8856",
    "rating": 4.0,
    "reviews": 25,
    "website": "https://www.triopestcontrol.com/",
    "category": "Arabic-speaking Bee control in Indiana",
    "description": "Provides general pest control, bee and stinging insect control, and termite control services",
    "hours": "Mon-Fri 9AM-6PM",
    "services": [
      "Arabic-speaking Bee control in Indiana consultation",
      "Professional service",
      "Quality guarantee"
    ],
    "social_links": {}
  },
  {
    "name": "Arab of Southern Indiana",
    "address": "Serves various locations including Salem, IN",
    "phone": "(812) 883-3493",
    "rating": 4.0,
    "reviews": 25,
    "website": "https://arabsouthernindiana.com/",
    "category": "Arabic-speaking Bee control in Indiana",
    "description": "Offers a wide range of pest control services, including flying insect treatment (wasps, bees, hornets). They have been in business since 1929",
    "hours": "Mon-Fri 9AM-6PM",
    "services": [
      "Arabic-speaking Bee control in Indiana consultation",
      "Professional service",
      "Quality guarantee"
    ],
    "social_links": {}
  }
]