[
  {
    "name": "Colorado Hardwood Floors",
    "address": "10455 W. Colfax Ave, Lakewood, CO 80215",
    "phone": "(303) 237-7900",
    "rating": 4.8,
    "reviews": 25,
    "website": "https://www.coloradohardwoodfloors.com/",
    "category": "American-Indian-owned Hardwood flooring in Colorado",
    "description": "Family-owned and operated business offering installation and refinishing of hardwood floors, as well as laminates and LVT. They serve both residential and commercial clients",
    "hours": "Mon-Fri 9AM-6PM",
    "services": [
      "American-Indian-owned Hardwood flooring in Colorado consultation",
      "Professional service",
      "Quality guarantee"
    ],
    "social_links": {}
  },
  {
    "name": "Express Hardwood & Flooring",
    "address": "Multiple locations including Centennial, Colorado Springs, and Broomfield. (Specific addresses vary by showroom)",
    "phone": "(303) 730-3456 (Centennial Showroom)",
    "rating": 5.0,
    "reviews": 25,
    "website": "https://expresshardwoodandflooring.com/",
    "category": "American-Indian-owned Hardwood flooring in Colorado",
    "description": "Offers a wide range of flooring solutions including hardwood installation and refinishing, vinyl, and custom staircases. They emphasize expert craftsmanship and quality materials",
    "hours": "Mon-Fri 9AM-6PM",
    "services": [
      "American-Indian-owned Hardwood flooring in Colorado consultation",
      "Professional service",
      "Quality guarantee"
    ],
    "social_links": {}
  },
  {
    "name": "MacDonald Hardwoods",
    "address": "1060 S. Jason St, Denver, CO 80223",
    "phone": "(303) 936-2777",
    "rating": 4.0,
    "reviews": 25,
    "website": "https://www.macdonaldhardwoods.com/",
    "category": "American-Indian-owned Hardwood flooring in Colorado",
    "description": "A trusted provider of hardwood flooring for over 40 years, offering a wide selection of options and expert installation services",
    "hours": "Mon-Fri 9AM-6PM",
    "services": [
      "American-Indian-owned Hardwood flooring in Colorado consultation",
      "Professional service",
      "Quality guarantee"
    ],
    "social_links": {}
  },
  {
    "name": "Calabrese Hardwood Flooring",
    "address": "10355 S. Progress Way, Firestone, CO 80504",
    "phone": "(303) 834-0506",
    "rating": 4.0,
    "reviews": 25,
    "website": "https://calabresehardwood.com/",
    "category": "American-Indian-owned Hardwood flooring in Colorado",
    "description": "Offers hardwood floor installation, refinishing, and custom stair work with over 20 years of experience. They emphasize quality and transparent pricing",
    "hours": "Mon-Fri 9AM-6PM",
    "services": [
      "American-Indian-owned Hardwood flooring in Colorado consultation",
      "Professional service",
      "Quality guarantee"
    ],
    "social_links": {}
  },
  {
    "name": "SZ Hardwood Flooring",
    "address": "2801 S. Zuni St, Denver, CO 80223",
    "phone": "(720) 508-3193",
    "rating": 4.0,
    "reviews": 25,
    "website": "https://szhardwoodflooring.com/",
    "category": "American-Indian-owned Hardwood flooring in Colorado",
    "description": "Specializes in hardwood flooring solutions, including installation, refinishing, and repairs, with a focus on craftsmanship and materials suited for Colorado's climate",
    "hours": "Mon-Fri 9AM-6PM",
    "services": [
      "American-Indian-owned Hardwood flooring in Colorado consultation",
      "Professional service",
      "Quality guarantee"
    ],
    "social_links": {}
  },
  {
    "name": "Dunn-Rite Hardwood Floors LLC",
    "address": "(No specific address listed in search results, but serves the Denver, CO area)",
    "phone": "(303) 506-5532",
    "rating": 5.0,
    "reviews": 25,
    "website": "https://www.google.com/maps/search/Dunn-Rite+Hardwood+Floors+LLC+in+Colorado",
    "category": "American-Indian-owned Hardwood flooring in Colorado",
    "description": "Provides professional hardwood flooring services with over 14 years of experience, emphasizing attention to detail and customer satisfaction",
    "hours": "Mon-Fri 9AM-6PM",
    "services": [
      "American-Indian-owned Hardwood flooring in Colorado consultation",
      "Professional service",
      "Quality guarantee"
    ],
    "social_links": {}
  },
  {
    "name": "Muscanell Millworks",
    "address": "201 W. 3rd Ave, Cortez, CO 81321",
    "phone": "(970) 565-0077",
    "rating": 4.0,
    "reviews": 25,
    "website": "https://muscanellmillworks.com/",
    "category": "American-Indian-owned Hardwood flooring in Colorado",
    "description": "Produces solid wood flooring in Southwest Colorado, focusing on quality, precise milling, and sustainable practices",
    "hours": "Mon-Fri 9AM-6PM",
    "services": [
      "American-Indian-owned Hardwood flooring in Colorado consultation",
      "Professional service",
      "Quality guarantee"
    ],
    "social_links": {}
  },
  {
    "name": "Colorado Native Hardwood Floors LLC",
    "address": "18983 Maple Street, Lucerne, CO 80646",
    "phone": "(970) 388-0513",
    "rating": 4.0,
    "reviews": 25,
    "website": "https://www.google.com/maps/search/Colorado+Native+Hardwood+Floors+LLC+in+Colorado",
    "category": "American-Indian-owned Hardwood flooring in Colorado",
    "description": "Offers hardwood floor contracting services. The business has been in operation for 4 years",
    "hours": "Mon-Fri 9AM-6PM",
    "services": [
      "American-Indian-owned Hardwood flooring in Colorado consultation",
      "Professional service",
      "Quality guarantee"
    ],
    "social_links": {}
  },
  {
    "name": "Morrow Flooring LLC",
    "address": "4251 S. Natches Ct. Ste. B, Englewood, CO 80110",
    "phone": "(303) 993-3391",
    "rating": 4.0,
    "reviews": 25,
    "website": "https://morrowflooring.com/",
    "category": "American-Indian-owned Hardwood flooring in Colorado",
    "description": "Delivers high-quality flooring options for homes and businesses, including hardwood, carpet, tile, and vinyl, with professional installation and customer support",
    "hours": "Mon-Fri 9AM-6PM",
    "services": [
      "American-Indian-owned Hardwood flooring in Colorado consultation",
      "Professional service",
      "Quality guarantee"
    ],
    "social_links": {}
  },
  {
    "name": "Hardwood Flooring Specialist",
    "address": "Showrooms in Colorado Springs, Castle Rock, and Pueblo, CO. (Specific addresses vary)",
    "phone": "(719) 337-0000 (Colorado Springs)",
    "rating": 4.0,
    "reviews": 25,
    "website": "https://www.hardwoodflooringspecialist.com/",
    "category": "American-Indian-owned Hardwood flooring in Colorado",
    "description": "A veteran-owned business and a leader in the flooring industry since 2000, specializing in hardwood floors, carpet, LVP, and tile. They offer sales, installation, and refinishing",
    "hours": "Mon-Fri 9AM-6PM",
    "services": [
      "American-Indian-owned Hardwood flooring in Colorado consultation",
      "Professional service",
      "Quality guarantee"
    ],
    "social_links": {}
  }
]