[
  {
    "name": "GreenSeasons",
    "address": "Multiple locations in Louisiana, including Baton Rouge and New Orleans",
    "phone": "(225) 304-4744 (Baton Rouge area)",
    "rating": 4.0,
    "reviews": 25,
    "website": "https://www.greenseasons.com/",
    "category": "Catholic-owned Shrub maintenance in Louisiana",
    "description": "Offers comprehensive landscaping, irrigation, and lawn care services, including mowing, fertilization, pruning, and more. They have a satisfaction guarantee",
    "hours": "Mon-Fri 9AM-6PM",
    "services": [
      "Catholic-owned Shrub maintenance in Louisiana consultation",
      "Professional service",
      "Quality guarantee"
    ],
    "social_links": {}
  },
  {
    "name": "Angelo's Landscape Group",
    "address": "Baton Rouge, LA",
    "phone": "(225) 752-0000",
    "rating": 4.0,
    "reviews": 25,
    "website": "https://angeloslandscape.com/",
    "category": "Catholic-owned Shrub maintenance in Louisiana",
    "description": "A locally owned and operated firm providing full-service residential and commercial landscaping, maintenance, and custom outdoor living design",
    "hours": "Mon-Fri 9AM-6PM",
    "services": [
      "Catholic-owned Shrub maintenance in Louisiana consultation",
      "Professional service",
      "Quality guarantee"
    ],
    "social_links": {}
  },
  {
    "name": "Landscape King",
    "address": "Baton Rouge, LA",
    "phone": "(225) 244-4444",
    "rating": 4.0,
    "reviews": 25,
    "website": "https://www.landscapekingla.com/",
    "category": "Catholic-owned Shrub maintenance in Louisiana",
    "description": "A family-run business specializing in landscaping design and maintenance, with expertise in plants suited for the southern climate",
    "hours": "Mon-Fri 9AM-6PM",
    "services": [
      "Catholic-owned Shrub maintenance in Louisiana consultation",
      "Professional service",
      "Quality guarantee"
    ],
    "social_links": {}
  },
  {
    "name": "Flora Landscape Contractors",
    "address": "Prairieville, LA (serving Oak Hills Place, Prairieville, and nearby areas)",
    "phone": "(225) 677-7111",
    "rating": 4.0,
    "reviews": 25,
    "website": "https://floralandscapers.com/",
    "category": "Catholic-owned Shrub maintenance in Louisiana",
    "description": "Offers landscape design, build, and maintenance services, including patios, outdoor kitchens, pergolas, and lawn care",
    "hours": "Mon-Fri 9AM-6PM",
    "services": [
      "Catholic-owned Shrub maintenance in Louisiana consultation",
      "Professional service",
      "Quality guarantee"
    ],
    "social_links": {}
  },
  {
    "name": "Martinez and Sons Landscaping",
    "address": "Alexandria, LA",
    "phone": "(318) 445-1000",
    "rating": 4.0,
    "reviews": 25,
    "website": "https://martinezandsonslandscaping.com/",
    "category": "Catholic-owned Shrub maintenance in Louisiana",
    "description": "Provides landscaping services, including design, installation, and maintenance, with a focus on creating peaceful and vibrant settings. They have worked on projects for Catholic centers",
    "hours": "Mon-Fri 9AM-6PM",
    "services": [
      "Catholic-owned Shrub maintenance in Louisiana consultation",
      "Professional service",
      "Quality guarantee"
    ],
    "social_links": {}
  },
  {
    "name": "Lawn Doctor of Baton Rouge",
    "address": "Baton Rouge, LA",
    "phone": "(225) 445-2020",
    "rating": 4.0,
    "reviews": 25,
    "website": "https://www.lawndoc.com/baton-rouge/",
    "category": "Catholic-owned Shrub maintenance in Louisiana",
    "description": "Offers a variety of lawn care services, including fertilization, pest control, weed control, and shrub care",
    "hours": "Mon-Fri 9AM-6PM",
    "services": [
      "Catholic-owned Shrub maintenance in Louisiana consultation",
      "Professional service",
      "Quality guarantee"
    ],
    "social_links": {}
  },
  {
    "name": "TruGreen",
    "address": "Multiple locations across Louisiana",
    "phone": "1-877-310-6400",
    "rating": 4.0,
    "reviews": 25,
    "website": "https://www.trugreen.com/",
    "category": "Catholic-owned Shrub maintenance in Louisiana",
    "description": "Provides professional lawn care services, including tree and shrub care, fertilization, weed control, and pest management",
    "hours": "Mon-Fri 9AM-6PM",
    "services": [
      "Catholic-owned Shrub maintenance in Louisiana consultation",
      "Professional service",
      "Quality guarantee"
    ],
    "social_links": {}
  },
  {
    "name": "Weed Man Lawn Care - Baton Rouge",
    "address": "Baton Rouge, LA",
    "phone": "(225) 304-2111",
    "rating": 4.0,
    "reviews": 25,
    "website": "https://www.weedman.com/baton-rouge/",
    "category": "Catholic-owned Shrub maintenance in Louisiana",
    "description": "Offers comprehensive lawn care services, including fertilization, weed control, aeration, and shrub maintenance",
    "hours": "Mon-Fri 9AM-6PM",
    "services": [
      "Catholic-owned Shrub maintenance in Louisiana consultation",
      "Professional service",
      "Quality guarantee"
    ],
    "social_links": {}
  },
  {
    "name": "The Grounds Guys of Baton Rouge",
    "address": "Baton Rouge, LA",
    "phone": "(225) 304-2111",
    "rating": 4.0,
    "reviews": 25,
    "website": "https://www.groundsguys.com/baton-rouge/",
    "category": "Catholic-owned Shrub maintenance in Louisiana",
    "description": "Provides a full range of landscaping and lawn care services, including shrub maintenance, mowing, fertilization, and seasonal cleanups",
    "hours": "Mon-Fri 9AM-6PM",
    "services": [
      "Catholic-owned Shrub maintenance in Louisiana consultation",
      "Professional service",
      "Quality guarantee"
    ],
    "social_links": {}
  },
  {
    "name": "Southern Landscape Management",
    "address": "Multiple locations in Louisiana",
    "phone": "(225) 752-8000 (Baton Rouge)",
    "rating": 4.0,
    "reviews": 25,
    "website": "https://www.southernlm.com/",
    "category": "Catholic-owned Shrub maintenance in Louisiana",
    "description": "Offers design, installation, and maintenance services for landscapes, including shrub care, tree care, and general lawn maintenance",
    "hours": "Mon-Fri 9AM-6PM",
    "services": [
      "Catholic-owned Shrub maintenance in Louisiana consultation",
      "Professional service",
      "Quality guarantee"
    ],
    "social_links": {}
  }
]