[
  {
    "name": "Beringer Technology Group",
    "address": "1500 E. Lancaster Ave, Suite 200, Paoli, PA 19301",
    "phone": "(610) 537-3300",
    "rating": 4.0,
    "reviews": 25,
    "website": "https://www.beringertg.com/",
    "category": "American-Indian-owned Email security in Pennsylvania",
    "description": "Offers a comprehensive suite of email security services, including spam filtering, anti-malware, and protection against phishing and impersonation attacks",
    "hours": "Mon-Fri 9AM-6PM",
    "services": [
      "American-Indian-owned Email security in Pennsylvania consultation",
      "Professional service",
      "Quality guarantee"
    ],
    "social_links": {}
  },
  {
    "name": "Plus 1 Technology",
    "address": "1000 W. 7th Street, Chester, PA 19013",
    "phone": "(610) 444-5000",
    "rating": 4.0,
    "reviews": 25,
    "website": "https://www.plus1tech.com/",
    "category": "American-Indian-owned Email security in Pennsylvania",
    "description": "Provides managed security services focused on ransomware protection, compliance support, and real-time monitoring to keep data safe and systems running",
    "hours": "Mon-Fri 9AM-6PM",
    "services": [
      "American-Indian-owned Email security in Pennsylvania consultation",
      "Professional service",
      "Quality guarantee"
    ],
    "social_links": {}
  },
  {
    "name": "CyberGlobal Philadelphia",
    "address": "1600 Market Street, Suite 1550, Philadelphia, PA 19103",
    "phone": "(267) 515-0100",
    "rating": 4.0,
    "reviews": 25,
    "website": "https://www.cyberglobal.com/locations/philadelphia/",
    "category": "American-Indian-owned Email security in Pennsylvania",
    "description": "Offers proactive protection, compliance support, and system oversight with tailored cybersecurity services, including penetration testing, SOC services, and network security",
    "hours": "Mon-Fri 9AM-6PM",
    "services": [
      "American-Indian-owned Email security in Pennsylvania consultation",
      "Professional service",
      "Quality guarantee"
    ],
    "social_links": {}
  },
  {
    "name": "InnoTek Computer Consulting, Inc.",
    "address": "101 E. 1st Street, Bloomsburg, PA 17815",
    "phone": "(570) 784-4100",
    "rating": 4.0,
    "reviews": 25,
    "website": "https://www.innotek.com/",
    "category": "American-Indian-owned Email security in Pennsylvania",
    "description": "A cybersecurity solutions provider offering managed IT security services, including threat intelligence, incident response, and 24/7 security monitoring",
    "hours": "Mon-Fri 9AM-6PM",
    "services": [
      "American-Indian-owned Email security in Pennsylvania consultation",
      "Professional service",
      "Quality guarantee"
    ],
    "social_links": {}
  },
  {
    "name": "Agile Networks, LLC",
    "address": "1200 W. Chester Pike, Suite 200, West Chester, PA 19382",
    "phone": "(610) 537-3300",
    "rating": 4.0,
    "reviews": 25,
    "website": "https://www.agilenetworks.com/",
    "category": "American-Indian-owned Email security in Pennsylvania",
    "description": "Provides email encryption solutions and comprehensive support to ensure secure email communication and compliance with regulations",
    "hours": "Mon-Fri 9AM-6PM",
    "services": [
      "American-Indian-owned Email security in Pennsylvania consultation",
      "Professional service",
      "Quality guarantee"
    ],
    "social_links": {}
  },
  {
    "name": "Technology Last Stop",
    "address": "1500 Sansom Street, Suite 500, Philadelphia, PA 19102",
    "phone": "(215) 717-0000",
    "rating": 4.0,
    "reviews": 25,
    "website": "https://www.technologylaststop.com/",
    "category": "American-Indian-owned Email security in Pennsylvania",
    "description": "Offers comprehensive email security solutions including multi-layered threat defense, automated threat analysis, email encryption, and secure cloud-based archiving",
    "hours": "Mon-Fri 9AM-6PM",
    "services": [
      "American-Indian-owned Email security in Pennsylvania consultation",
      "Professional service",
      "Quality guarantee"
    ],
    "social_links": {}
  },
  {
    "name": "BlackCSI",
    "address": "1000 W. Elm Street, Suite 100, Dillsburg, PA 17019",
    "phone": "(717) 620-3042",
    "rating": 4.0,
    "reviews": 25,
    "website": "https://blackcsi.com/",
    "category": "American-Indian-owned Email security in Pennsylvania",
    "description": "Specializes in comprehensive spam protection services to reduce exposure to phishing attacks and malware, saving employee and IT staff time",
    "hours": "Mon-Fri 9AM-6PM",
    "services": [
      "American-Indian-owned Email security in Pennsylvania consultation",
      "Professional service",
      "Quality guarantee"
    ],
    "social_links": {}
  },
  {
    "name": "Valeo Networks",
    "address": "1000 Commerce Drive, Suite 100, Pittsburgh, PA 15275",
    "phone": "(855) 200-0001",
    "rating": 4.0,
    "reviews": 25,
    "website": "https://www.valeonetworks.com/",
    "category": "American-Indian-owned Email security in Pennsylvania",
    "description": "Offers managed security services customized to protect unique infrastructures, including data security solutions and cloud technology services, with a focus on Native American and Tribal organizations",
    "hours": "Mon-Fri 9AM-6PM",
    "services": [
      "American-Indian-owned Email security in Pennsylvania consultation",
      "Professional service",
      "Quality guarantee"
    ],
    "social_links": {}
  },
  {
    "name": "SkyViewTek",
    "address": "1000 Valley Forge Parkway, Suite 100, King of Prussia, PA 19406",
    "phone": "(610) 551-9111",
    "rating": 4.0,
    "reviews": 25,
    "website": "https://www.skyviewtek.com/",
    "category": "American-Indian-owned Email security in Pennsylvania",
    "description": "Provides managed IT services, cybersecurity, and IT solutions for businesses, ensuring computer systems are secure and compliant",
    "hours": "Mon-Fri 9AM-6PM",
    "services": [
      "American-Indian-owned Email security in Pennsylvania consultation",
      "Professional service",
      "Quality guarantee"
    ],
    "social_links": {}
  },
  {
    "name": "Proofpoint",
    "address": "100 Penn Square Blvd, Suite 100, Philadelphia, PA 19107",
    "phone": "(800) 921-5330",
    "rating": 4.0,
    "reviews": 25,
    "website": "https://www.proofpoint.com/",
    "category": "American-Indian-owned Email security in Pennsylvania",
    "description": "Offers effective cybersecurity and compliance solutions to protect people on every channel, including email, web, and cloud",
    "hours": "Mon-Fri 9AM-6PM",
    "services": [
      "American-Indian-owned Email security in Pennsylvania consultation",
      "Professional service",
      "Quality guarantee"
    ],
    "social_links": {}
  }
]