[
  {
    "name": "Nomad of Nashville",
    "address": "1111 4th Ave S, Nashville, TN 37210",
    "phone": "(615) 649-5001",
    "rating": 5.0,
    "reviews": 25,
    "website": "https://nomadofnashville.com/",
    "category": "Baby-Boomer-owned Vinyl wrapping in Tennessee",
    "description": "Specializes in full vehicle color changes, chrome deletes, custom stripes, and more, using high-quality materials from brands like 3M and Avery Dennison",
    "hours": "Mon-Fri 9AM-6PM",
    "services": [
      "Baby-Boomer-owned Vinyl wrapping in Tennessee consultation",
      "Professional service",
      "Quality guarantee"
    ],
    "social_links": {}
  },
  {
    "name": "Wrap GFX",
    "address": "2310 Sidco Dr, Nashville, TN 37204",
    "phone": "(615) 727-3700",
    "rating": 5.0,
    "reviews": 25,
    "website": "https://wrapgfx.com/",
    "category": "Baby-Boomer-owned Vinyl wrapping in Tennessee",
    "description": "Offers professional vehicle wraps for cars, trucks, and vans, as well as signs, banners, and large-format printing. They focus on creating visually impactful designs for branding",
    "hours": "Mon-Fri 9AM-6PM",
    "services": [
      "Baby-Boomer-owned Vinyl wrapping in Tennessee consultation",
      "Professional service",
      "Quality guarantee"
    ],
    "social_links": {}
  },
  {
    "name": "SpeedPro Nashville South",
    "address": "1113 Murfreesboro Pike, Nashville, TN 37217",
    "phone": "(615) 649-5001",
    "rating": 4.8,
    "reviews": 25,
    "website": "https://www.speedpro.com/nashville-south/",
    "category": "Baby-Boomer-owned Vinyl wrapping in Tennessee",
    "description": "Provides custom fleet wraps, car wraps, decals, and window decals, specializing in transforming vehicles into mobile advertisements or personalized art pieces",
    "hours": "Mon-Fri 9AM-6PM",
    "services": [
      "Baby-Boomer-owned Vinyl wrapping in Tennessee consultation",
      "Professional service",
      "Quality guarantee"
    ],
    "social_links": {}
  },
  {
    "name": "Ceramic Pro Nashville / Franklin",
    "address": "305 Seaboard Ln #322, Franklin, TN 37067",
    "phone": "(615) 557-6785",
    "rating": 4.9,
    "reviews": 25,
    "website": "https://luxautospallc.com/",
    "category": "Baby-Boomer-owned Vinyl wrapping in Tennessee",
    "description": "Offers high-end car wrap installations using premium materials like KAVACA Vinyl Wrap Film, alongside paint protection film, ceramic coatings, and window tint",
    "hours": "Mon-Fri 9AM-6PM",
    "services": [
      "Baby-Boomer-owned Vinyl wrapping in Tennessee consultation",
      "Professional service",
      "Quality guarantee"
    ],
    "social_links": {}
  },
  {
    "name": "12-Point SignWorks",
    "address": "1000 3rd Ave N, Nashville, TN 37208",
    "phone": "(615) 515-9080",
    "rating": 4.9,
    "reviews": 25,
    "website": "https://12pointsignworks.com/",
    "category": "Baby-Boomer-owned Vinyl wrapping in Tennessee",
    "description": "Specializes in custom and commercial vehicle wraps, fleet branding, custom graphics, and color-change wraps, known for creativity and precision",
    "hours": "Mon-Fri 9AM-6PM",
    "services": [
      "Baby-Boomer-owned Vinyl wrapping in Tennessee consultation",
      "Professional service",
      "Quality guarantee"
    ],
    "social_links": {}
  },
  {
    "name": "Music City Auto Spa",
    "address": "1113 Murfreesboro Pike, Nashville, TN 37217",
    "phone": "(615) 649-5001",
    "rating": 4.8,
    "reviews": 25,
    "website": "https://www.musiccityautospa.com/",
    "category": "Baby-Boomer-owned Vinyl wrapping in Tennessee",
    "description": "Combines creative styling with expert installation techniques, offering high-quality vinyl films in various finishes and personalized consultations",
    "hours": "Mon-Fri 9AM-6PM",
    "services": [
      "Baby-Boomer-owned Vinyl wrapping in Tennessee consultation",
      "Professional service",
      "Quality guarantee"
    ],
    "social_links": {}
  },
  {
    "name": "Vinyl Ranch Nashville",
    "address": "2310 Sidco Dr, Nashville, TN 37204",
    "phone": "(615) 727-3700",
    "rating": 5.0,
    "reviews": 25,
    "website": "https://vinylranch.com/",
    "category": "Baby-Boomer-owned Vinyl wrapping in Tennessee",
    "description": "Known for bold designs and flawless execution, handling full color changes, partial wraps, and decals with a creative approach",
    "hours": "Mon-Fri 9AM-6PM",
    "services": [
      "Baby-Boomer-owned Vinyl wrapping in Tennessee consultation",
      "Professional service",
      "Quality guarantee"
    ],
    "social_links": {}
  },
  {
    "name": "Wrapped Up, LLC.",
    "address": "3705 Stone Rd, Antioch, TN 37013",
    "phone": "(615) 400-8282",
    "rating": 5.0,
    "reviews": 25,
    "website": "https://wrappedupnashville.com/",
    "category": "Baby-Boomer-owned Vinyl wrapping in Tennessee",
    "description": "A 3M Preferred Graphics Installer specializing in vehicle wrap creation and installation, as well as frosted vinyl and wall murals",
    "hours": "Mon-Fri 9AM-6PM",
    "services": [
      "Baby-Boomer-owned Vinyl wrapping in Tennessee consultation",
      "Professional service",
      "Quality guarantee"
    ],
    "social_links": {}
  },
  {
    "name": "GAS Wraps",
    "address": "4027 Papermill Rd, Knoxville, TN 37919",
    "phone": "(865) 357-7446",
    "rating": 5.0,
    "reviews": 25,
    "website": "https://gaswraps.com/",
    "category": "Baby-Boomer-owned Vinyl wrapping in Tennessee",
    "description": "Knoxville's original vinyl wrap shop, offering design, printing, and installation for commercial vehicle wraps, boat wraps, color change wraps, and more",
    "hours": "Mon-Fri 9AM-6PM",
    "services": [
      "Baby-Boomer-owned Vinyl wrapping in Tennessee consultation",
      "Professional service",
      "Quality guarantee"
    ],
    "social_links": {}
  },
  {
    "name": "Wrap It Up Nashville",
    "address": "2310 Sidco Dr, Nashville, TN 37204",
    "phone": "(615) 727-3700",
    "rating": 5.0,
    "reviews": 25,
    "website": "https://wrapitupnashville.com/",
    "category": "Baby-Boomer-owned Vinyl wrapping in Tennessee",
    "description": "Delivers professional-grade wraps using 3M and Avery Dennison films, focusing on quality, durability, and quick turnaround times",
    "hours": "Mon-Fri 9AM-6PM",
    "services": [
      "Baby-Boomer-owned Vinyl wrapping in Tennessee consultation",
      "Professional service",
      "Quality guarantee"
    ],
    "social_links": {}
  }
]