[
  {
    "name": "Nampa Chamber of Commerce",
    "address": "323 11th Ave S, Nampa, ID 83651",
    "phone": "(208) 466-4641",
    "rating": 4.0,
    "reviews": 25,
    "website": "https://www.nampa.com/facility-rental/",
    "category": "Chinese-speaking Event space rentals in Idaho",
    "description": "Offers various spaces for meetings, conferences, and special events, including a large hall, a networking room, and a leadership loft",
    "hours": "Mon-Fri 9AM-6PM",
    "services": [
      "Chinese-speaking Event space rentals in Idaho consultation",
      "Professional service",
      "Quality guarantee"
    ],
    "social_links": {}
  },
  {
    "name": "Gem Center for the Arts",
    "address": "2417 W. Idaho St., Boise, ID 83702",
    "phone": "(208) 331-0100",
    "rating": 4.0,
    "reviews": 25,
    "website": "https://gemcenterforthearts.com/",
    "category": "Chinese-speaking Event space rentals in Idaho",
    "description": "A contemporary venue suitable for parties, weddings, seminars, and other events, with flexible meeting spaces",
    "hours": "Mon-Fri 9AM-6PM",
    "services": [
      "Chinese-speaking Event space rentals in Idaho consultation",
      "Professional service",
      "Quality guarantee"
    ],
    "social_links": {}
  },
  {
    "name": "Snake River Event Center",
    "address": "500 West Broadway Avenue, Idaho Falls, ID 83402",
    "phone": "(208) 522-1140",
    "rating": 4.0,
    "reviews": 25,
    "website": "https://www.idahofallsidaho.gov/Facilities/Facility/Details/Snake-River-Event-Center-10",
    "category": "Chinese-speaking Event space rentals in Idaho",
    "description": "Idaho Falls' largest event center, offering over 15,000 square feet of versatile space for meetings, conferences, and trade shows, with on-site catering and A/V services",
    "hours": "Mon-Fri 9AM-6PM",
    "services": [
      "Chinese-speaking Event space rentals in Idaho consultation",
      "Professional service",
      "Quality guarantee"
    ],
    "social_links": {}
  },
  {
    "name": "Center at the Park",
    "address": "2100 N.tosecond St., Meridian, ID 83642",
    "phone": "(208) 888-4476",
    "rating": 4.0,
    "reviews": 25,
    "website": "https://www.meridiancity.org/parks-and-recreation/facility-rentals/center-at-the-park/",
    "category": "Chinese-speaking Event space rentals in Idaho",
    "description": "Located in Kleiner Park, this venue offers a beautiful backdrop for events with indoor and outdoor spaces, suitable for weddings, corporate gatherings, and fundraisers",
    "hours": "Mon-Fri 9AM-6PM",
    "services": [
      "Chinese-speaking Event space rentals in Idaho consultation",
      "Professional service",
      "Quality guarantee"
    ],
    "social_links": {}
  },
  {
    "name": "Indian Creek Plaza",
    "address": "120 S Kimball Ave, Caldwell, ID 83605",
    "phone": "(208) 453-9000",
    "rating": 4.0,
    "reviews": 25,
    "website": "https://www.indiancreekplaza.com/",
    "category": "Chinese-speaking Event space rentals in Idaho",
    "description": "A community plaza available for rent, suitable for social, educational, or community-oriented functions, with plaza space and a stage",
    "hours": "Mon-Fri 9AM-6PM",
    "services": [
      "Chinese-speaking Event space rentals in Idaho consultation",
      "Professional service",
      "Quality guarantee"
    ],
    "social_links": {}
  },
  {
    "name": "The Atrium",
    "address": "750 S. 700 E., Rexburg, ID 83440",
    "phone": "(208) 372-2510",
    "rating": 4.0,
    "reviews": 25,
    "website": "https://www.rexburg.org/cultural-arts/page/atrium",
    "category": "Chinese-speaking Event space rentals in Idaho",
    "description": "An elegant event venue in Rexburg with floor-to-ceiling windows and chandeliers, suitable for various events",
    "hours": "Mon-Fri 9AM-6PM",
    "services": [
      "Chinese-speaking Event space rentals in Idaho consultation",
      "Professional service",
      "Quality guarantee"
    ],
    "social_links": {}
  },
  {
    "name": "Coeur d'Alene Casino Resort Hotel",
    "address": "37914 S Nukwalqw Rd, Worley, ID 83876",
    "phone": "(800) 523-2464",
    "rating": 4.0,
    "reviews": 25,
    "website": "https://www.cdacasino.com/meetings-events/",
    "category": "Chinese-speaking Event space rentals in Idaho",
    "description": "Offers 40,000 sq. ft. of indoor event space and additional outdoor options, perfect for conferences, weddings, and trade shows",
    "hours": "Mon-Fri 9AM-6PM",
    "services": [
      "Chinese-speaking Event space rentals in Idaho consultation",
      "Professional service",
      "Quality guarantee"
    ],
    "social_links": {}
  },
  {
    "name": "Apple Barn",
    "address": "3075 S 1700 E, Filer, ID 83328",
    "phone": "(208) 739-0500",
    "rating": 4.0,
    "reviews": 25,
    "website": "https://www.applebarneventvenue.com/",
    "category": "Chinese-speaking Event space rentals in Idaho",
    "description": "A country event venue near Twin Falls with indoor and outdoor spaces, suitable for weddings and various celebrations",
    "hours": "Mon-Fri 9AM-6PM",
    "services": [
      "Chinese-speaking Event space rentals in Idaho consultation",
      "Professional service",
      "Quality guarantee"
    ],
    "social_links": {}
  },
  {
    "name": "Dille Center",
    "address": "115 14th Ave S, Nampa, ID 83651",
    "phone": "(208) 546-9012",
    "rating": 4.0,
    "reviews": 25,
    "website": "https://www.dillecenter.com/",
    "category": "Chinese-speaking Event space rentals in Idaho",
    "description": "Located in Historic Downtown Nampa, this venue offers a relaxed atmosphere for small to medium-sized gatherings with modern facilities",
    "hours": "Mon-Fri 9AM-6PM",
    "services": [
      "Chinese-speaking Event space rentals in Idaho consultation",
      "Professional service",
      "Quality guarantee"
    ],
    "social_links": {}
  },
  {
    "name": "The Adelmann",
    "address": "622 W Idaho St, Boise, ID 83702",
    "phone": "(208) 985-9000",
    "rating": 4.0,
    "reviews": 25,
    "website": "https://www.theadelmann.com/",
    "category": "Chinese-speaking Event space rentals in Idaho",
    "description": "A historic building in downtown Boise with exposed brick walls, suitable for weddings, corporate meetings, parties, and concerts",
    "hours": "Mon-Fri 9AM-6PM",
    "services": [
      "Chinese-speaking Event space rentals in Idaho consultation",
      "Professional service",
      "Quality guarantee"
    ],
    "social_links": {}
  }
]