[
  {
    "name": "Ozark Comprehensive Dentistry",
    "address": "1000 SE 5th St, Ste 101, Bentonville, AR 72712",
    "phone": "(479) 375-4500",
    "rating": 4.9,
    "reviews": 25,
    "website": "https://www.ozarkdentistry.com/",
    "category": "Bengali-speaking General dentistry in Arkansas",
    "description": "Offers comprehensive dental services, including cosmetic dentistry, implants, and treatment for TMJ and sleep apnea",
    "hours": "Mon-Fri 9AM-6PM",
    "services": [
      "Bengali-speaking General dentistry in Arkansas consultation",
      "Professional service",
      "Quality guarantee"
    ],
    "social_links": {}
  },
  {
    "name": "Scott Family Dentistry",
    "address": "1901 Military Rd, Benton, AR 72015",
    "phone": "(501) 778-5500",
    "rating": 4.8,
    "reviews": 25,
    "website": "https://www.scottfamilydentistry.net/",
    "category": "Bengali-speaking General dentistry in Arkansas",
    "description": "A family dentistry practice offering a wide range of services from routine cleanings to orthodontics and cosmetic dentistry",
    "hours": "Mon-Fri 9AM-6PM",
    "services": [
      "Bengali-speaking General dentistry in Arkansas consultation",
      "Professional service",
      "Quality guarantee"
    ],
    "social_links": {}
  },
  {
    "name": "Restore Modern Dentistry",
    "address": "3001 SE 14th St, Ste 100, Bentonville, AR 72712",
    "phone": "(479) 696-8000",
    "rating": 5.0,
    "reviews": 25,
    "website": "https://www.restoremodern.com/",
    "category": "Bengali-speaking General dentistry in Arkansas",
    "description": "Focuses on cosmetic and general dentistry, aiming to provide confident smiles through artistic skill and modern techniques",
    "hours": "Mon-Fri 9AM-6PM",
    "services": [
      "Bengali-speaking General dentistry in Arkansas consultation",
      "Professional service",
      "Quality guarantee"
    ],
    "social_links": {}
  },
  {
    "name": "UAMS Delta Dental of Arkansas Foundation Oral Health Clinic",
    "address": "4301 W Markham St, Little Rock, AR 72205",
    "phone": "(501) 686-5700",
    "rating": 4.0,
    "reviews": 25,
    "website": "https://www.uamshealth.com/dental/",
    "category": "Bengali-speaking General dentistry in Arkansas",
    "description": "Provides a full range of dental care services for all Arkansans, including crowns, dentures, fillings, and more",
    "hours": "Mon-Fri 9AM-6PM",
    "services": [
      "Bengali-speaking General dentistry in Arkansas consultation",
      "Professional service",
      "Quality guarantee"
    ],
    "social_links": {}
  },
  {
    "name": "Main Street Dental",
    "address": "101 W Central Ave, Bentonville, AR 72712",
    "phone": "(479) 273-1050",
    "rating": 4.0,
    "reviews": 25,
    "website": "https://www.mainstreetdentalbentonville.com/",
    "category": "Bengali-speaking General dentistry in Arkansas",
    "description": "Offers compassionate, judgment-free dental care with a focus on patient needs and positive experiences",
    "hours": "Mon-Fri 9AM-6PM",
    "services": [
      "Bengali-speaking General dentistry in Arkansas consultation",
      "Professional service",
      "Quality guarantee"
    ],
    "social_links": {}
  },
  {
    "name": "Arkansas Family Dental",
    "address": "1110 N University Ave, Little Rock, AR 72207",
    "phone": "(501) 683-8888",
    "rating": 4.7,
    "reviews": 25,
    "website": "https://arkansasfamilydental.com/",
    "category": "Bengali-speaking General dentistry in Arkansas",
    "description": "A team of dentists offering a wide range of dental services with a focus on patient comfort and care",
    "hours": "Mon-Fri 9AM-6PM",
    "services": [
      "Bengali-speaking General dentistry in Arkansas consultation",
      "Professional service",
      "Quality guarantee"
    ],
    "social_links": {}
  },
  {
    "name": "Smile Arkansas",
    "address": "10000 N Rodney Parham Rd, Ste 101, Little Rock, AR 72205",
    "phone": "(501) 821-4555",
    "rating": 4.9,
    "reviews": 25,
    "website": "https://smilearkansas.com/",
    "category": "Bengali-speaking General dentistry in Arkansas",
    "description": "Provides comprehensive dental care, including cosmetic procedures, Invisalign, and sleep dentistry, with a satisfaction guarantee",
    "hours": "Mon-Fri 9AM-6PM",
    "services": [
      "Bengali-speaking General dentistry in Arkansas consultation",
      "Professional service",
      "Quality guarantee"
    ],
    "social_links": {}
  },
  {
    "name": "Smile Dailey Dental",
    "address": "11210 N Rodney Parham Rd, Ste 200, Little Rock, AR 72212",
    "phone": "(501) 448-0032",
    "rating": 4.9,
    "reviews": 25,
    "website": "https://smiledaileydental.com/",
    "category": "Bengali-speaking General dentistry in Arkansas",
    "description": "A leading center for cosmetic dentistry in Little Rock, also offering general dentistry, dental implants, and facial aesthetics",
    "hours": "Mon-Fri 9AM-6PM",
    "services": [
      "Bengali-speaking General dentistry in Arkansas consultation",
      "Professional service",
      "Quality guarantee"
    ],
    "social_links": {}
  },
  {
    "name": "Northwest Arkansas Family Dental",
    "address": "1000 N College Ave, Fayetteville, AR 72701",
    "phone": "(479) 521-1724",
    "rating": 4.8,
    "reviews": 25,
    "website": "https://www.nwafamilydental.com/",
    "category": "Bengali-speaking General dentistry in Arkansas",
    "description": "Offers a high quality of dentistry and a great patient experience, with a team dedicated to meeting individual needs",
    "hours": "Mon-Fri 9AM-6PM",
    "services": [
      "Bengali-speaking General dentistry in Arkansas consultation",
      "Professional service",
      "Quality guarantee"
    ],
    "social_links": {}
  },
  {
    "name": "Community Clinic Rogers Dental",
    "address": "3710 W Southern Hills Blvd #700, Rogers, AR 72758",
    "phone": "(479) 986-6400",
    "rating": 4.0,
    "reviews": 25,
    "website": "https://www.communityclinicnwa.org/locations/rogers-dental/",
    "category": "Bengali-speaking General dentistry in Arkansas",
    "description": "Provides a range of dental services from routine cleanings to cosmetic and restorative procedures in Rogers",
    "hours": "Mon-Fri 9AM-6PM",
    "services": [
      "Bengali-speaking General dentistry in Arkansas consultation",
      "Professional service",
      "Quality guarantee"
    ],
    "social_links": {}
  }
]