[
  {
    "name": "Tint World",
    "address": "Multiple locations including Birmingham, Huntsville, Montgomery, and Tuscaloosa, AL",
    "phone": "(205) 578-1338 (Birmingham), (256) 517-7305 (Huntsville), (334) 277-3301 (Montgomery), (205) 614-9006 (Tuscaloosa)",
    "rating": 4.0,
    "reviews": 25,
    "website": "https://www.tintworld.com/",
    "category": "Christian-owned Car audio installation in Alabama",
    "description": "Offers a wide range of automotive audio and video installation services, including custom car stereo, DVD players, speakers, and subwoofers",
    "hours": "Mon-Fri 9AM-6PM",
    "services": [
      "Christian-owned Car audio installation in Alabama consultation",
      "Professional service",
      "Quality guarantee"
    ],
    "social_links": {}
  },
  {
    "name": "Ken's Car Tunes",
    "address": "Multiple locations including 3675 Government Blvd, Mobile, AL 36693 and 3358 SpringHill Ave, Mobile, AL 36607",
    "phone": "(251) 607-0700 (Government Blvd)",
    "rating": 4.0,
    "reviews": 25,
    "website": "https://kenscartunes.com/",
    "category": "Christian-owned Car audio installation in Alabama",
    "description": "Provides sales, service, and installation of car audio, video, and marine electronics",
    "hours": "Mon-Fri 9AM-6PM",
    "services": [
      "Christian-owned Car audio installation in Alabama consultation",
      "Professional service",
      "Quality guarantee"
    ],
    "social_links": {}
  },
  {
    "name": "All-Star Accessories",
    "address": "Birmingham, AL (Mobile installation services available)",
    "phone": "",
    "rating": 4.0,
    "reviews": 25,
    "website": "https://www.google.com/maps/search/All-Star+Accessories+in+Alabama",
    "category": "Christian-owned Car audio installation in Alabama",
    "description": "Specializes in mobile electronics installation, including car audio systems, remote starters, and cameras, with a focus on customer convenience",
    "hours": "Mon-Fri 9AM-6PM",
    "services": [
      "Christian-owned Car audio installation in Alabama consultation",
      "Professional service",
      "Quality guarantee"
    ],
    "social_links": {}
  },
  {
    "name": "Freddie Louis Auto Accessories",
    "address": "Huntsville, AL",
    "phone": "",
    "rating": 4.0,
    "reviews": 25,
    "website": "https://www.google.com/maps/search/Freddie+Louis+Auto+Accessories+in+Alabama",
    "category": "Christian-owned Car audio installation in Alabama",
    "description": "Offers car audio and stereo systems, speakers, amplifiers, and expert installation services",
    "hours": "Mon-Fri 9AM-6PM",
    "services": [
      "Christian-owned Car audio installation in Alabama consultation",
      "Professional service",
      "Quality guarantee"
    ],
    "social_links": {}
  },
  {
    "name": "Mobile Electronics",
    "address": "1811 Hargrove Road E, Tuscaloosa, AL 35405",
    "phone": "(205) 554-1554",
    "rating": 4.0,
    "reviews": 25,
    "website": "https://www.google.com/maps/search/Mobile+Electronics+in+Alabama",
    "category": "Christian-owned Car audio installation in Alabama",
    "description": "Provides professional sales and installation of car audio systems and window tinting",
    "hours": "Mon-Fri 9AM-6PM",
    "services": [
      "Christian-owned Car audio installation in Alabama consultation",
      "Professional service",
      "Quality guarantee"
    ],
    "social_links": {}
  },
  {
    "name": "Jimmy's Car Stereo",
    "address": "908 Opelika Road, Auburn, AL 36830",
    "phone": "(334) 821-0744",
    "rating": 4.0,
    "reviews": 25,
    "website": "https://www.jimmyscarstereo.com/",
    "category": "Christian-owned Car audio installation in Alabama",
    "description": "Installs audio and video systems in vehicles, specializing in car audio, rear-seat entertainment, and security systems",
    "hours": "Mon-Fri 9AM-6PM",
    "services": [
      "Christian-owned Car audio installation in Alabama consultation",
      "Professional service",
      "Quality guarantee"
    ],
    "social_links": {}
  },
  {
    "name": "1 Sound",
    "address": "Birmingham, AL",
    "phone": "",
    "rating": 4.0,
    "reviews": 25,
    "website": "https://www.google.com/maps/search/1+Sound+in+Alabama",
    "category": "Christian-owned Car audio installation in Alabama",
    "description": "Provides car audio system sales and installation, along with other automotive services",
    "hours": "Mon-Fri 9AM-6PM",
    "services": [
      "Christian-owned Car audio installation in Alabama consultation",
      "Professional service",
      "Quality guarantee"
    ],
    "social_links": {}
  },
  {
    "name": "Wizard Car Audio, Side by Sides & Marine Audio",
    "address": "1805 Golden Springs Rd, Anniston, AL 36207",
    "phone": "(256) 403-2535",
    "rating": 4.0,
    "reviews": 25,
    "website": "https://www.google.com/maps/search/Wizard+Car+Audio,+Side+by+Sides+&+Marine+Audio+in+Alabama",
    "category": "Christian-owned Car audio installation in Alabama",
    "description": "A premier destination for automotive audio solutions and window tinting, offering a diverse range of products",
    "hours": "Mon-Fri 9AM-6PM",
    "services": [
      "Christian-owned Car audio installation in Alabama consultation",
      "Professional service",
      "Quality guarantee"
    ],
    "social_links": {}
  },
  {
    "name": "The Sound Shop",
    "address": "2200 S Oates St #4, Dothan, AL 36301",
    "phone": "(334) 792-9240",
    "rating": 4.0,
    "reviews": 25,
    "website": "https://www.google.com/maps/search/The+Sound+Shop+in+Alabama",
    "category": "Christian-owned Car audio installation in Alabama",
    "description": "Offers a range of automotive audio solutions, including stereo installations, speaker upgrades, and custom audio system setups",
    "hours": "Mon-Fri 9AM-6PM",
    "services": [
      "Christian-owned Car audio installation in Alabama consultation",
      "Professional service",
      "Quality guarantee"
    ],
    "social_links": {}
  },
  {
    "name": "Speakerbox Car Audio",
    "address": "1803 University Dr. NW, Suite C, Huntsville, AL 35801",
    "phone": "(256) 325-4466",
    "rating": 4.0,
    "reviews": 25,
    "website": "https://www.speakerboxcaraudio.com/",
    "category": "Christian-owned Car audio installation in Alabama",
    "description": "Specializes in car audio, video, security, and convenience systems, with MECP certified installers",
    "hours": "Mon-Fri 9AM-6PM",
    "services": [
      "Christian-owned Car audio installation in Alabama consultation",
      "Professional service",
      "Quality guarantee"
    ],
    "social_links": {}
  }
]