[
  {
    "name": "New Leaf Florist & Flower Delivery",
    "address": "3001 NW 50th St, Oklahoma City, OK 73112",
    "phone": "(405) 947-2000",
    "rating": 4.5,
    "reviews": 25,
    "website": "https://www.newleafokc.com/",
    "category": "Chinese-American-owned Orchid care in Oklahoma",
    "description": "Offers a variety of orchid plants and floral arrangements for delivery in the Oklahoma City area",
    "hours": "Mon-Fri 9AM-6PM",
    "services": [
      "Chinese-American-owned Orchid care in Oklahoma consultation",
      "Professional service",
      "Quality guarantee"
    ],
    "social_links": {}
  },
  {
    "name": "Morrison Floral & Greenhouses",
    "address": "1000 S.W. 104th St, Oklahoma City, OK 73170",
    "phone": "(405) 691-0221",
    "rating": 4.5,
    "reviews": 25,
    "website": "https://www.morrisonfloral.com/",
    "category": "Chinese-American-owned Orchid care in Oklahoma",
    "description": "Provides floral arrangements, including orchids, and greenhouse services",
    "hours": "Mon-Fri 9AM-6PM",
    "services": [
      "Chinese-American-owned Orchid care in Oklahoma consultation",
      "Professional service",
      "Quality guarantee"
    ],
    "social_links": {}
  },
  {
    "name": "Stella Rose Floral & Home",
    "address": "1120 N. Classen Blvd, Oklahoma City, OK 73103",
    "phone": "(405) 601-7333",
    "rating": 4.8,
    "reviews": 25,
    "website": "https://www.stellarosefloral.com/",
    "category": "Chinese-American-owned Orchid care in Oklahoma",
    "description": "Offers a selection of floral arrangements, including orchids, and home decor",
    "hours": "Mon-Fri 9AM-6PM",
    "services": [
      "Chinese-American-owned Orchid care in Oklahoma consultation",
      "Professional service",
      "Quality guarantee"
    ],
    "social_links": {}
  },
  {
    "name": "Penny and Irene's Flowers & Gifts",
    "address": "1000 S Douglas Blvd, Midwest City, OK 73130",
    "phone": "(405) 737-5500",
    "rating": 4.7,
    "reviews": 25,
    "website": "https://www.pennyandirenes.com/",
    "category": "Chinese-American-owned Orchid care in Oklahoma",
    "description": "A florist offering various flower arrangements, including orchid plants",
    "hours": "Mon-Fri 9AM-6PM",
    "services": [
      "Chinese-American-owned Orchid care in Oklahoma consultation",
      "Professional service",
      "Quality guarantee"
    ],
    "social_links": {}
  },
  {
    "name": "Cheever's Flowers",
    "address": "2501 N Classen Blvd, Oklahoma City, OK 73106",
    "phone": "(405) 525-7011",
    "rating": 4.7,
    "reviews": 25,
    "website": "https://www.cheeversflowers.com/",
    "category": "Chinese-American-owned Orchid care in Oklahoma",
    "description": "Known for floral arrangements, including \"Regal Orchids.\"",
    "hours": "Mon-Fri 9AM-6PM",
    "services": [
      "Chinese-American-owned Orchid care in Oklahoma consultation",
      "Professional service",
      "Quality guarantee"
    ],
    "social_links": {}
  },
  {
    "name": "Broadway Florist",
    "address": "211 W Main St, Moore, OK 73160",
    "phone": "(405) 794-5000",
    "rating": 4.6,
    "reviews": 25,
    "website": "https://www.broadwayflorist.com/",
    "category": "Chinese-American-owned Orchid care in Oklahoma",
    "description": "Offers orchid plants and flower delivery in Moore, OK",
    "hours": "Mon-Fri 9AM-6PM",
    "services": [
      "Chinese-American-owned Orchid care in Oklahoma consultation",
      "Professional service",
      "Quality guarantee"
    ],
    "social_links": {}
  },
  {
    "name": "Marcum's Nursery",
    "address": "10100 S. Western Ave, Oklahoma City, OK 73170 (Multiple locations)",
    "phone": "(405) 288-2368",
    "rating": 4.6,
    "reviews": 25,
    "website": "https://www.marcumsnursery.com/",
    "category": "Chinese-American-owned Orchid care in Oklahoma",
    "description": "A family-owned nursery with multiple locations offering a wide variety of plants, including orchids",
    "hours": "Mon-Fri 9AM-6PM",
    "services": [
      "Chinese-American-owned Orchid care in Oklahoma consultation",
      "Professional service",
      "Quality guarantee"
    ],
    "social_links": {}
  },
  {
    "name": "TLC Garden Centers",
    "address": "10500 N May Ave, Oklahoma City, OK 73120 (Multiple locations)",
    "phone": "(405) 751-0440",
    "rating": 4.5,
    "reviews": 25,
    "website": "https://tlcflorist.com/",
    "category": "Chinese-American-owned Orchid care in Oklahoma",
    "description": "Offers a wide selection of plants, including orchids, and provides gardening advice",
    "hours": "Mon-Fri 9AM-6PM",
    "services": [
      "Chinese-American-owned Orchid care in Oklahoma consultation",
      "Professional service",
      "Quality guarantee"
    ],
    "social_links": {}
  },
  {
    "name": "Southwood Landscape & Nursery",
    "address": "20320 E 51st St S, Broken Arrow, OK 74014 (Tulsa area)",
    "phone": "(918) 299-9100",
    "rating": 4.6,
    "reviews": 25,
    "website": "https://www.southwoodlandscape.com/",
    "category": "Chinese-American-owned Orchid care in Oklahoma",
    "description": "A landscape and nursery offering a variety of indoor and outdoor plants, including orchids",
    "hours": "Mon-Fri 9AM-6PM",
    "services": [
      "Chinese-American-owned Orchid care in Oklahoma consultation",
      "Professional service",
      "Quality guarantee"
    ],
    "social_links": {}
  },
  {
    "name": "Lia's Garden at CommonWealth",
    "address": "1016 NW 32nd St, Oklahoma City, OK 73118",
    "phone": "(405) 601-7333 (This number appears to be shared with Stella Rose Floral & Home, further verification may be needed)",
    "rating": 4.7,
    "reviews": 25,
    "website": "https://www.liasgardenokc.com/",
    "category": "Chinese-American-owned Orchid care in Oklahoma",
    "description": "Offers a variety of plants, including seedlings and native plants, with potential for orchids",
    "hours": "Mon-Fri 9AM-6PM",
    "services": [
      "Chinese-American-owned Orchid care in Oklahoma consultation",
      "Professional service",
      "Quality guarantee"
    ],
    "social_links": {}
  }
]