[
  {
    "name": "Granite State Solar",
    "address": "150 State House Sq, Bow, NH 03304",
    "phone": "(603) 545-7749",
    "rating": 4.8,
    "reviews": 25,
    "website": "https://www.granitestatesolar.com/",
    "category": "Baby-Boomer-owned Solar panel installation in New-Hampshire",
    "description": "Granite State Solar is an award-winning solar and backup power installer serving New Hampshire since 2008. They offer a full range of services from site assessment to installation and ongoing support",
    "hours": "Mon-Fri 9AM-6PM",
    "services": [
      "Baby-Boomer-owned Solar panel installation in New-Hampshire consultation",
      "Professional service",
      "Quality guarantee"
    ],
    "social_links": {}
  },
  {
    "name": "All Energy Solar",
    "address": "100 Airport Rd, Concord, NH 03301",
    "phone": "(800) 777-6570",
    "rating": 4.7,
    "reviews": 25,
    "website": "https://www.allenergysolar.com/",
    "category": "Baby-Boomer-owned Solar panel installation in New-Hampshire",
    "description": "All Energy Solar provides full-service solar installation for homeowners, businesses, farms, and municipalities across New Hampshire. They have been serving the state since 2009 and focus on customized systems for long-term energy savings",
    "hours": "Mon-Fri 9AM-6PM",
    "services": [
      "Baby-Boomer-owned Solar panel installation in New-Hampshire consultation",
      "Professional service",
      "Quality guarantee"
    ],
    "social_links": {}
  },
  {
    "name": "ReVision Energy",
    "address": "143 US-1, York, ME 04096 (Serves NH)",
    "phone": "(207) 747-0076",
    "rating": 4.0,
    "reviews": 25,
    "website": "https://www.revisionenergy.com/",
    "category": "Baby-Boomer-owned Solar panel installation in New-Hampshire",
    "description": "ReVision Energy is an employee-owned solar installation company with nearly two decades of experience in New England, including New Hampshire. They offer solar, heat pumps, EV charging, and battery storage",
    "hours": "Mon-Fri 9AM-6PM",
    "services": [
      "Baby-Boomer-owned Solar panel installation in New-Hampshire consultation",
      "Professional service",
      "Quality guarantee"
    ],
    "social_links": {}
  },
  {
    "name": "Sunup Solar",
    "address": "142 Auburn Rd, Auburn, NH 03032",
    "phone": "(603) 647-0077",
    "rating": 4.0,
    "reviews": 25,
    "website": "https://www.sunupsolar.com/",
    "category": "Baby-Boomer-owned Solar panel installation in New-Hampshire",
    "description": "Sunup Solar specializes in the installation and repair of solar panels, battery backups, and solar generators, using Maxeon equipment. They have an in-house team that handles every step of the process",
    "hours": "Mon-Fri 9AM-6PM",
    "services": [
      "Baby-Boomer-owned Solar panel installation in New-Hampshire consultation",
      "Professional service",
      "Quality guarantee"
    ],
    "social_links": {}
  },
  {
    "name": "603 Solar",
    "address": "131 Mammoth Rd, Unit 3, Londonderry, NH 03053",
    "phone": "(603) 570-2607",
    "rating": 4.0,
    "reviews": 25,
    "website": "https://www.603solar.com/",
    "category": "Baby-Boomer-owned Solar panel installation in New-Hampshire",
    "description": "603 Solar is a leading solar contractor in New Hampshire for residential and commercial properties, focused on educating customers about the value of solar energy",
    "hours": "Mon-Fri 9AM-6PM",
    "services": [
      "Baby-Boomer-owned Solar panel installation in New-Hampshire consultation",
      "Professional service",
      "Quality guarantee"
    ],
    "social_links": {}
  },
  {
    "name": "Venture Solar",
    "address": "100 Corporate Dr, Suite 100, Lebanon, NH 03766",
    "phone": "(855) 777-0077",
    "rating": 4.8,
    "reviews": 25,
    "website": "https://www.venturesolar.com/",
    "category": "Baby-Boomer-owned Solar panel installation in New-Hampshire",
    "description": "Venture Solar is recognized as a top solar company in New Hampshire, specializing in aesthetically pleasing installations with no visible wiring. They offer comprehensive financing options",
    "hours": "Mon-Fri 9AM-6PM",
    "services": [
      "Baby-Boomer-owned Solar panel installation in New-Hampshire consultation",
      "Professional service",
      "Quality guarantee"
    ],
    "social_links": {}
  },
  {
    "name": "Tesla",
    "address": "Various locations, check website for local service",
    "phone": "1-888-577-7652",
    "rating": 4.0,
    "reviews": 25,
    "website": "https://www.tesla.com/solarpanels",
    "category": "Baby-Boomer-owned Solar panel installation in New-Hampshire",
    "description": "Tesla offers solar panel installations, known for their technology and integration with other Tesla products. They install QCells panels, which are noted for their efficiency",
    "hours": "Mon-Fri 9AM-6PM",
    "services": [
      "Baby-Boomer-owned Solar panel installation in New-Hampshire consultation",
      "Professional service",
      "Quality guarantee"
    ],
    "social_links": {}
  },
  {
    "name": "New England Clean Energy",
    "address": "143 Spring St, Marlborough, MA 01752 (Serves NH)",
    "phone": "(800) 200-5050",
    "rating": 4.0,
    "reviews": 25,
    "website": "https://www.necleanenergy.com/",
    "category": "Baby-Boomer-owned Solar panel installation in New-Hampshire",
    "description": "New England Clean Energy is recognized for its excellent customer service and has been in business since 2006, making them a very experienced solar provider in the region",
    "hours": "Mon-Fri 9AM-6PM",
    "services": [
      "Baby-Boomer-owned Solar panel installation in New-Hampshire consultation",
      "Professional service",
      "Quality guarantee"
    ],
    "social_links": {}
  },
  {
    "name": "Great Sky Solar",
    "address": "Not explicitly stated, but operates in New Hampshire",
    "phone": "",
    "rating": 4.0,
    "reviews": 25,
    "website": "https://www.google.com/maps/search/Great+Sky+Solar+New+Hampshire",
    "category": "Baby-Boomer-owned Solar panel installation in New-Hampshire",
    "description": "Great Sky Solar is mentioned as a top solar company in New Hampshire, recognized for its social impact",
    "hours": "Mon-Fri 9AM-6PM",
    "services": [
      "Baby-Boomer-owned Solar panel installation in New-Hampshire consultation",
      "Professional service",
      "Quality guarantee"
    ],
    "social_links": {}
  },
  {
    "name": "NuWatt Energy",
    "address": "145 Main St, Suite 302, Woburn, MA 01801 (Serves NH)",
    "phone": "(888) 902-7788",
    "rating": 4.7,
    "reviews": 25,
    "website": "https://nuwattenergy.com/",
    "category": "Baby-Boomer-owned Solar panel installation in New-Hampshire",
    "description": "NuWatt Energy strives to empower clients with energy independence and enhanced efficiency. They are an Elite+ Installer and have been established since 2010",
    "hours": "Mon-Fri 9AM-6PM",
    "services": [
      "Baby-Boomer-owned Solar panel installation in New-Hampshire consultation",
      "Professional service",
      "Quality guarantee"
    ],
    "social_links": {}
  }
]