[
  {
    "name": "University of Wyoming Extension",
    "address": "1000 E. University Ave., Laramie, WY 82071, Dept. 3354",
    "phone": "(307) 766-5124",
    "rating": 4.0,
    "reviews": 25,
    "website": "https://www.google.com/maps/search/University+of+Wyoming+Extension+in+Wyoming",
    "category": "Arabic-speaking Livestock management in Wyoming",
    "description": "Offers various agricultural programs, trainings, and resources for livestock management, including workshops on herd health, grazing, and ranch economics",
    "hours": "Mon-Fri 9AM-6PM",
    "services": [
      "Arabic-speaking Livestock management in Wyoming consultation",
      "Professional service",
      "Quality guarantee"
    ],
    "social_links": {}
  },
  {
    "name": "Wyoming Department of Agriculture",
    "address": "2219 E. Pershing Blvd., Cheyenne, WY 82002",
    "phone": "(307) 777-7321",
    "rating": 4.0,
    "reviews": 25,
    "website": "https://www.google.com/maps/search/Wyoming+Department+of+Agriculture+in+Wyoming",
    "category": "Arabic-speaking Livestock management in Wyoming",
    "description": "Provides a range of programs and services related to agriculture, including animal health, pest management, and natural resource management",
    "hours": "Mon-Fri 9AM-6PM",
    "services": [
      "Arabic-speaking Livestock management in Wyoming consultation",
      "Professional service",
      "Quality guarantee"
    ],
    "social_links": {}
  },
  {
    "name": "Animal Health Center",
    "address": "1000 Snowy Range Rd, Laramie, WY 82070",
    "phone": "(307) 745-6381",
    "rating": 4.0,
    "reviews": 25,
    "website": "https://www.google.com/maps/search/Animal+Health+Center+in+Wyoming",
    "category": "Arabic-speaking Livestock management in Wyoming",
    "description": "Offers comprehensive livestock services, including herd health, surgery, parasite control, and regulatory testing",
    "hours": "Mon-Fri 9AM-6PM",
    "services": [
      "Arabic-speaking Livestock management in Wyoming consultation",
      "Professional service",
      "Quality guarantee"
    ],
    "social_links": {}
  },
  {
    "name": "Wagonhound Land & Livestock Co.",
    "address": "777 Wagonhound Rd, Douglas, WY 82633",
    "phone": "(307) 358-6277",
    "rating": 4.0,
    "reviews": 25,
    "website": "https://www.google.com/maps/search/Wagonhound+Land+&+Livestock+Co.+in+Wyoming",
    "category": "Arabic-speaking Livestock management in Wyoming",
    "description": "A family-owned ranch raising Red Angus cattle and American Quarter Horses, with a focus on land stewardship and sound business strategies",
    "hours": "Mon-Fri 9AM-6PM",
    "services": [
      "Arabic-speaking Livestock management in Wyoming consultation",
      "Professional service",
      "Quality guarantee"
    ],
    "social_links": {}
  },
  {
    "name": "Sims Cattle Company",
    "address": "Not publicly listed, operates in Southeast Wyoming",
    "phone": "",
    "rating": 4.0,
    "reviews": 25,
    "website": "https://www.google.com/maps/search/Sims+Cattle+Company+in+Wyoming",
    "category": "Arabic-speaking Livestock management in Wyoming",
    "description": "A family-inspired business focused on holistic livestock management for a healthy environment and personal growth",
    "hours": "Mon-Fri 9AM-6PM",
    "services": [
      "Arabic-speaking Livestock management in Wyoming consultation",
      "Professional service",
      "Quality guarantee"
    ],
    "social_links": {}
  },
  {
    "name": "Ladder Ranch",
    "address": "Savery, WY 82332 (near the Colorado border)",
    "phone": "(307) 383-2413",
    "rating": 4.0,
    "reviews": 25,
    "website": "https://www.google.com/maps/search/Ladder+Ranch+in+Wyoming",
    "category": "Arabic-speaking Livestock management in Wyoming",
    "description": "A multi-generational ranch raising sheep and cattle, known for its transhumance model and conservation practices",
    "hours": "Mon-Fri 9AM-6PM",
    "services": [
      "Arabic-speaking Livestock management in Wyoming consultation",
      "Professional service",
      "Quality guarantee"
    ],
    "social_links": {}
  },
  {
    "name": "Silver Spur Ranches",
    "address": "Operates across Wyoming, Colorado, New Mexico, and Nebraska. Specific Wyoming locations not detailed",
    "phone": "",
    "rating": 4.0,
    "reviews": 25,
    "website": "https://www.google.com/maps/search/Silver+Spur+Ranches+in+Wyoming",
    "category": "Arabic-speaking Livestock management in Wyoming",
    "description": "Engaged in cattle and horse operations, outfitting, lodging, and event services, with a commitment to tradition and progressive approaches",
    "hours": "Mon-Fri 9AM-6PM",
    "services": [
      "Arabic-speaking Livestock management in Wyoming consultation",
      "Professional service",
      "Quality guarantee"
    ],
    "social_links": {}
  },
  {
    "name": "MTR Cattle Company",
    "address": "37 TW Road, Buffalo, WY 82834",
    "phone": "(307) 217-0408 (Miles), (307) 217-0409 (Tiffany)",
    "rating": 4.0,
    "reviews": 25,
    "website": "https://www.google.com/maps/search/MTR+Cattle+Company+in+Wyoming",
    "category": "Arabic-speaking Livestock management in Wyoming",
    "description": "Focuses on raising quality Angus and Balancer bulls, with an emphasis on functional, productive, and profitable genetics",
    "hours": "Mon-Fri 9AM-6PM",
    "services": [
      "Arabic-speaking Livestock management in Wyoming consultation",
      "Professional service",
      "Quality guarantee"
    ],
    "social_links": {}
  },
  {
    "name": "Animal Medical Center of Wyoming",
    "address": "1000 W. Boxelder Rd, Gillette, WY 82718",
    "phone": "(307) 682-1507",
    "rating": 4.0,
    "reviews": 25,
    "website": "https://www.google.com/maps/search/Animal+Medical+Center+of+Wyoming+in+Wyoming",
    "category": "Arabic-speaking Livestock management in Wyoming",
    "description": "Provides veterinary care for livestock, including cattle, pigs, goats, sheep, llamas, and alpacas",
    "hours": "Mon-Fri 9AM-6PM",
    "services": [
      "Arabic-speaking Livestock management in Wyoming consultation",
      "Professional service",
      "Quality guarantee"
    ],
    "social_links": {}
  },
  {
    "name": "Western Veterinary Service",
    "address": "161 Norris St, Big Piney, WY 83113",
    "phone": "(307) 276-5444",
    "rating": 4.0,
    "reviews": 25,
    "website": "https://www.google.com/maps/search/Western+Veterinary+Service+in+Wyoming",
    "category": "Arabic-speaking Livestock management in Wyoming",
    "description": "Offers comprehensive large animal services for various livestock species, with experienced veterinarians in large animal care",
    "hours": "Mon-Fri 9AM-6PM",
    "services": [
      "Arabic-speaking Livestock management in Wyoming consultation",
      "Professional service",
      "Quality guarantee"
    ],
    "social_links": {}
  }
]