[
  {
    "name": "VA Home Inspect, LLC",
    "address": "Fairfax, VA",
    "phone": "703-786-3368",
    "rating": 5.0,
    "reviews": 25,
    "website": "https://www.google.com/maps/search/VA+Home+Inspect,+LLC+in+Virginia",
    "category": "Japanese-American-owned Home inspection in Virginia",
    "description": "Offers comprehensive home inspections, 4-point inspections, and mold inspections throughout Northern Virginia, Washington D.C., and Maryland",
    "hours": "Mon-Fri 9AM-6PM",
    "services": [
      "Japanese-American-owned Home inspection in Virginia consultation",
      "Professional service",
      "Quality guarantee"
    ],
    "social_links": {}
  },
  {
    "name": "360 Home Inspections",
    "address": "New Kent, VA",
    "phone": "804-998-0805",
    "rating": 5.0,
    "reviews": 25,
    "website": "https://www.google.com/maps/search/360+Home+Inspections+in+Virginia",
    "category": "Japanese-American-owned Home inspection in Virginia",
    "description": "A veteran-owned small business specializing in residential and commercial inspections, serving the Metro Richmond, Peninsula, Middle Peninsula, and Historic Triangle areas",
    "hours": "Mon-Fri 9AM-6PM",
    "services": [
      "Japanese-American-owned Home inspection in Virginia consultation",
      "Professional service",
      "Quality guarantee"
    ],
    "social_links": {}
  },
  {
    "name": "Guardian Home Inspections",
    "address": "Fairfax, VA",
    "phone": "",
    "rating": 5.0,
    "reviews": 25,
    "website": "https://www.google.com/maps/search/Guardian+Home+Inspections+in+Virginia",
    "category": "Japanese-American-owned Home inspection in Virginia",
    "description": "Provides professional home inspections to Fairfax, Arlington, Alexandria, Loudoun, Prince William, and surrounding areas, including Washington D.C",
    "hours": "Mon-Fri 9AM-6PM",
    "services": [
      "Japanese-American-owned Home inspection in Virginia consultation",
      "Professional service",
      "Quality guarantee"
    ],
    "social_links": {}
  },
  {
    "name": "Burgess Inspections, Inc.",
    "address": "Richmond, VA",
    "phone": "844-804-9219",
    "rating": 4.0,
    "reviews": 25,
    "website": "https://www.google.com/maps/search/Burgess+Inspections,+Inc.+in+Virginia",
    "category": "Japanese-American-owned Home inspection in Virginia",
    "description": "Offers buyer/renter home inspections, specialized inspections like synthetic stucco/EIFS, new construction, and radon testing with over 85 years of combined inspection experience",
    "hours": "Mon-Fri 9AM-6PM",
    "services": [
      "Japanese-American-owned Home inspection in Virginia consultation",
      "Professional service",
      "Quality guarantee"
    ],
    "social_links": {}
  },
  {
    "name": "Top Down Home Inspections",
    "address": "Alexandria, VA",
    "phone": "703-239-4568",
    "rating": 5.0,
    "reviews": 25,
    "website": "https://www.google.com/maps/search/Top+Down+Home+Inspections+in+Virginia",
    "category": "Japanese-American-owned Home inspection in Virginia",
    "description": "A locally owned and operated full-service home and property inspection company serving Alexandria, VA, and surrounding areas, offering property management and investment services as well",
    "hours": "Mon-Fri 9AM-6PM",
    "services": [
      "Japanese-American-owned Home inspection in Virginia consultation",
      "Professional service",
      "Quality guarantee"
    ],
    "social_links": {}
  },
  {
    "name": "ProCraft Inspections",
    "address": "Virginia Beach, VA",
    "phone": "757-362-2300",
    "rating": 5.0,
    "reviews": 25,
    "website": "https://www.google.com/maps/search/ProCraft+Inspections+in+Virginia",
    "category": "Japanese-American-owned Home inspection in Virginia",
    "description": "A veteran-owned home inspection and energy audit service with over 20 years of experience in Virginia Beach, Chesapeake, Norfolk, and surrounding areas",
    "hours": "Mon-Fri 9AM-6PM",
    "services": [
      "Japanese-American-owned Home inspection in Virginia consultation",
      "Professional service",
      "Quality guarantee"
    ],
    "social_links": {}
  },
  {
    "name": "FSI Home Inspections",
    "address": "Alexandria, VA",
    "phone": "703-705-9730",
    "rating": 5.0,
    "reviews": 25,
    "website": "https://www.google.com/maps/search/FSI+Home+Inspections+in+Virginia",
    "category": "Japanese-American-owned Home inspection in Virginia",
    "description": "A veteran-owned and operated company with over 30 years of experience offering home inspection, mold inspection, and radon testing services in Northern Virginia and surrounding areas",
    "hours": "Mon-Fri 9AM-6PM",
    "services": [
      "Japanese-American-owned Home inspection in Virginia consultation",
      "Professional service",
      "Quality guarantee"
    ],
    "social_links": {}
  },
  {
    "name": "Ace Home Inspections",
    "address": "Chesapeake, VA",
    "phone": "757-705-3721",
    "rating": 5.0,
    "reviews": 25,
    "website": "https://www.google.com/maps/search/Ace+Home+Inspections+in+Virginia",
    "category": "Japanese-American-owned Home inspection in Virginia",
    "description": "A certified master inspector and veteran-owned business providing thorough home inspections in Chesapeake, VA, and the entire Hampton Roads area",
    "hours": "Mon-Fri 9AM-6PM",
    "services": [
      "Japanese-American-owned Home inspection in Virginia consultation",
      "Professional service",
      "Quality guarantee"
    ],
    "social_links": {}
  },
  {
    "name": "Rosewood Home Inspections",
    "address": "Richmond, VA",
    "phone": "",
    "rating": 5.0,
    "reviews": 25,
    "website": "https://www.google.com/maps/search/Rosewood+Home+Inspections+in+Virginia",
    "category": "Japanese-American-owned Home inspection in Virginia",
    "description": "Offers home inspection services in Richmond, VA, and surrounding areas with over 17 years of construction and renovation experience",
    "hours": "Mon-Fri 9AM-6PM",
    "services": [
      "Japanese-American-owned Home inspection in Virginia consultation",
      "Professional service",
      "Quality guarantee"
    ],
    "social_links": {}
  },
  {
    "name": "HomePro Inspections",
    "address": "Richmond, VA",
    "phone": "804-639-9222",
    "rating": 5.0,
    "reviews": 25,
    "website": "https://www.google.com/maps/search/HomePro+Inspections+in+Virginia",
    "category": "Japanese-American-owned Home inspection in Virginia",
    "description": "Serving the Richmond, VA Metro Area since 1993, providing thorough, unbiased inspections and detailed online reports",
    "hours": "Mon-Fri 9AM-6PM",
    "services": [
      "Japanese-American-owned Home inspection in Virginia consultation",
      "Professional service",
      "Quality guarantee"
    ],
    "social_links": {}
  }
]