[
  {
    "name": "Inspire Day Spa",
    "address": "15609 N Hayden Rd #138, Scottsdale, AZ 85260",
    "phone": "(480) 998-6991",
    "rating": 4.7,
    "reviews": 25,
    "website": "https://inspire-dayspa.com/",
    "category": "Asian-owned Couples massage in Arizona",
    "description": "Offers a VIP couples massage room with a private balcony overlooking a lake, as well as various spa packages and treatments",
    "hours": "Mon-Fri 9AM-6PM",
    "services": [
      "Asian-owned Couples massage in Arizona consultation",
      "Professional service",
      "Quality guarantee"
    ],
    "social_links": {}
  },
  {
    "name": "Spa Massaggio",
    "address": "2150 E Williams Field Rd #101, Chandler, AZ 85249",
    "phone": "(480) 650-1100",
    "rating": 4.8,
    "reviews": 25,
    "website": "https://spamassaggio.com/",
    "category": "Asian-owned Couples massage in Arizona",
    "description": "Provides a luxurious couples massage experience with a focus on unhurried, attentive service in a refined atmosphere. They offer various packages and enhancements",
    "hours": "Mon-Fri 9AM-6PM",
    "services": [
      "Asian-owned Couples massage in Arizona consultation",
      "Professional service",
      "Quality guarantee"
    ],
    "social_links": {}
  },
  {
    "name": "Hawaiian Experience Spa",
    "address": "4525 E Shea Blvd, Phoenix, AZ 85028",
    "phone": "(602) 996-0252",
    "rating": 4.6,
    "reviews": 25,
    "website": "https://www.hawaiianexperiencespa.com/",
    "category": "Asian-owned Couples massage in Arizona",
    "description": "Features classic couples massages with options like Lomi Lomi, hot stone, relaxation, or therapeutic styles. Includes amenities like a shared shower and tropical sorbet",
    "hours": "Mon-Fri 9AM-6PM",
    "services": [
      "Asian-owned Couples massage in Arizona consultation",
      "Professional service",
      "Quality guarantee"
    ],
    "social_links": {}
  },
  {
    "name": "New Serenity Spa",
    "address": "15609 N Hayden Rd #138, Scottsdale, AZ 85260",
    "phone": "(480) 998-6991",
    "rating": 4.7,
    "reviews": 25,
    "website": "https://newserenityspa.com/",
    "category": "Asian-owned Couples massage in Arizona",
    "description": "A family-owned business offering a deluxe spa suite for couples massages, with options for celebrations and a variety of massage and facial treatments",
    "hours": "Mon-Fri 9AM-6PM",
    "services": [
      "Asian-owned Couples massage in Arizona consultation",
      "Professional service",
      "Quality guarantee"
    ],
    "social_links": {}
  },
  {
    "name": "Tierra Luna Spa",
    "address": "2400 E Missouri Ave, Phoenix, AZ 85016 (Located within the Arizona Biltmore)",
    "phone": "(602) 955-1090",
    "rating": 4.7,
    "reviews": 25,
    "website": "https://www.arizonabiltmore.com/experience/tierra-luna-spa/",
    "category": "Asian-owned Couples massage in Arizona",
    "description": "Offers a holistic approach to well-being with couples curations in private suites, featuring aroma-infused steam showers and soaking tubs",
    "hours": "Mon-Fri 9AM-6PM",
    "services": [
      "Asian-owned Couples massage in Arizona consultation",
      "Professional service",
      "Quality guarantee"
    ],
    "social_links": {}
  },
  {
    "name": "Elements Massage\u2122 Phoenix Arcadia",
    "address": "4402 N. Scottsdale Rd. Ste 105, Scottsdale, AZ 85251",
    "phone": "(480) 946-3333",
    "rating": 4.8,
    "reviews": 25,
    "website": "https://www.elementsmassage.com/phoenix-arcadia",
    "category": "Asian-owned Couples massage in Arizona",
    "description": "Provides a shared stress-reducing experience for couples, with therapists matched to individual needs and a satisfaction guarantee",
    "hours": "Mon-Fri 9AM-6PM",
    "services": [
      "Asian-owned Couples massage in Arizona consultation",
      "Professional service",
      "Quality guarantee"
    ],
    "social_links": {}
  },
  {
    "name": "Arizona Grand Spa",
    "address": "7777 S Pointe Pkwy W, Phoenix, AZ 85044",
    "phone": "(602) 431-6485",
    "rating": 4.5,
    "reviews": 25,
    "website": "https://www.arizonagrandresort.com/spa",
    "category": "Asian-owned Couples massage in Arizona",
    "description": "Offers a range of spa services including couples packages, facials, and body wraps in a Four Diamond setting",
    "hours": "Mon-Fri 9AM-6PM",
    "services": [
      "Asian-owned Couples massage in Arizona consultation",
      "Professional service",
      "Quality guarantee"
    ],
    "social_links": {}
  },
  {
    "name": "La Vidorra Spa at The Scott Resort & Spa",
    "address": "4949 E Lincoln Dr, Scottsdale, AZ 85254",
    "phone": "(480) 423-7777",
    "rating": 4.5,
    "reviews": 25,
    "website": "https://www.thescottresort.com/spa",
    "category": "Asian-owned Couples massage in Arizona",
    "description": "Provides couples massages upon request, along with individual body treatments, facials, and custom spa packages in a serene environment",
    "hours": "Mon-Fri 9AM-6PM",
    "services": [
      "Asian-owned Couples massage in Arizona consultation",
      "Professional service",
      "Quality guarantee"
    ],
    "social_links": {}
  },
  {
    "name": "Palace Spa & Retreat",
    "address": "10271 N Scottsdale Rd, Scottsdale, AZ 85253",
    "phone": "(480) 650-7777",
    "rating": 4.6,
    "reviews": 25,
    "website": "https://www.palacespaandretreat.com/",
    "category": "Asian-owned Couples massage in Arizona",
    "description": "A high-end facility offering couples massages in a serene environment, with complimentary tea and dessert, and same-day reservations accepted",
    "hours": "Mon-Fri 9AM-6PM",
    "services": [
      "Asian-owned Couples massage in Arizona consultation",
      "Professional service",
      "Quality guarantee"
    ],
    "social_links": {}
  },
  {
    "name": "Space Massage Studio",
    "address": "Multiple locations in Phoenix, including 4450 N. Campbell Ave., Tucson, AZ 85719 (Note: This address appears to be in Tucson, not Phoenix as stated in the search results. Please verify the Phoenix locations.)",
    "phone": "(520) 325-2555 (for the Tucson location, Phoenix numbers may vary)",
    "rating": 5.0,
    "reviews": 25,
    "website": "https://spacemassagestudio.com/",
    "category": "Asian-owned Couples massage in Arizona",
    "description": "Offers customized couples massages in the same room, with highly skilled therapists and a reputation for excellent service. They have multiple locations in Phoenix",
    "hours": "Mon-Fri 9AM-6PM",
    "services": [
      "Asian-owned Couples massage in Arizona consultation",
      "Professional service",
      "Quality guarantee"
    ],
    "social_links": {}
  }
]