[
  {
    "name": "INTEGRIS Health Hospice OKC",
    "address": "1200 N. Walker Ave., Oklahoma City, OK 73103",
    "phone": "(405) 951-2200",
    "rating": 4.0,
    "reviews": 25,
    "website": "https://integrisok.com/services/hospice-care",
    "category": "Atheist-owned Hospice services in Oklahoma",
    "description": "Offers medical, emotional, and spiritual care for patients facing life-limiting illnesses, with services available in-home, at long-term care facilities, or at the hospice house",
    "hours": "Mon-Fri 9AM-6PM",
    "services": [
      "Atheist-owned Hospice services in Oklahoma consultation",
      "Professional service",
      "Quality guarantee"
    ],
    "social_links": {}
  },
  {
    "name": "Mercy Hospice OKC",
    "address": "4300 W Memorial Rd, Oklahoma City, OK 73120",
    "phone": "(405) 486-8600",
    "rating": 4.0,
    "reviews": 25,
    "website": "https://www.mercy.net/service/hospice-care/",
    "category": "Atheist-owned Hospice services in Oklahoma",
    "description": "Provides hospice care and services coordinated by a team of clinical professionals, social workers, volunteers, and chaplains, focusing on quality of life and dignity",
    "hours": "Mon-Fri 9AM-6PM",
    "services": [
      "Atheist-owned Hospice services in Oklahoma consultation",
      "Professional service",
      "Quality guarantee"
    ],
    "social_links": {}
  },
  {
    "name": "CompleteOK",
    "address": "10300 N. Pennsylvania Ave., Suite 300, Oklahoma City, OK 73120",
    "phone": "(888) 948-0088",
    "rating": 4.0,
    "reviews": 25,
    "website": "https://completeok.com/",
    "category": "Atheist-owned Hospice services in Oklahoma",
    "description": "Offers a spectrum of in-home care services including home health, palliative care, and hospice care with a team of dedicated healthcare professionals",
    "hours": "Mon-Fri 9AM-6PM",
    "services": [
      "Atheist-owned Hospice services in Oklahoma consultation",
      "Professional service",
      "Quality guarantee"
    ],
    "social_links": {}
  },
  {
    "name": "Hospice of North Central Oklahoma",
    "address": "405 W. Main Street, Suite 201, Tonkawa, OK 74653",
    "phone": "(580) 765-0670",
    "rating": 4.0,
    "reviews": 25,
    "website": "https://www.hospicenoco.org/",
    "category": "Atheist-owned Hospice services in Oklahoma",
    "description": "Embraces the physical, emotional, and spiritual needs of patients and families through an organized interdisciplinary team",
    "hours": "Mon-Fri 9AM-6PM",
    "services": [
      "Atheist-owned Hospice services in Oklahoma consultation",
      "Professional service",
      "Quality guarantee"
    ],
    "social_links": {}
  },
  {
    "name": "Grace Hospice (LHC Group)",
    "address": "1010 N. Main Street, Suite 100, Miami, OK 74354",
    "phone": "(918) 542-4200",
    "rating": 4.0,
    "reviews": 25,
    "website": "https://www.lhcgroup.com/locations/grace-hospice-miami-ok/",
    "category": "Atheist-owned Hospice services in Oklahoma",
    "description": "Provides compassionate, quality hospice care to communities in northeast Oklahoma, tailoring healthcare to ensure the best journey possible for patients and their families",
    "hours": "Mon-Fri 9AM-6PM",
    "services": [
      "Atheist-owned Hospice services in Oklahoma consultation",
      "Professional service",
      "Quality guarantee"
    ],
    "social_links": {}
  },
  {
    "name": "Compassus (Muskogee Hospice)",
    "address": "300 N. 34th Street, Muskogee, OK 74401",
    "phone": "(918) 687-4000",
    "rating": 4.0,
    "reviews": 25,
    "website": "https://www.compassus.com/locations/muskogee-hospice/",
    "category": "Atheist-owned Hospice services in Oklahoma",
    "description": "Offers hospice care services in Muskogee and surrounding counties, focusing on enabling patients to regain independence and enjoy a better quality of life",
    "hours": "Mon-Fri 9AM-6PM",
    "services": [
      "Atheist-owned Hospice services in Oklahoma consultation",
      "Professional service",
      "Quality guarantee"
    ],
    "social_links": {}
  },
  {
    "name": "Frontier Hospice",
    "address": "100 W. Chickasha Ave., Suite 100, Chickasha, OK 73018",
    "phone": "(405) 222-0077",
    "rating": 4.0,
    "reviews": 25,
    "website": "https://frontierhospice.com/",
    "category": "Atheist-owned Hospice services in Oklahoma",
    "description": "Differentiates itself through passionate care for people with life-limiting illnesses and their loved ones, aiming to maximize quality of life and relieve suffering",
    "hours": "Mon-Fri 9AM-6PM",
    "services": [
      "Atheist-owned Hospice services in Oklahoma consultation",
      "Professional service",
      "Quality guarantee"
    ],
    "social_links": {}
  },
  {
    "name": "Good Shepherd Hospice",
    "address": "1010 N. Main Street, Suite 100, Miami, OK 74354 (This address appears to be shared with Grace Hospice in search results, indicating a potential regional office or partnership)",
    "phone": "(918) 542-4200",
    "rating": 4.0,
    "reviews": 25,
    "website": "https://www.goodshepherdhospice.com/",
    "category": "Atheist-owned Hospice services in Oklahoma",
    "description": "A hometown hospice with offices across Kansas, Missouri, Oklahoma, and Texas, providing comfort, relieving suffering, and promoting quality of life with dignity",
    "hours": "Mon-Fri 9AM-6PM",
    "services": [
      "Atheist-owned Hospice services in Oklahoma consultation",
      "Professional service",
      "Quality guarantee"
    ],
    "social_links": {}
  },
  {
    "name": "Carter Healthcare Hospice Of North Oklahoma, Llc",
    "address": "210 East Graham, Pryor, OK 74361",
    "phone": "(918) 373-8098",
    "rating": 4.0,
    "reviews": 25,
    "website": "https://www.carterhealthcare.net/hospice-care",
    "category": "Atheist-owned Hospice services in Oklahoma",
    "description": "Provides Medicare-certified hospice care with a team-oriented approach addressing the medical, physical, social, emotional, and spiritual needs of terminally ill patients and their families",
    "hours": "Mon-Fri 9AM-6PM",
    "services": [
      "Atheist-owned Hospice services in Oklahoma consultation",
      "Professional service",
      "Quality guarantee"
    ],
    "social_links": {}
  },
  {
    "name": "Heart to Heart Hospice (Southeast Oklahoma Service Area)",
    "address": "1321 N 16th Avenue, Durant, OK 74701 (Administrative Office)",
    "phone": "(580) 920-0777",
    "rating": 4.0,
    "reviews": 25,
    "website": "https://www.hearttohearthospice.com/service-areas/southeast-oklahoma/",
    "category": "Atheist-owned Hospice services in Oklahoma",
    "description": "Offers compassionate care to hospice patients wherever they call home, including private residences, nursing homes, and assisted living facilities, with local caregivers serving the communities",
    "hours": "Mon-Fri 9AM-6PM",
    "services": [
      "Atheist-owned Hospice services in Oklahoma consultation",
      "Professional service",
      "Quality guarantee"
    ],
    "social_links": {}
  }
]