[
  {
    "name": "All American Electric",
    "address": "Serves Georgetown, DE and the Delmarva Peninsula",
    "phone": "(302) 856-1100",
    "rating": 4.0,
    "reviews": 25,
    "website": "https://www.allamericanelectric.com/",
    "category": "LGBT-owned Generators in Delaware",
    "description": "Reliable and affordable residential and commercial electrical services, specializing in Generac standby generators. They offer installation, maintenance, and repair",
    "hours": "Mon-Fri 9AM-6PM",
    "services": [
      "LGBT-owned Generators in Delaware consultation",
      "Professional service",
      "Quality guarantee"
    ],
    "social_links": {}
  },
  {
    "name": "Lewis Electric Services",
    "address": "Sussex County, DE (Serves Dover to Delmar and East to the Beach)",
    "phone": "(302) 856-1100",
    "rating": 4.0,
    "reviews": 25,
    "website": "https://www.lewismep.com/",
    "category": "LGBT-owned Generators in Delaware",
    "description": "Full-service electrical contractor offering residential, commercial, pool and spa services, EV chargers, outdoor lighting, and Generac generators",
    "hours": "Mon-Fri 9AM-6PM",
    "services": [
      "LGBT-owned Generators in Delaware consultation",
      "Professional service",
      "Quality guarantee"
    ],
    "social_links": {}
  },
  {
    "name": "Pink Electrical Services",
    "address": "Clayton, DE 19938",
    "phone": "(302) 363-0438",
    "rating": 4.0,
    "reviews": 25,
    "website": "https://pinkelectrical.com/",
    "category": "LGBT-owned Generators in Delaware",
    "description": "Family-run business providing expert electrical services to small businesses and homeowners, including generator installation",
    "hours": "Mon-Fri 9AM-6PM",
    "services": [
      "LGBT-owned Generators in Delaware consultation",
      "Professional service",
      "Quality guarantee"
    ],
    "social_links": {}
  },
  {
    "name": "Independent Electrical Services, LLC",
    "address": "Claymont, DE",
    "phone": "(302) 383-2761",
    "rating": 4.0,
    "reviews": 25,
    "website": "https://www.independentelectricalservices.com/",
    "category": "LGBT-owned Generators in Delaware",
    "description": "Licensed and insured electrical contracting company offering a wide range of services, including generator installation",
    "hours": "Mon-Fri 9AM-6PM",
    "services": [
      "LGBT-owned Generators in Delaware consultation",
      "Professional service",
      "Quality guarantee"
    ],
    "social_links": {}
  },
  {
    "name": "B&B Electrical Services, Inc.",
    "address": "Delaware",
    "phone": "(302) 540-3662",
    "rating": 4.0,
    "reviews": 25,
    "website": "https://www.bbesinc.com/",
    "category": "LGBT-owned Generators in Delaware",
    "description": "Provides expert residential and commercial electrical services, including generator and surge protection systems",
    "hours": "Mon-Fri 9AM-6PM",
    "services": [
      "LGBT-owned Generators in Delaware consultation",
      "Professional service",
      "Quality guarantee"
    ],
    "social_links": {}
  },
  {
    "name": "PSC Electrical Contracting",
    "address": "Delaware, Maryland, Pennsylvania",
    "phone": "(302) 655-1071",
    "rating": 4.0,
    "reviews": 25,
    "website": "https://www.pscelectric.com/",
    "category": "LGBT-owned Generators in Delaware",
    "description": "Provides electrical services to residences and businesses, including new construction, renovations, and generator installations",
    "hours": "Mon-Fri 9AM-6PM",
    "services": [
      "LGBT-owned Generators in Delaware consultation",
      "Professional service",
      "Quality guarantee"
    ],
    "social_links": {}
  },
  {
    "name": "KB Electrical Services",
    "address": "Delaware",
    "phone": "(302) 734-0200",
    "rating": 4.0,
    "reviews": 25,
    "website": "https://kbelectricalservices.com/",
    "category": "LGBT-owned Generators in Delaware",
    "description": "Specializes in high-quality, code-compliant electrical services for residential and commercial clients, including generator services",
    "hours": "Mon-Fri 9AM-6PM",
    "services": [
      "LGBT-owned Generators in Delaware consultation",
      "Professional service",
      "Quality guarantee"
    ],
    "social_links": {}
  },
  {
    "name": "Mid-Atlantic Generators",
    "address": "Serves Pennsylvania, Delaware, and New Jersey",
    "phone": "(800) 779-8000",
    "rating": 4.0,
    "reviews": 25,
    "website": "https://www.midatlanticgenerators.com/",
    "category": "LGBT-owned Generators in Delaware",
    "description": "Specializes in sales, installation, and maintenance of generators for commercial, industrial, and residential properties",
    "hours": "Mon-Fri 9AM-6PM",
    "services": [
      "LGBT-owned Generators in Delaware consultation",
      "Professional service",
      "Quality guarantee"
    ],
    "social_links": {}
  },
  {
    "name": "Pace Electrical Contractors (Generac Power Pro PREMIER Dealer)",
    "address": "Serves Delaware, Maryland, and Pennsylvania",
    "phone": "(800) 779-8000",
    "rating": 4.0,
    "reviews": 25,
    "website": "https://pace-electric.com/",
    "category": "LGBT-owned Generators in Delaware",
    "description": "Provides complete sales, installation, repairs, and warranty services for Generac generators",
    "hours": "Mon-Fri 9AM-6PM",
    "services": [
      "LGBT-owned Generators in Delaware consultation",
      "Professional service",
      "Quality guarantee"
    ],
    "social_links": {}
  },
  {
    "name": "Harris Plumbing, Heating, Air, & Electric",
    "address": "Serves New Jersey, Pennsylvania, and Delaware",
    "phone": "(856) 935-8888",
    "rating": 4.0,
    "reviews": 25,
    "website": "https://harris-plumbing.com/",
    "category": "LGBT-owned Generators in Delaware",
    "description": "Installs, services, replaces, and repairs whole-home generators, offering fast and reliable services",
    "hours": "Mon-Fri 9AM-6PM",
    "services": [
      "LGBT-owned Generators in Delaware consultation",
      "Professional service",
      "Quality guarantee"
    ],
    "social_links": {}
  }
]