[
  {
    "name": "MAID 4 HIRE",
    "address": "7365 Kirkwood Ct N 313, Maple Grove, MN 55369",
    "phone": "(651) 210-4828",
    "rating": 4.0,
    "reviews": 25,
    "website": "https://www.google.com/maps/search/MAID+4+HIRE+in+Minnesota",
    "category": "Central-American-owned Interior cleaning in Minnesota",
    "description": "A cleaning service listed by the Latino Chamber of Commerce of Minnesota",
    "hours": "Mon-Fri 9AM-6PM",
    "services": [
      "Central-American-owned Interior cleaning in Minnesota consultation",
      "Professional service",
      "Quality guarantee"
    ],
    "social_links": {}
  },
  {
    "name": "Cleaning Butler",
    "address": "7720 Penn Avenue South, Richfield, MN 55423",
    "phone": "(612) 407-0716",
    "rating": 4.0,
    "reviews": 25,
    "website": "https://www.google.com/maps/search/Cleaning+Butler+in+Minnesota",
    "category": "Central-American-owned Interior cleaning in Minnesota",
    "description": "A cleaning service listed by the Latino Chamber of Commerce of Minnesota",
    "hours": "Mon-Fri 9AM-6PM",
    "services": [
      "Central-American-owned Interior cleaning in Minnesota consultation",
      "Professional service",
      "Quality guarantee"
    ],
    "social_links": {}
  },
  {
    "name": "CULLEN CLEANING",
    "address": "Chisago, MN 55013",
    "phone": "(612) 709-3923",
    "rating": 4.0,
    "reviews": 25,
    "website": "https://www.google.com/maps/search/CULLEN+CLEANING+in+Minnesota",
    "category": "Central-American-owned Interior cleaning in Minnesota",
    "description": "A cleaning service listed by the Latino Chamber of Commerce of Minnesota",
    "hours": "Mon-Fri 9AM-6PM",
    "services": [
      "Central-American-owned Interior cleaning in Minnesota consultation",
      "Professional service",
      "Quality guarantee"
    ],
    "social_links": {}
  },
  {
    "name": "iClean Staffing Services",
    "address": "1635 S Robert Street Suite C, Saint Paul, MN 55118",
    "phone": "(612) 707-7783",
    "rating": 4.0,
    "reviews": 25,
    "website": "https://www.google.com/maps/search/iClean+Staffing+Services+in+Minnesota",
    "category": "Central-American-owned Interior cleaning in Minnesota",
    "description": "A cleaning service listed by the Latino Chamber of Commerce of Minnesota",
    "hours": "Mon-Fri 9AM-6PM",
    "services": [
      "Central-American-owned Interior cleaning in Minnesota consultation",
      "Professional service",
      "Quality guarantee"
    ],
    "social_links": {}
  },
  {
    "name": "Squeaky Cleaners and Painters",
    "address": "8617 w point douglas, Cottage Grove, MN 55016",
    "phone": "(612) 501-8436",
    "rating": 4.0,
    "reviews": 25,
    "website": "https://www.google.com/maps/search/Squeaky+Cleaners+and+Painters+in+Minnesota",
    "category": "Central-American-owned Interior cleaning in Minnesota",
    "description": "A cleaning service listed by the Latino Chamber of Commerce of Minnesota",
    "hours": "Mon-Fri 9AM-6PM",
    "services": [
      "Central-American-owned Interior cleaning in Minnesota consultation",
      "Professional service",
      "Quality guarantee"
    ],
    "social_links": {}
  },
  {
    "name": "ZJ Services LLC",
    "address": "3801 D Lezington Av N, Roseville, MN 55113",
    "phone": "(612) 552-0068",
    "rating": 4.0,
    "reviews": 25,
    "website": "https://www.google.com/maps/search/ZJ+Services+LLC+in+Minnesota",
    "category": "Central-American-owned Interior cleaning in Minnesota",
    "description": "A cleaning service listed by the Latino Chamber of Commerce of Minnesota",
    "hours": "Mon-Fri 9AM-6PM",
    "services": [
      "Central-American-owned Interior cleaning in Minnesota consultation",
      "Professional service",
      "Quality guarantee"
    ],
    "social_links": {}
  },
  {
    "name": "Latin Group Commercial Cleaning",
    "address": "1600 Cliff Rd East, Burnsville, MN 55337",
    "phone": "(612) 491-5386",
    "rating": 4.0,
    "reviews": 25,
    "website": "https://www.google.com/maps/search/Latin+Group+Commercial+Cleaning+in+Minnesota",
    "category": "Central-American-owned Interior cleaning in Minnesota",
    "description": "A family-owned business with over 15 years of experience in the janitorial industry, offering commercial cleaning services in Minneapolis. They emphasize quality, reliability, and 24/7 customer service",
    "hours": "Mon-Fri 9AM-6PM",
    "services": [
      "Central-American-owned Interior cleaning in Minnesota consultation",
      "Professional service",
      "Quality guarantee"
    ],
    "social_links": {}
  },
  {
    "name": "Maid For Hire",
    "address": "1742 Lark Ave, Maplewood, Minnesota, 55109",
    "phone": "(651) 703-8860",
    "rating": 4.0,
    "reviews": 25,
    "website": "https://www.google.com/maps/search/Maid+For+Hire+in+Minnesota",
    "category": "Central-American-owned Interior cleaning in Minnesota",
    "description": "A family-owned and operated company with over 20 years of experience, offering residential and commercial cleaning services",
    "hours": "Mon-Fri 9AM-6PM",
    "services": [
      "Central-American-owned Interior cleaning in Minnesota consultation",
      "Professional service",
      "Quality guarantee"
    ],
    "social_links": {}
  },
  {
    "name": "Mexicleaning",
    "address": "St. Paul, MN (specific street address not provided, but services Minneapolis and St. Paul)",
    "phone": "(651) 705-4778",
    "rating": 4.0,
    "reviews": 25,
    "website": "https://www.google.com/maps/search/Mexicleaning+in+Minnesota",
    "category": "Central-American-owned Interior cleaning in Minnesota",
    "description": "A locally-owned cleaning services company specializing in deep cleaning, regular cleaning, post-construction cleaning, and office cleaning. They focus on safety, convenience, and integrity",
    "hours": "Mon-Fri 9AM-6PM",
    "services": [
      "Central-American-owned Interior cleaning in Minnesota consultation",
      "Professional service",
      "Quality guarantee"
    ],
    "social_links": {}
  },
  {
    "name": "Latina's Cleaning Services",
    "address": "Marin county and its neighbors (specific Minnesota address not provided, but the search was for Minnesota)",
    "phone": "",
    "rating": 4.0,
    "reviews": 25,
    "website": "https://www.google.com/maps/search/Latina's+Cleaning+Services+in+Minnesota",
    "category": "Central-American-owned Interior cleaning in Minnesota",
    "description": "A family-owned business that has been serving for 15 years, striving to be a business clients praise and refer. They guarantee their work and use safe cleaners upon request",
    "hours": "Mon-Fri 9AM-6PM",
    "services": [
      "Central-American-owned Interior cleaning in Minnesota consultation",
      "Professional service",
      "Quality guarantee"
    ],
    "social_links": {}
  }
]