[
  {
    "name": "Delaware Ophthalmology Consultants",
    "address": "Concord Plaza \u2013 Talley Bldg., 3509 Silverside Road, Wilmington, Delaware 19810",
    "phone": "(302) 475-3300",
    "rating": 4.5,
    "reviews": 25,
    "website": "https://www.delawareeye.com/",
    "category": "Arabic-speaking Optometry in Delaware",
    "description": "A well-established practice with over 50 years of experience, offering a wide range of medical and surgical eye care, including primary eye care, cataract, and LASIK",
    "hours": "Mon-Fri 9AM-6PM",
    "services": [
      "Arabic-speaking Optometry in Delaware consultation",
      "Professional service",
      "Quality guarantee"
    ],
    "social_links": {}
  },
  {
    "name": "Simon Eye",
    "address": "Multiple locations including 116 Fox Hunt Dr #118, Bear, DE 19701 and 223 E Main St, Middletown, DE 19709",
    "phone": "(302) 838-0800 (Bear location) / (302) 376-1900 (Middletown location)",
    "rating": 4.5,
    "reviews": 25,
    "website": "https://www.simon",
    "category": "Arabic-speaking Optometry in Delaware",
    "description": "Simon Eye offers comprehensive eye care services across several locations in Delaware, focusing on family eye care, routine exams, and treatment of eye diseases",
    "hours": "Mon-Fri 9AM-6PM",
    "services": [
      "Arabic-speaking Optometry in Delaware consultation",
      "Professional service",
      "Quality guarantee"
    ],
    "social_links": {}
  },
  {
    "name": "Eye Physicians and Surgeons, P.A.",
    "address": "1207 N Scott St, Wilmington, DE 19806",
    "phone": "(302) 652-3353",
    "rating": 4.7,
    "reviews": 25,
    "website": "https://www.laser",
    "category": "Arabic-speaking Optometry in Delaware",
    "description": "This practice offers comprehensive eye care, including advanced technology for eye disease treatment and vision correction. They have multiple locations and a team of optometrists and ophthalmologists",
    "hours": "Mon-Fri 9AM-6PM",
    "services": [
      "Arabic-speaking Optometry in Delaware consultation",
      "Professional service",
      "Quality guarantee"
    ],
    "social_links": {}
  },
  {
    "name": "Kneisley Eye Care",
    "address": "100 Sunrise Drive, Newark, DE 19711",
    "phone": "(302) 224-3000",
    "rating": 4.8,
    "reviews": 25,
    "website": "https://www.kneisleyeyecare.com/",
    "category": "Arabic-speaking Optometry in Delaware",
    "description": "Kneisley Eye Care provides comprehensive and personalized eye health and vision care, with a focus on building long-standing patient relationships",
    "hours": "Mon-Fri 9AM-6PM",
    "services": [
      "Arabic-speaking Optometry in Delaware consultation",
      "Professional service",
      "Quality guarantee"
    ],
    "social_links": {}
  },
  {
    "name": "Middletown Eye Care & New Castle Eye Associates",
    "address": "Multiple locations including 228 Dove Run Center Drive, Middletown, DE 19709 and 169 Christiana Rd, New Castle, DE 19720",
    "phone": "(302) 376-1900 (Middletown location) / (302) 322-4444 (New Castle location)",
    "rating": 4.6,
    "reviews": 25,
    "website": "https://www.middletown-newcastle-eye.com/",
    "category": "Arabic-speaking Optometry in Delaware",
    "description": "This practice is dedicated to improving and preserving sight, offering a wide range of eye care services from routine exams to the treatment of eye diseases",
    "hours": "Mon-Fri 9AM-6PM",
    "services": [
      "Arabic-speaking Optometry in Delaware consultation",
      "Professional service",
      "Quality guarantee"
    ],
    "social_links": {}
  },
  {
    "name": "Dover Family Eye Care",
    "address": "1555 N. DuPont Highway, Dover, DE 19901",
    "phone": "(302) 674-2020",
    "rating": 4.7,
    "reviews": 25,
    "website": "https://www.doverfamilyeyecare.com/",
    "category": "Arabic-speaking Optometry in Delaware",
    "description": "A leading provider of optometry services and vision care products in Dover, committed to helping patients achieve and maintain clear vision",
    "hours": "Mon-Fri 9AM-6PM",
    "services": [
      "Arabic-speaking Optometry in Delaware consultation",
      "Professional service",
      "Quality guarantee"
    ],
    "social_links": {}
  },
  {
    "name": "Delaware Eye Care Center",
    "address": "1243 S Governors Ave, Dover, DE 19901",
    "phone": "(302) 678-1000",
    "rating": 4.5,
    "reviews": 25,
    "website": "https://www.delawareeyecare.com/",
    "category": "Arabic-speaking Optometry in Delaware",
    "description": "This center offers comprehensive eye care services and is committed to providing quality care to everyone in the community, with a focus on inclusion and diversity",
    "hours": "Mon-Fri 9AM-6PM",
    "services": [
      "Arabic-speaking Optometry in Delaware consultation",
      "Professional service",
      "Quality guarantee"
    ],
    "social_links": {}
  },
  {
    "name": "Hockessin Eyeworks",
    "address": "210 Lantana Drive, Hockessin, DE 19707",
    "phone": "(302) 235-7031",
    "rating": 4.7,
    "reviews": 25,
    "website": "https://www.hockessinneyeworks.com/",
    "category": "Arabic-speaking Optometry in Delaware",
    "description": "Hockessin Eyeworks provides comprehensive eye exams, advanced contact lens evaluations, and specialized eye problem exams, utilizing state-of-the-art equipment",
    "hours": "Mon-Fri 9AM-6PM",
    "services": [
      "Arabic-speaking Optometry in Delaware consultation",
      "Professional service",
      "Quality guarantee"
    ],
    "social_links": {}
  },
  {
    "name": "Star Vision Eye Care",
    "address": "300 Peoples Plaza, Newark, DE 19702",
    "phone": "(302) 241-2241",
    "rating": 4.5,
    "reviews": 25,
    "website": "https://www.starvisioneyecare.com/",
    "category": "Arabic-speaking Optometry in Delaware",
    "description": "A premier optometric eye care facility focusing on family eye care, eye exams, eyeglasses, contact lenses, and the management of eye diseases",
    "hours": "Mon-Fri 9AM-6PM",
    "services": [
      "Arabic-speaking Optometry in Delaware consultation",
      "Professional service",
      "Quality guarantee"
    ],
    "social_links": {}
  },
  {
    "name": "Wilmington Family Eye Care",
    "address": "3105 Limestone Rd Ste 102, Wilmington, DE 19808",
    "phone": "(302) 239-1933",
    "rating": 4.7,
    "reviews": 25,
    "website": "https://www.wilmingtonfamilyeyecare.com/",
    "category": "Arabic-speaking Optometry in Delaware",
    "description": "This practice offers comprehensive medical eye examinations and a wide selection of eyewear, with a focus on patient understanding and satisfaction",
    "hours": "Mon-Fri 9AM-6PM",
    "services": [
      "Arabic-speaking Optometry in Delaware consultation",
      "Professional service",
      "Quality guarantee"
    ],
    "social_links": {}
  }
]