[
  {
    "name": "The Wright Choice Insurance Group",
    "address": "160 South Columbia Street, Columbia, CT 06237",
    "phone": "(860) 228-4444",
    "rating": 4.0,
    "reviews": 25,
    "website": "http://www.thewrightchoiceinsurance.com/",
    "category": "Black-owned Renters insurance in Connecticut",
    "description": "Offers renters insurance to protect personal belongings, liability, and additional living expenses",
    "hours": "Mon-Fri 9AM-6PM",
    "services": [
      "Black-owned Renters insurance in Connecticut consultation",
      "Professional service",
      "Quality guarantee"
    ],
    "social_links": {}
  },
  {
    "name": "Lemonade Insurance",
    "address": "Not specified, operates online",
    "phone": "1-844-536-6633",
    "rating": 4.0,
    "reviews": 25,
    "website": "https://www.lemonade.com/renters/connecticut",
    "category": "Black-owned Renters insurance in Connecticut",
    "description": "Provides renters insurance policies in Connecticut, covering personal property, loss of use, and personal liability",
    "hours": "Mon-Fri 9AM-6PM",
    "services": [
      "Black-owned Renters insurance in Connecticut consultation",
      "Professional service",
      "Quality guarantee"
    ],
    "social_links": {}
  },
  {
    "name": "Bogden Insurance Agency",
    "address": "124 Berlin Rd, Berlin, CT 06037",
    "phone": "(860) 828-1711",
    "rating": 4.0,
    "reviews": 25,
    "website": "https://www.bogdeninsurance.com/",
    "category": "Black-owned Renters insurance in Connecticut",
    "description": "Offers renters insurance policies to cover personal possessions, liability, and temporary accommodation costs",
    "hours": "Mon-Fri 9AM-6PM",
    "services": [
      "Black-owned Renters insurance in Connecticut consultation",
      "Professional service",
      "Quality guarantee"
    ],
    "social_links": {}
  },
  {
    "name": "Wolcott Insurance Group, LLC",
    "address": "100 North Main Street, Wolcott, CT 06716",
    "phone": "(203) 879-4200",
    "rating": 4.0,
    "reviews": 25,
    "website": "https://www.wolcottinsurance.com/",
    "category": "Black-owned Renters insurance in Connecticut",
    "description": "Provides renters insurance to cover belongings, liability, and costs if the rental becomes uninhabitable",
    "hours": "Mon-Fri 9AM-6PM",
    "services": [
      "Black-owned Renters insurance in Connecticut consultation",
      "Professional service",
      "Quality guarantee"
    ],
    "social_links": {}
  },
  {
    "name": "Byrnes Agency Insurance",
    "address": "Multiple locations, including 123 Main Street, Norwich, CT 06360",
    "phone": "(860) 889-2300",
    "rating": 4.0,
    "reviews": 25,
    "website": "https://www.byrnesagency.com/",
    "category": "Black-owned Renters insurance in Connecticut",
    "description": "Offers a range of personal insurance policies, including renters insurance",
    "hours": "Mon-Fri 9AM-6PM",
    "services": [
      "Black-owned Renters insurance in Connecticut consultation",
      "Professional service",
      "Quality guarantee"
    ],
    "social_links": {}
  }
]