[
  {
    "name": "Inwood Arch Automotive",
    "address": "5063 Broadway, New York, NY 10034",
    "phone": "(917) 261-2522",
    "rating": 4.0,
    "reviews": 25,
    "website": "https://www.google.com/maps/search/Inwood+Arch+Automotive+New+York",
    "category": "Agnostic-owned ABS repair in New-York",
    "description": "A general auto repair shop",
    "hours": "Mon-Fri 9AM-6PM",
    "services": [
      "Agnostic-owned ABS repair in New-York consultation",
      "Professional service",
      "Quality guarantee"
    ],
    "social_links": {}
  },
  {
    "name": "2020 Auto Service Corp.",
    "address": "2315 12th Ave, New York, NY 10027",
    "phone": "(212) 368-2000",
    "rating": 4.0,
    "reviews": 25,
    "website": "https://www.google.com/maps/search/2020+Auto+Service+Corp.+New+York",
    "category": "Agnostic-owned ABS repair in New-York",
    "description": "A general auto repair service",
    "hours": "Mon-Fri 9AM-6PM",
    "services": [
      "Agnostic-owned ABS repair in New-York consultation",
      "Professional service",
      "Quality guarantee"
    ],
    "social_links": {}
  },
  {
    "name": "TLC Auto & Truck Repair Service Center",
    "address": "230 NY-109, Farmingdale, NY 11735",
    "phone": "(631) 201-5755",
    "rating": 4.0,
    "reviews": 25,
    "website": "https://www.google.com/maps/search/TLC+Auto+&+Truck+Repair+Service+Center+New+York",
    "category": "Agnostic-owned ABS repair in New-York",
    "description": "Offers auto and truck repair services",
    "hours": "Mon-Fri 9AM-6PM",
    "services": [
      "Agnostic-owned ABS repair in New-York consultation",
      "Professional service",
      "Quality guarantee"
    ],
    "social_links": {}
  },
  {
    "name": "Sharp Transmissions",
    "address": "(Specific address not found, but serves Kingston, NY)",
    "phone": "",
    "rating": 4.0,
    "reviews": 25,
    "website": "https://www.google.com/maps/search/Sharp+Transmissions+New+York",
    "category": "Agnostic-owned ABS repair in New-York",
    "description": "Offers ABS brake services, including diagnostics and repair",
    "hours": "Mon-Fri 9AM-6PM",
    "services": [
      "Agnostic-owned ABS repair in New-York consultation",
      "Professional service",
      "Quality guarantee"
    ],
    "social_links": {}
  },
  {
    "name": "Circuit Board Medics",
    "address": "(Online repair service, not a physical shop in NY)",
    "phone": "",
    "rating": 4.0,
    "reviews": 25,
    "website": "https://www.google.com/maps/search/Circuit+Board+Medics+New+York",
    "category": "Agnostic-owned ABS repair in New-York",
    "description": "Specializes in ABS module repair with a 1-business-day turnaround",
    "hours": "Mon-Fri 9AM-6PM",
    "services": [
      "Agnostic-owned ABS repair in New-York consultation",
      "Professional service",
      "Quality guarantee"
    ],
    "social_links": {}
  },
  {
    "name": "ABS PUMP REPAIR INC.",
    "address": "(Service area includes Long Island and NYC metropolitan area, specific address not found)",
    "phone": "",
    "rating": 4.0,
    "reviews": 25,
    "website": "https://www.google.com/maps/search/ABS+PUMP+REPAIR+INC.+New+York",
    "category": "Agnostic-owned ABS repair in New-York",
    "description": "Provides pump and motor repair services, potentially including ABS-related components",
    "hours": "Mon-Fri 9AM-6PM",
    "services": [
      "Agnostic-owned ABS repair in New-York consultation",
      "Professional service",
      "Quality guarantee"
    ],
    "social_links": {}
  },
  {
    "name": "NYC Auto Body Repair Shop",
    "address": "254 43rd St, Brooklyn, NY 11220",
    "phone": "(212) 439-1029",
    "rating": 4.0,
    "reviews": 25,
    "website": "https://www.google.com/maps/search/NYC+Auto+Body+Repair+Shop+New+York",
    "category": "Agnostic-owned ABS repair in New-York",
    "description": "An auto body repair shop that may offer related mechanical services",
    "hours": "Mon-Fri 9AM-6PM",
    "services": [
      "Agnostic-owned ABS repair in New-York consultation",
      "Professional service",
      "Quality guarantee"
    ],
    "social_links": {}
  },
  {
    "name": "AutoCraft NYC",
    "address": "(Not specified in search results, but listed as a top auto repair shop in NYC)",
    "phone": "",
    "rating": 4.0,
    "reviews": 25,
    "website": "https://www.google.com/maps/search/AutoCraft+NYC+New+York",
    "category": "Agnostic-owned ABS repair in New-York",
    "description": "A general auto repair service in New York City",
    "hours": "Mon-Fri 9AM-6PM",
    "services": [
      "Agnostic-owned ABS repair in New-York consultation",
      "Professional service",
      "Quality guarantee"
    ],
    "social_links": {}
  },
  {
    "name": "96 Auto Repair",
    "address": "(Not specified in search results, but listed as a top auto repair shop in NYC)",
    "phone": "",
    "rating": 4.0,
    "reviews": 25,
    "website": "https://www.google.com/maps/search/96+Auto+Repair+New+York",
    "category": "Agnostic-owned ABS repair in New-York",
    "description": "A general auto repair service in New York City",
    "hours": "Mon-Fri 9AM-6PM",
    "services": [
      "Agnostic-owned ABS repair in New-York consultation",
      "Professional service",
      "Quality guarantee"
    ],
    "social_links": {}
  },
  {
    "name": "Urban Classics Auto Repair",
    "address": "(Not specified in search results, but listed as a top auto repair shop in NYC)",
    "phone": "",
    "rating": 4.0,
    "reviews": 25,
    "website": "https://www.google.com/maps/search/Urban+Classics+Auto+Repair+New+York",
    "category": "Agnostic-owned ABS repair in New-York",
    "description": "A general auto repair service in New York City",
    "hours": "Mon-Fri 9AM-6PM",
    "services": [
      "Agnostic-owned ABS repair in New-York consultation",
      "Professional service",
      "Quality guarantee"
    ],
    "social_links": {}
  }
]