[
  {
    "name": "Bell & Company, PA",
    "address": "4504 Burrow Drive, North Little Rock, AR 72116-7039",
    "phone": "(501) 812-4300",
    "rating": 4.0,
    "reviews": 25,
    "website": "https://bellandcompany.com/",
    "category": "Central-American-owned IRS audit representation in Arkansas",
    "description": "Offers tax audit representation and tax resolution services",
    "hours": "Mon-Fri 9AM-6PM",
    "services": [
      "Central-American-owned IRS audit representation in Arkansas consultation",
      "Professional service",
      "Quality guarantee"
    ],
    "social_links": {}
  },
  {
    "name": "Wingfield & Corry, P.A.",
    "address": "500 Pleasant Valley Drive, Suite 100, Little Rock, AR 72212",
    "phone": "(501) 375-0100",
    "rating": 4.0,
    "reviews": 25,
    "website": "https://www.wingfieldcorry.com/",
    "category": "Central-American-owned IRS audit representation in Arkansas",
    "description": "A law firm concentrating on resolving federal and Arkansas state tax compliance issues, including audits",
    "hours": "Mon-Fri 9AM-6PM",
    "services": [
      "Central-American-owned IRS audit representation in Arkansas consultation",
      "Professional service",
      "Quality guarantee"
    ],
    "social_links": {}
  },
  {
    "name": "DeWitt Law",
    "address": "112 W. Capitol Ave., Suite 1200, Little Rock, AR 72201",
    "phone": "(501) 210-0000",
    "rating": 4.0,
    "reviews": 25,
    "website": "https://www.dewittlaw.com/",
    "category": "Central-American-owned IRS audit representation in Arkansas",
    "description": "Focuses on tax controversy, white-collar criminal defense, and estate planning, including civil tax litigation",
    "hours": "Mon-Fri 9AM-6PM",
    "services": [
      "Central-American-owned IRS audit representation in Arkansas consultation",
      "Professional service",
      "Quality guarantee"
    ],
    "social_links": {}
  },
  {
    "name": "RMP Law",
    "address": "17901 Chenal Parkway, Suite 200, Little Rock, AR 72223",
    "phone": "(479) 443-2705",
    "rating": 4.0,
    "reviews": 25,
    "website": "https://www.rmplaw.com/",
    "category": "Central-American-owned IRS audit representation in Arkansas",
    "description": "Offers tax planning strategies and services, including representation in tax controversies",
    "hours": "Mon-Fri 9AM-6PM",
    "services": [
      "Central-American-owned IRS audit representation in Arkansas consultation",
      "Professional service",
      "Quality guarantee"
    ],
    "social_links": {}
  },
  {
    "name": "Maxwell CPA",
    "address": "101 N. Washington Ave., Magnolia, AR 71753",
    "phone": "(870) 364-8992",
    "rating": 4.0,
    "reviews": 25,
    "website": "https://www.maxwellcpa.com/",
    "category": "Central-American-owned IRS audit representation in Arkansas",
    "description": "Provides accounting and tax services, including audit services and tax planning for small businesses",
    "hours": "Mon-Fri 9AM-6PM",
    "services": [
      "Central-American-owned IRS audit representation in Arkansas consultation",
      "Professional service",
      "Quality guarantee"
    ],
    "social_links": {}
  },
  {
    "name": "Cox & Creswell, PLLC",
    "address": "811 Parkway Ave., Conway, AR 72034",
    "phone": "(501) 327-2300",
    "rating": 4.0,
    "reviews": 25,
    "website": "https://www.coxcpa.com/",
    "category": "Central-American-owned IRS audit representation in Arkansas",
    "description": "A full-service tax, accounting, and business consulting firm offering IRS audit representation",
    "hours": "Mon-Fri 9AM-6PM",
    "services": [
      "Central-American-owned IRS audit representation in Arkansas consultation",
      "Professional service",
      "Quality guarantee"
    ],
    "social_links": {}
  },
  {
    "name": "Bell Foster Johnson & Watkins, LLP",
    "address": "111 Center St #1600, Little Rock, AR 72201",
    "phone": "(501) 372-1040",
    "rating": 4.0,
    "reviews": 25,
    "website": "https://www.bfjw.com/",
    "category": "Central-American-owned IRS audit representation in Arkansas",
    "description": "A full-service tax, accounting, and business consulting firm that handles IRS audits",
    "hours": "Mon-Fri 9AM-6PM",
    "services": [
      "Central-American-owned IRS audit representation in Arkansas consultation",
      "Professional service",
      "Quality guarantee"
    ],
    "social_links": {}
  },
  {
    "name": "Friday, Eldredge & Clark, LLP",
    "address": "200 W. Capitol Ave., Suite 1700, Little Rock, AR 72201",
    "phone": "(501) 370-1000",
    "rating": 4.0,
    "reviews": 25,
    "website": "https://www.fecllp.com/",
    "category": "Central-American-owned IRS audit representation in Arkansas",
    "description": "Has a large tax department with attorneys providing representation in all areas of taxation, including tax controversies",
    "hours": "Mon-Fri 9AM-6PM",
    "services": [
      "Central-American-owned IRS audit representation in Arkansas consultation",
      "Professional service",
      "Quality guarantee"
    ],
    "social_links": {}
  },
  {
    "name": "J. David Tax Law",
    "address": "2001 E. Joyce Blvd., Suite 107, Fayetteville, AR 72703",
    "phone": "(479) 439-4851",
    "rating": 4.0,
    "reviews": 25,
    "website": "https://www.jdavidtaxlaw.com/",
    "category": "Central-American-owned IRS audit representation in Arkansas",
    "description": "Specializes in IRS audit defense and tax resolutions for individuals and businesses",
    "hours": "Mon-Fri 9AM-6PM",
    "services": [
      "Central-American-owned IRS audit representation in Arkansas consultation",
      "Professional service",
      "Quality guarantee"
    ],
    "social_links": {}
  },
  {
    "name": "Rebecca Boss, CPA, PLLC",
    "address": "3729 N. Crossover Rd., Suite 104, Fayetteville, AR 72703",
    "phone": "(479) 966-4277",
    "rating": 4.0,
    "reviews": 25,
    "website": "https://rebeccabosscpa.com/",
    "category": "Central-American-owned IRS audit representation in Arkansas",
    "description": "Offers IRS and state agency audit representation and IRS tax resolution services",
    "hours": "Mon-Fri 9AM-6PM",
    "services": [
      "Central-American-owned IRS audit representation in Arkansas consultation",
      "Professional service",
      "Quality guarantee"
    ],
    "social_links": {}
  }
]