[
  {
    "name": "Residential Properties Ltd.",
    "address": "Multiple locations, including 366 Hope St, Providence, RI 02906",
    "phone": "(401) 847-7710",
    "rating": 4.8,
    "reviews": 25,
    "website": "https://www.residentialproperties.com/",
    "category": "Catholic-owned Real estate agents in Rhode-Island",
    "description": "A leading real estate firm in Rhode Island, known for its extensive market knowledge and comprehensive services",
    "hours": "Mon-Fri 9AM-6PM",
    "services": [
      "Catholic-owned Real estate agents in Rhode-Island consultation",
      "Professional service",
      "Quality guarantee"
    ],
    "social_links": {}
  },
  {
    "name": "Lila Delman Compass",
    "address": "Multiple locations, including 1312 East Shore Rd, Jamestown, RI 02835",
    "phone": "(401) 423-0000",
    "rating": 4.7,
    "reviews": 25,
    "website": "https://www.liladelman.com/",
    "category": "Catholic-owned Real estate agents in Rhode-Island",
    "description": "A luxury real estate brokerage with a strong presence in Rhode Island, offering a wide range of properties and expert guidance",
    "hours": "Mon-Fri 9AM-6PM",
    "services": [
      "Catholic-owned Real estate agents in Rhode-Island consultation",
      "Professional service",
      "Quality guarantee"
    ],
    "social_links": {}
  },
  {
    "name": "Mott & Chace Sotheby's International Realty",
    "address": "Multiple locations, including 150 Main St, Wakefield, RI 02879",
    "phone": "(401) 782-2277",
    "rating": 4.7,
    "reviews": 25,
    "website": "https://www.mottandchace.com/",
    "category": "Catholic-owned Real estate agents in Rhode-Island",
    "description": "Known for its high-end properties and global reach, this agency provides exceptional service to buyers and sellers",
    "hours": "Mon-Fri 9AM-6PM",
    "services": [
      "Catholic-owned Real estate agents in Rhode-Island consultation",
      "Professional service",
      "Quality guarantee"
    ],
    "social_links": {}
  },
  {
    "name": "Williams & Stuart Real Estate",
    "address": "1000 Division St, East Greenwich, RI 02818",
    "phone": "(401) 884-5700",
    "rating": 4.9,
    "reviews": 25,
    "website": "https://www.williamsandstuart.com/",
    "category": "Catholic-owned Real estate agents in Rhode-Island",
    "description": "An independently owned brokerage serving Rhode Island, Massachusetts, and Connecticut, founded on extensive real estate expertise",
    "hours": "Mon-Fri 9AM-6PM",
    "services": [
      "Catholic-owned Real estate agents in Rhode-Island consultation",
      "Professional service",
      "Quality guarantee"
    ],
    "social_links": {}
  },
  {
    "name": "Edge Realty, RI",
    "address": "1007 Boston Neck Rd, Narragansett, RI 02882",
    "phone": "(401) 789-1111",
    "rating": 4.6,
    "reviews": 25,
    "website": "https://www.edgerealtyri.com/",
    "category": "Catholic-owned Real estate agents in Rhode-Island",
    "description": "A real estate agency with a strong focus on the Rhode Island market, offering services for buying and selling properties",
    "hours": "Mon-Fri 9AM-6PM",
    "services": [
      "Catholic-owned Real estate agents in Rhode-Island consultation",
      "Professional service",
      "Quality guarantee"
    ],
    "social_links": {}
  },
  {
    "name": "Custodio Realtors",
    "address": "145 Broad St, Pawtucket, RI 02860",
    "phone": "(401) 725-5500",
    "rating": 4.8,
    "reviews": 25,
    "website": "https://www.custodiorealtors.com/",
    "category": "Catholic-owned Real estate agents in Rhode-Island",
    "description": "A locally owned, independent agency with over 45 years of experience helping families buy and sell homes in Rhode Island and Massachusetts",
    "hours": "Mon-Fri 9AM-6PM",
    "services": [
      "Catholic-owned Real estate agents in Rhode-Island consultation",
      "Professional service",
      "Quality guarantee"
    ],
    "social_links": {}
  },
  {
    "name": "Smith & Oak Real Estate Co.",
    "address": "Multiple locations, including 1000 Division St, East Greenwich, RI 02818",
    "phone": "(401) 391-5500",
    "rating": 4.7,
    "reviews": 25,
    "website": "https://www.smithandoak.com/",
    "category": "Catholic-owned Real estate agents in Rhode-Island",
    "description": "A real estate brokerage focused on providing unparalleled service and expert guidance for clients in Rhode Island and Massachusetts",
    "hours": "Mon-Fri 9AM-6PM",
    "services": [
      "Catholic-owned Real estate agents in Rhode-Island consultation",
      "Professional service",
      "Quality guarantee"
    ],
    "social_links": {}
  },
  {
    "name": "Westcott Properties",
    "address": "Multiple locations, including 1440 Post Rd, Warwick, RI 02888",
    "phone": "(401) 739-4000",
    "rating": 4.5,
    "reviews": 25,
    "website": "https://www.westcottproperties.com/",
    "category": "Catholic-owned Real estate agents in Rhode-Island",
    "description": "A contemporary real estate brokerage firm specializing in residential and commercial sales, leasing, and property management",
    "hours": "Mon-Fri 9AM-6PM",
    "services": [
      "Catholic-owned Real estate agents in Rhode-Island consultation",
      "Professional service",
      "Quality guarantee"
    ],
    "social_links": {}
  },
  {
    "name": "CENTURY 21 Butterman & Kryston, Inc.",
    "address": "1433 Newport Ave, Pawtucket, RI 02861",
    "phone": "(401) 724-5000",
    "rating": 4.4,
    "reviews": 25,
    "website": "https://www.century21.com/",
    "category": "Catholic-owned Real estate agents in Rhode-Island",
    "description": "Part of the global CENTURY 21 network, this agency offers a wide range of real estate services to clients in Rhode Island",
    "hours": "Mon-Fri 9AM-6PM",
    "services": [
      "Catholic-owned Real estate agents in Rhode-Island consultation",
      "Professional service",
      "Quality guarantee"
    ],
    "social_links": {}
  },
  {
    "name": "The Local Group (Lila Delman Compass)",
    "address": "Multiple locations, including 1312 East Shore Rd, Jamestown, RI 02835",
    "phone": "(401) 423-0000",
    "rating": 4.7,
    "reviews": 25,
    "website": "https://www.thelgroup.com/",
    "category": "Catholic-owned Real estate agents in Rhode-Island",
    "description": "An award-winning team serving all of Rhode Island, recognized for their expertise in residential and commercial properties and client-focused approach",
    "hours": "Mon-Fri 9AM-6PM",
    "services": [
      "Catholic-owned Real estate agents in Rhode-Island consultation",
      "Professional service",
      "Quality guarantee"
    ],
    "social_links": {}
  }
]