[
  {
    "name": "NH Gutter Pros LLC",
    "address": "Nashua, New Hampshire",
    "phone": "",
    "rating": 4.0,
    "reviews": 25,
    "website": "https://www.nhgutterpros.com/",
    "category": "Asian-owned Minor gutter repairs in New-Hampshire",
    "description": "Offers gutter cleaning, repair, and installation services with over 23 years of experience",
    "hours": "Mon-Fri 9AM-6PM",
    "services": [
      "Asian-owned Minor gutter repairs in New-Hampshire consultation",
      "Professional service",
      "Quality guarantee"
    ],
    "social_links": {}
  },
  {
    "name": "Proline Gutter LLC",
    "address": "Nashua, New Hampshire",
    "phone": "(603) 219-1040",
    "rating": 4.0,
    "reviews": 25,
    "website": "https://prolinegutter.com/",
    "category": "Asian-owned Minor gutter repairs in New-Hampshire",
    "description": "Provides gutter installation, cleaning, and repair services, emphasizing custom-fit seamless gutters",
    "hours": "Mon-Fri 9AM-6PM",
    "services": [
      "Asian-owned Minor gutter repairs in New-Hampshire consultation",
      "Professional service",
      "Quality guarantee"
    ],
    "social_links": {}
  },
  {
    "name": "Gutter Done, LLC",
    "address": "New Hampshire (specific location not detailed, serves residential and commercial)",
    "phone": "603-529-7560",
    "rating": 4.0,
    "reviews": 25,
    "website": "https://www.gutterdonenh.com/",
    "category": "Asian-owned Minor gutter repairs in New-Hampshire",
    "description": "Offers gutter installation, gutter cover/leaf guard installation, and ice dam prevention services with over 25 years of experience",
    "hours": "Mon-Fri 9AM-6PM",
    "services": [
      "Asian-owned Minor gutter repairs in New-Hampshire consultation",
      "Professional service",
      "Quality guarantee"
    ],
    "social_links": {}
  },
  {
    "name": "Argo's Seamless Gutters",
    "address": "Southern New Hampshire (serves Manchester, Nashua & Londonderry)",
    "phone": "",
    "rating": 4.0,
    "reviews": 25,
    "website": "https://argosgutters.com/",
    "category": "Asian-owned Minor gutter repairs in New-Hampshire",
    "description": "Provides gutter installation, repair, and cleaning services, operating since 1986",
    "hours": "Mon-Fri 9AM-6PM",
    "services": [
      "Asian-owned Minor gutter repairs in New-Hampshire consultation",
      "Professional service",
      "Quality guarantee"
    ],
    "social_links": {}
  },
  {
    "name": "The Brothers that just do Gutters",
    "address": "Manchester, New Hampshire (and other locations)",
    "phone": "",
    "rating": 4.0,
    "reviews": 25,
    "website": "https://www.brothersgutters.com/locations/manchester-nh/",
    "category": "Asian-owned Minor gutter repairs in New-Hampshire",
    "description": "Offers gutter maintenance, repairs, and installations, specializing in fixing issues like leaks and overflows",
    "hours": "Mon-Fri 9AM-6PM",
    "services": [
      "Asian-owned Minor gutter repairs in New-Hampshire consultation",
      "Professional service",
      "Quality guarantee"
    ],
    "social_links": {}
  },
  {
    "name": "Gutters Quick",
    "address": "22 Water Village Rd, Ossipee, NH 03864",
    "phone": "866-495-4548",
    "rating": 4.0,
    "reviews": 25,
    "website": "https://www.quick-gutters.com/ossipee-nh/",
    "category": "Asian-owned Minor gutter repairs in New-Hampshire",
    "description": "Provides gutter cleaning, repair, and installation services, including seamless gutters",
    "hours": "Mon-Fri 9AM-6PM",
    "services": [
      "Asian-owned Minor gutter repairs in New-Hampshire consultation",
      "Professional service",
      "Quality guarantee"
    ],
    "social_links": {}
  },
  {
    "name": "Mr. Handyman of Dover, Portsmouth, and Rochester",
    "address": "Dover, Portsmouth, and Rochester, New Hampshire",
    "phone": "",
    "rating": 4.0,
    "reviews": 25,
    "website": "https://www.mrhandyman.com/nh/dover-portsmouth-rochester/",
    "category": "Asian-owned Minor gutter repairs in New-Hampshire",
    "description": "Offers professional gutter cleaning and repair services, along with other home maintenance tasks",
    "hours": "Mon-Fri 9AM-6PM",
    "services": [
      "Asian-owned Minor gutter repairs in New-Hampshire consultation",
      "Professional service",
      "Quality guarantee"
    ],
    "social_links": {}
  },
  {
    "name": "WG Construction LLC",
    "address": "Epping, New Hampshire",
    "phone": "(603) 818-0600",
    "rating": 4.0,
    "reviews": 25,
    "website": "https://wgconstructionnh.com/",
    "category": "Asian-owned Minor gutter repairs in New-Hampshire",
    "description": "Provides gutter installation, maintenance, and repair services, as well as gutter guards",
    "hours": "Mon-Fri 9AM-6PM",
    "services": [
      "Asian-owned Minor gutter repairs in New-Hampshire consultation",
      "Professional service",
      "Quality guarantee"
    ],
    "social_links": {}
  },
  {
    "name": "B&B Gutters",
    "address": "New Hampshire and Massachusetts",
    "phone": "603-204-7779",
    "rating": 4.0,
    "reviews": 25,
    "website": "https://bbgutters.com/",
    "category": "Asian-owned Minor gutter repairs in New-Hampshire",
    "description": "Offers gutter cleaning, installation, repair, and replacement services for residential and commercial properties",
    "hours": "Mon-Fri 9AM-6PM",
    "services": [
      "Asian-owned Minor gutter repairs in New-Hampshire consultation",
      "Professional service",
      "Quality guarantee"
    ],
    "social_links": {}
  }
]