[
  {
    "name": "WebLime",
    "address": "10000 Old Columbia Rd, Columbia, MD 21046",
    "phone": "(410) 404-0663",
    "rating": 5.0,
    "reviews": 25,
    "website": "https://www.weblime.com/",
    "category": "Central-American-owned Website development in Maryland",
    "description": "Offers a range of web design and marketing services, including responsive design, SEO, WordPress and Shopify development, and website maintenance",
    "hours": "Mon-Fri 9AM-6PM",
    "services": [
      "Central-American-owned Website development in Maryland consultation",
      "Professional service",
      "Quality guarantee"
    ],
    "social_links": {}
  },
  {
    "name": "Maryland Web Design",
    "address": "10000 Old Columbia Rd, Columbia, MD 21046",
    "phone": "(410) 404-0663",
    "rating": 5.0,
    "reviews": 25,
    "website": "https://www.marylandwebdesign.com/",
    "category": "Central-American-owned Website development in Maryland",
    "description": "A digital marketing agency focused on local website design, development, SEO, and social media marketing, utilizing AI-driven strategies",
    "hours": "Mon-Fri 9AM-6PM",
    "services": [
      "Central-American-owned Website development in Maryland consultation",
      "Professional service",
      "Quality guarantee"
    ],
    "social_links": {}
  },
  {
    "name": "Simpalm",
    "address": "10000 Old Columbia Rd, Columbia, MD 21046",
    "phone": "(410) 404-0663",
    "rating": 4.5,
    "reviews": 25,
    "website": "https://www.simpalm.com/",
    "category": "Central-American-owned Website development in Maryland",
    "description": "Provides web design and development services, specializing in responsive and engaging websites, e-commerce solutions, and CMS-based sites",
    "hours": "Mon-Fri 9AM-6PM",
    "services": [
      "Central-American-owned Website development in Maryland consultation",
      "Professional service",
      "Quality guarantee"
    ],
    "social_links": {}
  },
  {
    "name": "Inclind, Inc.",
    "address": "10000 Old Columbia Rd, Columbia, MD 21046",
    "phone": "(410) 404-0663",
    "rating": 5.0,
    "reviews": 25,
    "website": "https://inclind.com/",
    "category": "Central-American-owned Website development in Maryland",
    "description": "An award-winning web design and development company with over 20 years of experience, offering custom solutions, app development, and website support",
    "hours": "Mon-Fri 9AM-6PM",
    "services": [
      "Central-American-owned Website development in Maryland consultation",
      "Professional service",
      "Quality guarantee"
    ],
    "social_links": {}
  },
  {
    "name": "Dupont Creative",
    "address": "10000 Old Columbia Rd, Columbia, MD 21046",
    "phone": "(888) 257-8577",
    "rating": 4.5,
    "reviews": 25,
    "website": "https://www.dupontcreative.com/",
    "category": "Central-American-owned Website development in Maryland",
    "description": "Specializes in designing and marketing small business websites, offering ongoing partnership with marketing support, photography, and content updates",
    "hours": "Mon-Fri 9AM-6PM",
    "services": [
      "Central-American-owned Website development in Maryland consultation",
      "Professional service",
      "Quality guarantee"
    ],
    "social_links": {}
  },
  {
    "name": "Octavo Designs",
    "address": "10000 Old Columbia Rd, Columbia, MD 21046",
    "phone": "(410) 404-0663",
    "rating": 5.0,
    "reviews": 25,
    "website": "https://www.octavodesigns.com/",
    "category": "Central-American-owned Website development in Maryland",
    "description": "A Maryland-based web design agency with over two decades of experience, creating custom websites, visual identities, and driving results for businesses",
    "hours": "Mon-Fri 9AM-6PM",
    "services": [
      "Central-American-owned Website development in Maryland consultation",
      "Professional service",
      "Quality guarantee"
    ],
    "social_links": {}
  },
  {
    "name": "MOJO Creative Digital",
    "address": "10000 Old Columbia Rd, Columbia, MD 21046",
    "phone": "(410) 404-0663",
    "rating": 4.5,
    "reviews": 25,
    "website": "https://www.mojocreativedigital.com/",
    "category": "Central-American-owned Website development in Maryland",
    "description": "An award-winning web design company offering custom website design, mobile responsiveness, CMS integration, and custom integrations for complex needs",
    "hours": "Mon-Fri 9AM-6PM",
    "services": [
      "Central-American-owned Website development in Maryland consultation",
      "Professional service",
      "Quality guarantee"
    ],
    "social_links": {}
  },
  {
    "name": "Advertisers Galleria",
    "address": "10000 Old Columbia Rd, Columbia, MD 21046",
    "phone": "(410) 404-0663",
    "rating": 4.5,
    "reviews": 25,
    "website": "https://advertisersgalleria.com/",
    "category": "Central-American-owned Website development in Maryland",
    "description": "A web design and development company in Baltimore, Maryland, creating affordable, responsive, and mobile-friendly websites with a focus on SEO and conversion",
    "hours": "Mon-Fri 9AM-6PM",
    "services": [
      "Central-American-owned Website development in Maryland consultation",
      "Professional service",
      "Quality guarantee"
    ],
    "social_links": {}
  },
  {
    "name": "Definio",
    "address": "10000 Old Columbia Rd, Columbia, MD 21046",
    "phone": "(410) 404-0663",
    "rating": 5.0,
    "reviews": 25,
    "website": "https://www.definio.com/",
    "category": "Central-American-owned Website development in Maryland",
    "description": "Focuses on custom web development, responsive design, and system integrations, with a strong emphasis on user experience and security, partnering with cloud leaders",
    "hours": "Mon-Fri 9AM-6PM",
    "services": [
      "Central-American-owned Website development in Maryland consultation",
      "Professional service",
      "Quality guarantee"
    ],
    "social_links": {}
  },
  {
    "name": "QA Digital Advertising",
    "address": "10000 Old Columbia Rd, Columbia, MD 21046",
    "phone": "240-593-6567",
    "rating": 5.0,
    "reviews": 25,
    "website": "https://www.qadigitaladvertising.com/",
    "category": "Central-American-owned Website development in Maryland",
    "description": "Offers website design and development, print design, SEO content creation, and Google/Facebook ad management, providing free consultations",
    "hours": "Mon-Fri 9AM-6PM",
    "services": [
      "Central-American-owned Website development in Maryland consultation",
      "Professional service",
      "Quality guarantee"
    ],
    "social_links": {}
  }
]