[
  {
    "name": "Antioch Christian Academy & Preschool",
    "address": "Oklahoma City, OK",
    "phone": "(405) 749-1717",
    "rating": 5.0,
    "reviews": 25,
    "website": "https://antiochchristianokc.org/",
    "category": "Christian-owned Preschool programs in Oklahoma",
    "description": "This preschool offers a Christ-centered program with a focus on academic excellence and spiritual growth, integrating biblical teachings into the curriculum",
    "hours": "Mon-Fri 9AM-6PM",
    "services": [
      "Christian-owned Preschool programs in Oklahoma consultation",
      "Professional service",
      "Quality guarantee"
    ],
    "social_links": {}
  },
  {
    "name": "Victory Family School",
    "address": "Norman, OK",
    "phone": "(405) 701-0976",
    "rating": 4.0,
    "reviews": 25,
    "website": "https://www.victoryfamily.school/",
    "category": "Christian-owned Preschool programs in Oklahoma",
    "description": "A Christ-centered school from preschool through 12th grade, aiming to equip servant leaders who excel spiritually, academically, and socially",
    "hours": "Mon-Fri 9AM-6PM",
    "services": [
      "Christian-owned Preschool programs in Oklahoma consultation",
      "Professional service",
      "Quality guarantee"
    ],
    "social_links": {}
  },
  {
    "name": "Summit Early Learning Center",
    "address": "200 East Broadway, Broken Arrow, OK",
    "phone": "(918) 251-1997",
    "rating": 4.0,
    "reviews": 25,
    "website": "https://www.summitchristianacademy.org/selc",
    "category": "Christian-owned Preschool programs in Oklahoma",
    "description": "A ministry of The Assembly at Broken Arrow, this center provides a Christian atmosphere and daily Bible lessons for children from 6 weeks to transitional kindergarten",
    "hours": "Mon-Fri 9AM-6PM",
    "services": [
      "Christian-owned Preschool programs in Oklahoma consultation",
      "Professional service",
      "Quality guarantee"
    ],
    "social_links": {}
  },
  {
    "name": "First Presbyterian Church Early Childhood Program",
    "address": "Edmond, OK",
    "phone": "",
    "rating": 4.0,
    "reviews": 25,
    "website": "https://www.edmondfirstpres.org/ecp",
    "category": "Christian-owned Preschool programs in Oklahoma",
    "description": "A faith-filled, play-based Christian early childhood program with high educational standards, offering classes for children ages 1 to Kindergarten",
    "hours": "Mon-Fri 9AM-6PM",
    "services": [
      "Christian-owned Preschool programs in Oklahoma consultation",
      "Professional service",
      "Quality guarantee"
    ],
    "social_links": {}
  },
  {
    "name": "Grand Central Kids Preschool",
    "address": "Owasso, OK",
    "phone": "",
    "rating": 4.0,
    "reviews": 25,
    "website": "https://www.centralbaptistowasso.org/grand-central-kids",
    "category": "Christian-owned Preschool programs in Oklahoma",
    "description": "A Christian preschool education program established as an outreach of Central Baptist Church Owasso, offering a developmentally appropriate Christian education",
    "hours": "Mon-Fri 9AM-6PM",
    "services": [
      "Christian-owned Preschool programs in Oklahoma consultation",
      "Professional service",
      "Quality guarantee"
    ],
    "social_links": {}
  },
  {
    "name": "Children of Joy Learning Academy",
    "address": "Lawton, OK",
    "phone": "",
    "rating": 4.0,
    "reviews": 25,
    "website": "https://childrenofjoylawton.com/",
    "category": "Christian-owned Preschool programs in Oklahoma",
    "description": "A state-certified childcare and preschool facility providing early development Christian education with a focus on Faith, Family, and Academics",
    "hours": "Mon-Fri 9AM-6PM",
    "services": [
      "Christian-owned Preschool programs in Oklahoma consultation",
      "Professional service",
      "Quality guarantee"
    ],
    "social_links": {}
  },
  {
    "name": "King's Gate Christian School",
    "address": "12421 North Mustang Road, Yukon, OK 73099",
    "phone": "(405) 283-0144",
    "rating": 4.68,
    "reviews": 25,
    "website": "https://www.kingsgate.org/",
    "category": "Christian-owned Preschool programs in Oklahoma",
    "description": "Offers a Child Development Center for ages 2 through Pre-K, integrating biblical teaching and values into all subjects and daily activities",
    "hours": "Mon-Fri 9AM-6PM",
    "services": [
      "Christian-owned Preschool programs in Oklahoma consultation",
      "Professional service",
      "Quality guarantee"
    ],
    "social_links": {}
  },
  {
    "name": "Stillwater Christian School",
    "address": "112 E Richmond Rd, Stillwater, OK 74075",
    "phone": "(405) 377-3748",
    "rating": 4.0,
    "reviews": 25,
    "website": "https://www.stillwaterchristianschool.org/",
    "category": "Christian-owned Preschool programs in Oklahoma",
    "description": "Provides a Christ-centered education from Pre-K through 12th grade, focusing on academic excellence and preparing children for kindergarten and beyond",
    "hours": "Mon-Fri 9AM-6PM",
    "services": [
      "Christian-owned Preschool programs in Oklahoma consultation",
      "Professional service",
      "Quality guarantee"
    ],
    "social_links": {}
  },
  {
    "name": "Community Preschool (First Baptist Church Broken Arrow)",
    "address": "Broken Arrow, OK",
    "phone": "(918) 258-4575",
    "rating": 4.0,
    "reviews": 25,
    "website": "https://www.fbcba.org/community-preschool",
    "category": "Christian-owned Preschool programs in Oklahoma",
    "description": "Emphasizes character development through age-appropriate, Bible-based thematic units for children from 8 weeks to Pre-Kindergarten",
    "hours": "Mon-Fri 9AM-6PM",
    "services": [
      "Christian-owned Preschool programs in Oklahoma consultation",
      "Professional service",
      "Quality guarantee"
    ],
    "social_links": {}
  },
  {
    "name": "Evergreen Learning Center",
    "address": "10301 East 111th Street S, Bixby, OK 74008 (serves Tulsa area)",
    "phone": "(918) 369-6400",
    "rating": 4.0,
    "reviews": 25,
    "website": "https://www.evergreenok.com/elc",
    "category": "Christian-owned Preschool programs in Oklahoma",
    "description": "Part of the ministry of Evergreen Church, this center builds a faith foundation in children and prepares them for a lifetime of learning in a safe, Christian environment",
    "hours": "Mon-Fri 9AM-6PM",
    "services": [
      "Christian-owned Preschool programs in Oklahoma consultation",
      "Professional service",
      "Quality guarantee"
    ],
    "social_links": {}
  }
]