[
  {
    "name": "HI Tech Hui",
    "address": "1001 Bishop St, Suite 1050, Honolulu, HI 96813",
    "phone": "(808) 531-1100",
    "rating": 4.0,
    "reviews": 25,
    "website": "https://www.hitechhui.com/",
    "category": "Central-American-owned Breach notification services in Hawaii",
    "description": "Specializes in IT support and cybersecurity services, including network support and IT consulting",
    "hours": "Mon-Fri 9AM-6PM",
    "services": [
      "Central-American-owned Breach notification services in Hawaii consultation",
      "Professional service",
      "Quality guarantee"
    ],
    "social_links": {}
  },
  {
    "name": "Cypac Cybersecurity",
    "address": "1000 Bishop St, Suite 900, Honolulu, HI 96813",
    "phone": "(808) 861-9595",
    "rating": 4.0,
    "reviews": 25,
    "website": "https://cypac.com/",
    "category": "Central-American-owned Breach notification services in Hawaii",
    "description": "Offers cybersecurity solutions tailored for various industries in Hawaii, focusing on safeguarding organizations from cyber threats",
    "hours": "Mon-Fri 9AM-6PM",
    "services": [
      "Central-American-owned Breach notification services in Hawaii consultation",
      "Professional service",
      "Quality guarantee"
    ],
    "social_links": {}
  },
  {
    "name": "Intech Hawaii",
    "address": "1000 Bishop St, Suite 1100, Honolulu, HI 96813",
    "phone": "(808) 536-0000",
    "rating": 4.0,
    "reviews": 25,
    "website": "https://intechhawaii.com/",
    "category": "Central-American-owned Breach notification services in Hawaii",
    "description": "Provides managed IT, cybersecurity, and compliance services, recognized both locally and globally",
    "hours": "Mon-Fri 9AM-6PM",
    "services": [
      "Central-American-owned Breach notification services in Hawaii consultation",
      "Professional service",
      "Quality guarantee"
    ],
    "social_links": {}
  },
  {
    "name": "DAWSON Impact",
    "address": "Not specified in search results",
    "phone": "",
    "rating": 4.0,
    "reviews": 25,
    "website": "https://www.google.com/maps/search/DAWSON+Impact+in+Hawaii",
    "category": "Central-American-owned Breach notification services in Hawaii",
    "description": "A cybersecurity firm listed among the top in Hawaii",
    "hours": "Mon-Fri 9AM-6PM",
    "services": [
      "Central-American-owned Breach notification services in Hawaii consultation",
      "Professional service",
      "Quality guarantee"
    ],
    "social_links": {}
  },
  {
    "name": "Oceanit",
    "address": "1001 Bishop St, Suite 700, Honolulu, HI 96813",
    "phone": "(808) 533-3000",
    "rating": 4.0,
    "reviews": 25,
    "website": "https://www.oceanit.com/",
    "category": "Central-American-owned Breach notification services in Hawaii",
    "description": "A technology company offering various services, including cybersecurity, listed among the top in Hawaii",
    "hours": "Mon-Fri 9AM-6PM",
    "services": [
      "Central-American-owned Breach notification services in Hawaii consultation",
      "Professional service",
      "Quality guarantee"
    ],
    "social_links": {}
  },
  {
    "name": "Deloitte",
    "address": "1001 Bishop St, Suite 1200, Honolulu, HI 96813",
    "phone": "(808) 521-3000",
    "rating": 4.0,
    "reviews": 25,
    "website": "https://www2.deloitte.com/us/en/services/cyber.html",
    "category": "Central-American-owned Breach notification services in Hawaii",
    "description": "A global professional services firm with cybersecurity offerings, listed among the top in Hawaii",
    "hours": "Mon-Fri 9AM-6PM",
    "services": [
      "Central-American-owned Breach notification services in Hawaii consultation",
      "Professional service",
      "Quality guarantee"
    ],
    "social_links": {}
  },
  {
    "name": "Protiviti",
    "address": "1001 Bishop St, Suite 1100, Honolulu, HI 96813",
    "phone": "(808) 524-3400",
    "rating": 4.0,
    "reviews": 25,
    "website": "https://www.protiviti.com/",
    "category": "Central-American-owned Breach notification services in Hawaii",
    "description": "A global consulting firm that provides risk, advisory, and transaction services, including cybersecurity, listed among the top in Hawaii",
    "hours": "Mon-Fri 9AM-6PM",
    "services": [
      "Central-American-owned Breach notification services in Hawaii consultation",
      "Professional service",
      "Quality guarantee"
    ],
    "social_links": {}
  },
  {
    "name": "Cayuse Holdings",
    "address": "Not specified in search results",
    "phone": "",
    "rating": 4.0,
    "reviews": 25,
    "website": "https://www.google.com/maps/search/Cayuse+Holdings+in+Hawaii",
    "category": "Central-American-owned Breach notification services in Hawaii",
    "description": "A company listed among the top cybersecurity firms in Hawaii",
    "hours": "Mon-Fri 9AM-6PM",
    "services": [
      "Central-American-owned Breach notification services in Hawaii consultation",
      "Professional service",
      "Quality guarantee"
    ],
    "social_links": {}
  },
  {
    "name": "EY (Ernst & Young)",
    "address": "1001 Bishop St, Suite 1700, Honolulu, HI 96813",
    "phone": "(808) 521-4444",
    "rating": 4.0,
    "reviews": 25,
    "website": "https://www.ey.com/en_us/cybersecurity",
    "category": "Central-American-owned Breach notification services in Hawaii",
    "description": "A global professional services organization offering cybersecurity services, listed among the top in Hawaii",
    "hours": "Mon-Fri 9AM-6PM",
    "services": [
      "Central-American-owned Breach notification services in Hawaii consultation",
      "Professional service",
      "Quality guarantee"
    ],
    "social_links": {}
  },
  {
    "name": "Baker Tilly",
    "address": "Not specified in search results",
    "phone": "",
    "rating": 4.0,
    "reviews": 25,
    "website": "https://www.google.com/maps/search/Baker+Tilly+in+Hawaii",
    "category": "Central-American-owned Breach notification services in Hawaii",
    "description": "A firm listed among the top cybersecurity companies in Hawaii",
    "hours": "Mon-Fri 9AM-6PM",
    "services": [
      "Central-American-owned Breach notification services in Hawaii consultation",
      "Professional service",
      "Quality guarantee"
    ],
    "social_links": {}
  }
]