[
  {
    "name": "Black Walnut",
    "address": "100 NE 4th St, Oklahoma City, OK 73104",
    "phone": "(405) 445-6273",
    "rating": 4.0,
    "reviews": 25,
    "website": "https://www.google.com/maps/search/Black+Walnut+in+Oklahoma",
    "category": "African-American-owned Third-party delivery in Oklahoma",
    "description": "American cuisine blended with the neighborhood's cultural history",
    "hours": "Mon-Fri 9AM-6PM",
    "services": [
      "African-American-owned Third-party delivery in Oklahoma consultation",
      "Professional service",
      "Quality guarantee"
    ],
    "social_links": {}
  },
  {
    "name": "Black Wall Street Liquid Lounge",
    "address": "10 N Greenwood Ave, Suite 101, Tulsa, OK 74120",
    "phone": "(539) 867-2477",
    "rating": 4.0,
    "reviews": 25,
    "website": "https://www.google.com/maps/search/Black+Wall+Street+Liquid+Lounge+in+Oklahoma",
    "category": "African-American-owned Third-party delivery in Oklahoma",
    "description": "Coffee, frappes, tea, and pastries",
    "hours": "Mon-Fri 9AM-6PM",
    "services": [
      "African-American-owned Third-party delivery in Oklahoma consultation",
      "Professional service",
      "Quality guarantee"
    ],
    "social_links": {}
  },
  {
    "name": "Bobo's Chicken",
    "address": "(Multiple locations, one listed as OKC)",
    "phone": "(405) 474-5776",
    "rating": 4.0,
    "reviews": 25,
    "website": "https://www.google.com/maps/search/Bobo's+Chicken+in+Oklahoma",
    "category": "African-American-owned Third-party delivery in Oklahoma",
    "description": "Smokey fried wings & things, tenders, catfish, shrimp, fries, biscuits",
    "hours": "Mon-Fri 9AM-6PM",
    "services": [
      "African-American-owned Third-party delivery in Oklahoma consultation",
      "Professional service",
      "Quality guarantee"
    ],
    "social_links": {}
  },
  {
    "name": "Brielle's Bistro",
    "address": "Midwest City, OK",
    "phone": "(405) 259-8473",
    "rating": 4.0,
    "reviews": 25,
    "website": "https://www.google.com/maps/search/Brielle's+Bistro+in+Oklahoma",
    "category": "African-American-owned Third-party delivery in Oklahoma",
    "description": "Cajun/Creole cuisine",
    "hours": "Mon-Fri 9AM-6PM",
    "services": [
      "African-American-owned Third-party delivery in Oklahoma consultation",
      "Professional service",
      "Quality guarantee"
    ],
    "social_links": {}
  },
  {
    "name": "The Brown's Kitchen",
    "address": "Norman, OK",
    "phone": "(405) 757-4296",
    "rating": 4.0,
    "reviews": 25,
    "website": "https://www.google.com/maps/search/The+Brown's+Kitchen+in+Oklahoma",
    "category": "African-American-owned Third-party delivery in Oklahoma",
    "description": "American, homestyle burgers, Indian tacos, desserts",
    "hours": "Mon-Fri 9AM-6PM",
    "services": [
      "African-American-owned Third-party delivery in Oklahoma consultation",
      "Professional service",
      "Quality guarantee"
    ],
    "social_links": {}
  },
  {
    "name": "Cajun King",
    "address": "Warr Acres, OK",
    "phone": "(405) 603-3714",
    "rating": 4.0,
    "reviews": 25,
    "website": "https://www.google.com/maps/search/Cajun+King+in+Oklahoma",
    "category": "African-American-owned Third-party delivery in Oklahoma",
    "description": "Authentic Cajun food",
    "hours": "Mon-Fri 9AM-6PM",
    "services": [
      "African-American-owned Third-party delivery in Oklahoma consultation",
      "Professional service",
      "Quality guarantee"
    ],
    "social_links": {}
  },
  {
    "name": "Carican Flavors",
    "address": "2701 N Martin Luther King Ave, Oklahoma City, OK 73111",
    "phone": "(405) 424-0456",
    "rating": 4.0,
    "reviews": 25,
    "website": "https://www.google.com/maps/search/Carican+Flavors+in+Oklahoma",
    "category": "African-American-owned Third-party delivery in Oklahoma",
    "description": "Caribbean American food",
    "hours": "Mon-Fri 9AM-6PM",
    "services": [
      "African-American-owned Third-party delivery in Oklahoma consultation",
      "Professional service",
      "Quality guarantee"
    ],
    "social_links": {}
  },
  {
    "name": "Chef Curry ToGo",
    "address": "OKC",
    "phone": "",
    "rating": 4.0,
    "reviews": 25,
    "website": "https://www.google.com/maps/search/Chef+Curry+ToGo+in+Oklahoma",
    "category": "African-American-owned Third-party delivery in Oklahoma",
    "description": "Catering and meal prep",
    "hours": "Mon-Fri 9AM-6PM",
    "services": [
      "African-American-owned Third-party delivery in Oklahoma consultation",
      "Professional service",
      "Quality guarantee"
    ],
    "social_links": {}
  },
  {
    "name": "Evelyn's Soul Food",
    "address": "3014 N 74th E Ave, Tulsa, OK 74115",
    "phone": "(918) 835-1212",
    "rating": 4.0,
    "reviews": 25,
    "website": "https://www.google.com/maps/search/Evelyn's+Soul+Food+in+Oklahoma",
    "category": "African-American-owned Third-party delivery in Oklahoma",
    "description": "Soul food restaurant",
    "hours": "Mon-Fri 9AM-6PM",
    "services": [
      "African-American-owned Third-party delivery in Oklahoma consultation",
      "Professional service",
      "Quality guarantee"
    ],
    "social_links": {}
  },
  {
    "name": "Fixins Soul Kitchen",
    "address": "222 N Detroit Ave, Tulsa, OK 74120",
    "phone": "(918) 818-7685",
    "rating": 4.0,
    "reviews": 25,
    "website": "https://www.google.com/maps/search/Fixins+Soul+Kitchen+in+Oklahoma",
    "category": "African-American-owned Third-party delivery in Oklahoma",
    "description": "Full-service soul food restaurant celebrating African American culture",
    "hours": "Mon-Fri 9AM-6PM",
    "services": [
      "African-American-owned Third-party delivery in Oklahoma consultation",
      "Professional service",
      "Quality guarantee"
    ],
    "social_links": {}
  }
]