[
  {
    "name": "Brennan's Heating & Air Conditioning",
    "address": "Woodbridge, VA (Servicing Northern Virginia)",
    "phone": "(703) 783-4000",
    "rating": 4.0,
    "reviews": 25,
    "website": "https://brennansheating.com/",
    "category": "Armenian-speaking Furnaces in Virginia",
    "description": "Offers expert AC repair, installation, and maintenance services, including furnace repair and replacement. They are a Carrier Factory Authorized Dealer",
    "hours": "Mon-Fri 9AM-6PM",
    "services": [
      "Armenian-speaking Furnaces in Virginia consultation",
      "Professional service",
      "Quality guarantee"
    ],
    "social_links": {}
  },
  {
    "name": "Caffi Services",
    "address": "Alexandria, VA (Servicing Northern Virginia)",
    "phone": "(703) 783-4000",
    "rating": 4.0,
    "reviews": 25,
    "website": "https://www.caffiservices.com/",
    "category": "Armenian-speaking Furnaces in Virginia",
    "description": "Provides 24/7 emergency heating repairs, including furnace services, for heat pumps, boilers, and furnaces",
    "hours": "Mon-Fri 9AM-6PM",
    "services": [
      "Armenian-speaking Furnaces in Virginia consultation",
      "Professional service",
      "Quality guarantee"
    ],
    "social_links": {}
  },
  {
    "name": "ARS/Rescue Rooter",
    "address": "Fairfax, VA (Servicing Northern Virginia)",
    "phone": "855-207-4667",
    "rating": 4.0,
    "reviews": 25,
    "website": "https://www.ars.com/locations/virginia/fairfax/furnace-repair",
    "category": "Armenian-speaking Furnaces in Virginia",
    "description": "Offers furnace repair and heating services with highly-trained technicians and emergency service options",
    "hours": "Mon-Fri 9AM-6PM",
    "services": [
      "Armenian-speaking Furnaces in Virginia consultation",
      "Professional service",
      "Quality guarantee"
    ],
    "social_links": {}
  },
  {
    "name": "Vernon The Heating & Cooling Specialists",
    "address": "Sterling, VA (Servicing Northern Virginia and surrounding areas)",
    "phone": "(703) 783-4000",
    "rating": 4.0,
    "reviews": 25,
    "website": "https://www.vernonhvac.com/",
    "category": "Armenian-speaking Furnaces in Virginia",
    "description": "Provides HVAC services including furnace repair, installation, and maintenance for residential and commercial clients",
    "hours": "Mon-Fri 9AM-6PM",
    "services": [
      "Armenian-speaking Furnaces in Virginia consultation",
      "Professional service",
      "Quality guarantee"
    ],
    "social_links": {}
  },
  {
    "name": "AllTech Services, Inc.",
    "address": "Sterling, VA and Winchester, VA",
    "phone": "(703) 628-8200 (Sterling) / (540) 299-5012 (Winchester)",
    "rating": 4.0,
    "reviews": 25,
    "website": "https://www.alltechservices.com/",
    "category": "Armenian-speaking Furnaces in Virginia",
    "description": "Offers HVAC services, including furnace repair and installation, across various locations in Virginia",
    "hours": "Mon-Fri 9AM-6PM",
    "services": [
      "Armenian-speaking Furnaces in Virginia consultation",
      "Professional service",
      "Quality guarantee"
    ],
    "social_links": {}
  },
  {
    "name": "Service Specialties",
    "address": "Centreville, VA (Servicing Northern Virginia)",
    "phone": "(703) 783-4000",
    "rating": 4.0,
    "reviews": 25,
    "website": "https://servicespecialties.com/",
    "category": "Armenian-speaking Furnaces in Virginia",
    "description": "Provides reliable HVAC and plumbing services, including furnace repair and installation, with a customer-first approach",
    "hours": "Mon-Fri 9AM-6PM",
    "services": [
      "Armenian-speaking Furnaces in Virginia consultation",
      "Professional service",
      "Quality guarantee"
    ],
    "social_links": {}
  },
  {
    "name": "A-1 American Services Inc.",
    "address": "Virginia Beach, VA (Servicing Hampton Roads area)",
    "phone": "(757) 425-4747",
    "rating": 4.0,
    "reviews": 25,
    "website": "https://www.a-1american.com/",
    "category": "Armenian-speaking Furnaces in Virginia",
    "description": "Offers HVAC and plumbing services, including furnace repair, with 24/7 emergency service",
    "hours": "Mon-Fri 9AM-6PM",
    "services": [
      "Armenian-speaking Furnaces in Virginia consultation",
      "Professional service",
      "Quality guarantee"
    ],
    "social_links": {}
  },
  {
    "name": "Herman Allen Plumbing, Heating & Cooling",
    "address": "Sandston, VA (Serving Greater Richmond area)",
    "phone": "(804) 746-3400",
    "rating": 4.0,
    "reviews": 25,
    "website": "https://www.hermanallen.com/",
    "category": "Armenian-speaking Furnaces in Virginia",
    "description": "Provides furnace repair and other HVAC services to the Greater Richmond area",
    "hours": "Mon-Fri 9AM-6PM",
    "services": [
      "Armenian-speaking Furnaces in Virginia consultation",
      "Professional service",
      "Quality guarantee"
    ],
    "social_links": {}
  },
  {
    "name": "Mr. Appliance of Richmond",
    "address": "Richmond, VA",
    "phone": "(804) 746-3300",
    "rating": 4.0,
    "reviews": 25,
    "website": "https://www.mrappliance.com/richmond/",
    "category": "Armenian-speaking Furnaces in Virginia",
    "description": "Offers appliance repair services, which may include furnace components, with upfront pricing and on-time service",
    "hours": "Mon-Fri 9AM-6PM",
    "services": [
      "Armenian-speaking Furnaces in Virginia consultation",
      "Professional service",
      "Quality guarantee"
    ],
    "social_links": {}
  },
  {
    "name": "Veterans Appliance",
    "address": "Virginia Beach, VA (Servicing Virginia Beach, Chesapeake, and Norfolk)",
    "phone": "(757) 460-1400",
    "rating": 4.0,
    "reviews": 25,
    "website": "https://veteransappliance.com/",
    "category": "Armenian-speaking Furnaces in Virginia",
    "description": "Provides appliance repair services, potentially including furnace components, with a customer satisfaction guarantee",
    "hours": "Mon-Fri 9AM-6PM",
    "services": [
      "Armenian-speaking Furnaces in Virginia consultation",
      "Professional service",
      "Quality guarantee"
    ],
    "social_links": {}
  }
]