[
  {
    "name": "Louisville Prenatal Massage",
    "address": "1313 Lyndon Ln Suite 210, Louisville, KY 40222, USA",
    "phone": "(502) 257-5994",
    "rating": 4.0,
    "reviews": 25,
    "website": "http://louisvilleprenatalmassage.com/",
    "category": "Chinese-speaking Prenatal massage in Kentucky",
    "description": "Offers specialized prenatal and postpartum massage therapy with a highly qualified and experienced therapist",
    "hours": "Mon-Fri 9AM-6PM",
    "services": [
      "Chinese-speaking Prenatal massage in Kentucky consultation",
      "Professional service",
      "Quality guarantee"
    ],
    "social_links": {}
  },
  {
    "name": "Massage Strong",
    "address": "Multiple locations in Lexington & Nicholasville, KY",
    "phone": "(859) 334-0585",
    "rating": 4.0,
    "reviews": 25,
    "website": "https://www.google.com/maps/search/Massage+Strong+in+Kentucky",
    "category": "Chinese-speaking Prenatal massage in Kentucky",
    "description": "Provides prenatal massage therapy in Lexington and Nicholasville, focusing on reducing swelling and promoting relaxation",
    "hours": "Mon-Fri 9AM-6PM",
    "services": [
      "Chinese-speaking Prenatal massage in Kentucky consultation",
      "Professional service",
      "Quality guarantee"
    ],
    "social_links": {}
  },
  {
    "name": "Eagle Creek Massage",
    "address": "Lexington, KY (Specific address not detailed in search results, but located near St. Joseph East Hospital)",
    "phone": "859-264-0550",
    "rating": 4.0,
    "reviews": 25,
    "website": "https://www.google.com/maps/search/Eagle+Creek+Massage+in+Kentucky",
    "category": "Chinese-speaking Prenatal massage in Kentucky",
    "description": "Offers prenatal massage in Lexington, targeting common pregnancy discomforts and promoting relaxation",
    "hours": "Mon-Fri 9AM-6PM",
    "services": [
      "Chinese-speaking Prenatal massage in Kentucky consultation",
      "Professional service",
      "Quality guarantee"
    ],
    "social_links": {}
  },
  {
    "name": "Halcyon Therapeutic Massage",
    "address": "Owensboro, KY",
    "phone": "",
    "rating": 4.0,
    "reviews": 25,
    "website": "https://www.google.com/maps/search/Halcyon+Therapeutic+Massage+in+Kentucky",
    "category": "Chinese-speaking Prenatal massage in Kentucky",
    "description": "Offers a 60-minute prenatal therapeutic massage in Owensboro designed to support pregnancy",
    "hours": "Mon-Fri 9AM-6PM",
    "services": [
      "Chinese-speaking Prenatal massage in Kentucky consultation",
      "Professional service",
      "Quality guarantee"
    ],
    "social_links": {}
  },
  {
    "name": "Owsley Chiropractic",
    "address": "301 Pascoe Blvd, Bowling Green, KY 42104",
    "phone": "(270) 846-0505",
    "rating": 4.0,
    "reviews": 25,
    "website": "https://www.google.com/maps/search/Owsley+Chiropractic+in+Kentucky",
    "category": "Chinese-speaking Prenatal massage in Kentucky",
    "description": "Offers prenatal massage as part of their massage therapy services in Bowling Green",
    "hours": "Mon-Fri 9AM-6PM",
    "services": [
      "Chinese-speaking Prenatal massage in Kentucky consultation",
      "Professional service",
      "Quality guarantee"
    ],
    "social_links": {}
  },
  {
    "name": "Z Salon",
    "address": "Louisville, KY (Specific address not detailed in search results)",
    "phone": "",
    "rating": 4.0,
    "reviews": 25,
    "website": "https://www.google.com/maps/search/Z+Salon+in+Kentucky",
    "category": "Chinese-speaking Prenatal massage in Kentucky",
    "description": "Offers \"Pregnancy Massage\" for expectant mothers addressing common concerns",
    "hours": "Mon-Fri 9AM-6PM",
    "services": [
      "Chinese-speaking Prenatal massage in Kentucky consultation",
      "Professional service",
      "Quality guarantee"
    ],
    "social_links": {}
  },
  {
    "name": "Elements Massage",
    "address": "Florence, KY (Specific address not detailed in search results)",
    "phone": "",
    "rating": 4.0,
    "reviews": 25,
    "website": "https://www.google.com/maps/search/Elements+Massage+in+Kentucky",
    "category": "Chinese-speaking Prenatal massage in Kentucky",
    "description": "Offers prenatal massage with certified therapists trained in specific prenatal techniques",
    "hours": "Mon-Fri 9AM-6PM",
    "services": [
      "Chinese-speaking Prenatal massage in Kentucky consultation",
      "Professional service",
      "Quality guarantee"
    ],
    "social_links": {}
  },
  {
    "name": "Cedar & Sage Massage and Wellness",
    "address": "Richmond, KY 40475",
    "phone": "859-803-5748",
    "rating": 4.0,
    "reviews": 25,
    "website": "https://www.google.com/maps/search/Cedar+&+Sage+Massage+and+Wellness+in+Kentucky",
    "category": "Chinese-speaking Prenatal massage in Kentucky",
    "description": "Offers prenatal massage as one of their specialized services",
    "hours": "Mon-Fri 9AM-6PM",
    "services": [
      "Chinese-speaking Prenatal massage in Kentucky consultation",
      "Professional service",
      "Quality guarantee"
    ],
    "social_links": {}
  },
  {
    "name": "Spirit Spa",
    "address": "Owensboro, KY (Specific address not detailed in search results)",
    "phone": "(270) 240-2603",
    "rating": 4.0,
    "reviews": 25,
    "website": "https://www.google.com/maps/search/Spirit+Spa+in+Kentucky",
    "category": "Chinese-speaking Prenatal massage in Kentucky",
    "description": "Offers prenatal massage, noting it's for clients out of their first trimester",
    "hours": "Mon-Fri 9AM-6PM",
    "services": [
      "Chinese-speaking Prenatal massage in Kentucky consultation",
      "Professional service",
      "Quality guarantee"
    ],
    "social_links": {}
  },
  {
    "name": "A New You Day Spa & Salon",
    "address": "Lexington, KY (Specific address not detailed in search results)",
    "phone": "",
    "rating": 4.0,
    "reviews": 25,
    "website": "https://www.google.com/maps/search/A+New+You+Day+Spa+&+Salon+in+Kentucky",
    "category": "Chinese-speaking Prenatal massage in Kentucky",
    "description": "Offers prenatal massage to help reduce discomfort associated with pregnancy",
    "hours": "Mon-Fri 9AM-6PM",
    "services": [
      "Chinese-speaking Prenatal massage in Kentucky consultation",
      "Professional service",
      "Quality guarantee"
    ],
    "social_links": {}
  }
]