[
  {
    "name": "Khana Indian Grill",
    "address": "3619 College Ave, Fayetteville, AR 72703",
    "phone": "(479) 935-4000",
    "rating": 4.5,
    "reviews": 25,
    "website": "https://www.khanaindiangrill.com/",
    "category": "Bengali-speaking Restructuring in Arkansas",
    "description": "Khana Indian Grill offers authentic Indian cuisine with a focus on modern Indian cooking. They have a lean menu featuring snacks, rice dishes, rolls, and sides, including a \"Bengali Shrimp\" option",
    "hours": "Mon-Fri 9AM-6PM",
    "services": [
      "Bengali-speaking Restructuring in Arkansas consultation",
      "Professional service",
      "Quality guarantee"
    ],
    "social_links": {}
  },
  {
    "name": "Isha The Taste of India",
    "address": "1400 Military Road, Benton, AR 72015",
    "phone": "(501) 794-6084",
    "rating": 4.5,
    "reviews": 25,
    "website": "https://www.ishathetasteofindia.com/",
    "category": "Bengali-speaking Restructuring in Arkansas",
    "description": "This restaurant serves freshly prepared Indian delicacies with authentic spices and traditional cooking methods",
    "hours": "Mon-Fri 9AM-6PM",
    "services": [
      "Bengali-speaking Restructuring in Arkansas consultation",
      "Professional service",
      "Quality guarantee"
    ],
    "social_links": {}
  },
  {
    "name": "Saffron Indian Cuisine Bar & Grill",
    "address": "2101 S Promenade St, Rogers, AR 72758",
    "phone": "(479) 636-0007",
    "rating": 4.4,
    "reviews": 25,
    "website": "https://www.saffronrogers.com/",
    "category": "Bengali-speaking Restructuring in Arkansas",
    "description": "Saffron Indian Cuisine Bar & Grill is known for its delicious Indian dishes and fresh beers, offering a wide variety of appetizers, curries, and seafood dishes",
    "hours": "Mon-Fri 9AM-6PM",
    "services": [
      "Bengali-speaking Restructuring in Arkansas consultation",
      "Professional service",
      "Quality guarantee"
    ],
    "social_links": {}
  },
  {
    "name": "Bawarchi Biryanis",
    "address": "11121 N Rodney Parham Rd, Little Rock, AR 72212",
    "phone": "(501) 210-0008",
    "rating": 4.5,
    "reviews": 25,
    "website": "https://bawarchibiryanislr.com/",
    "category": "Bengali-speaking Restructuring in Arkansas",
    "description": "Bawarchi Biryanis offers authentic Hyderabadi Biryani and a versatile pan-Indian menu in a modern fine-dine setting",
    "hours": "Mon-Fri 9AM-6PM",
    "services": [
      "Bengali-speaking Restructuring in Arkansas consultation",
      "Professional service",
      "Quality guarantee"
    ],
    "social_links": {}
  },
  {
    "name": "Taj Mahal",
    "address": "11121 N Rodney Parham Rd, Little Rock, AR 72212",
    "phone": "(501) 225-0400",
    "rating": 4.5,
    "reviews": 25,
    "website": "https://www.tajmahalar.com/",
    "category": "Bengali-speaking Restructuring in Arkansas",
    "description": "Taj Mahal serves fresh and delicious Indian dishes in Little Rock, with a mission to provide an amazing dining experience. They offer popular items like Chicken Biryani and Saag Paneer",
    "hours": "Mon-Fri 9AM-6PM",
    "services": [
      "Bengali-speaking Restructuring in Arkansas consultation",
      "Professional service",
      "Quality guarantee"
    ],
    "social_links": {}
  },
  {
    "name": "Curry Leaf Indian Cuisine",
    "address": "2901 E Nettleton Ave, Jonesboro, AR 72401",
    "phone": "(870) 336-1000",
    "rating": 4.6,
    "reviews": 25,
    "website": "https://www.curryleafar.com/",
    "category": "Bengali-speaking Restructuring in Arkansas",
    "description": "Curry Leaf Indian Cuisine brings authentic flavors of India to Jonesboro, featuring rich curries, tandoori delights, and vegetarian specialties",
    "hours": "Mon-Fri 9AM-6PM",
    "services": [
      "Bengali-speaking Restructuring in Arkansas consultation",
      "Professional service",
      "Quality guarantee"
    ],
    "social_links": {}
  },
  {
    "name": "Bay Leaf Indian Cuisine",
    "address": "8640 Rogers Ave, Fort Smith, AR 72903",
    "phone": "(479) 789-9526",
    "rating": 4.5,
    "reviews": 25,
    "website": "https://www.bayleafar.com/",
    "category": "Bengali-speaking Restructuring in Arkansas",
    "description": "Bay Leaf Indian Cuisine offers a delectable fusion of Indian and Indo-Chinese cuisine, from savory soups to succulent tandoori grills",
    "hours": "Mon-Fri 9AM-6PM",
    "services": [
      "Bengali-speaking Restructuring in Arkansas consultation",
      "Professional service",
      "Quality guarantee"
    ],
    "social_links": {}
  },
  {
    "name": "Bawarchi Indian Cuisine",
    "address": "3409 SE 14th St, Bentonville, AR 72712",
    "phone": "(479) 715-6000",
    "rating": 4.4,
    "reviews": 25,
    "website": "https://bawarchiindiancuisine.com/",
    "category": "Bengali-speaking Restructuring in Arkansas",
    "description": "Bawarchi Indian Cuisine serves a pan-Indian menu in a contemporary setting, offering dine-in, online ordering, and catering services",
    "hours": "Mon-Fri 9AM-6PM",
    "services": [
      "Bengali-speaking Restructuring in Arkansas consultation",
      "Professional service",
      "Quality guarantee"
    ],
    "social_links": {}
  },
  {
    "name": "Curry House",
    "address": "41-07 74th St, Queens, NY 11373",
    "phone": "(718) 728-3600",
    "rating": 4.3,
    "reviews": 25,
    "website": "https://www.aladdinsweets.com/",
    "category": "Bengali-speaking Restructuring in Arkansas",
    "description": "Aladdin Sweets & Restaurant is recognized for serving authentic Bengali food, with a reviewer noting it was like home cooking but more professional and tastier",
    "hours": "Mon-Fri 9AM-6PM",
    "services": [
      "Bengali-speaking Restructuring in Arkansas consultation",
      "Professional service",
      "Quality guarantee"
    ],
    "social_links": {}
  }
]