[
  {
    "name": "Chambliss, Bahner & Stophel, P.C.",
    "address": "1000 Volunteer Building, 214 North 11th Street, Chattanooga, TN 37402",
    "phone": "(423) 756-3400",
    "rating": 4.0,
    "reviews": 25,
    "website": "https://www.chamblisslaw.com/",
    "category": "Atheist-owned Patent law in Tennessee",
    "description": "This firm offers intellectual property services, including patent law, to individual inventors and corporations",
    "hours": "Mon-Fri 9AM-6PM",
    "services": [
      "Atheist-owned Patent law in Tennessee consultation",
      "Professional service",
      "Quality guarantee"
    ],
    "social_links": {}
  },
  {
    "name": "Bradley Arant Boult Cummings LLP",
    "address": "1600 Division Street, Suite 1000, Nashville, TN 37203",
    "phone": "(615) 252-2300",
    "rating": 4.0,
    "reviews": 25,
    "website": "https://www.babc.com/",
    "category": "Atheist-owned Patent law in Tennessee",
    "description": "A large law firm with a strong presence in patent law, recognized nationally and regionally",
    "hours": "Mon-Fri 9AM-6PM",
    "services": [
      "Atheist-owned Patent law in Tennessee consultation",
      "Professional service",
      "Quality guarantee"
    ],
    "social_links": {}
  },
  {
    "name": "Patterson Intellectual Property Law, PC",
    "address": "2000 Belmont Blvd, Nashville, TN 37212",
    "phone": "(615) 679-2200",
    "rating": 4.0,
    "reviews": 25,
    "website": "https://www.pat Patter sonip.com/",
    "category": "Atheist-owned Patent law in Tennessee",
    "description": "This firm specializes in intellectual property law, including patents",
    "hours": "Mon-Fri 9AM-6PM",
    "services": [
      "Atheist-owned Patent law in Tennessee consultation",
      "Professional service",
      "Quality guarantee"
    ],
    "social_links": {}
  },
  {
    "name": "Robinson IP Law, PLLC",
    "address": "17 Market Square, Suite 400, Knoxville, TN 37902",
    "phone": "(865) 314-8300",
    "rating": 4.0,
    "reviews": 25,
    "website": "https://robinsonip.com/",
    "category": "Atheist-owned Patent law in Tennessee",
    "description": "An intellectual property law firm serving clients for patent, trademark, and copyright needs",
    "hours": "Mon-Fri 9AM-6PM",
    "services": [
      "Atheist-owned Patent law in Tennessee consultation",
      "Professional service",
      "Quality guarantee"
    ],
    "social_links": {}
  },
  {
    "name": "Schelling IP Law PLLC",
    "address": "1033 Demonbreun Street, Suite 300, Nashville, TN 37203",
    "phone": "(615) 727-0090",
    "rating": 4.0,
    "reviews": 25,
    "website": "https://www.schellingip.com/",
    "category": "Atheist-owned Patent law in Tennessee",
    "description": "This firm focuses on intellectual property law",
    "hours": "Mon-Fri 9AM-6PM",
    "services": [
      "Atheist-owned Patent law in Tennessee consultation",
      "Professional service",
      "Quality guarantee"
    ],
    "social_links": {}
  },
  {
    "name": "WaddeyAcheson LLC",
    "address": "2000 Glen Echo Rd, Nashville, TN 37215",
    "phone": "(615) 726-5700",
    "rating": 4.0,
    "reviews": 25,
    "website": "https://www.waddeyacheson.com/",
    "category": "Atheist-owned Patent law in Tennessee",
    "description": "A law firm offering services that include patent law",
    "hours": "Mon-Fri 9AM-6PM",
    "services": [
      "Atheist-owned Patent law in Tennessee consultation",
      "Professional service",
      "Quality guarantee"
    ],
    "social_links": {}
  },
  {
    "name": "Baker, Donelson, Bearman, Caldwell & Berkowitz, PC",
    "address": "1600 West End Ave, Nashville, TN 37203",
    "phone": "(615) 726-5600",
    "rating": 4.0,
    "reviews": 25,
    "website": "https://www.bakerdonelson.com/",
    "category": "Atheist-owned Patent law in Tennessee",
    "description": "A large law firm with extensive experience in intellectual property and patent law",
    "hours": "Mon-Fri 9AM-6PM",
    "services": [
      "Atheist-owned Patent law in Tennessee consultation",
      "Professional service",
      "Quality guarantee"
    ],
    "social_links": {}
  },
  {
    "name": "Law Office of Aleece McKnight",
    "address": "1000 Commerce St, Nashville, TN 37203",
    "phone": "(615) 933-7000",
    "rating": 4.0,
    "reviews": 25,
    "website": "https://www.aleecemcknight.com/",
    "category": "Atheist-owned Patent law in Tennessee",
    "description": "Focuses on trademark and copyright law, with a description that suggests a client-centered approach",
    "hours": "Mon-Fri 9AM-6PM",
    "services": [
      "Atheist-owned Patent law in Tennessee consultation",
      "Professional service",
      "Quality guarantee"
    ],
    "social_links": {}
  },
  {
    "name": "Thrive IP\u00ae",
    "address": "8903 LinksVue Dr, Knoxville, TN 37922",
    "phone": "(865) 224-8555",
    "rating": 4.0,
    "reviews": 25,
    "website": "https://thrive-ip.com/",
    "category": "Atheist-owned Patent law in Tennessee",
    "description": "Specializes in patent and trademark law, with an attorney holding a petroleum engineering degree",
    "hours": "Mon-Fri 9AM-6PM",
    "services": [
      "Atheist-owned Patent law in Tennessee consultation",
      "Professional service",
      "Quality guarantee"
    ],
    "social_links": {}
  },
  {
    "name": "Saliwanchik, Lloyd & Eisenschenk",
    "address": "While their primary location may not be in Tennessee, Jeff Lloyd is listed as serving Nashville, TN",
    "phone": "(844) 615-4360",
    "rating": 4.0,
    "reviews": 25,
    "website": "https://www.google.com/maps/search/Saliwanchik,+Lloyd+&+Eisenschenk+in+Tennessee",
    "category": "Atheist-owned Patent law in Tennessee",
    "description": "Jeff Lloyd is a highly-rated patents attorney serving the Nashville area",
    "hours": "Mon-Fri 9AM-6PM",
    "services": [
      "Atheist-owned Patent law in Tennessee consultation",
      "Professional service",
      "Quality guarantee"
    ],
    "social_links": {}
  }
]