[
  {
    "name": "Discount Wheel and Tire",
    "address": "3050 Ualena St, Honolulu, HI 96819",
    "phone": "(808) 836-0475",
    "rating": 4.8,
    "reviews": 25,
    "website": "https://www.discountwheelandtire.com/",
    "category": "Chinese-American-owned Tire rotation in Hawaii",
    "description": "This family-owned business offers a wide selection of tires at competitive prices and includes free tire rotation and repair for the life of the tire",
    "hours": "Mon-Fri 9AM-6PM",
    "services": [
      "Chinese-American-owned Tire rotation in Hawaii consultation",
      "Professional service",
      "Quality guarantee"
    ],
    "social_links": {}
  },
  {
    "name": "Sky Auto Repair",
    "address": "653 Mapunapuna Street, Honolulu, HI 96819",
    "phone": "(808) 202-2300",
    "rating": 4.0,
    "reviews": 25,
    "website": "https://www.skyautorepairhonolulu.com/",
    "category": "Chinese-American-owned Tire rotation in Hawaii",
    "description": "Sky Auto Repair provides professional tire rotation services to ensure even tread wear and optimal handling for your vehicle",
    "hours": "Mon-Fri 9AM-6PM",
    "services": [
      "Chinese-American-owned Tire rotation in Hawaii consultation",
      "Professional service",
      "Quality guarantee"
    ],
    "social_links": {}
  },
  {
    "name": "A-1 Auto Repair",
    "address": "1313 Kapiolani Blvd, Honolulu, HI 96814",
    "phone": "(808) 842-7700",
    "rating": 4.9,
    "reviews": 25,
    "website": "https://www.a1autorepairhonolulu.com/",
    "category": "Chinese-American-owned Tire rotation in Hawaii",
    "description": "A family-owned and operated establishment offering honest, reliable, and affordable auto repair services, including tire maintenance",
    "hours": "Mon-Fri 9AM-6PM",
    "services": [
      "Chinese-American-owned Tire rotation in Hawaii consultation",
      "Professional service",
      "Quality guarantee"
    ],
    "social_links": {}
  },
  {
    "name": "Artesian Auto Repair",
    "address": "1012 Artesian St, Honolulu, HI 96826",
    "phone": "(808) 947-3011",
    "rating": 4.8,
    "reviews": 25,
    "website": "https://www.artesianautorepair.com/",
    "category": "Chinese-American-owned Tire rotation in Hawaii",
    "description": "A full-service auto repair shop specializing in Asian vehicles, offering comprehensive maintenance and repair services, including tire services",
    "hours": "Mon-Fri 9AM-6PM",
    "services": [
      "Chinese-American-owned Tire rotation in Hawaii consultation",
      "Professional service",
      "Quality guarantee"
    ],
    "social_links": {}
  },
  {
    "name": "Lex Brodie's Tire, Brake & Service Company",
    "address": "Multiple locations across Oahu, including 1100 Kapiolani Blvd, Honolulu, HI 96814",
    "phone": "(808) 591-1111",
    "rating": 4.6,
    "reviews": 25,
    "website": "https://www.lexbrodies.com/",
    "category": "Chinese-American-owned Tire rotation in Hawaii",
    "description": "Founded in Hawaii in 1961, Lex Brodie's is employee-owned and offers a large tire inventory, tire rotations, and other automotive services",
    "hours": "Mon-Fri 9AM-6PM",
    "services": [
      "Chinese-American-owned Tire rotation in Hawaii consultation",
      "Professional service",
      "Quality guarantee"
    ],
    "social_links": {}
  },
  {
    "name": "American Tire Company",
    "address": "Multiple locations, including 1010 Kapiolani Blvd, Honolulu, HI 96814",
    "phone": "(808) 949-4900",
    "rating": 4.5,
    "reviews": 25,
    "website": "https://www.americantirehi.com/",
    "category": "Chinese-American-owned Tire rotation in Hawaii",
    "description": "This company offers tire services, including rotation, balance, and alignment, to promote better fuel economy and longer tread life",
    "hours": "Mon-Fri 9AM-6PM",
    "services": [
      "Chinese-American-owned Tire rotation in Hawaii consultation",
      "Professional service",
      "Quality guarantee"
    ],
    "social_links": {}
  },
  {
    "name": "Hawaiian Tire & Auto Center",
    "address": "98-025 Hekaha St, Aiea, HI 96701",
    "phone": "(808) 487-6616",
    "rating": 4.7,
    "reviews": 25,
    "website": "https://www.hawaiiantire.net/",
    "category": "Chinese-American-owned Tire rotation in Hawaii",
    "description": "Hawaiian Tire & Auto Center provides tire rotation services to Aiea and surrounding areas, focusing on distributing tread wear evenly",
    "hours": "Mon-Fri 9AM-6PM",
    "services": [
      "Chinese-American-owned Tire rotation in Hawaii consultation",
      "Professional service",
      "Quality guarantee"
    ],
    "social_links": {}
  },
  {
    "name": "Firestone Complete Auto Care",
    "address": "1001 Auahi St, Honolulu, HI 96814",
    "phone": "(808) 591-8000",
    "rating": 4.3,
    "reviews": 25,
    "website": "https://www.firestonecompleteautocare.com/",
    "category": "Chinese-American-owned Tire rotation in Hawaii",
    "description": "Firestone offers a range of tire services, including rotations, to help you get back on the road quickly",
    "hours": "Mon-Fri 9AM-6PM",
    "services": [
      "Chinese-American-owned Tire rotation in Hawaii consultation",
      "Professional service",
      "Quality guarantee"
    ],
    "social_links": {}
  },
  {
    "name": "Goodyear Auto Service",
    "address": "Multiple locations, including Kapolei Shopping Center, 460 Farrington Hwy, Kapolei, HI 96707",
    "phone": "(855) 785-0768",
    "rating": 4.4,
    "reviews": 25,
    "website": "https://www.goodyearautoservice.com/",
    "category": "Chinese-American-owned Tire rotation in Hawaii",
    "description": "Goodyear Auto Service provides convenient locations for tire rotations, oil changes, and other car maintenance services",
    "hours": "Mon-Fri 9AM-6PM",
    "services": [
      "Chinese-American-owned Tire rotation in Hawaii consultation",
      "Professional service",
      "Quality guarantee"
    ],
    "social_links": {}
  },
  {
    "name": "Pearl City Auto Works",
    "address": "1040 Aiea Heights Dr, Aiea, HI 96701",
    "phone": "(808) 488-1177",
    "rating": 4.9,
    "reviews": 25,
    "website": "https://www.pearlcityautoworks.com/",
    "category": "Chinese-American-owned Tire rotation in Hawaii",
    "description": "This family-owned business offers a personalized approach to auto repair and maintenance, including tire services, aiming to build long-lasting customer relationships",
    "hours": "Mon-Fri 9AM-6PM",
    "services": [
      "Chinese-American-owned Tire rotation in Hawaii consultation",
      "Professional service",
      "Quality guarantee"
    ],
    "social_links": {}
  }
]