[
  {
    "name": "Armenian Apostolic Church Salt Lake City",
    "address": "Salt Lake City, Utah",
    "phone": "(801) 867-1855",
    "rating": 4.0,
    "reviews": 25,
    "website": "https://www.faithstreet.com/v/armenian-apostolic-church-salt-lake-city",
    "category": "Armenian-speaking Corporate websites in Utah",
    "description": "A local Armenian Apostolic Church serving the community in Salt Lake City",
    "hours": "Mon-Fri 9AM-6PM",
    "services": [
      "Armenian-speaking Corporate websites in Utah consultation",
      "Professional service",
      "Quality guarantee"
    ],
    "social_links": {}
  },
  {
    "name": "Armenian School of Utah",
    "address": "Salt Lake City, Utah",
    "phone": "+1-801-867-1855",
    "rating": 4.0,
    "reviews": 25,
    "website": "https://armenianschoolofutah.org/",
    "category": "Armenian-speaking Corporate websites in Utah",
    "description": "Offers Armenian language, history, and dance classes for children, along with cultural events",
    "hours": "Mon-Fri 9AM-6PM",
    "services": [
      "Armenian-speaking Corporate websites in Utah consultation",
      "Professional service",
      "Quality guarantee"
    ],
    "social_links": {}
  },
  {
    "name": "European Tastees",
    "address": "4700 S 900 E, Murray, UT 84121",
    "phone": "(801) 266-0098",
    "rating": 4.0,
    "reviews": 25,
    "website": "https://www.europeantastees.com/",
    "category": "Armenian-speaking Corporate websites in Utah",
    "description": "An Armenian-owned small shop providing European, Russian, and other imported foods, as well as baked goods",
    "hours": "Mon-Fri 9AM-6PM",
    "services": [
      "Armenian-speaking Corporate websites in Utah consultation",
      "Professional service",
      "Quality guarantee"
    ],
    "social_links": {}
  },
  {
    "name": "Arbat Specialty Store & Bakery",
    "address": "3232 S 400 E #200, Salt Lake City, UT 84115",
    "phone": "(801) 467-5511",
    "rating": 4.0,
    "reviews": 25,
    "website": "https://www.arbat-ut.com/",
    "category": "Armenian-speaking Corporate websites in Utah",
    "description": "A specialty grocery store and bakery offering a variety of flavors from Armenia, Russia, and Europe, including deli items, beverages, and baked goods",
    "hours": "Mon-Fri 9AM-6PM",
    "services": [
      "Armenian-speaking Corporate websites in Utah consultation",
      "Professional service",
      "Quality guarantee"
    ],
    "social_links": {}
  },
  {
    "name": "Arbat Restaurant and Banquet Hall",
    "address": "Salt Lake City, UT",
    "phone": "(801) 467-5511",
    "rating": 4.0,
    "reviews": 25,
    "website": "https://www.arbat-ut.com/banquet-hall",
    "category": "Armenian-speaking Corporate websites in Utah",
    "description": "Offers catering and banquet services with a menu featuring European and Russian cuisine, suitable for various events",
    "hours": "Mon-Fri 9AM-6PM",
    "services": [
      "Armenian-speaking Corporate websites in Utah consultation",
      "Professional service",
      "Quality guarantee"
    ],
    "social_links": {}
  },
  {
    "name": "Black Cherry Mediterranean Market",
    "address": "Salt Lake City, Utah",
    "phone": "",
    "rating": 4.0,
    "reviews": 25,
    "website": "https://www.blackcherrymarket.com/",
    "category": "Armenian-speaking Corporate websites in Utah",
    "description": "A family-owned market offering authentic Mediterranean, Middle Eastern, kosher, and specialty foods",
    "hours": "Mon-Fri 9AM-6PM",
    "services": [
      "Armenian-speaking Corporate websites in Utah consultation",
      "Professional service",
      "Quality guarantee"
    ],
    "social_links": {}
  },
  {
    "name": "Laziz Kitchen Downtown",
    "address": "912 Jefferson St W, Salt Lake City, UT 84101",
    "phone": "",
    "rating": 4.0,
    "reviews": 25,
    "website": "https://www.lazizkitchen.com/",
    "category": "Armenian-speaking Corporate websites in Utah",
    "description": "A restaurant reimagining Mediterranean culinary traditions, serving as a cultural hub",
    "hours": "Mon-Fri 9AM-6PM",
    "services": [
      "Armenian-speaking Corporate websites in Utah consultation",
      "Professional service",
      "Quality guarantee"
    ],
    "social_links": {}
  },
  {
    "name": "Society for Orphaned Armenian Relief (SOAR) - Salt Lake City Chapter",
    "address": "Salt Lake City, Utah",
    "phone": "",
    "rating": 4.0,
    "reviews": 25,
    "website": "https://www.soar-us.org/salt-lake-city-chapter",
    "category": "Armenian-speaking Corporate websites in Utah",
    "description": "A chapter of a non-profit organization dedicated to supporting orphaned Armenian children",
    "hours": "Mon-Fri 9AM-6PM",
    "services": [
      "Armenian-speaking Corporate websites in Utah consultation",
      "Professional service",
      "Quality guarantee"
    ],
    "social_links": {}
  },
  {
    "name": "AGBU (Armenian General Benevolent Union) Utah",
    "address": "Salt Lake City, Utah",
    "phone": "",
    "rating": 4.0,
    "reviews": 25,
    "website": "https://agbu.org/",
    "category": "Armenian-speaking Corporate websites in Utah",
    "description": "An organization that supports Armenian culture and heritage, with a presence in Utah",
    "hours": "Mon-Fri 9AM-6PM",
    "services": [
      "Armenian-speaking Corporate websites in Utah consultation",
      "Professional service",
      "Quality guarantee"
    ],
    "social_links": {}
  },
  {
    "name": "Even Stevens Sandwiches - Draper",
    "address": "541 E 12300 S, Suite D, Draper, UT 84020",
    "phone": "(801) 553-7000",
    "rating": 4.0,
    "reviews": 25,
    "website": "https://evenstevens.com/locations/draper/",
    "category": "Armenian-speaking Corporate websites in Utah",
    "description": "While not exclusively Armenian, this sandwich shop is listed in a search for Armenian restaurants and may have Armenian-inspired options or ownership",
    "hours": "Mon-Fri 9AM-6PM",
    "services": [
      "Armenian-speaking Corporate websites in Utah consultation",
      "Professional service",
      "Quality guarantee"
    ],
    "social_links": {}
  }
]