[
  {
    "name": "The Works Auto Center",
    "address": "1680 Central Ave, Albany, NY 12205",
    "phone": "(518) 459-8440",
    "rating": 4.9,
    "reviews": 25,
    "website": "http://www.theworksautocenter.com/",
    "category": "Black-owned Ceramic coating in New-York",
    "description": "Offers professional-grade ceramic coatings for vehicles, providing protection against UV rays, environmental contaminants, and scratches. They also offer interior ceramic coating services",
    "hours": "Mon-Fri 9AM-6PM",
    "services": [
      "Black-owned Ceramic coating in New-York consultation",
      "Professional service",
      "Quality guarantee"
    ],
    "social_links": {}
  },
  {
    "name": "See That Shine",
    "address": "Mobile service in the Hudson Valley region of New York",
    "phone": "",
    "rating": 5.0,
    "reviews": 25,
    "website": "https://www.seethatshine.com/",
    "category": "Black-owned Ceramic coating in New-York",
    "description": "A fully mobile ceramic coating service that comes to your home or workplace, offering protection for up to 6 years",
    "hours": "Mon-Fri 9AM-6PM",
    "services": [
      "Black-owned Ceramic coating in New-York consultation",
      "Professional service",
      "Quality guarantee"
    ],
    "social_links": {}
  },
  {
    "name": "KS Detailing & Ceramic Coating",
    "address": "329 Jericho Turnpike Suite #4, Floral Park, NY 11001",
    "phone": "(516) 260-0555",
    "rating": 4.9,
    "reviews": 25,
    "website": "https://www.ksdetailing.com/",
    "category": "Black-owned Ceramic coating in New-York",
    "description": "Certified installers of CQUARTZ Finest Reserve, offering advanced nanotechnology for vehicle protection and a glossy finish. They serve Long Island, Queens, Brooklyn, Nassau & Suffolk County",
    "hours": "Mon-Fri 9AM-6PM",
    "services": [
      "Black-owned Ceramic coating in New-York consultation",
      "Professional service",
      "Quality guarantee"
    ],
    "social_links": {}
  },
  {
    "name": "Williamsburg Hand Wash & Auto Detailing",
    "address": "163 N 1st St, Brooklyn, NY 11249",
    "phone": "(718) 389-7999",
    "rating": 4.0,
    "reviews": 25,
    "website": "https://www.williamsburghandwash.com/",
    "category": "Black-owned Ceramic coating in New-York",
    "description": "Offers ceramic coating packages that provide long-term protection against contaminants and enhance gloss. They have been in the auto detailing business for over 30 years",
    "hours": "Mon-Fri 9AM-6PM",
    "services": [
      "Black-owned Ceramic coating in New-York consultation",
      "Professional service",
      "Quality guarantee"
    ],
    "social_links": {}
  },
  {
    "name": "Complete Detailers",
    "address": "Farmingdale, NY (Specific address not provided, but serves Long Island)",
    "phone": "(347) 256-8824",
    "rating": 4.0,
    "reviews": 25,
    "website": "https://completedetailers.com/",
    "category": "Black-owned Ceramic coating in New-York",
    "description": "Certified System X Ceramic Coating installers offering durable protection and a high-quality surface shine. They provide various detailing services as well",
    "hours": "Mon-Fri 9AM-6PM",
    "services": [
      "Black-owned Ceramic coating in New-York consultation",
      "Professional service",
      "Quality guarantee"
    ],
    "social_links": {}
  },
  {
    "name": "Detailwerx",
    "address": "Gansevoort, NY (Specific address not provided)",
    "phone": "",
    "rating": 4.0,
    "reviews": 25,
    "website": "https://www.detailwerx.com/",
    "category": "Black-owned Ceramic coating in New-York",
    "description": "Specializes in ceramic coating, paint correction, and detailing services, ensuring vehicles are in good hands with experienced professionals",
    "hours": "Mon-Fri 9AM-6PM",
    "services": [
      "Black-owned Ceramic coating in New-York consultation",
      "Professional service",
      "Quality guarantee"
    ],
    "social_links": {}
  },
  {
    "name": "Black Diamond",
    "address": "193 Yonkers Ave, Yonkers, NY 10701",
    "phone": "(914) 642-3572",
    "rating": 4.0,
    "reviews": 25,
    "website": "https://www.blackdiamondny.com/",
    "category": "Black-owned Ceramic coating in New-York",
    "description": "Offers premium ceramic coatings with extraordinary gloss and long-lasting protection, available as a mobile service in Westchester, NY",
    "hours": "Mon-Fri 9AM-6PM",
    "services": [
      "Black-owned Ceramic coating in New-York consultation",
      "Professional service",
      "Quality guarantee"
    ],
    "social_links": {}
  },
  {
    "name": "RetroClean Detailing",
    "address": "Mobile service across Long Island, Queens, Brooklyn, Nassau County, Suffolk County, and Manhattan",
    "phone": "(347) 494-0646",
    "rating": 4.0,
    "reviews": 25,
    "website": "https://www.retrocleandetailing.com/",
    "category": "Black-owned Ceramic coating in New-York",
    "description": "A mobile detailing service offering ceramic coating with up to a 5-year warranty, enhancing paint and providing a showroom condition finish",
    "hours": "Mon-Fri 9AM-6PM",
    "services": [
      "Black-owned Ceramic coating in New-York consultation",
      "Professional service",
      "Quality guarantee"
    ],
    "social_links": {}
  },
  {
    "name": "B's Custom Detailing LLC",
    "address": "Pleasant Valley, NY (Serves Kingston, Poughkeepsie, Millbrook, Hyde Park, Clinton Corners, Red Hook, Rhinebeck, Germantown)",
    "phone": "(845) 380-3596",
    "rating": 4.0,
    "reviews": 25,
    "website": "https://www.bscustomdetailing.com/",
    "category": "Black-owned Ceramic coating in New-York",
    "description": "Provides three exclusive ceramic coating packages for paint protection and unmatched gloss, including options for wheels and all automotive glass",
    "hours": "Mon-Fri 9AM-6PM",
    "services": [
      "Black-owned Ceramic coating in New-York consultation",
      "Professional service",
      "Quality guarantee"
    ],
    "social_links": {}
  },
  {
    "name": "Bubblezz Auto Spa",
    "address": "Babylon, NY (Specific address not provided)",
    "phone": "(631) 220-7508",
    "rating": 4.0,
    "reviews": 25,
    "website": "https://bubblezzautospa.com/",
    "category": "Black-owned Ceramic coating in New-York",
    "description": "Offers ceramic coating packages designed to restore a showroom new car look and lock in shine for years, with options for paint correction",
    "hours": "Mon-Fri 9AM-6PM",
    "services": [
      "Black-owned Ceramic coating in New-York consultation",
      "Professional service",
      "Quality guarantee"
    ],
    "social_links": {}
  }
]