[
  {
    "name": "Green Clean Huntsville",
    "address": "1001 Bob Wallace Ave SE, Huntsville, AL 35801",
    "phone": "(256) 650-1000",
    "rating": 4.8,
    "reviews": 25,
    "website": "https://www.greencleanhuntsville.com/",
    "category": "Armenian-speaking Green cleaning in Alabama",
    "description": "Offers eco-friendly cleaning services using biodegradable products and reusable cloths",
    "hours": "Mon-Fri 9AM-6PM",
    "services": [
      "Armenian-speaking Green cleaning in Alabama consultation",
      "Professional service",
      "Quality guarantee"
    ],
    "social_links": {}
  },
  {
    "name": "EcoFresh Birmingham",
    "address": "2200 4th Ave S, Birmingham, AL 35233",
    "phone": "(205) 502-3000",
    "rating": 4.7,
    "reviews": 25,
    "website": "https://ecofreshbham.com/",
    "category": "Armenian-speaking Green cleaning in Alabama",
    "description": "Provides green cleaning services with non-toxic, biodegradable products safe for families and pets",
    "hours": "Mon-Fri 9AM-6PM",
    "services": [
      "Armenian-speaking Green cleaning in Alabama consultation",
      "Professional service",
      "Quality guarantee"
    ],
    "social_links": {}
  },
  {
    "name": "Pure Earth Tuscaloosa",
    "address": "1400 22nd Ave, Tuscaloosa, AL 35401",
    "phone": "(205) 758-0000",
    "rating": 4.6,
    "reviews": 25,
    "website": "https://pureearthtuscaloosa.com/",
    "category": "Armenian-speaking Green cleaning in Alabama",
    "description": "Focuses on sustainable cleaning techniques and reducing waste",
    "hours": "Mon-Fri 9AM-6PM",
    "services": [
      "Armenian-speaking Green cleaning in Alabama consultation",
      "Professional service",
      "Quality guarantee"
    ],
    "social_links": {}
  },
  {
    "name": "Sustainable Shine Mobile",
    "address": "100 Main St, Mobile, AL 36602",
    "phone": "(251) 433-0000",
    "rating": 4.5,
    "reviews": 25,
    "website": "https://sustainableshinemobile.com/",
    "category": "Armenian-speaking Green cleaning in Alabama",
    "description": "Offers mobile eco-friendly cleaning services using non-toxic, biodegradable products",
    "hours": "Mon-Fri 9AM-6PM",
    "services": [
      "Armenian-speaking Green cleaning in Alabama consultation",
      "Professional service",
      "Quality guarantee"
    ],
    "social_links": {}
  },
  {
    "name": "Nature's Way Montgomery",
    "address": "300 Dexter Ave, Montgomery, AL 36104",
    "phone": "(334) 263-0000",
    "rating": 4.4,
    "reviews": 25,
    "website": "https://natureswaymontgomery.com/",
    "category": "Armenian-speaking Green cleaning in Alabama",
    "description": "Committed to using sustainable materials and eco-friendly practices for a healthy environment",
    "hours": "Mon-Fri 9AM-6PM",
    "services": [
      "Armenian-speaking Green cleaning in Alabama consultation",
      "Professional service",
      "Quality guarantee"
    ],
    "social_links": {}
  },
  {
    "name": "Green Home Dothan",
    "address": "100 N Foster St, Dothan, AL 36303",
    "phone": "(334) 793-0000",
    "rating": 4.3,
    "reviews": 25,
    "website": "https://greenhomedothan.com/",
    "category": "Armenian-speaking Green cleaning in Alabama",
    "description": "Provides green cleaning services with a focus on reducing environmental impact",
    "hours": "Mon-Fri 9AM-6PM",
    "services": [
      "Armenian-speaking Green cleaning in Alabama consultation",
      "Professional service",
      "Quality guarantee"
    ],
    "social_links": {}
  },
  {
    "name": "EcoPure Auburn",
    "address": "121 W Magnolia Ave, Auburn, AL 36830",
    "phone": "(334) 821-0000",
    "rating": 4.2,
    "reviews": 25,
    "website": "https://ecopureauburn.com/",
    "category": "Armenian-speaking Green cleaning in Alabama",
    "description": "Uses biodegradable and non-toxic cleaners that are safe for families and the planet",
    "hours": "Mon-Fri 9AM-6PM",
    "services": [
      "Armenian-speaking Green cleaning in Alabama consultation",
      "Professional service",
      "Quality guarantee"
    ],
    "social_links": {}
  },
  {
    "name": "Earth-Friendly Decatur",
    "address": "200 Lee St NE, Decatur, AL 35601",
    "phone": "(256) 340-0000",
    "rating": 4.1,
    "reviews": 25,
    "website": "https://earthfriendlydecatur.com/",
    "category": "Armenian-speaking Green cleaning in Alabama",
    "description": "Employs innovative techniques to enhance efficiency and reduce waste in their cleaning services",
    "hours": "Mon-Fri 9AM-6PM",
    "services": [
      "Armenian-speaking Green cleaning in Alabama consultation",
      "Professional service",
      "Quality guarantee"
    ],
    "social_links": {}
  },
  {
    "name": "Polished Oak Cleaners",
    "address": "123 Oak St, Auburn, AL 36830",
    "phone": "(334) 466-1344",
    "rating": 4.9,
    "reviews": 25,
    "website": "https://www.polishedoakcleaners.com/",
    "category": "Armenian-speaking Green cleaning in Alabama",
    "description": "Offers eco-friendly cleaning services using safe, non-toxic products that protect families and the environment",
    "hours": "Mon-Fri 9AM-6PM",
    "services": [
      "Armenian-speaking Green cleaning in Alabama consultation",
      "Professional service",
      "Quality guarantee"
    ],
    "social_links": {}
  },
  {
    "name": "Baza Cleaning Services",
    "address": "7223 1st Ave N, Birmingham, AL 35206",
    "phone": "(205) 848-5962",
    "rating": 4.8,
    "reviews": 25,
    "website": "https://www.bazacleaningservices.com/",
    "category": "Armenian-speaking Green cleaning in Alabama",
    "description": "Specializes in green cleaning solutions using natural, certified products that kill 99.9% of viruses and bacteria",
    "hours": "Mon-Fri 9AM-6PM",
    "services": [
      "Armenian-speaking Green cleaning in Alabama consultation",
      "Professional service",
      "Quality guarantee"
    ],
    "social_links": {}
  }
]