[
  {
    "name": "Sparrow Wine Bar",
    "address": "10825 Kingston Pike, Farragut, TN 37934",
    "phone": "(865) 672-2250",
    "rating": 4.7,
    "reviews": 25,
    "website": "https://sparrowwinebar.com/",
    "category": "Chinese-speaking Wine bars in Tennessee",
    "description": "Offers a relaxed atmosphere with a wide selection of wines from around the world, as well as beer, cider, and spirits. They also feature charcuterie boards and small bites",
    "hours": "Mon-Fri 9AM-6PM",
    "services": [
      "Chinese-speaking Wine bars in Tennessee consultation",
      "Professional service",
      "Quality guarantee"
    ],
    "social_links": {}
  },
  {
    "name": "Barcelona Wine Bar",
    "address": "1200 Villa Place, Nashville, TN 37212",
    "phone": "(615) 327-0600",
    "rating": 4.5,
    "reviews": 25,
    "website": "https://www.barcelonawinebar.com/location/nashville/",
    "category": "Chinese-speaking Wine bars in Tennessee",
    "description": "A tapas bar inspired by Spanish culture, featuring an extensive wine list with a focus on Spanish and South American wines, along with Mediterranean-inspired small plates",
    "hours": "Mon-Fri 9AM-6PM",
    "services": [
      "Chinese-speaking Wine bars in Tennessee consultation",
      "Professional service",
      "Quality guarantee"
    ],
    "social_links": {}
  },
  {
    "name": "City Winery Nashville",
    "address": "609 Lafayette St, Nashville, TN 37203",
    "phone": "(615) 324-1010",
    "rating": 4.4,
    "reviews": 25,
    "website": "https://www.citywinery.com/nashville/",
    "category": "Chinese-speaking Wine bars in Tennessee",
    "description": "A unique venue combining a winery, restaurant, and music venue, offering award-winning wines and Mediterranean-inspired dishes",
    "hours": "Mon-Fri 9AM-6PM",
    "services": [
      "Chinese-speaking Wine bars in Tennessee consultation",
      "Professional service",
      "Quality guarantee"
    ],
    "social_links": {}
  },
  {
    "name": "Sixty Vines",
    "address": "517 5th Ave S, Nashville, TN 37203",
    "phone": "(615) 915-1010",
    "rating": 4.3,
    "reviews": 25,
    "website": "https://www.sixtyvines.com/nashville",
    "category": "Chinese-speaking Wine bars in Tennessee",
    "description": "A casual kitchen and wine bar offering over 60 wines on tap, paired with seasonal cuisine, pizzas, and shareable plates",
    "hours": "Mon-Fri 9AM-6PM",
    "services": [
      "Chinese-speaking Wine bars in Tennessee consultation",
      "Professional service",
      "Quality guarantee"
    ],
    "social_links": {}
  },
  {
    "name": "JJs Wine Bar",
    "address": "209 E Main St, Franklin, TN 37064",
    "phone": "(615) 236-6100",
    "rating": 4.6,
    "reviews": 25,
    "website": "https://jjswinebar.com/",
    "category": "Chinese-speaking Wine bars in Tennessee",
    "description": "Franklin's first wine bar, offering 28 wines by the glass from dispensing machines, along with a selection of food, cocktails, and a dog-friendly patio",
    "hours": "Mon-Fri 9AM-6PM",
    "services": [
      "Chinese-speaking Wine bars in Tennessee consultation",
      "Professional service",
      "Quality guarantee"
    ],
    "social_links": {}
  },
  {
    "name": "Love and Exile Winery",
    "address": "110 10th Ave S, Nashville, TN 37203",
    "phone": "(615) 678-4700",
    "rating": 4.7,
    "reviews": 25,
    "website": "https://loveandexile.com/",
    "category": "Chinese-speaking Wine bars in Tennessee",
    "description": "A working winery, restaurant, bar, and event space in East Nashville, offering a unique wine experience and a place for gatherings",
    "hours": "Mon-Fri 9AM-6PM",
    "services": [
      "Chinese-speaking Wine bars in Tennessee consultation",
      "Professional service",
      "Quality guarantee"
    ],
    "social_links": {}
  },
  {
    "name": "Bad Idea",
    "address": "1437 Dickerson Pike, Nashville, TN 37207",
    "phone": "(615) 915-1437",
    "rating": 4.5,
    "reviews": 25,
    "website": "https://www.badideanashville.com/",
    "category": "Chinese-speaking Wine bars in Tennessee",
    "description": "A restaurant and wine bar in East Nashville, featuring an evolving menu of Lao-inspired food and a curated wine and beverage list",
    "hours": "Mon-Fri 9AM-6PM",
    "services": [
      "Chinese-speaking Wine bars in Tennessee consultation",
      "Professional service",
      "Quality guarantee"
    ],
    "social_links": {}
  },
  {
    "name": "Petals of a Peony",
    "address": "1250 N Germantown Pkwy #105, Cordova, TN 38016",
    "phone": "(901) 707-8886",
    "rating": 4.5,
    "reviews": 25,
    "website": "https://www.petalsofapeony.com/",
    "category": "Chinese-speaking Wine bars in Tennessee",
    "description": "An authentic Sichuan and Chinese cuisine restaurant with multiple locations, known for its bold flavors. They offer a variety of dishes and may have wine selections",
    "hours": "Mon-Fri 9AM-6PM",
    "services": [
      "Chinese-speaking Wine bars in Tennessee consultation",
      "Professional service",
      "Quality guarantee"
    ],
    "social_links": {}
  },
  {
    "name": "China Spring Chinese Restaurant",
    "address": "8165 Hwy 100, Nashville, TN 37221",
    "phone": "(615) 662-7888",
    "rating": 4.3,
    "reviews": 25,
    "website": "https://chinaspringnashville.com/",
    "category": "Chinese-speaking Wine bars in Tennessee",
    "description": "Offers authentic Chinese cuisine with a variety of dishes, suitable for dine-in or take-out",
    "hours": "Mon-Fri 9AM-6PM",
    "services": [
      "Chinese-speaking Wine bars in Tennessee consultation",
      "Professional service",
      "Quality guarantee"
    ],
    "social_links": {}
  },
  {
    "name": "Tansuo",
    "address": "1200 6th Ave N, Nashville, TN 37208",
    "phone": "(615) 709-1200",
    "rating": 4.2,
    "reviews": 25,
    "website": "https://www.tansuo.com/",
    "category": "Chinese-speaking Wine bars in Tennessee",
    "description": "Explores contemporary Chinese cuisine inspired by China's night markets and street fare, offering classic and modern dishes. They have spaces for private events and may offer wine pairings",
    "hours": "Mon-Fri 9AM-6PM",
    "services": [
      "Chinese-speaking Wine bars in Tennessee consultation",
      "Professional service",
      "Quality guarantee"
    ],
    "social_links": {}
  }
]