[
  {
    "name": "KC Auto Clinics - Olathe",
    "address": "13395 South Black Bob Road, Olathe, KS 66062",
    "phone": "913-882-2050",
    "rating": 4.5,
    "reviews": 25,
    "website": "https://www.kcautoclinics.com/",
    "category": "Agnostic-owned Brake fluid service in Kansas",
    "description": "Offers comprehensive brake fluid service for all makes and models, with ASE-certified technicians",
    "hours": "Mon-Fri 9AM-6PM",
    "services": [
      "Agnostic-owned Brake fluid service in Kansas consultation",
      "Professional service",
      "Quality guarantee"
    ],
    "social_links": {}
  },
  {
    "name": "KC Auto Clinics - Overland Park",
    "address": "9001 West 95th Street, Overland Park, KS 66212",
    "phone": "913-914-2050",
    "rating": 4.5,
    "reviews": 25,
    "website": "https://www.kcautoclinics.com/",
    "category": "Agnostic-owned Brake fluid service in Kansas",
    "description": "Provides expert brake fluid service and maintenance for a wide range of vehicles",
    "hours": "Mon-Fri 9AM-6PM",
    "services": [
      "Agnostic-owned Brake fluid service in Kansas consultation",
      "Professional service",
      "Quality guarantee"
    ],
    "social_links": {}
  },
  {
    "name": "KC Auto Clinics - Stilwell",
    "address": "16180 Metcalf Avenue, Stilwell, KS 66083",
    "phone": "913-730-2050",
    "rating": 4.5,
    "reviews": 25,
    "website": "https://www.kcautoclinics.com/",
    "category": "Agnostic-owned Brake fluid service in Kansas",
    "description": "Specializes in brake fluid service, ensuring optimal performance and safety for your vehicle",
    "hours": "Mon-Fri 9AM-6PM",
    "services": [
      "Agnostic-owned Brake fluid service in Kansas consultation",
      "Professional service",
      "Quality guarantee"
    ],
    "social_links": {}
  },
  {
    "name": "Duke & Bob's Automotive",
    "address": "1300 Emanuel Cleaver Blvd, Kansas City, MO 64110",
    "phone": "816-931-7808",
    "rating": 4.7,
    "reviews": 25,
    "website": "https://www.dukebobsauto.com/",
    "category": "Agnostic-owned Brake fluid service in Kansas",
    "description": "Offers cost-effective brake repair and fluid flush services, prioritizing customer safety",
    "hours": "Mon-Fri 9AM-6PM",
    "services": [
      "Agnostic-owned Brake fluid service in Kansas consultation",
      "Professional service",
      "Quality guarantee"
    ],
    "social_links": {}
  },
  {
    "name": "Myers Automotive (Multiple Locations)",
    "address": "Various locations in Wichita, Derby, Andover, and Towanda, KS. (e.g., East Wichita: 3003 N Rock Rd, Wichita, KS 67226)",
    "phone": "(Specific numbers vary by location, e.g., Wichita: 316-977-1400)",
    "rating": 4.6,
    "reviews": 25,
    "website": "https://myersautomotive.com/",
    "category": "Agnostic-owned Brake fluid service in Kansas",
    "description": "A network of full-service repair shops with ASE-certified technicians offering a wide range of auto services, including brake fluid maintenance",
    "hours": "Mon-Fri 9AM-6PM",
    "services": [
      "Agnostic-owned Brake fluid service in Kansas consultation",
      "Professional service",
      "Quality guarantee"
    ],
    "social_links": {}
  },
  {
    "name": "AAMCO Kansas City, MO (North)",
    "address": "7010 N Oak Trafficway, Kansas City, MO 64118",
    "phone": "816-587-0000",
    "rating": 4.3,
    "reviews": 25,
    "website": "https://aamco.com/locations/kansas-city-mo-north-64118",
    "category": "Agnostic-owned Brake fluid service in Kansas",
    "description": "Provides essential brake system fluid service as a preventive maintenance measure",
    "hours": "Mon-Fri 9AM-6PM",
    "services": [
      "Agnostic-owned Brake fluid service in Kansas consultation",
      "Professional service",
      "Quality guarantee"
    ],
    "social_links": {}
  },
  {
    "name": "Neptune Auto Repair",
    "address": "1111 S Broadway St, Pittsburg, KS 66762",
    "phone": "620-231-5890",
    "rating": 4.8,
    "reviews": 25,
    "website": "https://neptuneautorepair.com/",
    "category": "Agnostic-owned Brake fluid service in Kansas",
    "description": "Offers top-tier brake maintenance and fluid service, specializing in all types of braking systems",
    "hours": "Mon-Fri 9AM-6PM",
    "services": [
      "Agnostic-owned Brake fluid service in Kansas consultation",
      "Professional service",
      "Quality guarantee"
    ],
    "social_links": {}
  },
  {
    "name": "Breeze Brakes Auto",
    "address": "11511 S Strang Line Rd, Olathe, KS 66062",
    "phone": "913-286-7544",
    "rating": 4.9,
    "reviews": 25,
    "website": "https://www.breezebrakesauto.com/",
    "category": "Agnostic-owned Brake fluid service in Kansas",
    "description": "Delivers superior brake fluid flush services to ensure efficient and safe vehicle braking systems",
    "hours": "Mon-Fri 9AM-6PM",
    "services": [
      "Agnostic-owned Brake fluid service in Kansas consultation",
      "Professional service",
      "Quality guarantee"
    ],
    "social_links": {}
  },
  {
    "name": "JAR Performance Automotive, LLC",
    "address": "1020 W Euclid Ave, McPherson, KS 67460",
    "phone": "620-241-5194",
    "rating": 4.9,
    "reviews": 25,
    "website": "https://jarautomotive.com/",
    "category": "Agnostic-owned Brake fluid service in Kansas",
    "description": "Provides expert brake fluid service and maintenance for all makes and models",
    "hours": "Mon-Fri 9AM-6PM",
    "services": [
      "Agnostic-owned Brake fluid service in Kansas consultation",
      "Professional service",
      "Quality guarantee"
    ],
    "social_links": {}
  },
  {
    "name": "Done With Care Auto Repair",
    "address": "5810 Merriam Dr, Merriam, KS 66203",
    "phone": "913-722-3466",
    "rating": 4.8,
    "reviews": 25,
    "website": "https://donewithcareautorepair.com/",
    "category": "Agnostic-owned Brake fluid service in Kansas",
    "description": "Offers preventative maintenance services, including brake fluid checks and replacements, with a focus on transparency and customer service",
    "hours": "Mon-Fri 9AM-6PM",
    "services": [
      "Agnostic-owned Brake fluid service in Kansas consultation",
      "Professional service",
      "Quality guarantee"
    ],
    "social_links": {}
  }
]