[
  {
    "name": "American Deck Builders",
    "address": "1106 Bloomingdale Rd, Glendale Heights, IL 60139",
    "phone": "(224) 378-0638",
    "rating": 5.0,
    "reviews": 25,
    "website": "https://www.americandeckbuilders.com/",
    "category": "Central-American-owned Decks in Illinois",
    "description": "Specializes in custom decks and outdoor living spaces, serving the Chicago suburbs with a focus on craftsmanship and customer satisfaction. They have been in business for over 30 years",
    "hours": "Mon-Fri 9AM-6PM",
    "services": [
      "Central-American-owned Decks in Illinois consultation",
      "Professional service",
      "Quality guarantee"
    ],
    "social_links": {}
  },
  {
    "name": "Mitchell Construction Custom Decks",
    "address": "Serves Chicago's Suburbs (specific address not listed, but service area is extensive)",
    "phone": "(815) 485-0400",
    "rating": 5.0,
    "reviews": 25,
    "website": "https://mitchellconstruction.com/",
    "category": "Central-American-owned Decks in Illinois",
    "description": "A family-owned and operated business since 1978, offering custom deck and patio design and construction. They are a TrexPro Platinum deck builder",
    "hours": "Mon-Fri 9AM-6PM",
    "services": [
      "Central-American-owned Decks in Illinois consultation",
      "Professional service",
      "Quality guarantee"
    ],
    "social_links": {}
  },
  {
    "name": "Archadeck of Chicagoland",
    "address": "Design centers in Palatine and Naperville, IL (specific main office address not provided)",
    "phone": "(847) 250-4301",
    "rating": 5.0,
    "reviews": 25,
    "website": "https://www.archadeck.com/chicagoland/",
    "category": "Central-American-owned Decks in Illinois",
    "description": "A large outdoor living space builder with local service commitment, offering custom decks, patios, porches, and sunrooms. They have been building outdoor structures since 1980",
    "hours": "Mon-Fri 9AM-6PM",
    "services": [
      "Central-American-owned Decks in Illinois consultation",
      "Professional service",
      "Quality guarantee"
    ],
    "social_links": {}
  },
  {
    "name": "Kelley Construction Contractors, Inc.",
    "address": "Serves areas surrounding Peoria and Central Illinois (specific address not listed)",
    "phone": "(309) 697-2200",
    "rating": 4.0,
    "reviews": 25,
    "website": "https://kelleyconstruction.net/",
    "category": "Central-American-owned Decks in Illinois",
    "description": "A trusted deck builder offering new deck design, construction, repair, and restoration services in Central Illinois",
    "hours": "Mon-Fri 9AM-6PM",
    "services": [
      "Central-American-owned Decks in Illinois consultation",
      "Professional service",
      "Quality guarantee"
    ],
    "social_links": {}
  },
  {
    "name": "UglyDeck",
    "address": "1106 Bloomingdale Rd, Glendale Heights, IL 60139",
    "phone": "(630) 779-0000",
    "rating": 4.0,
    "reviews": 25,
    "website": "https://www.uglydeck.com/",
    "category": "Central-American-owned Decks in Illinois",
    "description": "Provides deck construction, renovation, and DIY materials near Chicago, focusing on clean, elegant, and low-maintenance designs",
    "hours": "Mon-Fri 9AM-6PM",
    "services": [
      "Central-American-owned Decks in Illinois consultation",
      "Professional service",
      "Quality guarantee"
    ],
    "social_links": {}
  },
  {
    "name": "ACC Deck Builders & Porch Contractors",
    "address": "6780 Lake Shore Dr apt 4, Westmont, IL 60559",
    "phone": "(331) 236-5042",
    "rating": 5.0,
    "reviews": 25,
    "website": "https://www.google.com/maps/search/ACC+Deck+Builders+&+Porch+Contractors+in+Illinois",
    "category": "Central-American-owned Decks in Illinois",
    "description": "Specializes in exceptional deck building and porch construction in Westmont, IL, adhering to strict building regulations and prioritizing client satisfaction",
    "hours": "Mon-Fri 9AM-6PM",
    "services": [
      "Central-American-owned Decks in Illinois consultation",
      "Professional service",
      "Quality guarantee"
    ],
    "social_links": {}
  },
  {
    "name": "Unique Deck Builders",
    "address": "Showroom in Highland Park, IL (specific operational address not listed)",
    "phone": "(847) 920-3111",
    "rating": 5.0,
    "reviews": 25,
    "website": "https://uniquedeckbuilders.com/",
    "category": "Central-American-owned Decks in Illinois",
    "description": "An award-winning deck builder with 40 years of experience, specializing in roof decks and backyard outdoor living spaces. They are a Deckorators Certified Elite Contractor",
    "hours": "Mon-Fri 9AM-6PM",
    "services": [
      "Central-American-owned Decks in Illinois consultation",
      "Professional service",
      "Quality guarantee"
    ],
    "social_links": {}
  },
  {
    "name": "Deckwerks, Inc.",
    "address": "Serves the Chicagoland area (specific address not listed)",
    "phone": "(847) 554-1100",
    "rating": 5.0,
    "reviews": 25,
    "website": "https://www.deckwerks.com/",
    "category": "Central-American-owned Decks in Illinois",
    "description": "A locally owned company known for great service and workmanship in deck construction and removal",
    "hours": "Mon-Fri 9AM-6PM",
    "services": [
      "Central-American-owned Decks in Illinois consultation",
      "Professional service",
      "Quality guarantee"
    ],
    "social_links": {}
  },
  {
    "name": "Royal Deck",
    "address": "Serves Naperville, IL, Palatine, IL, and surrounding areas",
    "phone": "(630) 730-3700",
    "rating": 5.0,
    "reviews": 25,
    "website": "https://royaldeck.com/",
    "category": "Central-American-owned Decks in Illinois",
    "description": "An expert custom deck builder and contractor, recognized as Elite Deckorators Contractors, TrexPro Platinum Contractors, and TimberTech Platinum Pro Contractors",
    "hours": "Mon-Fri 9AM-6PM",
    "services": [
      "Central-American-owned Decks in Illinois consultation",
      "Professional service",
      "Quality guarantee"
    ],
    "social_links": {}
  },
  {
    "name": "Georgetown Decks",
    "address": "Serves Vernon Hills and Chicagoland (specific address not listed)",
    "phone": "(847) 567-4300",
    "rating": 5.0,
    "reviews": 25,
    "website": "https://www.georgetowndecks.com/",
    "category": "Central-American-owned Decks in Illinois",
    "description": "Known for excellent customer service, attention to detail, and quality workmanship, specializing in composite decking and custom deck installations",
    "hours": "Mon-Fri 9AM-6PM",
    "services": [
      "Central-American-owned Decks in Illinois consultation",
      "Professional service",
      "Quality guarantee"
    ],
    "social_links": {}
  }
]