[
  {
    "name": "Garcia & Gonzales, P.C.",
    "address": "8703 Yates Drive, Suite 220, Westminster, Colorado 80031",
    "phone": "(720) 807-1142",
    "rating": 4.0,
    "reviews": 25,
    "website": "https://www.google.com/maps/search/Garcia+&+Gonzales,+P.C.+in+Colorado",
    "category": "Central-American-owned Bankruptcy law in Colorado",
    "description": "This firm offers services in bankruptcy, foreclosures, and other legal areas. They have attorneys who speak Spanish",
    "hours": "Mon-Fri 9AM-6PM",
    "services": [
      "Central-American-owned Bankruptcy law in Colorado consultation",
      "Professional service",
      "Quality guarantee"
    ],
    "social_links": {}
  },
  {
    "name": "Salinas Law Group LLC",
    "address": "(Specific address not readily available, but serves Denver, CO)",
    "phone": "",
    "rating": 4.0,
    "reviews": 25,
    "website": "https://www.google.com/maps/search/Salinas+Law+Group+LLC+in+Colorado",
    "category": "Central-American-owned Bankruptcy law in Colorado",
    "description": "This firm focuses on helping clients find relief from overwhelming debts through bankruptcy and student loan solutions",
    "hours": "Mon-Fri 9AM-6PM",
    "services": [
      "Central-American-owned Bankruptcy law in Colorado consultation",
      "Professional service",
      "Quality guarantee"
    ],
    "social_links": {}
  },
  {
    "name": "Berken Cloyes",
    "address": "(Specific address not readily available, but serves Denver, Colorado Springs, and Fort Collins)",
    "phone": "(303) 623-4357",
    "rating": 4.0,
    "reviews": 25,
    "website": "https://www.google.com/maps/search/Berken+Cloyes+in+Colorado",
    "category": "Central-American-owned Bankruptcy law in Colorado",
    "description": "This firm has been helping individuals and small business owners in Colorado for over 35 years with Chapter 7 and Chapter 11 bankruptcy",
    "hours": "Mon-Fri 9AM-6PM",
    "services": [
      "Central-American-owned Bankruptcy law in Colorado consultation",
      "Professional service",
      "Quality guarantee"
    ],
    "social_links": {}
  },
  {
    "name": "Cohen Law Denver",
    "address": "1720 S. Bellaire St, Suite 205, Denver, Colorado 80222",
    "phone": "(303) 933-4529",
    "rating": 4.0,
    "reviews": 25,
    "website": "https://www.google.com/maps/search/Cohen+Law+Denver+in+Colorado",
    "category": "Central-American-owned Bankruptcy law in Colorado",
    "description": "This firm offers comprehensive bankruptcy services for consumers and businesses, with specialists in both areas",
    "hours": "Mon-Fri 9AM-6PM",
    "services": [
      "Central-American-owned Bankruptcy law in Colorado consultation",
      "Professional service",
      "Quality guarantee"
    ],
    "social_links": {}
  },
  {
    "name": "Mile High Bankruptcy",
    "address": "(Specific address not readily available, but serves Denver, Colorado)",
    "phone": "303-831-0733",
    "rating": 4.0,
    "reviews": 25,
    "website": "https://www.google.com/maps/search/Mile+High+Bankruptcy+in+Colorado",
    "category": "Central-American-owned Bankruptcy law in Colorado",
    "description": "This firm specializes in Chapter 7 bankruptcy and has helped over 5000 people since 1987",
    "hours": "Mon-Fri 9AM-6PM",
    "services": [
      "Central-American-owned Bankruptcy law in Colorado consultation",
      "Professional service",
      "Quality guarantee"
    ],
    "social_links": {}
  },
  {
    "name": "Watton Law Group",
    "address": "(Specific address not readily available, but serves Colorado)",
    "phone": "(720) 802-0099",
    "rating": 4.0,
    "reviews": 25,
    "website": "https://www.google.com/maps/search/Watton+Law+Group+in+Colorado",
    "category": "Central-American-owned Bankruptcy law in Colorado",
    "description": "This firm offers personal attention and support throughout the bankruptcy legal process, helping clients secure financial relief",
    "hours": "Mon-Fri 9AM-6PM",
    "services": [
      "Central-American-owned Bankruptcy law in Colorado consultation",
      "Professional service",
      "Quality guarantee"
    ],
    "social_links": {}
  },
  {
    "name": "Law Offices of Miguel Martinez, P.C.",
    "address": "Offices in Denver, Greeley, and Colorado Springs",
    "phone": "",
    "rating": 4.0,
    "reviews": 25,
    "website": "https://www.google.com/maps/search/Law+Offices+of+Miguel+Martinez,+P.C.+in+Colorado",
    "category": "Central-American-owned Bankruptcy law in Colorado",
    "description": "While not exclusively bankruptcy, this firm has a long history in Colorado and offers services in various areas, potentially including bankruptcy",
    "hours": "Mon-Fri 9AM-6PM",
    "services": [
      "Central-American-owned Bankruptcy law in Colorado consultation",
      "Professional service",
      "Quality guarantee"
    ],
    "social_links": {}
  },
  {
    "name": "Law Office of Christopher German",
    "address": "(Specific address not readily available, but serves Colorado)",
    "phone": "720-675-8070",
    "rating": 4.0,
    "reviews": 25,
    "website": "https://www.google.com/maps/search/Law+Office+of+Christopher+German+in+Colorado",
    "category": "Central-American-owned Bankruptcy law in Colorado",
    "description": "This firm assists debtors in Colorado and offers free consultations for bankruptcy cases",
    "hours": "Mon-Fri 9AM-6PM",
    "services": [
      "Central-American-owned Bankruptcy law in Colorado consultation",
      "Professional service",
      "Quality guarantee"
    ],
    "social_links": {}
  },
  {
    "name": "Masana Bankruptcy Law",
    "address": "Denver, Colorado 80211",
    "phone": "720-669-3423",
    "rating": 4.0,
    "reviews": 25,
    "website": "https://www.google.com/maps/search/Masana+Bankruptcy+Law+in+Colorado",
    "category": "Central-American-owned Bankruptcy law in Colorado",
    "description": "This firm supports clients with bankruptcy cases and offers flexible payment plans",
    "hours": "Mon-Fri 9AM-6PM",
    "services": [
      "Central-American-owned Bankruptcy law in Colorado consultation",
      "Professional service",
      "Quality guarantee"
    ],
    "social_links": {}
  },
  {
    "name": "Yuri Bazan Law Firm LLC",
    "address": "(Specific address not readily available, but serves Colorado)",
    "phone": "(720) 598-8800",
    "rating": 4.0,
    "reviews": 25,
    "website": "https://www.google.com/maps/search/Yuri+Bazan+Law+Firm+LLC+in+Colorado",
    "category": "Central-American-owned Bankruptcy law in Colorado",
    "description": "This firm is listed as part of \"Abogadas Colorado,\" a directory of Spanish-speaking and women-owned law firms",
    "hours": "Mon-Fri 9AM-6PM",
    "services": [
      "Central-American-owned Bankruptcy law in Colorado consultation",
      "Professional service",
      "Quality guarantee"
    ],
    "social_links": {}
  }
]