[
  {
    "name": "uBreakiFix by Asurion - Maple Grove",
    "address": "15800 78th Ave N, Maple Grove, MN 55311",
    "phone": "(763) 445-2944",
    "rating": 4.7,
    "reviews": 25,
    "website": "https://www.ubreneq.com/maple-grove-mn",
    "category": "Gujarati-speaking Tablet repair in Minnesota",
    "description": "Offers repair services for various tablets, including iPads, Samsung Galaxy, and Microsoft Surface devices",
    "hours": "Mon-Fri 9AM-6PM",
    "services": [
      "Gujarati-speaking Tablet repair in Minnesota consultation",
      "Professional service",
      "Quality guarantee"
    ],
    "social_links": {}
  },
  {
    "name": "uBreakiFix by Asurion - Uptown Minneapolis",
    "address": "2547 Hennepin Ave, Minneapolis, MN 55408",
    "phone": "(612) 255-3001",
    "rating": 4.6,
    "reviews": 25,
    "website": "https://www.ubreneq.com/uptown-minneapolis-mn",
    "category": "Gujarati-speaking Tablet repair in Minnesota",
    "description": "Provides expert repair services for a wide range of tablets, including Apple, Samsung, and Google devices",
    "hours": "Mon-Fri 9AM-6PM",
    "services": [
      "Gujarati-speaking Tablet repair in Minnesota consultation",
      "Professional service",
      "Quality guarantee"
    ],
    "social_links": {}
  },
  {
    "name": "Gophermods",
    "address": "1001 Washington Ave S, Minneapolis, MN 55415 (Note: As of October 1, 2025, they partner exclusively with schools and small businesses and do not offer walk-in retail service for the general public.)",
    "phone": "(612) 444-6444",
    "rating": 4.8,
    "reviews": 25,
    "website": "https://www.gophermods.com/",
    "category": "Gujarati-speaking Tablet repair in Minnesota",
    "description": "Specializes in depot tablet repair for fleets of iPads, Microsoft Surfaces, and Samsung Galaxy Tabs, focusing on schools and small businesses",
    "hours": "Mon-Fri 9AM-6PM",
    "services": [
      "Gujarati-speaking Tablet repair in Minnesota consultation",
      "Professional service",
      "Quality guarantee"
    ],
    "social_links": {}
  },
  {
    "name": "CPR Minneapolis - Stadium Village",
    "address": "727 Washington Ave SE, Minneapolis, MN 55414",
    "phone": "(612) 351-0711",
    "rating": 4.5,
    "reviews": 25,
    "website": "https://www.cellphonerepair.com/minneapolis-stadium-village-mn/",
    "category": "Gujarati-speaking Tablet repair in Minnesota",
    "description": "Offers same-day tablet repair services for various brands, including Microsoft Surface, iPad, and Samsung Galaxy",
    "hours": "Mon-Fri 9AM-6PM",
    "services": [
      "Gujarati-speaking Tablet repair in Minnesota consultation",
      "Professional service",
      "Quality guarantee"
    ],
    "social_links": {}
  },
  {
    "name": "Repowered",
    "address": "860 Vandalia St, St. Paul, MN 55114",
    "phone": "(651) 350-3764",
    "rating": 4.0,
    "reviews": 25,
    "website": "https://www.repowered.com/",
    "category": "Gujarati-speaking Tablet repair in Minnesota",
    "description": "Provides affordable and quality repair services for various electronics, including tablets, smartphones, and computers",
    "hours": "Mon-Fri 9AM-6PM",
    "services": [
      "Gujarati-speaking Tablet repair in Minnesota consultation",
      "Professional service",
      "Quality guarantee"
    ],
    "social_links": {}
  },
  {
    "name": "Logitium",
    "address": "4120 Lakeland Ave N, Robbinsdale, MN 55422",
    "phone": "(763) 200-2000",
    "rating": 4.0,
    "reviews": 25,
    "website": "https://www.logitium.com/",
    "category": "Gujarati-speaking Tablet repair in Minnesota",
    "description": "A one-stop electronic repair shop specializing in computer, mobile phone, and tablet repair services, aiming for same-day fixes",
    "hours": "Mon-Fri 9AM-6PM",
    "services": [
      "Gujarati-speaking Tablet repair in Minnesota consultation",
      "Professional service",
      "Quality guarantee"
    ],
    "social_links": {}
  },
  {
    "name": "Tech Fixers",
    "address": "333 2nd Ave W, Shakopee, MN 55379",
    "phone": "(952) 260-2122",
    "rating": 4.0,
    "reviews": 25,
    "website": "https://techfixers.us/",
    "category": "Gujarati-speaking Tablet repair in Minnesota",
    "description": "An electronics repair shop offering services for screens, batteries, and general diagnostics for various devices",
    "hours": "Mon-Fri 9AM-6PM",
    "services": [
      "Gujarati-speaking Tablet repair in Minnesota consultation",
      "Professional service",
      "Quality guarantee"
    ],
    "social_links": {}
  },
  {
    "name": "HelperTech",
    "address": "1010 Eagan Woods Dr, Eagan, MN 55121",
    "phone": "(651) 300-2400",
    "rating": 4.0,
    "reviews": 25,
    "website": "https://helpertech.com/eagan/",
    "category": "Gujarati-speaking Tablet repair in Minnesota",
    "description": "Offers fast, reliable, and affordable mobile phone and tablet repair services with certified technicians",
    "hours": "Mon-Fri 9AM-6PM",
    "services": [
      "Gujarati-speaking Tablet repair in Minnesota consultation",
      "Professional service",
      "Quality guarantee"
    ],
    "social_links": {}
  },
  {
    "name": "Cellectronix",
    "address": "500 West Main Street St 21, Anoka, MN 55303",
    "phone": "(763) 218-6048",
    "rating": 4.0,
    "reviews": 25,
    "website": "https://cellectronix.com/",
    "category": "Gujarati-speaking Tablet repair in Minnesota",
    "description": "Specializes in fast, reliable phone, tablet, and computer repair, with most repairs completed in under an hour",
    "hours": "Mon-Fri 9AM-6PM",
    "services": [
      "Gujarati-speaking Tablet repair in Minnesota consultation",
      "Professional service",
      "Quality guarantee"
    ],
    "social_links": {}
  },
  {
    "name": "LGS Electronics",
    "address": "44 14th Avenue NE, St. Cloud, MN 56304",
    "phone": "(320) 200-4004",
    "rating": 4.0,
    "reviews": 25,
    "website": "https://lgselectronics.com/",
    "category": "Gujarati-speaking Tablet repair in Minnesota",
    "description": "An electronics shop offering repair services for cell phones, computers, tablets, and gaming systems",
    "hours": "Mon-Fri 9AM-6PM",
    "services": [
      "Gujarati-speaking Tablet repair in Minnesota consultation",
      "Professional service",
      "Quality guarantee"
    ],
    "social_links": {}
  }
]