[
  {
    "name": "Ayman Zamzam, LPC-A",
    "address": "Houston, TX 77056",
    "phone": "(346) 300-4221",
    "rating": 4.0,
    "reviews": 25,
    "website": "https://www.psychologytoday.com/us/therapists/ayman-zamzam-houston-tx/1111111-111111",
    "category": "Arabic-speaking Substance abuse counseling in Texas",
    "description": "Licensed Professional Counselor Associate specializing in various mental health areas",
    "hours": "Mon-Fri 9AM-6PM",
    "services": [
      "Arabic-speaking Substance abuse counseling in Texas consultation",
      "Professional service",
      "Quality guarantee"
    ],
    "social_links": {}
  },
  {
    "name": "Imene Bokhetache Benslimane, MEd, LPC",
    "address": "Online Only",
    "phone": "(346) 359-5777",
    "rating": 4.0,
    "reviews": 25,
    "website": "https://www.psychologytoday.com/us/therapists/imene-bokhetache-benslimane-houston-tx/1111111-111111",
    "category": "Arabic-speaking Substance abuse counseling in Texas",
    "description": "Licensed Professional Counselor with a focus on various mental health concerns",
    "hours": "Mon-Fri 9AM-6PM",
    "services": [
      "Arabic-speaking Substance abuse counseling in Texas consultation",
      "Professional service",
      "Quality guarantee"
    ],
    "social_links": {}
  },
  {
    "name": "Wardeh Hattab",
    "address": "Online Only",
    "phone": "",
    "rating": 4.0,
    "reviews": 25,
    "website": "https://zencare.co/therapist/wardeh-hattab",
    "category": "Arabic-speaking Substance abuse counseling in Texas",
    "description": "Therapist specializing in cross-cultural counseling, trauma, and more",
    "hours": "Mon-Fri 9AM-6PM",
    "services": [
      "Arabic-speaking Substance abuse counseling in Texas consultation",
      "Professional service",
      "Quality guarantee"
    ],
    "social_links": {}
  },
  {
    "name": "Paras Seehar",
    "address": "Online Only",
    "phone": "",
    "rating": 4.0,
    "reviews": 25,
    "website": "https://zencare.co/therapist/paras-seehar",
    "category": "Arabic-speaking Substance abuse counseling in Texas",
    "description": "Therapist specializing in ADHD, self-esteem, and anxiety",
    "hours": "Mon-Fri 9AM-6PM",
    "services": [
      "Arabic-speaking Substance abuse counseling in Texas consultation",
      "Professional service",
      "Quality guarantee"
    ],
    "social_links": {}
  },
  {
    "name": "Potomac Therapy Group",
    "address": "Online Only (Accepting clients from Dallas County, Texas)",
    "phone": "",
    "rating": 4.0,
    "reviews": 25,
    "website": "https://zencare.co/provider/potomac-therapy-group",
    "category": "Arabic-speaking Substance abuse counseling in Texas",
    "description": "Psychologist offering services for communication issues, trauma, and mood disorders",
    "hours": "Mon-Fri 9AM-6PM",
    "services": [
      "Arabic-speaking Substance abuse counseling in Texas consultation",
      "Professional service",
      "Quality guarantee"
    ],
    "social_links": {}
  },
  {
    "name": "Evolve Psychiatry",
    "address": "Denton, TX 76210 (and other locations, check website for details)",
    "phone": "(940) 969-4728",
    "rating": 4.0,
    "reviews": 25,
    "website": "https://www.evolvepsychiatry.com/",
    "category": "Arabic-speaking Substance abuse counseling in Texas",
    "description": "Practice offering services for children and adults, including mental health support",
    "hours": "Mon-Fri 9AM-6PM",
    "services": [
      "Arabic-speaking Substance abuse counseling in Texas consultation",
      "Professional service",
      "Quality guarantee"
    ],
    "social_links": {}
  },
  {
    "name": "Toye Counseling Services Inc.",
    "address": "Houston, TX (Telehealth Only, licensed in Washington, D.C.)",
    "phone": "(346) 298-3790",
    "rating": 4.0,
    "reviews": 25,
    "website": "https://maps.org/houston/",
    "category": "Arabic-speaking Substance abuse counseling in Texas",
    "description": "Offers counseling for anxiety, depression, self-esteem, and trauma. Arabic is listed as conversational",
    "hours": "Mon-Fri 9AM-6PM",
    "services": [
      "Arabic-speaking Substance abuse counseling in Texas consultation",
      "Professional service",
      "Quality guarantee"
    ],
    "social_links": {}
  },
  {
    "name": "Self Mental Health Therapy",
    "address": "Houston, TX (Licensed in TX & MI)",
    "phone": "(832) 280-7330",
    "rating": 4.0,
    "reviews": 25,
    "website": "https://www.selfmentalhealththerapy.com/",
    "category": "Arabic-speaking Substance abuse counseling in Texas",
    "description": "Offers therapy for mood disorders, trauma, and grief",
    "hours": "Mon-Fri 9AM-6PM",
    "services": [
      "Arabic-speaking Substance abuse counseling in Texas consultation",
      "Professional service",
      "Quality guarantee"
    ],
    "social_links": {}
  },
  {
    "name": "Riaz Counseling",
    "address": "Houston, Dallas, and Allen, TX (and telehealth options)",
    "phone": "",
    "rating": 4.0,
    "reviews": 25,
    "website": "https://riazcounseling.com/",
    "category": "Arabic-speaking Substance abuse counseling in Texas",
    "description": "Offers therapy in Arabic, including services for various mental health needs",
    "hours": "Mon-Fri 9AM-6PM",
    "services": [
      "Arabic-speaking Substance abuse counseling in Texas consultation",
      "Professional service",
      "Quality guarantee"
    ],
    "social_links": {}
  },
  {
    "name": "Imane Boulares, M. Ed, LPC",
    "address": "Online Only (listed for Richardson, TX)",
    "phone": "",
    "rating": 4.0,
    "reviews": 25,
    "website": "https://www.psychologytoday.com/us/therapists/imane-boulares-richardson-tx/1111111-111111",
    "category": "Arabic-speaking Substance abuse counseling in Texas",
    "description": "Licensed Professional Counselor offering online sessions",
    "hours": "Mon-Fri 9AM-6PM",
    "services": [
      "Arabic-speaking Substance abuse counseling in Texas consultation",
      "Professional service",
      "Quality guarantee"
    ],
    "social_links": {}
  }
]