[
  {
    "name": "Starn O'Toole Marcus & Fisher",
    "address": "1001 Bishop St #2700, Honolulu, HI 96813",
    "phone": "(808) 537-6000",
    "rating": 4.0,
    "reviews": 25,
    "website": "https://www.starnotoole.com/",
    "category": "Asian-owned Commercial lease negotiation in Hawaii",
    "description": "A law firm with attorneys experienced in commercial real estate matters, including lease negotiation. Nicole H. Kim, who has a background in Asian-Pacific Law and Policy, is part of their team",
    "hours": "Mon-Fri 9AM-6PM",
    "services": [
      "Asian-owned Commercial lease negotiation in Hawaii consultation",
      "Professional service",
      "Quality guarantee"
    ],
    "social_links": {}
  },
  {
    "name": "Law Offices of Reuben S. F. Wong",
    "address": "1188 Bishop St #2907, Honolulu, HI 96813",
    "phone": "(808) 521-2000",
    "rating": 4.0,
    "reviews": 25,
    "website": "https://www.reubensfwong.com/",
    "category": "Asian-owned Commercial lease negotiation in Hawaii",
    "description": "Offers legal services for commercial real estate transactions and disputes, including lease negotiation. They can communicate in English, Mandarin, Cantonese, or Chinese",
    "hours": "Mon-Fri 9AM-6PM",
    "services": [
      "Asian-owned Commercial lease negotiation in Hawaii consultation",
      "Professional service",
      "Quality guarantee"
    ],
    "social_links": {}
  },
  {
    "name": "Yoshida & Suh, LLP",
    "address": "1003 Bishop St #1200, Honolulu, HI 96813",
    "phone": "(808) 526-3011",
    "rating": 4.0,
    "reviews": 25,
    "website": "https://www.yoshidasuh.com/",
    "category": "Asian-owned Commercial lease negotiation in Hawaii",
    "description": "A law firm with decades of experience in Hawaii property law, handling commercial real estate matters including lease negotiation and drafting",
    "hours": "Mon-Fri 9AM-6PM",
    "services": [
      "Asian-owned Commercial lease negotiation in Hawaii consultation",
      "Professional service",
      "Quality guarantee"
    ],
    "social_links": {}
  },
  {
    "name": "Standard Commercial",
    "address": "700 Bishop St #1000, Honolulu, HI 96813",
    "phone": "(808) 524-5500",
    "rating": 4.0,
    "reviews": 25,
    "website": "https://www.standardcommercial.com/",
    "category": "Asian-owned Commercial lease negotiation in Hawaii",
    "description": "A commercial real estate company that offers leasing services. Kathleen Ahn Okubo, who is fluent in Korean, specializes in office and retail leasing and has represented international tenants",
    "hours": "Mon-Fri 9AM-6PM",
    "services": [
      "Asian-owned Commercial lease negotiation in Hawaii consultation",
      "Professional service",
      "Quality guarantee"
    ],
    "social_links": {}
  },
  {
    "name": "Asian Pacific Investments (API)",
    "address": "1003 Bishop St #1200, Honolulu, HI 96813",
    "phone": "(808) 526-3011",
    "rating": 4.0,
    "reviews": 25,
    "website": "https://www.asianpacificinvestments.com/",
    "category": "Asian-owned Commercial lease negotiation in Hawaii",
    "description": "This company focuses on commercial and residential real estate investments and transactions, emphasizing client needs and offering multilingual staff support. They act as advisors rather than just brokers",
    "hours": "Mon-Fri 9AM-6PM",
    "services": [
      "Asian-owned Commercial lease negotiation in Hawaii consultation",
      "Professional service",
      "Quality guarantee"
    ],
    "social_links": {}
  },
  {
    "name": "Trang Nadeau - Business Broker",
    "address": "(Contact information available via BizBuySell profile)",
    "phone": "",
    "rating": 4.0,
    "reviews": 25,
    "website": "https://www.bizbuysell.com/broker/trang-nadeau/",
    "category": "Asian-owned Commercial lease negotiation in Hawaii",
    "description": "A business broker specializing in commercial and residential real estate in Hawaii. Trang Nadeau is fluent in English, Vietnamese, and Chinese and works with local and international investors",
    "hours": "Mon-Fri 9AM-6PM",
    "services": [
      "Asian-owned Commercial lease negotiation in Hawaii consultation",
      "Professional service",
      "Quality guarantee"
    ],
    "social_links": {}
  },
  {
    "name": "Law Office of Caprice R. Itagaki",
    "address": "1001 Bishop St #1100, Honolulu, HI 96813",
    "phone": "(808) 536-5000",
    "rating": 4.0,
    "reviews": 25,
    "website": "https://www.itagakilaw.com/",
    "category": "Asian-owned Commercial lease negotiation in Hawaii",
    "description": "Provides legal assistance with commercial leases, including negotiation and drafting, and also handles real property purchase and sale",
    "hours": "Mon-Fri 9AM-6PM",
    "services": [
      "Asian-owned Commercial lease negotiation in Hawaii consultation",
      "Professional service",
      "Quality guarantee"
    ],
    "social_links": {}
  },
  {
    "name": "JMY Law Group LLLC",
    "address": "1001 Bishop St #1100, Honolulu, HI 96813",
    "phone": "(808) 536-5000",
    "rating": 4.0,
    "reviews": 25,
    "website": "https://www.jmylawgroup.com/",
    "category": "Asian-owned Commercial lease negotiation in Hawaii",
    "description": "Offers expertise in real estate law, including negotiating and drafting commercial leases, and facilitating acquisitions and sales of commercial properties",
    "hours": "Mon-Fri 9AM-6PM",
    "services": [
      "Asian-owned Commercial lease negotiation in Hawaii consultation",
      "Professional service",
      "Quality guarantee"
    ],
    "social_links": {}
  },
  {
    "name": "CBRE Hawaii",
    "address": "700 Bishop St #1000, Honolulu, HI 96813",
    "phone": "(808) 523-1000",
    "rating": 4.0,
    "reviews": 25,
    "website": "https://www.cbre.com/hawaii",
    "category": "Asian-owned Commercial lease negotiation in Hawaii",
    "description": "A commercial real estate services company that provides leasing services for office, retail, and industrial properties",
    "hours": "Mon-Fri 9AM-6PM",
    "services": [
      "Asian-owned Commercial lease negotiation in Hawaii consultation",
      "Professional service",
      "Quality guarantee"
    ],
    "social_links": {}
  },
  {
    "name": "Kai Wang, Esq. (Carlsmith Ball LLP)",
    "address": "1001 Bishop St #1100, Honolulu, HI 96813",
    "phone": "(808) 536-5000",
    "rating": 4.0,
    "reviews": 25,
    "website": "https://www.carlsmith.com/",
    "category": "Asian-owned Commercial lease negotiation in Hawaii",
    "description": "Kai Wang is a partner at Carlsmith Ball LLP, focusing on real estate, land use, and hospitality, with extensive experience in both Hawaii and Asia, including negotiation and documentation for commercial properties. She is fluent in English and Chinese",
    "hours": "Mon-Fri 9AM-6PM",
    "services": [
      "Asian-owned Commercial lease negotiation in Hawaii consultation",
      "Professional service",
      "Quality guarantee"
    ],
    "social_links": {}
  }
]