[
  {
    "name": "Asian Harbor",
    "address": "203 West Michigan Street, Indianapolis, IN 46204",
    "phone": "(317) 423-9988",
    "rating": 4.0,
    "reviews": 25,
    "website": "https://www.asianharborindianapolis.com/",
    "category": "Asian-owned Event-friendly venues in Indiana",
    "description": "Offers authentic Japanese and Chinese cuisine, suitable for dine-in and take-out. They also mention hosting parties",
    "hours": "Mon-Fri 9AM-6PM",
    "services": [
      "Asian-owned Event-friendly venues in Indiana consultation",
      "Professional service",
      "Quality guarantee"
    ],
    "social_links": {}
  },
  {
    "name": "Atmosphere Indy",
    "address": "Not specified in search results, but serves Indianapolis, IN",
    "phone": "",
    "rating": 4.0,
    "reviews": 25,
    "website": "https://www.atmosphereindy.com/",
    "category": "Asian-owned Event-friendly venues in Indiana",
    "description": "Specializes in South Asian wedding reception design, creating luxurious and stunning designs that capture the essence of traditional South Asian weddings",
    "hours": "Mon-Fri 9AM-6PM",
    "services": [
      "Asian-owned Event-friendly venues in Indiana consultation",
      "Professional service",
      "Quality guarantee"
    ],
    "social_links": {}
  },
  {
    "name": "Thai Isaan",
    "address": "1250 US-31, Westfield, IN 46074",
    "phone": "(317) 867-3400",
    "rating": 4.0,
    "reviews": 25,
    "website": "https://thaiisaan.com/",
    "category": "Asian-owned Event-friendly venues in Indiana",
    "description": "A family-owned restaurant offering authentic Thai cuisine. They provide catering for special occasions and are experienced event planners",
    "hours": "Mon-Fri 9AM-6PM",
    "services": [
      "Asian-owned Event-friendly venues in Indiana consultation",
      "Professional service",
      "Quality guarantee"
    ],
    "social_links": {}
  },
  {
    "name": "The Greenhouse Wedding & Event Center at Zao Island",
    "address": "1050 Horse Prairie Road, Valparaiso, IN 46383",
    "phone": "(219) 462-1194",
    "rating": 4.0,
    "reviews": 25,
    "website": "https://www.zaoisland.com/the-greenhouse",
    "category": "Asian-owned Event-friendly venues in Indiana",
    "description": "A venue for weddings and events of all varieties, with a dedicated planning manager",
    "hours": "Mon-Fri 9AM-6PM",
    "services": [
      "Asian-owned Event-friendly venues in Indiana consultation",
      "Professional service",
      "Quality guarantee"
    ],
    "social_links": {}
  },
  {
    "name": "The Bluffs at Conner Prairie (Ritz Charles)",
    "address": "13080 Allisonville Road, Fishers, Indiana 46038",
    "phone": "(317) 707-7000",
    "rating": 4.0,
    "reviews": 25,
    "website": "https://www.ritzcharles.com/venues/the-bluffs-at-conner-prairie",
    "category": "Asian-owned Event-friendly venues in Indiana",
    "description": "This venue features a \"Chinese House\" and is available for ceremonies, receptions, galas, and corporate retreats. It offers beautiful views and an indoor/outdoor setting",
    "hours": "Mon-Fri 9AM-6PM",
    "services": [
      "Asian-owned Event-friendly venues in Indiana consultation",
      "Professional service",
      "Quality guarantee"
    ],
    "social_links": {}
  },
  {
    "name": "BODHI",
    "address": "902 N Pennsylvania St, Indianapolis, IN 46204",
    "phone": "(317) 986-7373",
    "rating": 4.0,
    "reviews": 25,
    "website": "https://bodhiindy.com/",
    "category": "Asian-owned Event-friendly venues in Indiana",
    "description": "A 21+ Thai craft cocktail bar and bistro with a focus on authentic Thai food and drinks, offering a warm and inviting atmosphere. While not explicitly an event venue, it could be suitable for smaller gatherings",
    "hours": "Mon-Fri 9AM-6PM",
    "services": [
      "Asian-owned Event-friendly venues in Indiana consultation",
      "Professional service",
      "Quality guarantee"
    ],
    "social_links": {}
  },
  {
    "name": "Asian Bistro",
    "address": "6935 Lake Plaza Dr #B10, Indianapolis, IN 46220",
    "phone": "(317) 897-8888",
    "rating": 4.0,
    "reviews": 25,
    "website": "https://asianbistroindianapolis.com/",
    "category": "Asian-owned Event-friendly venues in Indiana",
    "description": "Offers dine-in and take-out services, with a focus on carefully selected ingredients and healthier preparation methods",
    "hours": "Mon-Fri 9AM-6PM",
    "services": [
      "Asian-owned Event-friendly venues in Indiana consultation",
      "Professional service",
      "Quality guarantee"
    ],
    "social_links": {}
  },
  {
    "name": "Chateau Banquets",
    "address": "7200 W. Lincoln Hwy, Merrillville, IN 46410",
    "phone": "(219) 736-5151",
    "rating": 4.0,
    "reviews": 25,
    "website": "https://www.chateaubanquets.com/",
    "category": "Asian-owned Event-friendly venues in Indiana",
    "description": "A premier banquet facility in Northwest Indiana and Chicagoland, suitable for various events with a capacity of up to 350 guests",
    "hours": "Mon-Fri 9AM-6PM",
    "services": [
      "Asian-owned Event-friendly venues in Indiana consultation",
      "Professional service",
      "Quality guarantee"
    ],
    "social_links": {}
  },
  {
    "name": "Bliss Event Space",
    "address": "5135 N Keystone Ave, Indianapolis, IN 46205",
    "phone": "(317) 414-1000",
    "rating": 4.0,
    "reviews": 25,
    "website": "https://www.blissindy.com/",
    "category": "Asian-owned Event-friendly venues in Indiana",
    "description": "An event venue providing tools, resources, and space for life events, company seminars, and networking events",
    "hours": "Mon-Fri 9AM-6PM",
    "services": [
      "Asian-owned Event-friendly venues in Indiana consultation",
      "Professional service",
      "Quality guarantee"
    ],
    "social_links": {}
  },
  {
    "name": "The Jewel Event Center Of Indianapolis",
    "address": "3755 N High School Rd, Indianapolis, IN 46224",
    "phone": "(317) 291-7900",
    "rating": 4.0,
    "reviews": 25,
    "website": "https://www.thejewelofindy.com/",
    "category": "Asian-owned Event-friendly venues in Indiana",
    "description": "A venue that hosts weddings, birthday parties, seminars, and other events, offering music, alcohol, and catering services",
    "hours": "Mon-Fri 9AM-6PM",
    "services": [
      "Asian-owned Event-friendly venues in Indiana consultation",
      "Professional service",
      "Quality guarantee"
    ],
    "social_links": {}
  }
]