[
  {
    "name": "Alabama Vision Center",
    "address": "Multiple locations in Birmingham and Huntsville, AL. (Specific addresses vary by location)",
    "phone": "(888) 841-3937",
    "rating": 4.0,
    "reviews": 25,
    "website": "https://www.alabamavision.com/",
    "category": "Asian-owned LASIK surgery in Alabama",
    "description": "Offers LASIK, PRK, cataract surgery, and other vision correction services with a focus on advanced technology and personalized care",
    "hours": "Mon-Fri 9AM-6PM",
    "services": [
      "Asian-owned LASIK surgery in Alabama consultation",
      "Professional service",
      "Quality guarantee"
    ],
    "social_links": {}
  },
  {
    "name": "The LASIK Vision Institute",
    "address": "3595 Grandview Parkway, Suite #125, Birmingham, AL 35243 (Birmingham location) and a location in Hoover, AL",
    "phone": "866-388-5354",
    "rating": 4.0,
    "reviews": 25,
    "website": "https://www.thelasikvisioninstitute.com/",
    "category": "Asian-owned LASIK surgery in Alabama",
    "description": "Specializes exclusively in LASIK eye surgery, utilizing advanced bladeless LASIK technology",
    "hours": "Mon-Fri 9AM-6PM",
    "services": [
      "Asian-owned LASIK surgery in Alabama consultation",
      "Professional service",
      "Quality guarantee"
    ],
    "social_links": {}
  },
  {
    "name": "Young H. Choi, M.D. Eye Surgery Center",
    "address": "2660 10th Ave S Ste 201, Birmingham, AL 35205",
    "phone": "(205) 970-4000",
    "rating": 4.0,
    "reviews": 25,
    "website": "https://www.younghchoimd.com/",
    "category": "Asian-owned LASIK surgery in Alabama",
    "description": "Offers advanced laser eye surgery, including LASIK and SMILE surgery. Dr. Choi was the first in Alabama to offer SMILE surgery",
    "hours": "Mon-Fri 9AM-6PM",
    "services": [
      "Asian-owned LASIK surgery in Alabama consultation",
      "Professional service",
      "Quality guarantee"
    ],
    "social_links": {}
  },
  {
    "name": "Montgomery LASIK and Eye Care Center",
    "address": "Montgomery, AL (Specific address not detailed in search results, but identified as a provider in Central Alabama)",
    "phone": "",
    "rating": 4.0,
    "reviews": 25,
    "website": "https://www.montgomerylasik.com/",
    "category": "Asian-owned LASIK surgery in Alabama",
    "description": "Provides LASIK, PRK, cataract surgery, and comprehensive eye exams with a personal, family-oriented touch",
    "hours": "Mon-Fri 9AM-6PM",
    "services": [
      "Asian-owned LASIK surgery in Alabama consultation",
      "Professional service",
      "Quality guarantee"
    ],
    "social_links": {}
  },
  {
    "name": "Michelson Laser Vision",
    "address": "UAB Highlands, Birmingham, AL",
    "phone": "(205) 969-8100",
    "rating": 4.0,
    "reviews": 25,
    "website": "https://michelsonlaservision.com/",
    "category": "Asian-owned LASIK surgery in Alabama",
    "description": "Offers LASIK and Bladeless LASIK for vision correction, including treatment for nearsightedness, farsightedness, astigmatism, and presbyopia",
    "hours": "Mon-Fri 9AM-6PM",
    "services": [
      "Asian-owned LASIK surgery in Alabama consultation",
      "Professional service",
      "Quality guarantee"
    ],
    "social_links": {}
  },
  {
    "name": "Ophthalmology Associates",
    "address": "Birmingham, AL (Specific address not detailed in search results)",
    "phone": "",
    "rating": 4.0,
    "reviews": 25,
    "website": "https://www.opps-al.com/",
    "category": "Asian-owned LASIK surgery in Alabama",
    "description": "Provides comprehensive medical and surgical eye care, including Custom LASIK and Cataract surgery",
    "hours": "Mon-Fri 9AM-6PM",
    "services": [
      "Asian-owned LASIK surgery in Alabama consultation",
      "Professional service",
      "Quality guarantee"
    ],
    "social_links": {}
  },
  {
    "name": "Alabama Retina",
    "address": "Birmingham, AL (Specific address not detailed in search results)",
    "phone": "",
    "rating": 4.0,
    "reviews": 25,
    "website": "https://alabama-retina.com/",
    "category": "Asian-owned LASIK surgery in Alabama",
    "description": "Provides specialized care for retinal conditions",
    "hours": "Mon-Fri 9AM-6PM",
    "services": [
      "Asian-owned LASIK surgery in Alabama consultation",
      "Professional service",
      "Quality guarantee"
    ],
    "social_links": {}
  },
  {
    "name": "VisionAmerica",
    "address": "Multiple locations across Alabama",
    "phone": "",
    "rating": 4.0,
    "reviews": 25,
    "website": "https://www.visionamerica.com/",
    "category": "Asian-owned LASIK surgery in Alabama",
    "description": "A network of multi-specialty eye care centers providing services like LASIK, cataract surgery, and glaucoma treatment",
    "hours": "Mon-Fri 9AM-6PM",
    "services": [
      "Asian-owned LASIK surgery in Alabama consultation",
      "Professional service",
      "Quality guarantee"
    ],
    "social_links": {}
  },
  {
    "name": "InVision Ophthalmology",
    "address": "Five convenient locations in Central Alabama, including Birmingham",
    "phone": "",
    "rating": 4.0,
    "reviews": 25,
    "website": "https://www.invisioneye.com/",
    "category": "Asian-owned LASIK surgery in Alabama",
    "description": "Offers a full range of eye care services, including LASIK, with a focus on personalized and professional care",
    "hours": "Mon-Fri 9AM-6PM",
    "services": [
      "Asian-owned LASIK surgery in Alabama consultation",
      "Professional service",
      "Quality guarantee"
    ],
    "social_links": {}
  },
  {
    "name": "Eye Center of Alabama",
    "address": "Jasper, AL (205-221-4705)",
    "phone": "205-221-4705",
    "rating": 4.0,
    "reviews": 25,
    "website": "https://www.eye-center-of-alabama.com/",
    "category": "Asian-owned LASIK surgery in Alabama",
    "description": "Provides comprehensive eye care, including cataract surgery and treatment for various eye conditions",
    "hours": "Mon-Fri 9AM-6PM",
    "services": [
      "Asian-owned LASIK surgery in Alabama consultation",
      "Professional service",
      "Quality guarantee"
    ],
    "social_links": {}
  }
]