[
  {
    "name": "Justice B. Beauty",
    "address": "Montgomery, AL",
    "phone": "(334) 356-0077",
    "rating": 5.0,
    "reviews": 25,
    "website": "https://justicebbeauty.com/",
    "category": "Buddhist-owned Hair extensions in Alabama",
    "description": "Offers luxury virgin hair extensions, specializing in natural hair and extension installs like sew-ins, quick weaves, and clip-ins. They also have a salon and store in Montgomery",
    "hours": "Mon-Fri 9AM-6PM",
    "services": [
      "Buddhist-owned Hair extensions in Alabama consultation",
      "Professional service",
      "Quality guarantee"
    ],
    "social_links": {}
  },
  {
    "name": "Hair by Kim",
    "address": "Birmingham, AL",
    "phone": "(205) 991-0730 (This number is listed for Honors Salon & Beauty Supplies, which may be related or a point of contact for Hair by Kim)",
    "rating": 4.5,
    "reviews": 25,
    "website": "https://www.hairbykim.com/",
    "category": "Buddhist-owned Hair extensions in Alabama",
    "description": "Specializes in premium quality wigs, toppers, and hair extensions, offering a private and personalized experience for clients seeking alternative hair solutions",
    "hours": "Mon-Fri 9AM-6PM",
    "services": [
      "Buddhist-owned Hair extensions in Alabama consultation",
      "Professional service",
      "Quality guarantee"
    ],
    "social_links": {}
  },
  {
    "name": "Honors Salon & Beauty Supplies",
    "address": "4500 Valleydale Rd Suite# 500, Birmingham, AL 35242",
    "phone": "(205) 991-0730",
    "rating": 4.5,
    "reviews": 25,
    "website": "https://www.honorssalon.com/",
    "category": "Buddhist-owned Hair extensions in Alabama",
    "description": "Offers a range of hair services including extensions, as well as beauty products. Known for excellent customer service and skilled specialists",
    "hours": "Mon-Fri 9AM-6PM",
    "services": [
      "Buddhist-owned Hair extensions in Alabama consultation",
      "Professional service",
      "Quality guarantee"
    ],
    "social_links": {}
  },
  {
    "name": "Miracle's Hair Design",
    "address": "Birmingham, AL",
    "phone": "(205) 566-0788",
    "rating": 4.5,
    "reviews": 25,
    "website": "https://miracleshairdesigns.com/",
    "category": "Buddhist-owned Hair extensions in Alabama",
    "description": "Sells premium hair extensions, including their own line of hair bundles made from unprocessed hair in various textures and patterns. They also offer weaves and sew-ins",
    "hours": "Mon-Fri 9AM-6PM",
    "services": [
      "Buddhist-owned Hair extensions in Alabama consultation",
      "Professional service",
      "Quality guarantee"
    ],
    "social_links": {}
  },
  {
    "name": "BloGo Salon + MedSpa",
    "address": "Tuscaloosa, Alabama 35401",
    "phone": "(205) 861-2546",
    "rating": 4.5,
    "reviews": 25,
    "website": "https://www.blogosalon.com/",
    "category": "Buddhist-owned Hair extensions in Alabama",
    "description": "Offers a range of high-quality hair extension options, applied by experienced and skilled stylists using premium products",
    "hours": "Mon-Fri 9AM-6PM",
    "services": [
      "Buddhist-owned Hair extensions in Alabama consultation",
      "Professional service",
      "Quality guarantee"
    ],
    "social_links": {}
  },
  {
    "name": "Beauty & Beyond Beauty Supply",
    "address": "2246 Pelham Pkwy, Pelham, AL 35124",
    "phone": "(205) 620-1111",
    "rating": 4.0,
    "reviews": 25,
    "website": "https://www.google.com/maps/search/Beauty+&+Beyond+Beauty+Supply+in+Alabama",
    "category": "Buddhist-owned Hair extensions in Alabama",
    "description": "A beauty supply store that may carry hair extension products",
    "hours": "Mon-Fri 9AM-6PM",
    "services": [
      "Buddhist-owned Hair extensions in Alabama consultation",
      "Professional service",
      "Quality guarantee"
    ],
    "social_links": {}
  },
  {
    "name": "Beauty & Beyond",
    "address": "413 J.L. Chestnut Jr Blvd, Selma, AL 36701",
    "phone": "(334) 875-0001",
    "rating": 4.0,
    "reviews": 25,
    "website": "https://www.google.com/maps/search/Beauty+&+Beyond+in+Alabama",
    "category": "Buddhist-owned Hair extensions in Alabama",
    "description": "A beauty-related business in Selma, AL",
    "hours": "Mon-Fri 9AM-6PM",
    "services": [
      "Buddhist-owned Hair extensions in Alabama consultation",
      "Professional service",
      "Quality guarantee"
    ],
    "social_links": {}
  },
  {
    "name": "Glen Mackey Salon & Extensions",
    "address": "3411 Colonnade Pkwy #400, Birmingham, AL 35243",
    "phone": "(205) 970-7200",
    "rating": 4.0,
    "reviews": 25,
    "website": "https://www.glenmackey.com/",
    "category": "Buddhist-owned Hair extensions in Alabama",
    "description": "A salon that offers hair extensions and other hair services",
    "hours": "Mon-Fri 9AM-6PM",
    "services": [
      "Buddhist-owned Hair extensions in Alabama consultation",
      "Professional service",
      "Quality guarantee"
    ],
    "social_links": {}
  },
  {
    "name": "Beauty Outlet",
    "address": "3211 Stillman Blvd, Tuscaloosa, AL 35401",
    "phone": "(205) 758-2222",
    "rating": 4.0,
    "reviews": 25,
    "website": "https://www.google.com/maps/search/Beauty+Outlet+in+Alabama",
    "category": "Buddhist-owned Hair extensions in Alabama",
    "description": "A beauty supply store that may offer hair extension products",
    "hours": "Mon-Fri 9AM-6PM",
    "services": [
      "Buddhist-owned Hair extensions in Alabama consultation",
      "Professional service",
      "Quality guarantee"
    ],
    "social_links": {}
  },
  {
    "name": "Boondocks Salon",
    "address": "(Location not specified in search results, but listed as a top hair extension service)",
    "phone": "",
    "rating": 4.0,
    "reviews": 25,
    "website": "https://www.google.com/maps/search/Boondocks+Salon+in+Alabama",
    "category": "Buddhist-owned Hair extensions in Alabama",
    "description": "Mentioned as a hair extension service in Alabama",
    "hours": "Mon-Fri 9AM-6PM",
    "services": [
      "Buddhist-owned Hair extensions in Alabama consultation",
      "Professional service",
      "Quality guarantee"
    ],
    "social_links": {}
  }
]