[
  {
    "name": "Anchorage Christian Taekwondo",
    "address": "7348 Elmore Rd, Anchorage, Alaska, 99507",
    "phone": "(907) 522-5425",
    "rating": 4.0,
    "reviews": 25,
    "website": "https://www.anchoragechristiantaekwondo.com/",
    "category": "Christian-owned Taekwondo in Alaska",
    "description": "Integrates Christian values with martial arts training, focusing on discipline and personal growth. Offers classes for various age groups and skill levels",
    "hours": "Mon-Fri 9AM-6PM",
    "services": [
      "Christian-owned Taekwondo in Alaska consultation",
      "Professional service",
      "Quality guarantee"
    ],
    "social_links": {}
  },
  {
    "name": "Fairbanks Taekwon-Do",
    "address": "259 Farmers Loop Rd, Fairbanks, AK 99712",
    "phone": "(907) 452-2305",
    "rating": 4.0,
    "reviews": 25,
    "website": "https://fairbankstaekwondo.com/",
    "category": "Christian-owned Taekwondo in Alaska",
    "description": "Offers Taekwon-do classes for children and adults, with a focus on character development, physical fitness, and self-defense. Family and military discounts are available",
    "hours": "Mon-Fri 9AM-6PM",
    "services": [
      "Christian-owned Taekwondo in Alaska consultation",
      "Professional service",
      "Quality guarantee"
    ],
    "social_links": {}
  },
  {
    "name": "Chung's Tae Kwon Do Institute",
    "address": "9191 E. Frontage Rd. #2, Palmer, AK 99645",
    "phone": "(907) 746-7665",
    "rating": 4.0,
    "reviews": 25,
    "website": "https://www.chungstkdalaska.com/",
    "category": "Christian-owned Taekwondo in Alaska",
    "description": "Offers Taekwondo, Hapkido, and Self-Defense classes, emphasizing respect, perseverance, confidence, and self-discipline. Approved by several charter schools for homeschooling",
    "hours": "Mon-Fri 9AM-6PM",
    "services": [
      "Christian-owned Taekwondo in Alaska consultation",
      "Professional service",
      "Quality guarantee"
    ],
    "social_links": {}
  },
  {
    "name": "Alaska Center for the Martial Arts",
    "address": "845 North Randalls Way, Wasilla, AK 99654",
    "phone": "(907) 376-9966",
    "rating": 4.0,
    "reviews": 25,
    "website": "https://www.akmartialarts.com/",
    "category": "Christian-owned Taekwondo in Alaska",
    "description": "Provides martial arts and fitness classes for all ages and fitness levels, focusing on self-defense, discipline, and confidence",
    "hours": "Mon-Fri 9AM-6PM",
    "services": [
      "Christian-owned Taekwondo in Alaska consultation",
      "Professional service",
      "Quality guarantee"
    ],
    "social_links": {}
  },
  {
    "name": "Jay's Taekwondo",
    "address": "12340 Old Glenn Hwy, #202, Eagle River, AK 99577",
    "phone": "(907) 696-0044",
    "rating": 4.0,
    "reviews": 25,
    "website": "https://www.jays-taekwondo.com/",
    "category": "Christian-owned Taekwondo in Alaska",
    "description": "Offers Taekwondo classes for all ages and abilities, with a focus on personal growth, discipline, and self-defense. They also offer recorded online classes and seminars",
    "hours": "Mon-Fri 9AM-6PM",
    "services": [
      "Christian-owned Taekwondo in Alaska consultation",
      "Professional service",
      "Quality guarantee"
    ],
    "social_links": {}
  },
  {
    "name": "AK Family Taekwondo",
    "address": "12340 Old Glenn Hwy, #202, Eagle River, AK 99577",
    "phone": "(907) 696-0044",
    "rating": 4.0,
    "reviews": 25,
    "website": "https://akfamilytaekwondo.com/",
    "category": "Christian-owned Taekwondo in Alaska",
    "description": "Focuses on developing mental and physical skills through martial arts training, emphasizing self-confidence, improved focus, physical strength, and positive social interaction",
    "hours": "Mon-Fri 9AM-6PM",
    "services": [
      "Christian-owned Taekwondo in Alaska consultation",
      "Professional service",
      "Quality guarantee"
    ],
    "social_links": {}
  },
  {
    "name": "Tanaka's Martial Arts Academy",
    "address": "100 Cushman Street, Fairbanks, AK 99701",
    "phone": "(907) 452-1105",
    "rating": 4.0,
    "reviews": 25,
    "website": "https://www.tanakasmartialarts.com/",
    "category": "Christian-owned Taekwondo in Alaska",
    "description": "Offers martial arts classes for all ages, emphasizing respect, self-discipline, and self-defense",
    "hours": "Mon-Fri 9AM-6PM",
    "services": [
      "Christian-owned Taekwondo in Alaska consultation",
      "Professional service",
      "Quality guarantee"
    ],
    "social_links": {}
  },
  {
    "name": "Okamoto's School of Karate",
    "address": "Multiple locations including Anchorage, Eagle River, and Wasilla",
    "phone": "(907) 563-2424 (Anchorage main line)",
    "rating": 4.0,
    "reviews": 25,
    "website": "https://okamotokarate.com/",
    "category": "Christian-owned Taekwondo in Alaska",
    "description": "Provides karate and Taekwondo classes for all ages and skill levels, with a focus on confidence, discipline, respect, and self-defense",
    "hours": "Mon-Fri 9AM-6PM",
    "services": [
      "Christian-owned Taekwondo in Alaska consultation",
      "Professional service",
      "Quality guarantee"
    ],
    "social_links": {}
  },
  {
    "name": "Polaris Dojo",
    "address": "450 Stirling Hwy, Homer, Alaska 99603",
    "phone": "(206) 414-8319",
    "rating": 4.0,
    "reviews": 25,
    "website": "https://polarisdojo.com/",
    "category": "Christian-owned Taekwondo in Alaska",
    "description": "The only Cuong Nhu School in Alaska, teaching a mix of traditional hard and soft styles for children and adults, focusing on self-defense, fitness, and community bonds",
    "hours": "Mon-Fri 9AM-6PM",
    "services": [
      "Christian-owned Taekwondo in Alaska consultation",
      "Professional service",
      "Quality guarantee"
    ],
    "social_links": {}
  },
  {
    "name": "Challenge Martial Arts",
    "address": "51781 Kenai Spur Highway, Unit D, Nikiski, AK 99635",
    "phone": "(907) 513-9381",
    "rating": 4.0,
    "reviews": 25,
    "website": "https://www.challengemartialarts.com/",
    "category": "Christian-owned Taekwondo in Alaska",
    "description": "Offers martial arts and character development for kids, teens, and adults, focusing on strength, skill, integrity, and self-improvement",
    "hours": "Mon-Fri 9AM-6PM",
    "services": [
      "Christian-owned Taekwondo in Alaska consultation",
      "Professional service",
      "Quality guarantee"
    ],
    "social_links": {}
  }
]