[
  {
    "name": "Integrative Health Center of Maine",
    "address": "15 Sky View Drive, Cumberland, ME 04021",
    "phone": "(207) 699-3830",
    "rating": 4.0,
    "reviews": 25,
    "website": "https://www.ihcmaine.com/",
    "category": "Agnostic-owned Hydrotherapy in Maine",
    "description": "Offers a range of conventional and natural treatments for whole-body wellness, including holistic and alternative therapies",
    "hours": "Mon-Fri 9AM-6PM",
    "services": [
      "Agnostic-owned Hydrotherapy in Maine consultation",
      "Professional service",
      "Quality guarantee"
    ],
    "social_links": {}
  },
  {
    "name": "Wellness Center LLC",
    "address": "Lewiston, ME (Specific street address not provided in search results)",
    "phone": "",
    "rating": 4.0,
    "reviews": 25,
    "website": "https://www.wellnesscenterllc.com/",
    "category": "Agnostic-owned Hydrotherapy in Maine",
    "description": "A mental health agency focused on empowering community members and providing resources for a better lifestyle",
    "hours": "Mon-Fri 9AM-6PM",
    "services": [
      "Agnostic-owned Hydrotherapy in Maine consultation",
      "Professional service",
      "Quality guarantee"
    ],
    "social_links": {}
  },
  {
    "name": "The Spa at Cliff House Maine",
    "address": "11 Cliff House Rd, Cape Neddick, ME 03902",
    "phone": "(207) 361-1000",
    "rating": 4.0,
    "reviews": 25,
    "website": "https://www.cliffhousemaine.com/",
    "category": "Agnostic-owned Hydrotherapy in Maine",
    "description": "A seaside spa offering wellness and relaxation services, including therapeutic and holistic treatments, with ocean views",
    "hours": "Mon-Fri 9AM-6PM",
    "services": [
      "Agnostic-owned Hydrotherapy in Maine consultation",
      "Professional service",
      "Quality guarantee"
    ],
    "social_links": {}
  },
  {
    "name": "Stage Neck Inn (The Spa)",
    "address": "40 Stage Neck Rd, York Harbor, ME 03911",
    "phone": "(207) 363-3380",
    "rating": 4.0,
    "reviews": 25,
    "website": "https://www.stageneckinn.com/spa/",
    "category": "Agnostic-owned Hydrotherapy in Maine",
    "description": "Offers spa treatments such as facials, massage therapy, and hot stone treatments in an oceanfront hotel setting",
    "hours": "Mon-Fri 9AM-6PM",
    "services": [
      "Agnostic-owned Hydrotherapy in Maine consultation",
      "Professional service",
      "Quality guarantee"
    ],
    "social_links": {}
  },
  {
    "name": "The Samoset Resort (The Spa)",
    "address": "220 Warrenton St, Rockport, ME 04856",
    "phone": "(207) 594-1470",
    "rating": 4.0,
    "reviews": 25,
    "website": "https://www.samosetresort.com/spa",
    "category": "Agnostic-owned Hydrotherapy in Maine",
    "description": "Features a spa with treatment rooms, relaxation areas, and ocean views, offering a tranquil escape",
    "hours": "Mon-Fri 9AM-6PM",
    "services": [
      "Agnostic-owned Hydrotherapy in Maine consultation",
      "Professional service",
      "Quality guarantee"
    ],
    "social_links": {}
  },
  {
    "name": "Fairwinds Spa at Sebasco Harbor Resort",
    "address": "21 Sebasco Harbor Rd, Sebasco Estates, ME 04565",
    "phone": "(207) 389-1161",
    "rating": 4.0,
    "reviews": 25,
    "website": "https://www.sebasco.com/spa-and-recreation/fairwinds-spa/",
    "category": "Agnostic-owned Hydrotherapy in Maine",
    "description": "Provides a spa experience focused on relaxation, rejuvenation, and balancing the spirit with various treatments",
    "hours": "Mon-Fri 9AM-6PM",
    "services": [
      "Agnostic-owned Hydrotherapy in Maine consultation",
      "Professional service",
      "Quality guarantee"
    ],
    "social_links": {}
  },
  {
    "name": "Inn by the Sea (Spa Services)",
    "address": "40 Bowery Beach Rd, Cape Elizabeth, ME 04107",
    "phone": "(207) 799-3134",
    "rating": 4.0,
    "reviews": 25,
    "website": "https://www.innbythesea.com/spa-and-fitness",
    "category": "Agnostic-owned Hydrotherapy in Maine",
    "description": "Offers spa services, including massages in private outdoor cabanas, with views of the ocean",
    "hours": "Mon-Fri 9AM-6PM",
    "services": [
      "Agnostic-owned Hydrotherapy in Maine consultation",
      "Professional service",
      "Quality guarantee"
    ],
    "social_links": {}
  },
  {
    "name": "Waterstruck - Community Nordic Spa and Sauna",
    "address": "Newcastle, ME (Specific street address not provided in search results)",
    "phone": "",
    "rating": 4.0,
    "reviews": 25,
    "website": "https://www.waterstruck.com/",
    "category": "Agnostic-owned Hydrotherapy in Maine",
    "description": "A community nordic spa and sauna offering a thermal circuit with sauna, hydrotherapy, retreats, and yoga",
    "hours": "Mon-Fri 9AM-6PM",
    "services": [
      "Agnostic-owned Hydrotherapy in Maine consultation",
      "Professional service",
      "Quality guarantee"
    ],
    "social_links": {}
  },
  {
    "name": "Holistic Healing & Wellness Center",
    "address": "110 Main St, Ste. 1508, Saco, ME 04072",
    "phone": "",
    "rating": 4.0,
    "reviews": 25,
    "website": "https://www.holistichealingme.com/",
    "category": "Agnostic-owned Hydrotherapy in Maine",
    "description": "A network of holistic providers offering a range of services, including massage therapy and other wellness practices",
    "hours": "Mon-Fri 9AM-6PM",
    "services": [
      "Agnostic-owned Hydrotherapy in Maine consultation",
      "Professional service",
      "Quality guarantee"
    ],
    "social_links": {}
  },
  {
    "name": "Healing Waters Therapy Pool",
    "address": "160 Riverside Dr, Augusta, ME 04330",
    "phone": "(207) 622-9467",
    "rating": 4.0,
    "reviews": 25,
    "website": "https://www.healingwatersmaine.com/",
    "category": "Agnostic-owned Hydrotherapy in Maine",
    "description": "A non-profit organization offering a therapeutic warm water pool for health and wellness, with a focus on improving the quality of life for individuals",
    "hours": "Mon-Fri 9AM-6PM",
    "services": [
      "Agnostic-owned Hydrotherapy in Maine consultation",
      "Professional service",
      "Quality guarantee"
    ],
    "social_links": {}
  }
]