[
  {
    "name": "Reiki for Relaxation and Healing",
    "address": "Frank's Bargain Center, North Charlestown, NH (Saturdays through October 11, 2025)",
    "phone": "",
    "rating": 4.0,
    "reviews": 25,
    "website": "https://www.google.com/maps/search/Reiki+for+Relaxation+and+Healing+New+Hampshire",
    "category": "Asian-owned Energy healing in New-Hampshire",
    "description": "Offers Reiki sessions and classes, with a focus on stress reduction and stimulating self-healing abilities",
    "hours": "Mon-Fri 9AM-6PM",
    "services": [
      "Asian-owned Energy healing in New-Hampshire consultation",
      "Professional service",
      "Quality guarantee"
    ],
    "social_links": {}
  },
  {
    "name": "Triskelia Wellness",
    "address": "Derry, Londonderry, NH",
    "phone": "(603) 824-6121",
    "rating": 4.0,
    "reviews": 25,
    "website": "https://www.google.com/maps/search/Triskelia+Wellness+New+Hampshire",
    "category": "Asian-owned Energy healing in New-Hampshire",
    "description": "Provides Reiki and other energy healing services, with practitioners who are Reiki Masters",
    "hours": "Mon-Fri 9AM-6PM",
    "services": [
      "Asian-owned Energy healing in New-Hampshire consultation",
      "Professional service",
      "Quality guarantee"
    ],
    "social_links": {}
  },
  {
    "name": "The Iron Cactus",
    "address": "Kingston, NH",
    "phone": "Erica: 1-603-642-4990, Stephanie: 1-603-819-8982",
    "rating": 4.0,
    "reviews": 25,
    "website": "https://www.google.com/maps/search/The+Iron+Cactus+New+Hampshire",
    "category": "Asian-owned Energy healing in New-Hampshire",
    "description": "Offers Reiki healing and energy work",
    "hours": "Mon-Fri 9AM-6PM",
    "services": [
      "Asian-owned Energy healing in New-Hampshire consultation",
      "Professional service",
      "Quality guarantee"
    ],
    "social_links": {}
  },
  {
    "name": "Guiding Light Healing",
    "address": "28 S. Main Street, Concord, NH 03301",
    "phone": "(978) 710-9798 (Text Friendly)",
    "rating": 4.0,
    "reviews": 25,
    "website": "https://www.google.com/maps/search/Guiding+Light+Healing+New+Hampshire",
    "category": "Asian-owned Energy healing in New-Hampshire",
    "description": "Offers energy healing, mediumship, and holistic life coaching",
    "hours": "Mon-Fri 9AM-6PM",
    "services": [
      "Asian-owned Energy healing in New-Hampshire consultation",
      "Professional service",
      "Quality guarantee"
    ],
    "social_links": {}
  },
  {
    "name": "Performance Health and Spine",
    "address": "91A N. State Street, Concord, NH 03301",
    "phone": "",
    "rating": 4.0,
    "reviews": 25,
    "website": "https://www.google.com/maps/search/Performance+Health+and+Spine+New+Hampshire",
    "category": "Asian-owned Energy healing in New-Hampshire",
    "description": "While primarily a chiropractic and physical therapy clinic, they emphasize a holistic approach to health and wellness",
    "hours": "Mon-Fri 9AM-6PM",
    "services": [
      "Asian-owned Energy healing in New-Hampshire consultation",
      "Professional service",
      "Quality guarantee"
    ],
    "social_links": {}
  }
]