[
  {
    "name": "Pediatric Therapy Studio",
    "address": "10475 Main St, Fairfax, VA 22030",
    "phone": "(703) 539-2110",
    "rating": 4.0,
    "reviews": 25,
    "website": "https://www.pediatrictherapystudio.com/",
    "category": "Arabic-speaking Speech therapy in Virginia",
    "description": "Offers ABA, Speech, and Occupational Therapy for children with autism, speech delays, and developmental challenges. Their staff speaks Arabic",
    "hours": "Mon-Fri 9AM-6PM",
    "services": [
      "Arabic-speaking Speech therapy in Virginia consultation",
      "Professional service",
      "Quality guarantee"
    ],
    "social_links": {}
  },
  {
    "name": "Royal Care Counseling Services",
    "address": "3900 Pender Dr Suite 300, Fairfax, VA 22030",
    "phone": "(571) 350-0001",
    "rating": 4.0,
    "reviews": 25,
    "website": "https://www.psychologytoday.com/us/therapists/royal-care-counseling-services-fairfax-va/408550",
    "category": "Arabic-speaking Speech therapy in Virginia",
    "description": "A practice with therapists who speak Arabic, offering psychotherapy and evaluations for various concerns",
    "hours": "Mon-Fri 9AM-6PM",
    "services": [
      "Arabic-speaking Speech therapy in Virginia consultation",
      "Professional service",
      "Quality guarantee"
    ],
    "social_links": {}
  },
  {
    "name": "Stellar Speech & Myo",
    "address": "110 S Alfred St, Alexandria, VA 22314",
    "phone": "(703) 539-2110 (This appears to be a duplicate from Pediatric Therapy Studio, further verification is recommended)",
    "rating": 4.0,
    "reviews": 25,
    "website": "https://www.stellarspeechmyo.com/",
    "category": "Arabic-speaking Speech therapy in Virginia",
    "description": "Provides speech, feeding, and myofunctional therapy for individuals of all ages. They offer virtual therapy sessions to residents of Virginia, Maryland, and Washington, DC",
    "hours": "Mon-Fri 9AM-6PM",
    "services": [
      "Arabic-speaking Speech therapy in Virginia consultation",
      "Professional service",
      "Quality guarantee"
    ],
    "social_links": {}
  },
  {
    "name": "Speech at the Beach",
    "address": "448 Viking Dr, Virginia Beach, VA 23452",
    "phone": "(757) 671-0000",
    "rating": 4.0,
    "reviews": 25,
    "website": "https://www.speechatthebeach.com/",
    "category": "Arabic-speaking Speech therapy in Virginia",
    "description": "Offers personalized pediatric speech therapy for the Virginia Beach community",
    "hours": "Mon-Fri 9AM-6PM",
    "services": [
      "Arabic-speaking Speech therapy in Virginia consultation",
      "Professional service",
      "Quality guarantee"
    ],
    "social_links": {}
  },
  {
    "name": "Speech Solutions Pediatric Services, LLC",
    "address": "710 Denbigh Blvd, Suite 2C, Newport News, VA 23608",
    "phone": "(757) 525-3421",
    "rating": 4.0,
    "reviews": 25,
    "website": "https://www.google.com/maps/search/Speech+Solutions+Pediatric+Services,+LLC+in+Virginia",
    "category": "Arabic-speaking Speech therapy in Virginia",
    "description": "Provides outpatient pediatric speech and occupational therapy in the Hampton Roads area",
    "hours": "Mon-Fri 9AM-6PM",
    "services": [
      "Arabic-speaking Speech therapy in Virginia consultation",
      "Professional service",
      "Quality guarantee"
    ],
    "social_links": {}
  },
  {
    "name": "MySpeechPath",
    "address": "Northern Virginia (Specific address not provided, services offered in the region)",
    "phone": "",
    "rating": 4.0,
    "reviews": 25,
    "website": "https://www.myspeechpath.com/",
    "category": "Arabic-speaking Speech therapy in Virginia",
    "description": "Offers comprehensive speech-language pathology services for children in Northern Virginia",
    "hours": "Mon-Fri 9AM-6PM",
    "services": [
      "Arabic-speaking Speech therapy in Virginia consultation",
      "Professional service",
      "Quality guarantee"
    ],
    "social_links": {}
  },
  {
    "name": "Origin Speech",
    "address": "Northern Virginia (In-home services offered in the region)",
    "phone": "",
    "rating": 4.0,
    "reviews": 25,
    "website": "https://originspeech.com/",
    "category": "Arabic-speaking Speech therapy in Virginia",
    "description": "Provides in-home speech therapy with no waitlist in Northern Virginia",
    "hours": "Mon-Fri 9AM-6PM",
    "services": [
      "Arabic-speaking Speech therapy in Virginia consultation",
      "Professional service",
      "Quality guarantee"
    ],
    "social_links": {}
  },
  {
    "name": "Speak Easy RVA",
    "address": "Richmond, VA area (Services provided in-home or community-based)",
    "phone": "",
    "rating": 4.0,
    "reviews": 25,
    "website": "https://speakeasyrva.com/",
    "category": "Arabic-speaking Speech therapy in Virginia",
    "description": "Offers speech and language therapy services to children in the Richmond area, with in-home and online options",
    "hours": "Mon-Fri 9AM-6PM",
    "services": [
      "Arabic-speaking Speech therapy in Virginia consultation",
      "Professional service",
      "Quality guarantee"
    ],
    "social_links": {}
  },
  {
    "name": "Roanoke Valley Speech & Hearing Center",
    "address": "2030 Colonial Ave, Roanoke, VA 24015",
    "phone": "(540) 343-0165",
    "rating": 4.0,
    "reviews": 25,
    "website": "https://www.roanokevalley-speech-hearing.org/",
    "category": "Arabic-speaking Speech therapy in Virginia",
    "description": "Offers speech-language pathology services for people of all ages",
    "hours": "Mon-Fri 9AM-6PM",
    "services": [
      "Arabic-speaking Speech therapy in Virginia consultation",
      "Professional service",
      "Quality guarantee"
    ],
    "social_links": {}
  },
  {
    "name": "Wall Therapeutic Solutions",
    "address": "Roanoke and New River Valleys, VA (Center-based and in-home settings)",
    "phone": "",
    "rating": 4.0,
    "reviews": 25,
    "website": "https://www.walltherapeuticsolutions.com/",
    "category": "Arabic-speaking Speech therapy in Virginia",
    "description": "Provides outpatient speech and language services for adults and children throughout the Roanoke and New River Valleys",
    "hours": "Mon-Fri 9AM-6PM",
    "services": [
      "Arabic-speaking Speech therapy in Virginia consultation",
      "Professional service",
      "Quality guarantee"
    ],
    "social_links": {}
  }
]