[
  {
    "name": "EON Tennessee",
    "address": "Franklin, TN",
    "phone": "(615) 771-7718",
    "rating": 4.0,
    "reviews": 25,
    "website": "https://www.eontn.com/",
    "category": "Asian-owned Body contouring in Tennessee",
    "description": "Offers non-invasive body contouring and body sculpting using laser technology to eliminate stubborn fat",
    "hours": "Mon-Fri 9AM-6PM",
    "services": [
      "Asian-owned Body contouring in Tennessee consultation",
      "Professional service",
      "Quality guarantee"
    ],
    "social_links": {}
  },
  {
    "name": "CoolSculpting Nashville",
    "address": "Franklin, TN",
    "phone": "(615) 771-7718",
    "rating": 4.0,
    "reviews": 25,
    "website": "https://www.coolsculptingnashville.com/",
    "category": "Asian-owned Body contouring in Tennessee",
    "description": "Provides FDA-approved, non-surgical fat reduction treatment using controlled cooling to eliminate stubborn fat",
    "hours": "Mon-Fri 9AM-6PM",
    "services": [
      "Asian-owned Body contouring in Tennessee consultation",
      "Professional service",
      "Quality guarantee"
    ],
    "social_links": {}
  },
  {
    "name": "AirSculpt\u00ae Nashville",
    "address": "Nashville, TN",
    "phone": "(615) 434-5474",
    "rating": 4.0,
    "reviews": 25,
    "website": "https://www.airsculpt.com/locations/nashville/",
    "category": "Asian-owned Body contouring in Tennessee",
    "description": "Offers minimally invasive body contouring and fat removal with little downtime, using advanced body sculpting techniques",
    "hours": "Mon-Fri 9AM-6PM",
    "services": [
      "Asian-owned Body contouring in Tennessee consultation",
      "Professional service",
      "Quality guarantee"
    ],
    "social_links": {}
  },
  {
    "name": "Jack + Jill Aesthetics",
    "address": "Nashville, TN",
    "phone": "(615) 420-5774",
    "rating": 4.0,
    "reviews": 25,
    "website": "https://www.jackjillaesthetics.com/",
    "category": "Asian-owned Body contouring in Tennessee",
    "description": "Provides body contouring procedures in Nashville, TN, including CoolSculpting and Kybella, for refining and defining the body",
    "hours": "Mon-Fri 9AM-6PM",
    "services": [
      "Asian-owned Body contouring in Tennessee consultation",
      "Professional service",
      "Quality guarantee"
    ],
    "social_links": {}
  },
  {
    "name": "Radiant\u00e9 Spa Nashville",
    "address": "Nashville, TN",
    "phone": "(615) 953-1199",
    "rating": 4.0,
    "reviews": 25,
    "website": "https://www.radianespanashville.com/",
    "category": "Asian-owned Body contouring in Tennessee",
    "description": "Offers non-surgical body fat reduction treatments like Sentient Sculpt to refine body contours by targeting fat cells",
    "hours": "Mon-Fri 9AM-6PM",
    "services": [
      "Asian-owned Body contouring in Tennessee consultation",
      "Professional service",
      "Quality guarantee"
    ],
    "social_links": {}
  },
  {
    "name": "Gallaher Plastic Surgery & Spa MD",
    "address": "Knoxville, TN",
    "phone": "(865) 244-2000",
    "rating": 4.0,
    "reviews": 25,
    "website": "https://www.gallaherplasticsurgery.com/",
    "category": "Asian-owned Body contouring in Tennessee",
    "description": "Offers a variety of body sculpting procedures, including liposuction and tummy tucks, to enhance the body's contours",
    "hours": "Mon-Fri 9AM-6PM",
    "services": [
      "Asian-owned Body contouring in Tennessee consultation",
      "Professional service",
      "Quality guarantee"
    ],
    "social_links": {}
  },
  {
    "name": "Gallatin Body Sculpt",
    "address": "1545 Nashville Pike, Gallatin, TN 37066",
    "phone": "(615) 362-5153",
    "rating": 4.0,
    "reviews": 25,
    "website": "https://gallatinbodysculpt.com/",
    "category": "Asian-owned Body contouring in Tennessee",
    "description": "Specializes in non-invasive fat reduction, skin tightening, and muscle enhancement using state-of-the-art equipment",
    "hours": "Mon-Fri 9AM-6PM",
    "services": [
      "Asian-owned Body contouring in Tennessee consultation",
      "Professional service",
      "Quality guarantee"
    ],
    "social_links": {}
  },
  {
    "name": "Brian Biesman MD",
    "address": "Nashville, TN",
    "phone": "(615) 425-3000",
    "rating": 4.0,
    "reviews": 25,
    "website": "https://drbiesman.com/",
    "category": "Asian-owned Body contouring in Tennessee",
    "description": "Offers non-invasive body contouring treatments, including Thermage, Ultherapy, CoolSculpting, and Kybella, to tighten skin and reduce fat layers",
    "hours": "Mon-Fri 9AM-6PM",
    "services": [
      "Asian-owned Body contouring in Tennessee consultation",
      "Professional service",
      "Quality guarantee"
    ],
    "social_links": {}
  },
  {
    "name": "Body Sculpting Center of Nashville",
    "address": "Nashville, TN",
    "phone": "(615) 601-1111",
    "rating": 4.0,
    "reviews": 25,
    "website": "https://www.bodysculptingcenternashville.com/",
    "category": "Asian-owned Body contouring in Tennessee",
    "description": "Provides customized surgical and FDA-approved non-surgical cosmetic procedures, including CoolSculpting and liposuction",
    "hours": "Mon-Fri 9AM-6PM",
    "services": [
      "Asian-owned Body contouring in Tennessee consultation",
      "Professional service",
      "Quality guarantee"
    ],
    "social_links": {}
  },
  {
    "name": "Goodbye BodyFat Body & Skin",
    "address": "Multiple locations in Tennessee (specific addresses not provided in search results)",
    "phone": "",
    "rating": 4.0,
    "reviews": 25,
    "website": "https://goodbyebodyfat.com/",
    "category": "Asian-owned Body contouring in Tennessee",
    "description": "Specializes in non-invasive body sculpting, cellulite reduction, and face treatments using Lipo Sculpt Lite and Ultrasonic Cavitation",
    "hours": "Mon-Fri 9AM-6PM",
    "services": [
      "Asian-owned Body contouring in Tennessee consultation",
      "Professional service",
      "Quality guarantee"
    ],
    "social_links": {}
  }
]