[
  {
    "name": "Mint Pest Control",
    "address": "5602 Elmwood Ave Ste #120, Indianapolis, Indiana 46203",
    "phone": "(317) 743-5752",
    "rating": 4.5,
    "reviews": 25,
    "website": "https://www.mintpestcontrol.com/",
    "category": "Baby-Boomer-owned Ant control in Indiana",
    "description": "Offers eco-friendly and effective pest solutions for over 60 types of pests, including ants, with a 100% reservice guarantee",
    "hours": "Mon-Fri 9AM-6PM",
    "services": [
      "Baby-Boomer-owned Ant control in Indiana consultation",
      "Professional service",
      "Quality guarantee"
    ],
    "social_links": {}
  },
  {
    "name": "Action Pest Control",
    "address": "Multiple locations including 1117 Indiana 162 Jasper, IN, 47546",
    "phone": "930-900-2312",
    "rating": 4.8,
    "reviews": 25,
    "website": "https://actionpestcontrol.net/",
    "category": "Baby-Boomer-owned Ant control in Indiana",
    "description": "Provides comprehensive pest management for commercial, industrial, and residential clients, with a focus on effective ant control",
    "hours": "Mon-Fri 9AM-6PM",
    "services": [
      "Baby-Boomer-owned Ant control in Indiana consultation",
      "Professional service",
      "Quality guarantee"
    ],
    "social_links": {}
  },
  {
    "name": "Blue Duck Lawn Care",
    "address": "Serves Indianapolis and the greater metro area",
    "phone": "(317) 748-3153",
    "rating": 4.8,
    "reviews": 25,
    "website": "https://www.blueducklawncare.com/",
    "category": "Baby-Boomer-owned Ant control in Indiana",
    "description": "Offers ant control services by creating a chemical barrier around homes, also deterring other pests like spiders and crickets",
    "hours": "Mon-Fri 9AM-6PM",
    "services": [
      "Baby-Boomer-owned Ant control in Indiana consultation",
      "Professional service",
      "Quality guarantee"
    ],
    "social_links": {}
  },
  {
    "name": "Orkin Pest Control",
    "address": "Multiple locations including Branch 576 in Indianapolis, IN",
    "phone": "(317) 743-5752 (general inquiry number, specific branch numbers may vary)",
    "rating": 2.7,
    "reviews": 25,
    "website": "https://www.orkin.com/locations/indiana/indianapolis",
    "category": "Baby-Boomer-owned Ant control in Indiana",
    "description": "Provides pest control services for a wide range of pests, including ants, with a focus on integrated pest management",
    "hours": "Mon-Fri 9AM-6PM",
    "services": [
      "Baby-Boomer-owned Ant control in Indiana consultation",
      "Professional service",
      "Quality guarantee"
    ],
    "social_links": {}
  },
  {
    "name": "Hawx Pest Control",
    "address": "Multiple locations, with services in Indianapolis, IN",
    "phone": "(855) 777-4299 (general contact)",
    "rating": 2.7,
    "reviews": 25,
    "website": "https://www.hawxpestcontrol.com/",
    "category": "Baby-Boomer-owned Ant control in Indiana",
    "description": "Offers customized pest management programs and experienced staff for ant control and other pest issues",
    "hours": "Mon-Fri 9AM-6PM",
    "services": [
      "Baby-Boomer-owned Ant control in Indiana consultation",
      "Professional service",
      "Quality guarantee"
    ],
    "social_links": {}
  },
  {
    "name": "Freedom Pest Control, LLC",
    "address": "Serves Fishers, IN and surrounding areas",
    "phone": "(317) 748-3153 (This appears to be the same number as Blue Duck Lawn Care, suggesting a potential affiliation or error in search results. For Freedom Pest Control, a direct contact number would be ideal if available.)",
    "rating": 4.9,
    "reviews": 25,
    "website": "https://freedom-pest-control.com/",
    "category": "Baby-Boomer-owned Ant control in Indiana",
    "description": "Specializes in general pest management, including ants, with a strong focus on customer service and knowledgeable technicians",
    "hours": "Mon-Fri 9AM-6PM",
    "services": [
      "Baby-Boomer-owned Ant control in Indiana consultation",
      "Professional service",
      "Quality guarantee"
    ],
    "social_links": {}
  },
  {
    "name": "Greenix Pest Control",
    "address": "Serves Indianapolis and surrounding communities",
    "phone": "(855) 977-0707",
    "rating": 4.0,
    "reviews": 25,
    "website": "https://www.greenixpc.com/locations/indianapolis/",
    "category": "Baby-Boomer-owned Ant control in Indiana",
    "description": "Provides sustainable pest control solutions for over 50 common household pests, including ants, with a five-step process to eliminate and prevent infestations",
    "hours": "Mon-Fri 9AM-6PM",
    "services": [
      "Baby-Boomer-owned Ant control in Indiana consultation",
      "Professional service",
      "Quality guarantee"
    ],
    "social_links": {}
  },
  {
    "name": "Franklin Pest Solutions",
    "address": "Serves Hammond and Northwest Indiana, with a long history in the region",
    "phone": "(219) 932-9100",
    "rating": 4.0,
    "reviews": 25,
    "website": "https://www.franklinpestsolutions.com/",
    "category": "Baby-Boomer-owned Ant control in Indiana",
    "description": "A family-owned business with nearly a century of experience offering pest management solutions, including ant control, that are safe for families and the environment",
    "hours": "Mon-Fri 9AM-6PM",
    "services": [
      "Baby-Boomer-owned Ant control in Indiana consultation",
      "Professional service",
      "Quality guarantee"
    ],
    "social_links": {}
  },
  {
    "name": "Green Works Pest Control",
    "address": "Serves Westfield, IN and greater Hamilton County",
    "phone": "(317) 678-0349",
    "rating": 4.0,
    "reviews": 25,
    "website": "https://www.greenworkspestcontrol.com/",
    "category": "Baby-Boomer-owned Ant control in Indiana",
    "description": "Specializes in the eradication of ants, spiders, and mosquitoes, offering personalized service as a family-owned business founded in 1997",
    "hours": "Mon-Fri 9AM-6PM",
    "services": [
      "Baby-Boomer-owned Ant control in Indiana consultation",
      "Professional service",
      "Quality guarantee"
    ],
    "social_links": {}
  },
  {
    "name": "Trio Pest Control",
    "address": "3158 E Thompson Rd, Indianapolis, IN 46227",
    "phone": "(317) 676-4500",
    "rating": 4.0,
    "reviews": 25,
    "website": "https://www.triopestcontrol.com/",
    "category": "Baby-Boomer-owned Ant control in Indiana",
    "description": "A family-owned and operated company providing general pest control services for homes and businesses in Indianapolis and surrounding areas, with over 20 years of experience",
    "hours": "Mon-Fri 9AM-6PM",
    "services": [
      "Baby-Boomer-owned Ant control in Indiana consultation",
      "Professional service",
      "Quality guarantee"
    ],
    "social_links": {}
  }
]