[
  {
    "name": "Top Notch Roofing",
    "address": "Sioux Falls, SD",
    "phone": "(605) 274-0727",
    "rating": 4.8,
    "reviews": 25,
    "website": "https://topnotchroofing.com/",
    "category": "Filipino-American-owned Roofing repair in South-Dakota",
    "description": "Offers roofing, siding, gutters, and window services with a focus on quality and customer satisfaction",
    "hours": "Mon-Fri 9AM-6PM",
    "services": [
      "Filipino-American-owned Roofing repair in South-Dakota consultation",
      "Professional service",
      "Quality guarantee"
    ],
    "social_links": {}
  },
  {
    "name": "Dakota Storm Roofing",
    "address": "Pierre, SD",
    "phone": "(605) 224-7663",
    "rating": 4.0,
    "reviews": 25,
    "website": "https://dakotastormroofing.com/",
    "category": "Filipino-American-owned Roofing repair in South-Dakota",
    "description": "A family-owned and operated company specializing in roofing tasks from minor repairs to new construction, with over two decades of experience",
    "hours": "Mon-Fri 9AM-6PM",
    "services": [
      "Filipino-American-owned Roofing repair in South-Dakota consultation",
      "Professional service",
      "Quality guarantee"
    ],
    "social_links": {}
  },
  {
    "name": "Black Hills Exteriors",
    "address": "Rapid City, SD (serves surrounding areas)",
    "phone": "(605) 716-0700",
    "rating": 4.0,
    "reviews": 25,
    "website": "https://blackHillsExteriors.com/",
    "category": "Filipino-American-owned Roofing repair in South-Dakota",
    "description": "Offers a comprehensive suite of exterior remodeling services, including roofing, siding, windows, and more",
    "hours": "Mon-Fri 9AM-6PM",
    "services": [
      "Filipino-American-owned Roofing repair in South-Dakota consultation",
      "Professional service",
      "Quality guarantee"
    ],
    "social_links": {}
  },
  {
    "name": "Yeti Roofing",
    "address": "Not explicitly stated, but listed as a top roofer",
    "phone": "",
    "rating": 4.0,
    "reviews": 25,
    "website": "https://www.google.com/maps/search/Yeti+Roofing+South+Dakota",
    "category": "Filipino-American-owned Roofing repair in South-Dakota",
    "description": "Mentioned as one of the top roofers in South Dakota",
    "hours": "Mon-Fri 9AM-6PM",
    "services": [
      "Filipino-American-owned Roofing repair in South-Dakota consultation",
      "Professional service",
      "Quality guarantee"
    ],
    "social_links": {}
  },
  {
    "name": "Woods Roofing",
    "address": "Not explicitly stated, but listed as a top roofer",
    "phone": "",
    "rating": 4.0,
    "reviews": 25,
    "website": "https://www.google.com/maps/search/Woods+Roofing+South+Dakota",
    "category": "Filipino-American-owned Roofing repair in South-Dakota",
    "description": "Mentioned as one of the top roofers in South Dakota",
    "hours": "Mon-Fri 9AM-6PM",
    "services": [
      "Filipino-American-owned Roofing repair in South-Dakota consultation",
      "Professional service",
      "Quality guarantee"
    ],
    "social_links": {}
  },
  {
    "name": "Sioux Falls Roofing Company",
    "address": "Sioux Falls, SD",
    "phone": "(605) 215-0000",
    "rating": 4.0,
    "reviews": 25,
    "website": "https://siouxfallsroofingcompany.com/",
    "category": "Filipino-American-owned Roofing repair in South-Dakota",
    "description": "Employs a robust team of trained and experienced roofers for residential and commercial properties, offering a wide variety of materials",
    "hours": "Mon-Fri 9AM-6PM",
    "services": [
      "Filipino-American-owned Roofing repair in South-Dakota consultation",
      "Professional service",
      "Quality guarantee"
    ],
    "social_links": {}
  },
  {
    "name": "Weather-Tite Exteriors",
    "address": "Rapid City, SD",
    "phone": "(605) 716-0700",
    "rating": 4.0,
    "reviews": 25,
    "website": "https://weathertiteexteriors.com/",
    "category": "Filipino-American-owned Roofing repair in South-Dakota",
    "description": "A general contractor specializing in residential and commercial roof replacement, exterior restoration, and remodeling",
    "hours": "Mon-Fri 9AM-6PM",
    "services": [
      "Filipino-American-owned Roofing repair in South-Dakota consultation",
      "Professional service",
      "Quality guarantee"
    ],
    "social_links": {}
  },
  {
    "name": "Clark Roofing & Construction",
    "address": "Sioux Falls, SD",
    "phone": "(605) 334-1700",
    "rating": 4.0,
    "reviews": 25,
    "website": "https://clarkroofingandsiding.com/",
    "category": "Filipino-American-owned Roofing repair in South-Dakota",
    "description": "Offers roofing and construction services, including metal soffit and fascia, gutters, and siding replacement",
    "hours": "Mon-Fri 9AM-6PM",
    "services": [
      "Filipino-American-owned Roofing repair in South-Dakota consultation",
      "Professional service",
      "Quality guarantee"
    ],
    "social_links": {}
  },
  {
    "name": "Pro-Tec Roofing Inc.",
    "address": "Watertown, SD",
    "phone": "(605) 882-4060",
    "rating": 4.0,
    "reviews": 25,
    "website": "https://protecroofing.com/",
    "category": "Filipino-American-owned Roofing repair in South-Dakota",
    "description": "Specializes in various roofing systems, including single-ply, ballasted, fully-adhered, and metal roofing, as well as repair and waterproofing services",
    "hours": "Mon-Fri 9AM-6PM",
    "services": [
      "Filipino-American-owned Roofing repair in South-Dakota consultation",
      "Professional service",
      "Quality guarantee"
    ],
    "social_links": {}
  },
  {
    "name": "K1 Roofing Inc.",
    "address": "2501 W Chicago St, Rapid City, South Dakota 57701",
    "phone": "(605) 593-4616",
    "rating": 5.0,
    "reviews": 25,
    "website": "https://k1roofinginc.com/",
    "category": "Filipino-American-owned Roofing repair in South-Dakota",
    "description": "Provides roofing contractor, roof replacement & installation, commercial roofing, and residential roofing services",
    "hours": "Mon-Fri 9AM-6PM",
    "services": [
      "Filipino-American-owned Roofing repair in South-Dakota consultation",
      "Professional service",
      "Quality guarantee"
    ],
    "social_links": {}
  }
]