[
  {
    "name": "Tucson Jewish Community Center (Tucson J)",
    "address": "3800 E River Road, Tucson, AZ 85718",
    "phone": "(520) 299-3000",
    "rating": 4.0,
    "reviews": 25,
    "website": "https://tucsonjcc.org/",
    "category": "Jewish-owned After school care in Arizona",
    "description": "Offers \"JCare\" for grades K-5 and \"JClub\" for grades 6-8, with various activities, homework help, and transportation options",
    "hours": "Mon-Fri 9AM-6PM",
    "services": [
      "Jewish-owned After school care in Arizona consultation",
      "Professional service",
      "Quality guarantee"
    ],
    "social_links": {}
  },
  {
    "name": "Valley of the Sun Jewish Community Center (The J)",
    "address": "12701 N Scottsdale Road, Scottsdale, AZ 85254",
    "phone": "(480) 483-7121",
    "rating": 4.0,
    "reviews": 25,
    "website": "https://www.vosjcc.org/",
    "category": "Jewish-owned After school care in Arizona",
    "description": "Provides \"Club J\" for after-school, early dismissals, and school breaks for children in K-5, with activities like games, arts and crafts, and a ninja course. They also offer \"Before & After Care\" for specific elementary schools",
    "hours": "Mon-Fri 9AM-6PM",
    "services": [
      "Jewish-owned After school care in Arizona consultation",
      "Professional service",
      "Quality guarantee"
    ],
    "social_links": {}
  },
  {
    "name": "East Valley JCC",
    "address": "908 N Alma School Road, Chandler, AZ 85226",
    "phone": "(480) 897-0588",
    "rating": 4.0,
    "reviews": 25,
    "website": "https://www.evjcc.org/",
    "category": "Jewish-owned After school care in Arizona",
    "description": "Offers \"J Care\" for grades K-7 with transportation from area schools, including homework club, cooking, Israeli culture, and sports",
    "hours": "Mon-Fri 9AM-6PM",
    "services": [
      "Jewish-owned After school care in Arizona consultation",
      "Professional service",
      "Quality guarantee"
    ],
    "social_links": {}
  },
  {
    "name": "Tucson Hebrew Academy",
    "address": "3800 E River Road, Tucson, AZ 85718 (Note: This address is also listed for the Tucson JCC, suggesting a close proximity or shared campus.)",
    "phone": "(520) 591-7680 (for Esther Becker, regarding children's education)",
    "rating": 4.0,
    "reviews": 25,
    "website": "https://www.thaaz.org/",
    "category": "Jewish-owned After school care in Arizona",
    "description": "Offers before-care (starting at 7 am) and after-care (until 4:45 pm) at no additional charge to school families for grades K-5",
    "hours": "Mon-Fri 9AM-6PM",
    "services": [
      "Jewish-owned After school care in Arizona consultation",
      "Professional service",
      "Quality guarantee"
    ],
    "social_links": {}
  },
  {
    "name": "Pardes Jewish Day School",
    "address": "4647 E. Shea Blvd, Phoenix, AZ 85028 (This address is for the Ina Levine Jewish Community Campus, where Pardes is located.)",
    "phone": "(480) 634-8050",
    "rating": 4.0,
    "reviews": 25,
    "website": "https://www.pardesaz.org/",
    "category": "Jewish-owned After school care in Arizona",
    "description": "While not a direct after-school care provider, Pardes partners with the JCC, meaning their students have access to \"Club J\" for structured after-school programming",
    "hours": "Mon-Fri 9AM-6PM",
    "services": [
      "Jewish-owned After school care in Arizona consultation",
      "Professional service",
      "Quality guarantee"
    ],
    "social_links": {}
  },
  {
    "name": "Chabad Hebrew School (Glendale)",
    "address": "(Specific address not readily available, but serves Glendale and Foothill Communities)",
    "phone": "(818) 722-0240 (general Chabad number, may vary)",
    "rating": 4.0,
    "reviews": 25,
    "website": "https://www.chabadglendale.org/",
    "category": "Jewish-owned After school care in Arizona",
    "description": "Offers Hebrew School programs which may include after-school components or activities for children aged 5-13",
    "hours": "Mon-Fri 9AM-6PM",
    "services": [
      "Jewish-owned After school care in Arizona consultation",
      "Professional service",
      "Quality guarantee"
    ],
    "social_links": {}
  },
  {
    "name": "Chabad of Scottsdale",
    "address": "(Specific address not readily available, but serves Scottsdale)",
    "phone": "(480) 998-1410",
    "rating": 4.0,
    "reviews": 25,
    "website": "https://www.chabadofscottsdale.org/",
    "category": "Jewish-owned After school care in Arizona",
    "description": "Offers Hebrew School and teen programs, which may include after-school activities",
    "hours": "Mon-Fri 9AM-6PM",
    "services": [
      "Jewish-owned After school care in Arizona consultation",
      "Professional service",
      "Quality guarantee"
    ],
    "social_links": {}
  },
  {
    "name": "Chabad of the East Valley (Chandler)",
    "address": "(Specific address not readily available, but serves Chandler)",
    "phone": "(480) 855-4333",
    "rating": 4.0,
    "reviews": 25,
    "website": "https://www.chabadcenter.com/",
    "category": "Jewish-owned After school care in Arizona",
    "description": "Offers Hebrew School and a preschool program, which may have after-school care options",
    "hours": "Mon-Fri 9AM-6PM",
    "services": [
      "Jewish-owned After school care in Arizona consultation",
      "Professional service",
      "Quality guarantee"
    ],
    "social_links": {}
  },
  {
    "name": "Chabad Jewish Center of Mesa",
    "address": "941 S Maple, Mesa, AZ 85206",
    "phone": "(480) 659-7001",
    "rating": 4.0,
    "reviews": 25,
    "website": "https://www.chabadmesa.com/",
    "category": "Jewish-owned After school care in Arizona",
    "description": "Offers youth programs including Hebrew School and Kids Club, which may function as after-school care",
    "hours": "Mon-Fri 9AM-6PM",
    "services": [
      "Jewish-owned After school care in Arizona consultation",
      "Professional service",
      "Quality guarantee"
    ],
    "social_links": {}
  },
  {
    "name": "Jewish Family & Children's Service (JFCS)",
    "address": "4747 North 7th Street Suite 100, Phoenix, AZ 85014",
    "phone": "(602) 256-0528",
    "rating": 4.0,
    "reviews": 25,
    "website": "https://www.jfcsaz.org/",
    "category": "Jewish-owned After school care in Arizona",
    "description": "While primarily a social services organization, JFCS offers programs that may include educational and youth support services, and they serve the Jewish community. They also have a West Valley Healthcare Center with \"After-School / Community Activities.\"",
    "hours": "Mon-Fri 9AM-6PM",
    "services": [
      "Jewish-owned After school care in Arizona consultation",
      "Professional service",
      "Quality guarantee"
    ],
    "social_links": {}
  }
]