[
  {
    "name": "Reddy Urgent Care",
    "address": "Multiple locations in Athens, GA. (Specific addresses vary by location)",
    "phone": "(706) 621-7555",
    "rating": 4.0,
    "reviews": 25,
    "website": "https://www.reddyurgentcare.com/",
    "category": "Arabic-speaking Urgent care centers in Georgia",
    "description": "Offers urgent care services for a wide range of illnesses and injuries",
    "hours": "Mon-Fri 9AM-6PM",
    "services": [
      "Arabic-speaking Urgent care centers in Georgia consultation",
      "Professional service",
      "Quality guarantee"
    ],
    "social_links": {}
  },
  {
    "name": "MainStreet Family Care",
    "address": "Multiple locations in Athens, Augusta, Cairo, and Columbus, GA. (Specific addresses vary by location)",
    "phone": "Varies by location (e.g., Athens: (706) 354-3278)",
    "rating": 4.0,
    "reviews": 25,
    "website": "https://www.mainstreetfamilycare.com/",
    "category": "Arabic-speaking Urgent care centers in Georgia",
    "description": "Provides urgent care and primary care services",
    "hours": "Mon-Fri 9AM-6PM",
    "services": [
      "Arabic-speaking Urgent care centers in Georgia consultation",
      "Professional service",
      "Quality guarantee"
    ],
    "social_links": {}
  },
  {
    "name": "Wellstar Urgent Care",
    "address": "Multiple locations in Atlanta and Augusta, GA. (Specific addresses vary by location)",
    "phone": "Varies by location (e.g., Atlanta: (404) 996-0195)",
    "rating": 4.0,
    "reviews": 25,
    "website": "https://www.wellstar.org/locations/urgent-care",
    "category": "Arabic-speaking Urgent care centers in Georgia",
    "description": "Offers convenient urgent care services for minor illnesses and injuries",
    "hours": "Mon-Fri 9AM-6PM",
    "services": [
      "Arabic-speaking Urgent care centers in Georgia consultation",
      "Professional service",
      "Quality guarantee"
    ],
    "social_links": {}
  },
  {
    "name": "Piedmont Urgent Care",
    "address": "Multiple locations in Sandy Springs, Johns Creek, Macon, Columbus, and other areas of Georgia. (Specific addresses vary by location)",
    "phone": "Varies by location (e.g., Sandy Springs: (404) 996-0195)",
    "rating": 4.0,
    "reviews": 25,
    "website": "https://www.piedmont.org/locations/urgent-care",
    "category": "Arabic-speaking Urgent care centers in Georgia",
    "description": "Provides urgent care services with extended hours and walk-in appointments",
    "hours": "Mon-Fri 9AM-6PM",
    "services": [
      "Arabic-speaking Urgent care centers in Georgia consultation",
      "Professional service",
      "Quality guarantee"
    ],
    "social_links": {}
  },
  {
    "name": "Northside Urgent Care",
    "address": "Multiple locations in Roswell, GA. (Specific addresses vary by location)",
    "phone": "Varies by location (e.g., Roswell: (770) 619-3860)",
    "rating": 4.0,
    "reviews": 25,
    "website": "https://www.northside.com/urgent-care",
    "category": "Arabic-speaking Urgent care centers in Georgia",
    "description": "Offers walk-in medical care for minor injuries and illnesses",
    "hours": "Mon-Fri 9AM-6PM",
    "services": [
      "Arabic-speaking Urgent care centers in Georgia consultation",
      "Professional service",
      "Quality guarantee"
    ],
    "social_links": {}
  },
  {
    "name": "ExperCARE Health",
    "address": "Downtown Savannah, GA",
    "phone": "(912) 777-6161",
    "rating": 4.0,
    "reviews": 25,
    "website": "https://www.expercarehealth.com/",
    "category": "Arabic-speaking Urgent care centers in Georgia",
    "description": "Provides urgent care, primary care, and occupational medicine services",
    "hours": "Mon-Fri 9AM-6PM",
    "services": [
      "Arabic-speaking Urgent care centers in Georgia consultation",
      "Professional service",
      "Quality guarantee"
    ],
    "social_links": {}
  },
  {
    "name": "Concentra",
    "address": "Multiple locations including Johns Creek and Sandy Springs, GA. (Specific addresses vary by location)",
    "phone": "Varies by location (e.g., Johns Creek: (770) 441-0444)",
    "rating": 4.0,
    "reviews": 25,
    "website": "https://www.concentra.com/locations/johns-creek-ga",
    "category": "Arabic-speaking Urgent care centers in Georgia",
    "description": "Offers occupational health, urgent care, and physical therapy services",
    "hours": "Mon-Fri 9AM-6PM",
    "services": [
      "Arabic-speaking Urgent care centers in Georgia consultation",
      "Professional service",
      "Quality guarantee"
    ],
    "social_links": {}
  },
  {
    "name": "Peachtree Immediate Care",
    "address": "Multiple locations including Roswell and Johns Creek, GA. (Specific addresses vary by location)",
    "phone": "Varies by location (e.g., Roswell: (770) 510-1850)",
    "rating": 4.0,
    "reviews": 25,
    "website": "https://www.peachtreemed.com/locations/",
    "category": "Arabic-speaking Urgent care centers in Georgia",
    "description": "Provides urgent care services with extended hours",
    "hours": "Mon-Fri 9AM-6PM",
    "services": [
      "Arabic-speaking Urgent care centers in Georgia consultation",
      "Professional service",
      "Quality guarantee"
    ],
    "social_links": {}
  },
  {
    "name": "MedNow Urgent Care",
    "address": "Multiple locations in Augusta, GA. (Specific addresses vary by location)",
    "phone": "(706) 760-7607",
    "rating": 4.0,
    "reviews": 25,
    "website": "https://www.mednowurgentcare.com/",
    "category": "Arabic-speaking Urgent care centers in Georgia",
    "description": "Offers urgent care services with evening and weekend hours",
    "hours": "Mon-Fri 9AM-6PM",
    "services": [
      "Arabic-speaking Urgent care centers in Georgia consultation",
      "Professional service",
      "Quality guarantee"
    ],
    "social_links": {}
  },
  {
    "name": "Urgent Care of Oconee",
    "address": "Multiple locations including Athens, GA. (Specific addresses vary by location)",
    "phone": "(706) 567-6151 (Athens)",
    "rating": 4.0,
    "reviews": 25,
    "website": "https://www.urgentcareofoconee.com/",
    "category": "Arabic-speaking Urgent care centers in Georgia",
    "description": "Provides convenient and reliable healthcare services for immediate needs",
    "hours": "Mon-Fri 9AM-6PM",
    "services": [
      "Arabic-speaking Urgent care centers in Georgia consultation",
      "Professional service",
      "Quality guarantee"
    ],
    "social_links": {}
  }
]