[
  {
    "name": "TWO MEN AND A TRUCK",
    "address": "2601 104th St #400, Urbandale, IA 50322",
    "phone": "(515) 249-5000",
    "rating": 4.78,
    "reviews": 25,
    "website": "https://www.twomenandatruck.com/mover/des-moines-ia",
    "category": "Baby-Boomer-owned Local moving in Iowa",
    "description": "Offers a range of services including full-service moves, interstate moving capabilities, and unpacking services. They also cater to unique needs with services like junk removal, debris removal, and piano moving",
    "hours": "Mon-Fri 9AM-6PM",
    "services": [
      "Baby-Boomer-owned Local moving in Iowa consultation",
      "Professional service",
      "Quality guarantee"
    ],
    "social_links": {}
  },
  {
    "name": "Key City Moving & Storage",
    "address": "4100 N Gate Dr, Peosta, IA 52066",
    "phone": "(563) 556-2000",
    "rating": 4.62,
    "reviews": 25,
    "website": "https://keycitymoving.com/",
    "category": "Baby-Boomer-owned Local moving in Iowa",
    "description": "A trusted name in local residential moving services since 1910, offering comprehensive services including packing, unpacking, and specialized fragile-only packing. They do not require a deposit and accept cash and credit cards",
    "hours": "Mon-Fri 9AM-6PM",
    "services": [
      "Baby-Boomer-owned Local moving in Iowa consultation",
      "Professional service",
      "Quality guarantee"
    ],
    "social_links": {}
  },
  {
    "name": "White Glove Movers",
    "address": "1100 7th Ave, Marion, IA 52302",
    "phone": "(319) 373-0000",
    "rating": 4.58,
    "reviews": 25,
    "website": "https://www.whiteglove-movers.com/",
    "category": "Baby-Boomer-owned Local moving in Iowa",
    "description": "Provides reliable residential moving services, with comprehensive packing and unpacking services, and specialized capabilities to handle delicate items like pianos and art",
    "hours": "Mon-Fri 9AM-6PM",
    "services": [
      "Baby-Boomer-owned Local moving in Iowa consultation",
      "Professional service",
      "Quality guarantee"
    ],
    "social_links": {}
  },
  {
    "name": "Adamantine Spine Moving",
    "address": "Multiple locations including Iowa City, Cedar Rapids, and Des Moines. (Specific street address not readily available for all locations, but they serve these areas.)",
    "phone": "(319) 338-7000",
    "rating": 4.0,
    "reviews": 25,
    "website": "https://adamantinespinemoving.com/",
    "category": "Baby-Boomer-owned Local moving in Iowa",
    "description": "A local and long-distance moving company serving Iowa City, North Liberty, Cedar Rapids, Des Moines, and beyond. They emphasize integrity, customer satisfaction, and community support",
    "hours": "Mon-Fri 9AM-6PM",
    "services": [
      "Baby-Boomer-owned Local moving in Iowa consultation",
      "Professional service",
      "Quality guarantee"
    ],
    "social_links": {}
  },
  {
    "name": "We Move Iowa (Furniture Store Movers Iowa)",
    "address": "209 Harrison St, Burlington, IA 52601",
    "phone": "(319) 372-7313",
    "rating": 4.0,
    "reviews": 25,
    "website": "https://www.furniturestoremovers.com/",
    "category": "Baby-Boomer-owned Local moving in Iowa",
    "description": "Offers a full range of moving services for residential, apartment, commercial, and specialty moves. They have 35 years of experience and aim for 100% customer satisfaction",
    "hours": "Mon-Fri 9AM-6PM",
    "services": [
      "Baby-Boomer-owned Local moving in Iowa consultation",
      "Professional service",
      "Quality guarantee"
    ],
    "social_links": {}
  },
  {
    "name": "Claeys Brothers Moving & Storage Inc.",
    "address": "1000 1st Ave SW, Cedar Rapids, IA 52404",
    "phone": "(319) 365-1122",
    "rating": 4.62,
    "reviews": 25,
    "website": "https://claeysbrothers.com/",
    "category": "Baby-Boomer-owned Local moving in Iowa",
    "description": "Offers comprehensive services including full-service moves, interstate transportation, and climate-controlled storage options. They are experienced in handling delicate items like antiques and art",
    "hours": "Mon-Fri 9AM-6PM",
    "services": [
      "Baby-Boomer-owned Local moving in Iowa consultation",
      "Professional service",
      "Quality guarantee"
    ],
    "social_links": {}
  },
  {
    "name": "College Hunks Hauling Junk & Moving",
    "address": "Multiple locations in Iowa, including Des Moines. (Specific address for a single Iowa location not provided in search results, but they operate statewide.)",
    "phone": "1-800-555-4865 (General contact number)",
    "rating": 4.52,
    "reviews": 25,
    "website": "https://www.collegehunkshaulingjunk.com/",
    "category": "Baby-Boomer-owned Local moving in Iowa",
    "description": "Offers junk removal and moving services, with a focus on providing efficient and reliable service",
    "hours": "Mon-Fri 9AM-6PM",
    "services": [
      "Baby-Boomer-owned Local moving in Iowa consultation",
      "Professional service",
      "Quality guarantee"
    ],
    "social_links": {}
  },
  {
    "name": "International Van Lines",
    "address": "While a national company, they service all of Iowa. (No specific Iowa physical address listed.)",
    "phone": "1-877-757-0707",
    "rating": 4.0,
    "reviews": 25,
    "website": "https://www.internationalvanlines.com/",
    "category": "Baby-Boomer-owned Local moving in Iowa",
    "description": "A full-service moving company with extensive experience, offering local and long-distance moving services, as well as storage and vehicle shipping",
    "hours": "Mon-Fri 9AM-6PM",
    "services": [
      "Baby-Boomer-owned Local moving in Iowa consultation",
      "Professional service",
      "Quality guarantee"
    ],
    "social_links": {}
  },
  {
    "name": "American Van Lines",
    "address": "While a national company, they service all of Iowa. (No specific Iowa physical address listed.)",
    "phone": "1-877-590-2810",
    "rating": 4.0,
    "reviews": 25,
    "website": "https://www.americanvanlines.com/",
    "category": "Baby-Boomer-owned Local moving in Iowa",
    "description": "Known for their experienced moving labor and full-service moving capabilities, including specialized antique moving",
    "hours": "Mon-Fri 9AM-6PM",
    "services": [
      "Baby-Boomer-owned Local moving in Iowa consultation",
      "Professional service",
      "Quality guarantee"
    ],
    "social_links": {}
  },
  {
    "name": "Mayflower",
    "address": "Serves all of Iowa through its network of agents. (No single physical Iowa address provided.)",
    "phone": "1-844-594-0555",
    "rating": 4.0,
    "reviews": 25,
    "website": "https://www.mayflower.com/",
    "category": "Baby-Boomer-owned Local moving in Iowa",
    "description": "A nationally recognized moving company with nearly 100 years of experience, offering customizable local and long-distance moving services, including packing, unpacking, and storage",
    "hours": "Mon-Fri 9AM-6PM",
    "services": [
      "Baby-Boomer-owned Local moving in Iowa consultation",
      "Professional service",
      "Quality guarantee"
    ],
    "social_links": {}
  }
]