[
  {
    "name": "Adams Brown, Strategic Allies and CPAs",
    "address": "1000 Commerce St, Nashville, TN 37203",
    "phone": "(615) 256-4500",
    "rating": 4.0,
    "reviews": 25,
    "website": "https://adamsbrown.com/",
    "category": "Chinese-speaking Valuation services in Tennessee",
    "description": "Offers business valuation services to business owners and attorneys in Tennessee",
    "hours": "Mon-Fri 9AM-6PM",
    "services": [
      "Chinese-speaking Valuation services in Tennessee consultation",
      "Professional service",
      "Quality guarantee"
    ],
    "social_links": {}
  },
  {
    "name": "Brady Ware CPAs",
    "address": "530 Church St, Nashville, TN 37219",
    "phone": "(615) 255-1351",
    "rating": 4.0,
    "reviews": 25,
    "website": "https://www.bradyware.com/",
    "category": "Chinese-speaking Valuation services in Tennessee",
    "description": "Provides business valuation and appraisal services to attorneys and business owners in Nashville and across Tennessee",
    "hours": "Mon-Fri 9AM-6PM",
    "services": [
      "Chinese-speaking Valuation services in Tennessee consultation",
      "Professional service",
      "Quality guarantee"
    ],
    "social_links": {}
  },
  {
    "name": "Redwood Valuation Partners",
    "address": "(Serves Nashville, TN - specific office address not provided in search results)",
    "phone": "(206) 660-1295",
    "rating": 4.0,
    "reviews": 25,
    "website": "https://www.redwoodvaluation.com/",
    "category": "Chinese-speaking Valuation services in Tennessee",
    "description": "Offers business valuation and company appraisal services in Nashville, TN",
    "hours": "Mon-Fri 9AM-6PM",
    "services": [
      "Chinese-speaking Valuation services in Tennessee consultation",
      "Professional service",
      "Quality guarantee"
    ],
    "social_links": {}
  },
  {
    "name": "LBMC",
    "address": "3401 Mallory Ln, Brentwood, TN 37027",
    "phone": "(615) 377-4700",
    "rating": 4.0,
    "reviews": 25,
    "website": "https://www.lbmc.com/",
    "category": "Chinese-speaking Valuation services in Tennessee",
    "description": "Provides a complete range of business valuation services",
    "hours": "Mon-Fri 9AM-6PM",
    "services": [
      "Chinese-speaking Valuation services in Tennessee consultation",
      "Professional service",
      "Quality guarantee"
    ],
    "social_links": {}
  },
  {
    "name": "HHM CPAs",
    "address": "800 Broad St #100, Chattanooga, TN 37402",
    "phone": "(423) 756-7771",
    "rating": 4.0,
    "reviews": 25,
    "website": "https://www.hhmcpa.com/",
    "category": "Chinese-speaking Valuation services in Tennessee",
    "description": "Offers business valuation and analysis services",
    "hours": "Mon-Fri 9AM-6PM",
    "services": [
      "Chinese-speaking Valuation services in Tennessee consultation",
      "Professional service",
      "Quality guarantee"
    ],
    "social_links": {}
  },
  {
    "name": "Tracy L. Carico CPA, Inc.",
    "address": "2312 Maryville Pl, Maryville, TN 37801",
    "phone": "(865) 984-2000",
    "rating": 4.0,
    "reviews": 25,
    "website": "https://www.tracylcarico.com/",
    "category": "Chinese-speaking Valuation services in Tennessee",
    "description": "Provides business valuation services",
    "hours": "Mon-Fri 9AM-6PM",
    "services": [
      "Chinese-speaking Valuation services in Tennessee consultation",
      "Professional service",
      "Quality guarantee"
    ],
    "social_links": {}
  },
  {
    "name": "Tai Financial Consulting",
    "address": "(Specific address not provided in search results, but Anthony J. Tai is mentioned)",
    "phone": "",
    "rating": 4.0,
    "reviews": 25,
    "website": "https://taifc.com/",
    "category": "Chinese-speaking Valuation services in Tennessee",
    "description": "Offers independent finance & accounting services for businesses",
    "hours": "Mon-Fri 9AM-6PM",
    "services": [
      "Chinese-speaking Valuation services in Tennessee consultation",
      "Professional service",
      "Quality guarantee"
    ],
    "social_links": {}
  },
  {
    "name": "Connie Chadwick Law",
    "address": "(Specific address not provided in search results, but serves Tennessee)",
    "phone": "",
    "rating": 4.0,
    "reviews": 25,
    "website": "https://conniechadwicklaw.com/",
    "category": "Chinese-speaking Valuation services in Tennessee",
    "description": "While primarily a law firm, they mention business formation services and that Connie Chadwick is a CPA with a background in accounting and finance. It's possible they may offer or refer for valuation services",
    "hours": "Mon-Fri 9AM-6PM",
    "services": [
      "Chinese-speaking Valuation services in Tennessee consultation",
      "Professional service",
      "Quality guarantee"
    ],
    "social_links": {}
  },
  {
    "name": "NFP (Levine Group)",
    "address": "1000 Commerce St #300, Franklin, TN 37064",
    "phone": "(615) 771-7770",
    "rating": 4.0,
    "reviews": 25,
    "website": "https://www.nfp.com/",
    "category": "Chinese-speaking Valuation services in Tennessee",
    "description": "Offers wealth management, retirement advisory, and employee benefits, which may involve business financial consulting",
    "hours": "Mon-Fri 9AM-6PM",
    "services": [
      "Chinese-speaking Valuation services in Tennessee consultation",
      "Professional service",
      "Quality guarantee"
    ],
    "social_links": {}
  },
  {
    "name": "Dinsmore & Shohl LLP",
    "address": "401 Commerce St #1100, Nashville, TN 37219",
    "phone": "(615) 850-8700",
    "rating": 4.0,
    "reviews": 25,
    "website": "https://www.dinsmore.com/",
    "category": "Chinese-speaking Valuation services in Tennessee",
    "description": "A full-service law firm that lists Chinese (Mandarin and Cantonese) among its spoken languages, and offers services related to corporate governance, compliance, and mergers and acquisitions, which can be related to business valuation",
    "hours": "Mon-Fri 9AM-6PM",
    "services": [
      "Chinese-speaking Valuation services in Tennessee consultation",
      "Professional service",
      "Quality guarantee"
    ],
    "social_links": {}
  }
]