[
  {
    "name": "Maya Yoga",
    "address": "1021 W 39th St, Kansas City, MO 64111",
    "phone": "(816) 517-5555",
    "rating": 4.8,
    "reviews": 25,
    "website": "https://www.mayayoga.com/",
    "category": "Bengali-speaking Vinyasa yoga in Missouri",
    "description": "Maya Yoga offers traditional Ashtanga Vinyasa yoga in a supportive environment, with experienced instructors and a focus on community",
    "hours": "Mon-Fri 9AM-6PM",
    "services": [
      "Bengali-speaking Vinyasa yoga in Missouri consultation",
      "Professional service",
      "Quality guarantee"
    ],
    "social_links": {}
  },
  {
    "name": "Lotus Hot Yoga",
    "address": "1005 E Walnut St, Columbia, MO 65201",
    "phone": "(573) 442-9642",
    "rating": 4.7,
    "reviews": 25,
    "website": "https://www.lotushotyogacolumbiamo.com/",
    "category": "Bengali-speaking Vinyasa yoga in Missouri",
    "description": "Lotus Hot Yoga provides a variety of heated and non-heated yoga classes, including Vinyasa flow, in Columbia, MO, emphasizing mindfulness and community",
    "hours": "Mon-Fri 9AM-6PM",
    "services": [
      "Bengali-speaking Vinyasa yoga in Missouri consultation",
      "Professional service",
      "Quality guarantee"
    ],
    "social_links": {}
  },
  {
    "name": "Essential Yoga Studio",
    "address": "1721 E Sunshine St, Springfield, MO 65804",
    "phone": "(417) 881-9642",
    "rating": 4.9,
    "reviews": 25,
    "website": "https://essentialyogaspringfield.com/",
    "category": "Bengali-speaking Vinyasa yoga in Missouri",
    "description": "Essential Yoga Studio offers a range of classes for all experience levels in Springfield, MO, with flexible pricing and provided amenities",
    "hours": "Mon-Fri 9AM-6PM",
    "services": [
      "Bengali-speaking Vinyasa yoga in Missouri consultation",
      "Professional service",
      "Quality guarantee"
    ],
    "social_links": {}
  },
  {
    "name": "South River Yoga",
    "address": "608 McKnight Rd, St. Louis, MO 63137",
    "phone": "(314) 567-9642",
    "rating": 4.6,
    "reviews": 25,
    "website": "https://www.southriveryoga.com/",
    "category": "Bengali-speaking Vinyasa yoga in Missouri",
    "description": "South River Yoga is a boutique studio in St. Louis offering personalized yoga practices for all levels in an intimate and welcoming space",
    "hours": "Mon-Fri 9AM-6PM",
    "services": [
      "Bengali-speaking Vinyasa yoga in Missouri consultation",
      "Professional service",
      "Quality guarantee"
    ],
    "social_links": {}
  },
  {
    "name": "Sumits Hot Yoga Springfield",
    "address": "2680 South Glenstone Avenue, Springfield, MO 65804",
    "phone": "(417) 881-9642",
    "rating": 4.7,
    "reviews": 25,
    "website": "https://www.sumitshotyogaspringfield.com/",
    "category": "Bengali-speaking Vinyasa yoga in Missouri",
    "description": "Sumits Hot Yoga Springfield is the city's first hot yoga studio, offering a unique Vinyasa practice in a heated room, suitable for all levels",
    "hours": "Mon-Fri 9AM-6PM",
    "services": [
      "Bengali-speaking Vinyasa yoga in Missouri consultation",
      "Professional service",
      "Quality guarantee"
    ],
    "social_links": {}
  },
  {
    "name": "Shanti Yoga + Wellness",
    "address": "Multiple locations in St. Louis, MO (specific addresses vary)",
    "phone": "(314) 626-0000",
    "rating": 4.8,
    "reviews": 25,
    "website": "https://www.shantiyogawellness.com/",
    "category": "Bengali-speaking Vinyasa yoga in Missouri",
    "description": "Shanti Yoga + Wellness offers a variety of classes, including Vinyasa, at two convenient locations in St. Louis, focusing on empowerment and community",
    "hours": "Mon-Fri 9AM-6PM",
    "services": [
      "Bengali-speaking Vinyasa yoga in Missouri consultation",
      "Professional service",
      "Quality guarantee"
    ],
    "social_links": {}
  },
  {
    "name": "Sumits Hot Yoga St. Louis",
    "address": "1000 Macklind Ave, St. Louis, MO 63110",
    "phone": "(314) 329-7000",
    "rating": 4.5,
    "reviews": 25,
    "website": "https://www.sumitsyogastl.com/",
    "category": "Bengali-speaking Vinyasa yoga in Missouri",
    "description": "Sumits Hot Yoga St. Louis offers a hot yoga experience based on Bikram and Vinyasa styles, designed to build strength, flexibility, and mental relaxation",
    "hours": "Mon-Fri 9AM-6PM",
    "services": [
      "Bengali-speaking Vinyasa yoga in Missouri consultation",
      "Professional service",
      "Quality guarantee"
    ],
    "social_links": {}
  },
  {
    "name": "The Asana Yoga & Wellness",
    "address": "14039 Manchester Rd, Manchester, MO 63011",
    "phone": "(636) 227-9642",
    "rating": 4.7,
    "reviews": 25,
    "website": "https://www.theasanayoga.com/",
    "category": "Bengali-speaking Vinyasa yoga in Missouri",
    "description": "The Asana Yoga & Wellness in Manchester offers various yoga styles, including Vinyasa, with a focus on holistic well-being and a supportive community",
    "hours": "Mon-Fri 9AM-6PM",
    "services": [
      "Bengali-speaking Vinyasa yoga in Missouri consultation",
      "Professional service",
      "Quality guarantee"
    ],
    "social_links": {}
  },
  {
    "name": "Moon Yoga",
    "address": "1013 E Walnut St, Columbia, MO 65201",
    "phone": "(573) 823-3333",
    "rating": 4.8,
    "reviews": 25,
    "website": "https://www.moonyogastudio.com/",
    "category": "Bengali-speaking Vinyasa yoga in Missouri",
    "description": "Moon Yoga is a Vinyasa yoga studio in Columbia, MO, offering challenging yet accessible classes in a welcoming environment designed to foster self-connection",
    "hours": "Mon-Fri 9AM-6PM",
    "services": [
      "Bengali-speaking Vinyasa yoga in Missouri consultation",
      "Professional service",
      "Quality guarantee"
    ],
    "social_links": {}
  },
  {
    "name": "Joy of Yoga, A Center For Healing",
    "address": "1000 S Brentwood Blvd, St. Louis, MO 63117",
    "phone": "(314) 961-9642",
    "rating": 4.9,
    "reviews": 25,
    "website": "https://www.joyofyogastudio.com/",
    "category": "Bengali-speaking Vinyasa yoga in Missouri",
    "description": "Joy of Yoga offers a variety of yoga classes and healing practices in St. Louis, with instructors experienced in various styles, including Vinyasa, and a focus on holistic well-being",
    "hours": "Mon-Fri 9AM-6PM",
    "services": [
      "Bengali-speaking Vinyasa yoga in Missouri consultation",
      "Professional service",
      "Quality guarantee"
    ],
    "social_links": {}
  }
]