[
  {
    "name": "Amro Azazi CPA, PC",
    "address": "Philadelphia, PA",
    "phone": "215-346-5888",
    "rating": 4.0,
    "reviews": 25,
    "website": "https://www.google.com/maps/search/Amro+Azazi+CPA,+PC+in+Pennsylvania",
    "category": "Gujarati-speaking Tax strategy in Pennsylvania",
    "description": "Offers accounting and tax services for individuals and businesses, with a focus on tax strategy to reduce liabilities and maximize profits",
    "hours": "Mon-Fri 9AM-6PM",
    "services": [
      "Gujarati-speaking Tax strategy in Pennsylvania consultation",
      "Professional service",
      "Quality guarantee"
    ],
    "social_links": {}
  },
  {
    "name": "RKL LLP",
    "address": "Multiple locations including York, PA; Lancaster, PA; Reading, PA; Mechanicsburg, PA; Exton, PA; Allentown, PA",
    "phone": "",
    "rating": 4.0,
    "reviews": 25,
    "website": "https://www.rklcpa.com/",
    "category": "Gujarati-speaking Tax strategy in Pennsylvania",
    "description": "A leading professional services firm providing assurance, tax, advisory, wealth management, and IT solutions. They offer comprehensive tax services for businesses and individuals",
    "hours": "Mon-Fri 9AM-6PM",
    "services": [
      "Gujarati-speaking Tax strategy in Pennsylvania consultation",
      "Professional service",
      "Quality guarantee"
    ],
    "social_links": {}
  },
  {
    "name": "GNA Financial Services, LLC",
    "address": "Tannersville, PA",
    "phone": "(201) 982-6930",
    "rating": 4.0,
    "reviews": 25,
    "website": "https://www.google.com/maps/search/GNA+Financial+Services,+LLC+in+Pennsylvania",
    "category": "Gujarati-speaking Tax strategy in Pennsylvania",
    "description": "A Certified Public Accounting Firm serving clients in Pennsylvania, New York, and New Jersey, focusing on quality accounting services for small businesses",
    "hours": "Mon-Fri 9AM-6PM",
    "services": [
      "Gujarati-speaking Tax strategy in Pennsylvania consultation",
      "Professional service",
      "Quality guarantee"
    ],
    "social_links": {}
  },
  {
    "name": "Happy Valley Accounting & Tax Services, LLC",
    "address": "270 Walker Drive, Ste 108E, State College, PA 16801",
    "phone": "",
    "rating": 4.0,
    "reviews": 25,
    "website": "https://www.google.com/maps/search/Happy+Valley+Accounting+&+Tax+Services,+LLC+in+Pennsylvania",
    "category": "Gujarati-speaking Tax strategy in Pennsylvania",
    "description": "Offers accounting and tax services for individuals and businesses, including tax planning, preparation, and IRS representation",
    "hours": "Mon-Fri 9AM-6PM",
    "services": [
      "Gujarati-speaking Tax strategy in Pennsylvania consultation",
      "Professional service",
      "Quality guarantee"
    ],
    "social_links": {}
  },
  {
    "name": "Palguta, Yutzy and Company",
    "address": "4081 Glades Pike Somerset, PA 15501",
    "phone": "814.445.6244",
    "rating": 4.0,
    "reviews": 25,
    "website": "https://www.google.com/maps/search/Palguta,+Yutzy+and+Company+in+Pennsylvania",
    "category": "Gujarati-speaking Tax strategy in Pennsylvania",
    "description": "Certified Public Accountants offering tax planning and return preparation for individuals and businesses, as well as IRS representation and estate planning",
    "hours": "Mon-Fri 9AM-6PM",
    "services": [
      "Gujarati-speaking Tax strategy in Pennsylvania consultation",
      "Professional service",
      "Quality guarantee"
    ],
    "social_links": {}
  },
  {
    "name": "Adhvya",
    "address": "Serves Philadelphia, PA and Lancaster, PA areas. (Based in North Brunswick, NJ)",
    "phone": "Philadelphia: 848-225-8847 (Pin: 44655 for Lancaster); General: 973-850-4353 (Pin: 69061)",
    "rating": 6.5,
    "reviews": 25,
    "website": "https://www.google.com/maps/search/Adhvya+in+Pennsylvania",
    "category": "Gujarati-speaking Tax strategy in Pennsylvania",
    "description": "Provides bookkeeping, payroll, tax compliance, and strategic advisory services for small and mid-size businesses",
    "hours": "Mon-Fri 9AM-6PM",
    "services": [
      "Gujarati-speaking Tax strategy in Pennsylvania consultation",
      "Professional service",
      "Quality guarantee"
    ],
    "social_links": {}
  },
  {
    "name": "Devesh Pathak CPA",
    "address": "Serving Philadelphia, PA",
    "phone": "617-299-8445 (Pin: 65546)",
    "rating": 4.0,
    "reviews": 25,
    "website": "https://www.google.com/maps/search/Devesh+Pathak+CPA+in+Pennsylvania",
    "category": "Gujarati-speaking Tax strategy in Pennsylvania",
    "description": "Offers a wide range of services including international tax consulting, incorporation, tax preparation, and business tax planning",
    "hours": "Mon-Fri 9AM-6PM",
    "services": [
      "Gujarati-speaking Tax strategy in Pennsylvania consultation",
      "Professional service",
      "Quality guarantee"
    ],
    "social_links": {}
  },
  {
    "name": "Rashmi Satyadeo CPA",
    "address": "Serving Philadelphia, PA",
    "phone": "620-450-4636 (Pin: 62496)",
    "rating": 4.0,
    "reviews": 25,
    "website": "https://www.google.com/maps/search/Rashmi+Satyadeo+CPA+in+Pennsylvania",
    "category": "Gujarati-speaking Tax strategy in Pennsylvania",
    "description": "Offers services such as international tax consulting, incorporation, tax preparation, and business tax planning",
    "hours": "Mon-Fri 9AM-6PM",
    "services": [
      "Gujarati-speaking Tax strategy in Pennsylvania consultation",
      "Professional service",
      "Quality guarantee"
    ],
    "social_links": {}
  },
  {
    "name": "Alam One Stop Tax And Accounting Services INC.",
    "address": "Philadelphia, PA",
    "phone": "424-400-2358 (Pin: 11539)",
    "rating": 4.0,
    "reviews": 25,
    "website": "https://www.google.com/maps/search/Alam+One+Stop+Tax+And+Accounting+Services+INC.+in+Pennsylvania",
    "category": "Gujarati-speaking Tax strategy in Pennsylvania",
    "description": "Offers accounting services",
    "hours": "Mon-Fri 9AM-6PM",
    "services": [
      "Gujarati-speaking Tax strategy in Pennsylvania consultation",
      "Professional service",
      "Quality guarantee"
    ],
    "social_links": {}
  },
  {
    "name": "Northeast Solution CPA",
    "address": "Philadelphia, PA",
    "phone": "512-515-9579 (Pin: 70109)",
    "rating": 4.0,
    "reviews": 25,
    "website": "https://www.google.com/maps/search/Northeast+Solution+CPA+in+Pennsylvania",
    "category": "Gujarati-speaking Tax strategy in Pennsylvania",
    "description": "Offers accounting services",
    "hours": "Mon-Fri 9AM-6PM",
    "services": [
      "Gujarati-speaking Tax strategy in Pennsylvania consultation",
      "Professional service",
      "Quality guarantee"
    ],
    "social_links": {}
  }
]