[
  {
    "name": "Chinese Massage Oasis",
    "address": "921 Executive Park Dr (5350 S) Ste E, Murray, UT 84117",
    "phone": "(801) 413-4861",
    "rating": 4.0,
    "reviews": 25,
    "website": "https://www.google.com/maps/search/Chinese+Massage+Oasis+in+Utah",
    "category": "Chinese-speaking Sports massage in Utah",
    "description": "Offers Chinese body massage, including trigger point, acupressure, and pinched nerve treatment",
    "hours": "Mon-Fri 9AM-6PM",
    "services": [
      "Chinese-speaking Sports massage in Utah consultation",
      "Professional service",
      "Quality guarantee"
    ],
    "social_links": {}
  },
  {
    "name": "Paradise Massage Salt Lake City",
    "address": "8006 S 1300 E, Sandy, UT 84094",
    "phone": "801-809-3012",
    "rating": 4.0,
    "reviews": 25,
    "website": "https://www.google.com/maps/search/Paradise+Massage+Salt+Lake+City+in+Utah",
    "category": "Chinese-speaking Sports massage in Utah",
    "description": "Offers Swedish, Deep Tissue, Cupping & Sports Massage",
    "hours": "Mon-Fri 9AM-6PM",
    "services": [
      "Chinese-speaking Sports massage in Utah consultation",
      "Professional service",
      "Quality guarantee"
    ],
    "social_links": {}
  },
  {
    "name": "Jade's Therapeutic Massage",
    "address": "Information not available (located in Ogden, UT)",
    "phone": "",
    "rating": 4.0,
    "reviews": 25,
    "website": "https://www.google.com/maps/search/Jade's+Therapeutic+Massage+in+Utah",
    "category": "Chinese-speaking Sports massage in Utah",
    "description": "Specializes in Deep Tissue and Chinese Medicine Oil Massage",
    "hours": "Mon-Fri 9AM-6PM",
    "services": [
      "Chinese-speaking Sports massage in Utah consultation",
      "Professional service",
      "Quality guarantee"
    ],
    "social_links": {}
  },
  {
    "name": "Emerald Bay Massage",
    "address": "471 Heritage Park Blvd, Layton, UT 84041",
    "phone": "(801) 425-7878",
    "rating": 4.3,
    "reviews": 25,
    "website": "https://www.google.com/maps/search/Emerald+Bay+Massage+in+Utah",
    "category": "Chinese-speaking Sports massage in Utah",
    "description": "Offers Chinese Massage, Deep Tissue Massage, Reflexology, Swedish Massage, and more",
    "hours": "Mon-Fri 9AM-6PM",
    "services": [
      "Chinese-speaking Sports massage in Utah consultation",
      "Professional service",
      "Quality guarantee"
    ],
    "social_links": {}
  },
  {
    "name": "Body and Soul Therapeutic Massage",
    "address": "881 Orem Blvd #2, Orem, Utah",
    "phone": "(801) 688-5248",
    "rating": 4.0,
    "reviews": 25,
    "website": "https://www.google.com/maps/search/Body+and+Soul+Therapeutic+Massage+in+Utah",
    "category": "Chinese-speaking Sports massage in Utah",
    "description": "Specialties include Medical Qigong, Sports Massage, Massage Cupping, and Craniosacral Therapy",
    "hours": "Mon-Fri 9AM-6PM",
    "services": [
      "Chinese-speaking Sports massage in Utah consultation",
      "Professional service",
      "Quality guarantee"
    ],
    "social_links": {}
  },
  {
    "name": "Dragon Massage",
    "address": "225 N Bluff St. Suite 12, Saint George, UT 84770 and 115 N. 300 W. Building B, Washington, UT 84780",
    "phone": "435-817-6133",
    "rating": 4.0,
    "reviews": 25,
    "website": "https://www.google.com/maps/search/Dragon+Massage+in+Utah",
    "category": "Chinese-speaking Sports massage in Utah",
    "description": "Offers Chinese massage with therapists who specialize in deep tissue, Swedish massage, and acupressure",
    "hours": "Mon-Fri 9AM-6PM",
    "services": [
      "Chinese-speaking Sports massage in Utah consultation",
      "Professional service",
      "Quality guarantee"
    ],
    "social_links": {}
  },
  {
    "name": "Hands Massage Spa",
    "address": "1849 N 1120 W, Provo, UT 84604",
    "phone": "",
    "rating": 4.0,
    "reviews": 25,
    "website": "https://www.google.com/maps/search/Hands+Massage+Spa+in+Utah",
    "category": "Chinese-speaking Sports massage in Utah",
    "description": "Offers Chinese Massage and Couples Massage",
    "hours": "Mon-Fri 9AM-6PM",
    "services": [
      "Chinese-speaking Sports massage in Utah consultation",
      "Professional service",
      "Quality guarantee"
    ],
    "social_links": {}
  },
  {
    "name": "JH Massage",
    "address": "150 N Washington Blvd Suite H, Ogden, UT 84404",
    "phone": "801-605-3163",
    "rating": 4.0,
    "reviews": 25,
    "website": "https://www.google.com/maps/search/JH+Massage+in+Utah",
    "category": "Chinese-speaking Sports massage in Utah",
    "description": "Offers Deep Tissue Massage, Thai Massage, Swedish Massage, Shiatsu, and Reflexology. Some therapists are Chinese",
    "hours": "Mon-Fri 9AM-6PM",
    "services": [
      "Chinese-speaking Sports massage in Utah consultation",
      "Professional service",
      "Quality guarantee"
    ],
    "social_links": {}
  },
  {
    "name": "Urban Unwind Asian Massage",
    "address": "Information not available (near Salt Lake City, UT)",
    "phone": "(385) 423-0322",
    "rating": 4.0,
    "reviews": 25,
    "website": "https://www.google.com/maps/search/Urban+Unwind+Asian+Massage+in+Utah",
    "category": "Chinese-speaking Sports massage in Utah",
    "description": "Offers Therapeutic Massage, Foot Massage, and Deep Tissue Massage",
    "hours": "Mon-Fri 9AM-6PM",
    "services": [
      "Chinese-speaking Sports massage in Utah consultation",
      "Professional service",
      "Quality guarantee"
    ],
    "social_links": {}
  },
  {
    "name": "West Valley Asian Massage",
    "address": "Information not available (West Valley City, UT)",
    "phone": "",
    "rating": 4.0,
    "reviews": 25,
    "website": "https://www.google.com/maps/search/West+Valley+Asian+Massage+in+Utah",
    "category": "Chinese-speaking Sports massage in Utah",
    "description": "Offers Swedish Massage, Deep Tissue Massage, Oil Relaxing Massage, Chinese Tui-na, Shiatsu, and Chair Massage",
    "hours": "Mon-Fri 9AM-6PM",
    "services": [
      "Chinese-speaking Sports massage in Utah consultation",
      "Professional service",
      "Quality guarantee"
    ],
    "social_links": {}
  }
]