[
  {
    "name": "Asian Auto Repair",
    "address": "1313 N 102nd St, Omaha, NE 68114",
    "phone": "(402) 933-0200",
    "rating": 4.8,
    "reviews": 25,
    "website": "https://www.asianautorepairomaha.com/",
    "category": "Asian-owned TPMS service in Nebraska",
    "description": "Specializes in expert repairs and maintenance for Asian vehicles, including Toyota, Honda, Kia, Subaru, and Hyundai",
    "hours": "Mon-Fri 9AM-6PM",
    "services": [
      "Asian-owned TPMS service in Nebraska consultation",
      "Professional service",
      "Quality guarantee"
    ],
    "social_links": {}
  },
  {
    "name": "D & D Automotive and Diesel",
    "address": "14024 Q St, Omaha, NE 68137",
    "phone": "(402) 895-5805",
    "rating": 4.7,
    "reviews": 25,
    "website": "https://www.ddautomotiveomaha.com/",
    "category": "Asian-owned TPMS service in Nebraska",
    "description": "Full-service auto repair and preventative maintenance facility specializing in Asian vehicles",
    "hours": "Mon-Fri 9AM-6PM",
    "services": [
      "Asian-owned TPMS service in Nebraska consultation",
      "Professional service",
      "Quality guarantee"
    ],
    "social_links": {}
  },
  {
    "name": "George Witt Service",
    "address": "2000 N 27th St, Lincoln, NE 68503",
    "phone": "(402) 438-1177",
    "rating": 4.7,
    "reviews": 25,
    "website": "https://www.georgewittservice.com/",
    "category": "Asian-owned TPMS service in Nebraska",
    "description": "Japanese auto repair specialists focusing on Honda and Toyota vehicles",
    "hours": "Mon-Fri 9AM-6PM",
    "services": [
      "Asian-owned TPMS service in Nebraska consultation",
      "Professional service",
      "Quality guarantee"
    ],
    "social_links": {}
  },
  {
    "name": "Omaha Japanese Auto Repair",
    "address": "4413 S 134th St, Omaha, NE 68137",
    "phone": "(402) 330-3571",
    "rating": 4.7,
    "reviews": 25,
    "website": "https://www.omahajapaneseautorepair.com/",
    "category": "Asian-owned TPMS service in Nebraska",
    "description": "Local, family-owned business providing service and care for Acura and Honda vehicles",
    "hours": "Mon-Fri 9AM-6PM",
    "services": [
      "Asian-owned TPMS service in Nebraska consultation",
      "Professional service",
      "Quality guarantee"
    ],
    "social_links": {}
  },
  {
    "name": "Big Red Tire Pros",
    "address": "4900 Old Cheney Rd, Lincoln, NE 68516",
    "phone": "(402) 420-6100",
    "rating": 4.6,
    "reviews": 25,
    "website": "https://www.bigredtire.com/",
    "category": "Asian-owned TPMS service in Nebraska",
    "description": "Offers TPMS service, along with a wide range of tire and auto repair services",
    "hours": "Mon-Fri 9AM-6PM",
    "services": [
      "Asian-owned TPMS service in Nebraska consultation",
      "Professional service",
      "Quality guarantee"
    ],
    "social_links": {}
  },
  {
    "name": "Tommy's Tires & Custom Wheels",
    "address": "4601 N 108th St, Omaha, NE 68164 (North Omaha location)",
    "phone": "(402) 455-8473",
    "rating": 4.5,
    "reviews": 25,
    "website": "https://www.tommystiresne.com/",
    "category": "Asian-owned TPMS service in Nebraska",
    "description": "Provides TPMS repair services for Omaha, Grand Island, Lincoln, and surrounding areas",
    "hours": "Mon-Fri 9AM-6PM",
    "services": [
      "Asian-owned TPMS service in Nebraska consultation",
      "Professional service",
      "Quality guarantee"
    ],
    "social_links": {}
  },
  {
    "name": "T.O. Haas Tire & Auto",
    "address": "2545 S 120th St, Omaha, NE 68137 (Location 5118)",
    "phone": "(402) 524-5723",
    "rating": 4.5,
    "reviews": 25,
    "website": "https://www.tohaas.com/locations/omaha-5118/",
    "category": "Asian-owned TPMS service in Nebraska",
    "description": "Offers expert auto care, tire service, and repairs, including TPMS support",
    "hours": "Mon-Fri 9AM-6PM",
    "services": [
      "Asian-owned TPMS service in Nebraska consultation",
      "Professional service",
      "Quality guarantee"
    ],
    "social_links": {}
  },
  {
    "name": "Koplin Auto Care & Tire Pros",
    "address": "1410 E Military Ave, Fremont, NE 68025",
    "phone": "(402) 721-1234",
    "rating": 4.8,
    "reviews": 25,
    "website": "https://www.koplinautocare.com/",
    "category": "Asian-owned TPMS service in Nebraska",
    "description": "Provides complete auto maintenance and repair services, including tire sales and services",
    "hours": "Mon-Fri 9AM-6PM",
    "services": [
      "Asian-owned TPMS service in Nebraska consultation",
      "Professional service",
      "Quality guarantee"
    ],
    "social_links": {}
  },
  {
    "name": "Yeck's Tire & Auto",
    "address": "301 Galvin Rd S, Bellevue, NE 68005",
    "phone": "(402) 291-7575",
    "rating": 4.7,
    "reviews": 25,
    "website": "https://www.yeckstire.com/",
    "category": "Asian-owned TPMS service in Nebraska",
    "description": "Offers top-quality auto repairs and services, including tire services, to the Bellevue/Offutt community",
    "hours": "Mon-Fri 9AM-6PM",
    "services": [
      "Asian-owned TPMS service in Nebraska consultation",
      "Professional service",
      "Quality guarantee"
    ],
    "social_links": {}
  },
  {
    "name": "Omaha Casing",
    "address": "4865 S 134th St, Omaha, NE 68137",
    "phone": "(402) 895-6663",
    "rating": 4.5,
    "reviews": 25,
    "website": "https://www.omahacasing.com/",
    "category": "Asian-owned TPMS service in Nebraska",
    "description": "Provides Tire Pressure Monitoring System (TPMS) services to Omaha, Lincoln, Columbus, and surrounding areas",
    "hours": "Mon-Fri 9AM-6PM",
    "services": [
      "Asian-owned TPMS service in Nebraska consultation",
      "Professional service",
      "Quality guarantee"
    ],
    "social_links": {}
  }
]