[
  {
    "name": "MD Wellness Center and Med Spa",
    "address": "101 W 96th St, Indianapolis, IN 46260",
    "phone": "(317) 548-4666",
    "rating": 4.8,
    "reviews": 25,
    "website": "https://www.mytrimmd.com/",
    "category": "Arabic-speaking Body contouring in Indiana",
    "description": "Offers non-surgical body contouring treatments using advanced technologies like radiofrequency and ultrasound to reduce fat and tighten skin",
    "hours": "Mon-Fri 9AM-6PM",
    "services": [
      "Arabic-speaking Body contouring in Indiana consultation",
      "Professional service",
      "Quality guarantee"
    ],
    "social_links": {}
  },
  {
    "name": "LaserAway Indianapolis",
    "address": "8430 Northwest Blvd, Indianapolis, IN 46278",
    "phone": "(317) 754-0044",
    "rating": 4.7,
    "reviews": 25,
    "website": "https://www.laseraway.com/locations/indianapolis",
    "category": "Arabic-speaking Body contouring in Indiana",
    "description": "Provides non-surgical body contouring services including CoolSculpting, Thermage, and Potenza RF Microneedling to shape, slim, and smooth the body",
    "hours": "Mon-Fri 9AM-6PM",
    "services": [
      "Arabic-speaking Body contouring in Indiana consultation",
      "Professional service",
      "Quality guarantee"
    ],
    "social_links": {}
  },
  {
    "name": "Radiant Skin Aesthetic & Beauty Studio",
    "address": "70 Zionsville Rd, Zionsville, IN 46077 (also has a Danville location)",
    "phone": "(317) 219-0700",
    "rating": 4.9,
    "reviews": 25,
    "website": "https://www.radiantskinbeauty.com/",
    "category": "Arabic-speaking Body contouring in Indiana",
    "description": "Offers non-invasive body contouring with the Inmode Evolve System, targeting skin tightening, muscle toning, and fat reduction",
    "hours": "Mon-Fri 9AM-6PM",
    "services": [
      "Arabic-speaking Body contouring in Indiana consultation",
      "Professional service",
      "Quality guarantee"
    ],
    "social_links": {}
  },
  {
    "name": "Laser and Skin Surgery Center of Indiana",
    "address": "101 W 96th St, Indianapolis, IN 46260",
    "phone": "(317) 550-2700",
    "rating": 4.7,
    "reviews": 25,
    "website": "https://www.indianaskincenter.com/",
    "category": "Arabic-speaking Body contouring in Indiana",
    "description": "Specializes in non-surgical body sculpting, offering treatments like CoolSculpting for fat reduction combined with Z-Wave for cellulite removal",
    "hours": "Mon-Fri 9AM-6PM",
    "services": [
      "Arabic-speaking Body contouring in Indiana consultation",
      "Professional service",
      "Quality guarantee"
    ],
    "social_links": {}
  },
  {
    "name": "Wagner and Associates Plastic and Reconstructive Surgery",
    "address": "13175 Illinois St, Carmel, IN 46032",
    "phone": "(317) 621-2520",
    "rating": 4.8,
    "reviews": 25,
    "website": "https://www.wagnerplasticsurgery.com/",
    "category": "Arabic-speaking Body contouring in Indiana",
    "description": "Led by board-certified plastic surgeon Dr. Jeffrey Wagner, offering surgical body contouring procedures such as liposuction and tummy tucks",
    "hours": "Mon-Fri 9AM-6PM",
    "services": [
      "Arabic-speaking Body contouring in Indiana consultation",
      "Professional service",
      "Quality guarantee"
    ],
    "social_links": {}
  },
  {
    "name": "Cosmetico MedSpa",
    "address": "9103 Indianapolis Blvd, Highland, IN 46322",
    "phone": "(219) 300-4453",
    "rating": 4.6,
    "reviews": 25,
    "website": "https://cosmeticomedspa.com/",
    "category": "Arabic-speaking Body contouring in Indiana",
    "description": "Provides non-invasive body contouring using technologies like BodyFX for fat reduction and skin tightening",
    "hours": "Mon-Fri 9AM-6PM",
    "services": [
      "Arabic-speaking Body contouring in Indiana consultation",
      "Professional service",
      "Quality guarantee"
    ],
    "social_links": {}
  },
  {
    "name": "TheNuBee",
    "address": "4003 W 106th St, Indianapolis, IN 46268",
    "phone": "(317) 550-5000",
    "rating": 4.9,
    "reviews": 25,
    "website": "https://thenubee.com/",
    "category": "Arabic-speaking Body contouring in Indiana",
    "description": "An establishment offering services in beauty, health, and wellness, with expertise in body sculpting and weight loss",
    "hours": "Mon-Fri 9AM-6PM",
    "services": [
      "Arabic-speaking Body contouring in Indiana consultation",
      "Professional service",
      "Quality guarantee"
    ],
    "social_links": {}
  },
  {
    "name": "Robey Plastic Surgery",
    "address": "10330 N Meridian St, Indianapolis, IN 46290",
    "phone": "(317) 249-8921",
    "rating": 4.9,
    "reviews": 25,
    "website": "https://www.robeyplasticsurgery.com/",
    "category": "Arabic-speaking Body contouring in Indiana",
    "description": "Offers minimally invasive body contouring procedures like BodyTite, aiming for superior results with less downtime and scarring",
    "hours": "Mon-Fri 9AM-6PM",
    "services": [
      "Arabic-speaking Body contouring in Indiana consultation",
      "Professional service",
      "Quality guarantee"
    ],
    "social_links": {}
  },
  {
    "name": "MedSpa Day Spa & Randall Dermatology",
    "address": "3925 S Reed Rd, Kokomo, IN 46902 (also has a West Lafayette location)",
    "phone": "(765) 497-1655",
    "rating": 4.7,
    "reviews": 25,
    "website": "https://www.randalldermatology.com/",
    "category": "Arabic-speaking Body contouring in Indiana",
    "description": "Provides non-surgical body contouring with BodyFX by InMode for skin firming, fat reduction, and cellulite smoothing",
    "hours": "Mon-Fri 9AM-6PM",
    "services": [
      "Arabic-speaking Body contouring in Indiana consultation",
      "Professional service",
      "Quality guarantee"
    ],
    "social_links": {}
  },
  {
    "name": "Indiana Medical Center",
    "address": "450 S State Road 135, Greenwood, IN 46142 (multiple locations in Indiana)",
    "phone": "(317) 889-7777",
    "rating": 4.8,
    "reviews": 25,
    "website": "https://indianamedicalcenter.com/",
    "category": "Arabic-speaking Body contouring in Indiana",
    "description": "Offers premier care including body sculpting, skin rejuvenation, and pain management with safe, non-invasive treatments",
    "hours": "Mon-Fri 9AM-6PM",
    "services": [
      "Arabic-speaking Body contouring in Indiana consultation",
      "Professional service",
      "Quality guarantee"
    ],
    "social_links": {}
  }
]