[
  {
    "name": "Self Service Pet Wash",
    "address": "400 NE Circle Blvd, Corvallis, OR 97330",
    "phone": "(541) 754-7000",
    "rating": 4.0,
    "reviews": 25,
    "website": "http://www.selfservicepetwash.com/",
    "category": "Atheist-owned Self-service grooming in Oregon",
    "description": "Offers self-service dog washing facilities with raised tubs, various shampoos, conditioners, and blow dryers",
    "hours": "Mon-Fri 9AM-6PM",
    "services": [
      "Atheist-owned Self-service grooming in Oregon consultation",
      "Professional service",
      "Quality guarantee"
    ],
    "social_links": {}
  },
  {
    "name": "BarkZone\u2122",
    "address": "10120 SW Hall Blvd, Beaverton, OR 97223",
    "phone": "(503) 291-1818",
    "rating": 4.0,
    "reviews": 25,
    "website": "http://www.barkzone.com/",
    "category": "Atheist-owned Self-service grooming in Oregon",
    "description": "Provides self-service dog washing and puppy washing facilities, along with other services for pets",
    "hours": "Mon-Fri 9AM-6PM",
    "services": [
      "Atheist-owned Self-service grooming in Oregon consultation",
      "Professional service",
      "Quality guarantee"
    ],
    "social_links": {}
  },
  {
    "name": "Coastal Country Pet Wash Station",
    "address": "Multiple locations, including 400 NE Circle Blvd, Corvallis, OR 97330 and 1900 McLoughlin Blvd #120, Oregon City, OR 97045",
    "phone": "",
    "rating": 4.0,
    "reviews": 25,
    "website": "https://www.coastalfarmandranch.com/pet-wash-station",
    "category": "Atheist-owned Self-service grooming in Oregon",
    "description": "Self-serve pet wash stations available at select Coastal Store locations, offering tubs, towels, shampoo, conditioner, and blow dryers for a set fee",
    "hours": "Mon-Fri 9AM-6PM",
    "services": [
      "Atheist-owned Self-service grooming in Oregon consultation",
      "Professional service",
      "Quality guarantee"
    ],
    "social_links": {}
  },
  {
    "name": "EarthWise Pet Bend",
    "address": "19570 Amber Meadow Drive, Suite 180, Bend, OR 97702",
    "phone": "(541) 241-9244",
    "rating": 4.0,
    "reviews": 25,
    "website": "https://bend.earthwisepet.com/",
    "category": "Atheist-owned Self-service grooming in Oregon",
    "description": "Offers a private self-wash room with all necessary supplies for a calming bath experience, including shampoos, conditioners, towels, and dryers",
    "hours": "Mon-Fri 9AM-6PM",
    "services": [
      "Atheist-owned Self-service grooming in Oregon consultation",
      "Professional service",
      "Quality guarantee"
    ],
    "social_links": {}
  },
  {
    "name": "Muddy Paws Bathhouse",
    "address": "Bend, Oregon 97702",
    "phone": "(541) 647-1555 (main), (541) 982-6843 (text)",
    "rating": 4.0,
    "reviews": 25,
    "website": "https://www.muddypawsbend.com/",
    "category": "Atheist-owned Self-service grooming in Oregon",
    "description": "Bend's premiere full-service grooming and self-service dog wash facility, providing all supplies for washing and drying pets",
    "hours": "Mon-Fri 9AM-6PM",
    "services": [
      "Atheist-owned Self-service grooming in Oregon consultation",
      "Professional service",
      "Quality guarantee"
    ],
    "social_links": {}
  },
  {
    "name": "Nature's Pet St Johns",
    "address": "8169 N Lombard St, Portland, OR 97203",
    "phone": "(503) 572-5720",
    "rating": 4.0,
    "reviews": 25,
    "website": "https://www.naturespet.com/st-johns",
    "category": "Atheist-owned Self-service grooming in Oregon",
    "description": "Offers self-serve dog wash facilities with pet-safe shampoos, towels, waist-high tubs with ramps, and air dryers, designed to be a convenient and bonding experience",
    "hours": "Mon-Fri 9AM-6PM",
    "services": [
      "Atheist-owned Self-service grooming in Oregon consultation",
      "Professional service",
      "Quality guarantee"
    ],
    "social_links": {}
  },
  {
    "name": "Dog Gone Clean Grooming and Dog Wash",
    "address": "10120 SW Hall Blvd, Portland, OR 97223",
    "phone": "(503) 291-1818 (Portland shop)",
    "rating": 4.0,
    "reviews": 25,
    "website": "http://www.dgcgrooming.com/",
    "category": "Atheist-owned Self-service grooming in Oregon",
    "description": "A full-service pet grooming facility and self-service dog wash that provides tubs, towels, shampoo, brushes, and more",
    "hours": "Mon-Fri 9AM-6PM",
    "services": [
      "Atheist-owned Self-service grooming in Oregon consultation",
      "Professional service",
      "Quality guarantee"
    ],
    "social_links": {}
  },
  {
    "name": "Bare Bones Dog Wash",
    "address": "Information not available. (Located in Oregon)",
    "phone": "",
    "rating": 4.0,
    "reviews": 25,
    "website": "http://barebonesdogwash.com/",
    "category": "Atheist-owned Self-service grooming in Oregon",
    "description": "Offers self-service dog washing with tubs, natural shampoos, towels, brushes, and blowers, and also provides grooming by appointment",
    "hours": "Mon-Fri 9AM-6PM",
    "services": [
      "Atheist-owned Self-service grooming in Oregon consultation",
      "Professional service",
      "Quality guarantee"
    ],
    "social_links": {}
  },
  {
    "name": "Paws For Elegance",
    "address": "Information not available. (Located in Oregon)",
    "phone": "",
    "rating": 4.0,
    "reviews": 25,
    "website": "http://www.pawsforelegance.com/self-serve-dog-wash",
    "category": "Atheist-owned Self-service grooming in Oregon",
    "description": "Provides self-serve dog wash services with a variety of shampoos and conditioners, grooming tools, towels, and dryers, available on a first-come, first-serve basis",
    "hours": "Mon-Fri 9AM-6PM",
    "services": [
      "Atheist-owned Self-service grooming in Oregon consultation",
      "Professional service",
      "Quality guarantee"
    ],
    "social_links": {}
  },
  {
    "name": "Paws & Purrs Grooming",
    "address": "1020 NW Division St, Bend, OR 97703",
    "phone": "(541) 389-0303",
    "rating": 4.0,
    "reviews": 25,
    "website": "https://www.pawsandpurrsbend.com/",
    "category": "Atheist-owned Self-service grooming in Oregon",
    "description": "Offers full-service grooming with a focus on positive and Fear Free experiences, using all-natural and organic products. They also offer bathing services",
    "hours": "Mon-Fri 9AM-6PM",
    "services": [
      "Atheist-owned Self-service grooming in Oregon consultation",
      "Professional service",
      "Quality guarantee"
    ],
    "social_links": {}
  }
]