[
  {
    "name": "Cosmetic Eye Institute and RSVP Med Spa",
    "address": "7300 W 119th St, Overland Park, KS 66213",
    "phone": "(913) 897-9400",
    "rating": 4.8,
    "reviews": 25,
    "website": "https://cosmetic-eye-institute.com/",
    "category": "Asian-owned Reconstructive surgery in Kansas",
    "description": "Specializes in eyelid surgery, including Asian eyelid surgery, as well as other cosmetic and aesthetic treatments",
    "hours": "Mon-Fri 9AM-6PM",
    "services": [
      "Asian-owned Reconstructive surgery in Kansas consultation",
      "Professional service",
      "Quality guarantee"
    ],
    "social_links": {}
  },
  {
    "name": "Monarch Plastic Surgery and Skin Rejuvenation Center",
    "address": "10000 Nall Ave #201, Overland Park, KS 66207",
    "phone": "(913) 341-0000",
    "rating": 4.7,
    "reviews": 25,
    "website": "https://monarchplasticsurgery.com/",
    "category": "Asian-owned Reconstructive surgery in Kansas",
    "description": "Offers a wide range of cosmetic and reconstructive surgery procedures, with six board-certified plastic surgeons",
    "hours": "Mon-Fri 9AM-6PM",
    "services": [
      "Asian-owned Reconstructive surgery in Kansas consultation",
      "Professional service",
      "Quality guarantee"
    ],
    "social_links": {}
  },
  {
    "name": "Ascentist Plastic Surgery",
    "address": "7300 W 119th St, Overland Park, KS 66213 (also has locations in Merriam and Lee's Summit, MO)",
    "phone": "(913) 341-0000",
    "rating": 4.9,
    "reviews": 25,
    "website": "https://ascentistplasticsurgery.com/",
    "category": "Asian-owned Reconstructive surgery in Kansas",
    "description": "Features a team of distinguished experts in plastic and reconstructive surgery, including specialists in facial plastic surgery",
    "hours": "Mon-Fri 9AM-6PM",
    "services": [
      "Asian-owned Reconstructive surgery in Kansas consultation",
      "Professional service",
      "Quality guarantee"
    ],
    "social_links": {}
  },
  {
    "name": "Renue Aesthetic Surgery",
    "address": "14300 W 119th St, Lenexa, KS 66215 (serves Kansas City and Overland Park areas)",
    "phone": "(913) 685-1108",
    "rating": 4.7,
    "reviews": 25,
    "website": "https://www.renueaestheticsurgery.com/",
    "category": "Asian-owned Reconstructive surgery in Kansas",
    "description": "Led by board-certified plastic surgeon Dr. Victor Perez, offering cosmetic and reconstructive procedures with a focus on natural-looking results",
    "hours": "Mon-Fri 9AM-6PM",
    "services": [
      "Asian-owned Reconstructive surgery in Kansas consultation",
      "Professional service",
      "Quality guarantee"
    ],
    "social_links": {}
  },
  {
    "name": "The University of Kansas Health System - Plastic Surgery",
    "address": "8717 W 119th St, Overland Park, KS 66213 (and other locations)",
    "phone": "(913) 588-1227",
    "rating": 4.5,
    "reviews": 25,
    "website": "https://www.kuhs.org/services/plastic-surgery/",
    "category": "Asian-owned Reconstructive surgery in Kansas",
    "description": "Offers a full scope of cosmetic and reconstructive procedures performed by board-certified plastic surgeons",
    "hours": "Mon-Fri 9AM-6PM",
    "services": [
      "Asian-owned Reconstructive surgery in Kansas consultation",
      "Professional service",
      "Quality guarantee"
    ],
    "social_links": {}
  },
  {
    "name": "Matthew Conrad, MD, PA",
    "address": "1035 N. Waterfront Dr., Wichita, KS 67206",
    "phone": "(316) 684-2000",
    "rating": 4.9,
    "reviews": 25,
    "website": "https://www.conradplasticsurgery.com/",
    "category": "Asian-owned Reconstructive surgery in Kansas",
    "description": "A plastic and reconstructive surgeon in Wichita, Kansas, specializing in a wide range of procedures",
    "hours": "Mon-Fri 9AM-6PM",
    "services": [
      "Asian-owned Reconstructive surgery in Kansas consultation",
      "Professional service",
      "Quality guarantee"
    ],
    "social_links": {}
  },
  {
    "name": "Ascension Via Christi Plastic Surgery & Aesthetics",
    "address": "8200 E. Harry St., Wichita, KS 67207",
    "phone": "(316) 274-4440",
    "rating": 4.6,
    "reviews": 25,
    "website": "https://www.ascension.org/locations/ascension-via-christi-plastic-surgery-aesthetics-wichita-ks",
    "category": "Asian-owned Reconstructive surgery in Kansas",
    "description": "Provides cosmetic surgery and aesthetic services in Wichita, Kansas, by board-certified plastic surgeons",
    "hours": "Mon-Fri 9AM-6PM",
    "services": [
      "Asian-owned Reconstructive surgery in Kansas consultation",
      "Professional service",
      "Quality guarantee"
    ],
    "social_links": {}
  },
  {
    "name": "Shaw Plastic Surgery",
    "address": "2650 N Webb Rd #100, Wichita, KS 67206",
    "phone": "(316) 681-0008",
    "rating": 4.8,
    "reviews": 25,
    "website": "https://shawplasticsurgery.com/",
    "category": "Asian-owned Reconstructive surgery in Kansas",
    "description": "A boutique practice in Wichita focusing on minimally invasive techniques for reconstructive and cosmetic procedures",
    "hours": "Mon-Fri 9AM-6PM",
    "services": [
      "Asian-owned Reconstructive surgery in Kansas consultation",
      "Professional service",
      "Quality guarantee"
    ],
    "social_links": {}
  },
  {
    "name": "Singhal Plastic Surgery",
    "address": "10000 Nall Ave #201, Overland Park, KS 66207",
    "phone": "(913) 341-0000",
    "rating": 4.5,
    "reviews": 25,
    "website": "https://singhalplasticsurgery.com/",
    "category": "Asian-owned Reconstructive surgery in Kansas",
    "description": "Dr. Virender Singhal is a board-certified plastic surgeon known for world-class cosmetic and reconstructive surgery procedures",
    "hours": "Mon-Fri 9AM-6PM",
    "services": [
      "Asian-owned Reconstructive surgery in Kansas consultation",
      "Professional service",
      "Quality guarantee"
    ],
    "social_links": {}
  },
  {
    "name": "Associated Plastic Surgeons",
    "address": "10000 Nall Ave #201, Overland Park, KS 66207",
    "phone": "(913) 341-0000",
    "rating": 4.7,
    "reviews": 25,
    "website": "https://associatedplasticsurgeons.com/",
    "category": "Asian-owned Reconstructive surgery in Kansas",
    "description": "A plastic surgery clinic serving the Kansas City metro area with multiple board-certified plastic surgeons performing various procedures",
    "hours": "Mon-Fri 9AM-6PM",
    "services": [
      "Asian-owned Reconstructive surgery in Kansas consultation",
      "Professional service",
      "Quality guarantee"
    ],
    "social_links": {}
  }
]