[
  {
    "name": "Arizona Chiropractic & Spine Rehabilitation",
    "address": "4757 E Camp Lowell Dr, Tucson, AZ 85712",
    "phone": "(520) 600-3300",
    "rating": 4.8,
    "reviews": 25,
    "website": "https://www.azchirorehab.com/",
    "category": "African-American-owned Integrative medicine in Arizona",
    "description": "Offers evidence-based chiropractic care, focusing on a patient-centered, holistic approach to pain management and overall wellness",
    "hours": "Mon-Fri 9AM-6PM",
    "services": [
      "African-American-owned Integrative medicine in Arizona consultation",
      "Professional service",
      "Quality guarantee"
    ],
    "social_links": {}
  },
  {
    "name": "Health For Life Naturopathic Medicine",
    "address": "7227 N. Oracle Road, Suite 101, Tucson, AZ 85704",
    "phone": "(520) 544-0400",
    "rating": 4.9,
    "reviews": 25,
    "website": "https://www.healthforlifeaz.com/",
    "category": "African-American-owned Integrative medicine in Arizona",
    "description": "Provides personalized naturopathic care, addressing the root causes of health concerns with a whole-person approach",
    "hours": "Mon-Fri 9AM-6PM",
    "services": [
      "African-American-owned Integrative medicine in Arizona consultation",
      "Professional service",
      "Quality guarantee"
    ],
    "social_links": {}
  },
  {
    "name": "Total Wellness Acupuncture",
    "address": "10202 N. 32nd St, Suite 101, Phoenix, AZ 85028",
    "phone": "(602) 758-0740",
    "rating": 4.9,
    "reviews": 25,
    "website": "https://www.totalwellnessaz.com/",
    "category": "African-American-owned Integrative medicine in Arizona",
    "description": "Specializes in integrative and alternative medicine treatments based on acupuncture, offering a range of modalities for various health conditions",
    "hours": "Mon-Fri 9AM-6PM",
    "services": [
      "African-American-owned Integrative medicine in Arizona consultation",
      "Professional service",
      "Quality guarantee"
    ],
    "social_links": {}
  },
  {
    "name": "Eastern Medicine Center",
    "address": "7330 N. Dreamy Draw Dr, Suite 106, Phoenix, AZ 85020",
    "phone": "(602) 996-1111",
    "rating": 5.0,
    "reviews": 25,
    "website": "https://www.easternmedicinecenter.com/",
    "category": "African-American-owned Integrative medicine in Arizona",
    "description": "Offers traditional Chinese acupuncture and herbal medicine, focusing on treating the root cause of conditions for pain management, fertility support, and more",
    "hours": "Mon-Fri 9AM-6PM",
    "services": [
      "African-American-owned Integrative medicine in Arizona consultation",
      "Professional service",
      "Quality guarantee"
    ],
    "social_links": {}
  },
  {
    "name": "Dr. Kelly Romero - Longevity Medicine & Sports Therapy",
    "address": "3130 S Alma School Rd, Suite 101, Chandler, AZ 85248",
    "phone": "(480) 454-5400",
    "rating": 4.9,
    "reviews": 25,
    "website": "https://www.drkellyromero.com/",
    "category": "African-American-owned Integrative medicine in Arizona",
    "description": "A licensed naturopathic medical doctor providing personalized healthcare using natural medicine to improve longevity and quality of life",
    "hours": "Mon-Fri 9AM-6PM",
    "services": [
      "African-American-owned Integrative medicine in Arizona consultation",
      "Professional service",
      "Quality guarantee"
    ],
    "social_links": {}
  },
  {
    "name": "Naturopathic & Holistic Doctor in Phoenix, AZ (Dr. Katka Novakova)",
    "address": "7227 N. Oracle Road, Suite 101, Tucson, AZ 85704",
    "phone": "(480) 524-4304",
    "rating": 4.8,
    "reviews": 25,
    "website": "https://www.drkatkanovakova.com/",
    "category": "African-American-owned Integrative medicine in Arizona",
    "description": "Offers a holistic approach to treating chronic and acute conditions with natural options, addressing the needs of the body, mind, and spirit",
    "hours": "Mon-Fri 9AM-6PM",
    "services": [
      "African-American-owned Integrative medicine in Arizona consultation",
      "Professional service",
      "Quality guarantee"
    ],
    "social_links": {}
  },
  {
    "name": "Great Wall Chinese Medicine",
    "address": "7330 N. Dreamy Draw Dr, Suite 106, Phoenix, AZ 85020",
    "phone": "(602) 996-1111",
    "rating": 5.0,
    "reviews": 25,
    "website": "https://www.greatwallchinesemedicine.com/",
    "category": "African-American-owned Integrative medicine in Arizona",
    "description": "Blends the art and science of Traditional Chinese Medicine, offering personalized acupuncture and holistic healing",
    "hours": "Mon-Fri 9AM-6PM",
    "services": [
      "African-American-owned Integrative medicine in Arizona consultation",
      "Professional service",
      "Quality guarantee"
    ],
    "social_links": {}
  },
  {
    "name": "Naturopathic Physicians Group",
    "address": "7227 N. Oracle Road, Suite 101, Tucson, AZ 85704",
    "phone": "(520) 544-0400",
    "rating": 4.9,
    "reviews": 25,
    "website": "https://www.npgaz.com/",
    "category": "African-American-owned Integrative medicine in Arizona",
    "description": "Provides personalized naturopathic care with a holistic approach, addressing root causes of chronic pain, autoimmune conditions, and hormonal imbalances",
    "hours": "Mon-Fri 9AM-6PM",
    "services": [
      "African-American-owned Integrative medicine in Arizona consultation",
      "Professional service",
      "Quality guarantee"
    ],
    "social_links": {}
  },
  {
    "name": "Phoenix Integrative Medical Center",
    "address": "10202 N. 32nd St, Suite 101, Phoenix, AZ 85028",
    "phone": "(602) 758-0740",
    "rating": 4.9,
    "reviews": 25,
    "website": "https://www.phoenixintegrativemedical.com/",
    "category": "African-American-owned Integrative medicine in Arizona",
    "description": "Offers integrative and functional medicine services with a comprehensive approach, addressing the root cause of disease",
    "hours": "Mon-Fri 9AM-6PM",
    "services": [
      "African-American-owned Integrative medicine in Arizona consultation",
      "Professional service",
      "Quality guarantee"
    ],
    "social_links": {}
  },
  {
    "name": "HonorHealth Integrative Medicine",
    "address": "10460 N. 92nd St, Scottsdale, AZ 85258",
    "phone": "(480) 587-6930",
    "rating": 4.5,
    "reviews": 25,
    "website": "https://www.honorhealth.com/services/integrative-medicine",
    "category": "African-American-owned Integrative medicine in Arizona",
    "description": "Uses an evidence-based, holistic approach combining conventional medicine and complementary therapies to improve overall wellness",
    "hours": "Mon-Fri 9AM-6PM",
    "services": [
      "African-American-owned Integrative medicine in Arizona consultation",
      "Professional service",
      "Quality guarantee"
    ],
    "social_links": {}
  }
]