[
  {
    "name": "Antai Asian Gourmet Catering",
    "address": "5084 Sunset Blvd, Lexington, SC 29072",
    "phone": "",
    "rating": 4.5,
    "reviews": 25,
    "website": "https://www.ezcater.com/catering/antai-asian-gourmet-lexington/",
    "category": "Asian-owned Diet-specific catering in South-Carolina",
    "description": "Offers a variety of Asian dishes with options that can accommodate gluten-free needs",
    "hours": "Mon-Fri 9AM-6PM",
    "services": [
      "Asian-owned Diet-specific catering in South-Carolina consultation",
      "Professional service",
      "Quality guarantee"
    ],
    "social_links": {}
  },
  {
    "name": "BIBIBOP Asian Grill",
    "address": "Multiple locations in South Carolina (e.g., 440 Columbiana Dr, Columbia, SC 29212)",
    "phone": "(803) 407-5400 (Example for Columbia location)",
    "rating": 4.3,
    "reviews": 25,
    "website": "https://bibibop.com/",
    "category": "Asian-owned Diet-specific catering in South-Carolina",
    "description": "Fast-casual Asian grill offering customizable bowls that are gluten-free and vegan-friendly. They also offer catering",
    "hours": "Mon-Fri 9AM-6PM",
    "services": [
      "Asian-owned Diet-specific catering in South-Carolina consultation",
      "Professional service",
      "Quality guarantee"
    ],
    "social_links": {}
  },
  {
    "name": "Spice Asian Kitchen",
    "address": "251 Textile Way, Fort Mill, SC 29715",
    "phone": "(803) 548-6868",
    "rating": 4.4,
    "reviews": 25,
    "website": "https://www.spiceasiankitchen.com/",
    "category": "Asian-owned Diet-specific catering in South-Carolina",
    "description": "Offers Asian-inspired cuisine with catering services, potentially accommodating various dietary needs",
    "hours": "Mon-Fri 9AM-6PM",
    "services": [
      "Asian-owned Diet-specific catering in South-Carolina consultation",
      "Professional service",
      "Quality guarantee"
    ],
    "social_links": {}
  },
  {
    "name": "Thai Vegan SC",
    "address": "107 Middleton Way #14, Greer, SC 29659",
    "phone": "(864) 334-5962",
    "rating": 4.7,
    "reviews": 25,
    "website": "https://thaivegansc.com/",
    "category": "Asian-owned Diet-specific catering in South-Carolina",
    "description": "Specializes in authentic Thai food that is entirely plant-based and vegan-friendly",
    "hours": "Mon-Fri 9AM-6PM",
    "services": [
      "Asian-owned Diet-specific catering in South-Carolina consultation",
      "Professional service",
      "Quality guarantee"
    ],
    "social_links": {}
  },
  {
    "name": "Be-Em Asian Kitchen",
    "address": "1848 Galleria Blvd, Charlotte, NC 28208 (Note: This is in North Carolina, but often serves the greater Charlotte area which borders SC)",
    "phone": "(704) 491-4374",
    "rating": 4.7,
    "reviews": 25,
    "website": "https://www.be-em.com/",
    "category": "Asian-owned Diet-specific catering in South-Carolina",
    "description": "Asian fusion restaurant offering catering with vegan and gluten-free options",
    "hours": "Mon-Fri 9AM-6PM",
    "services": [
      "Asian-owned Diet-specific catering in South-Carolina consultation",
      "Professional service",
      "Quality guarantee"
    ],
    "social_links": {}
  },
  {
    "name": "Lin's Asian Cafe",
    "address": "850 E Suber Road, Greer, SC 29650",
    "phone": "(864) 655-7716",
    "rating": 4.3,
    "reviews": 25,
    "website": "https://www.linsasiancafesc.com/",
    "category": "Asian-owned Diet-specific catering in South-Carolina",
    "description": "Offers Chinese, Hibachi, and Thai cuisine with catering services",
    "hours": "Mon-Fri 9AM-6PM",
    "services": [
      "Asian-owned Diet-specific catering in South-Carolina consultation",
      "Professional service",
      "Quality guarantee"
    ],
    "social_links": {}
  },
  {
    "name": "Chowrastha",
    "address": "1000 Johnnie Dodds Blvd, Mt Pleasant, SC 29464 (This is a general location, specific catering details may require direct contact)",
    "phone": "",
    "rating": 4.5,
    "reviews": 25,
    "website": "https://chowrastha.us/",
    "category": "Asian-owned Diet-specific catering in South-Carolina",
    "description": "Specializes in Indian cuisine, which can often accommodate various dietary needs like vegetarian and vegan",
    "hours": "Mon-Fri 9AM-6PM",
    "services": [
      "Asian-owned Diet-specific catering in South-Carolina consultation",
      "Professional service",
      "Quality guarantee"
    ],
    "social_links": {}
  },
  {
    "name": "Asian Gourmet Catering",
    "address": "8600 Dorchester Rd, North Charleston, SC 29418",
    "phone": "(843) 552-7777",
    "rating": 4.7,
    "reviews": 25,
    "website": "https://www.ezcater.com/catering/asian-gourmet-north-charleston/",
    "category": "Asian-owned Diet-specific catering in South-Carolina",
    "description": "Offers a wide variety of Asian dishes and has received positive reviews for portion size and on-time delivery",
    "hours": "Mon-Fri 9AM-6PM",
    "services": [
      "Asian-owned Diet-specific catering in South-Carolina consultation",
      "Professional service",
      "Quality guarantee"
    ],
    "social_links": {}
  },
  {
    "name": "Chef Linda Lieberman Catering",
    "address": "182 Rutledge Avenue, Charleston, SC 29401",
    "phone": "(843) 818-9227",
    "rating": 4.5,
    "reviews": 25,
    "website": "https://www.totallyjewishtravel.com/us/south-carolina/charleston/kosher-restaurants/chef-linda-lieberman-catering",
    "category": "Asian-owned Diet-specific catering in South-Carolina",
    "description": "A kosher caterer that can provide meals for various events. While not exclusively Asian, they offer catering services",
    "hours": "Mon-Fri 9AM-6PM",
    "services": [
      "Asian-owned Diet-specific catering in South-Carolina consultation",
      "Professional service",
      "Quality guarantee"
    ],
    "social_links": {}
  },
  {
    "name": "Neptune's Kosher Catering",
    "address": "1645 Raoul Wallenberg Blvd, Charleston, SC 29407",
    "phone": "(803) 639-8903",
    "rating": 4.8,
    "reviews": 25,
    "website": "https://www.neptuneskoshercatering.com/",
    "category": "Asian-owned Diet-specific catering in South-Carolina",
    "description": "Specializes in kosher and modern Israeli cuisine, offering custom catering experiences. While not Asian, they cater to specific dietary needs",
    "hours": "Mon-Fri 9AM-6PM",
    "services": [
      "Asian-owned Diet-specific catering in South-Carolina consultation",
      "Professional service",
      "Quality guarantee"
    ],
    "social_links": {}
  }
]