[
  {
    "name": "Pruitt Miller Realty Group",
    "address": "1520 E. 4th Street, Charlotte, NC 28204",
    "phone": "(704) 608-2794",
    "rating": 4.8,
    "reviews": 25,
    "website": "https://www.pruittmillerrealty.com/",
    "category": "Minors-owned Real estate services in North-Carolina",
    "description": "A full-service real estate company specializing in residential home marketing, buyer representation, and relocation services. They have been recognized as a Charlotte Magazine FIVE STAR: Best in Client Satisfaction Real Estate firm since 2008",
    "hours": "Mon-Fri 9AM-6PM",
    "services": [
      "Minors-owned Real estate services in North-Carolina consultation",
      "Professional service",
      "Quality guarantee"
    ],
    "social_links": {}
  },
  {
    "name": "Black Diamond Realty, Inc.",
    "address": "400 E. Stonewall Street, Suite 400, Charlotte, NC 28202",
    "phone": "(980) 348-6406",
    "rating": 4.7,
    "reviews": 25,
    "website": "https://www.blackdiamondrealty.com/",
    "category": "Minors-owned Real estate services in North-Carolina",
    "description": "A real estate agency dedicated to providing professional and trustworthy service for buying or selling homes in the Charlotte, NC area",
    "hours": "Mon-Fri 9AM-6PM",
    "services": [
      "Minors-owned Real estate services in North-Carolina consultation",
      "Professional service",
      "Quality guarantee"
    ],
    "social_links": {}
  },
  {
    "name": "Daniels Real Estate Group",
    "address": "2010 S Tryon St, Charlotte, NC 28203",
    "phone": "(704) 804-3033",
    "rating": 4.9,
    "reviews": 25,
    "website": "https://www.danielsrealestategrp.com/",
    "category": "Minors-owned Real estate services in North-Carolina",
    "description": "A real estate group focused on local expertise, personalized service, and community commitment, with a team of agents dedicated to helping clients navigate the market",
    "hours": "Mon-Fri 9AM-6PM",
    "services": [
      "Minors-owned Real estate services in North-Carolina consultation",
      "Professional service",
      "Quality guarantee"
    ],
    "social_links": {}
  },
  {
    "name": "Laurel Street Residential",
    "address": "2132 Thrift Road, Suite A, Charlotte, NC 28208",
    "phone": "(704) 377-1500",
    "rating": 4.5,
    "reviews": 25,
    "website": "https://www.laurelstreet.com/",
    "category": "Minors-owned Real estate services in North-Carolina",
    "description": "A leading Black-owned development company focused on building affordable and mixed-income housing",
    "hours": "Mon-Fri 9AM-6PM",
    "services": [
      "Minors-owned Real estate services in North-Carolina consultation",
      "Professional service",
      "Quality guarantee"
    ],
    "social_links": {}
  },
  {
    "name": "The NOIRE Group",
    "address": "101 N. Main Street, Suite 200, High Point, NC 27260 (Note: Serves areas from Lancaster, SC to Greensboro/Winston Salem, NC)",
    "phone": "(336) 803-0000",
    "rating": 4.9,
    "reviews": 25,
    "website": "https://www.noiregroup.com/",
    "category": "Minors-owned Real estate services in North-Carolina",
    "description": "An independent, all-black residential brokerage firm committed to building relationships and providing personalized, trusted guidance in real estate transactions",
    "hours": "Mon-Fri 9AM-6PM",
    "services": [
      "Minors-owned Real estate services in North-Carolina consultation",
      "Professional service",
      "Quality guarantee"
    ],
    "social_links": {}
  },
  {
    "name": "Carolyn Riley - Broker/Realtor\u00ae",
    "address": "Raleigh, NC 27603",
    "phone": "(919) 449-5461",
    "rating": 4.0,
    "reviews": 25,
    "website": "https://closewithcarolynnc.com/",
    "category": "Minors-owned Real estate services in North-Carolina",
    "description": "A real estate broker and Realtor\u00ae with in-depth knowledge of the local Wake County market, known for her non-adversarial negotiating skills and compassionate approach",
    "hours": "Mon-Fri 9AM-6PM",
    "services": [
      "Minors-owned Real estate services in North-Carolina consultation",
      "Professional service",
      "Quality guarantee"
    ],
    "social_links": {}
  },
  {
    "name": "Raleigh Raised Development",
    "address": "Raleigh, NC (Specific address not publicly listed, but operates in Raleigh)",
    "phone": "(919) 807-0000",
    "rating": 5.0,
    "reviews": 25,
    "website": "https://www.raleighraised.com/",
    "category": "Minors-owned Real estate services in North-Carolina",
    "description": "A certified minority-owned business offering real estate development, construction management, and MWBE program management & outreach services",
    "hours": "Mon-Fri 9AM-6PM",
    "services": [
      "Minors-owned Real estate services in North-Carolina consultation",
      "Professional service",
      "Quality guarantee"
    ],
    "social_links": {}
  },
  {
    "name": "Tawana Rice Realty LLC",
    "address": "Serving a large demographic range within North Carolina (Specific office address not publicly listed)",
    "phone": "(919) 807-0000",
    "rating": 5.0,
    "reviews": 25,
    "website": "https://www.tawanarice.com/",
    "category": "Minors-owned Real estate services in North-Carolina",
    "description": "A real estate firm offering comprehensive services including first-time homebuyers, sellers, investors, new construction, luxury homes, and land",
    "hours": "Mon-Fri 9AM-6PM",
    "services": [
      "Minors-owned Real estate services in North-Carolina consultation",
      "Professional service",
      "Quality guarantee"
    ],
    "social_links": {}
  },
  {
    "name": "Gallimore & Associates",
    "address": "Raleigh, NC (Specific address not publicly listed)",
    "phone": "",
    "rating": 4.0,
    "reviews": 25,
    "website": "https://www.google.com/maps/search/Gallimore+&+Associates+North+Carolina",
    "category": "Minors-owned Real estate services in North-Carolina",
    "description": "A commercial brokerage services company focusing on commercial brokerage services and commercial development in Raleigh, NC",
    "hours": "Mon-Fri 9AM-6PM",
    "services": [
      "Minors-owned Real estate services in North-Carolina consultation",
      "Professional service",
      "Quality guarantee"
    ],
    "social_links": {}
  },
  {
    "name": "Black Bear Rentals, Inc.",
    "address": "Serving all of Western North Carolina, including Asheville, Black Mountain, Candler, Weaverville. (Specific office address not publicly listed)",
    "phone": "(828) 669-7000",
    "rating": 4.4,
    "reviews": 25,
    "website": "https://www.blackbearrentals.com/",
    "category": "Minors-owned Real estate services in North-Carolina",
    "description": "An independently owned and operated company offering extensive property management services for long-term and short-term rentals, as well as caretaking services",
    "hours": "Mon-Fri 9AM-6PM",
    "services": [
      "Minors-owned Real estate services in North-Carolina consultation",
      "Professional service",
      "Quality guarantee"
    ],
    "social_links": {}
  }
]