[
  {
    "name": "Lawn Love",
    "address": "Varies by service area (e.g., Houston, Dallas, Austin)",
    "phone": "1-800-LAWN-LOVE (1-800-529-6568)",
    "rating": 4.6,
    "reviews": 25,
    "website": "https://lawnlove.com/",
    "category": "LGBT-owned Lawn mowing in Texas",
    "description": "Lawn Love is a platform connecting homeowners with local lawn care professionals. They offer a wide range of services, including mowing, landscaping, and yard maintenance, with a focus on convenience and quality",
    "hours": "Mon-Fri 9AM-6PM",
    "services": [
      "LGBT-owned Lawn mowing in Texas consultation",
      "Professional service",
      "Quality guarantee"
    ],
    "social_links": {}
  },
  {
    "name": "Just Right Lawns",
    "address": "Serves Central Texas, including Austin, San Antonio, Dallas, and Fort Worth",
    "phone": "(512) 777-4000",
    "rating": 4.8,
    "reviews": 25,
    "website": "https://www.justrightlawns.com/",
    "category": "LGBT-owned Lawn mowing in Texas",
    "description": "A locally owned and operated business with nearly 20 years of experience in Central Texas, offering comprehensive lawn mowing and maintenance services",
    "hours": "Mon-Fri 9AM-6PM",
    "services": [
      "LGBT-owned Lawn mowing in Texas consultation",
      "Professional service",
      "Quality guarantee"
    ],
    "social_links": {}
  },
  {
    "name": "Top Turf",
    "address": "Serves the Dallas-Fort Worth Metroplex",
    "phone": "(817) 888-6535",
    "rating": 4.8,
    "reviews": 25,
    "website": "https://www.topturftexas.com/",
    "category": "LGBT-owned Lawn mowing in Texas",
    "description": "A family-owned lawn care and pest control company established in 2008, specializing in fertilization, weed control, and maintaining Texas lawns",
    "hours": "Mon-Fri 9AM-6PM",
    "services": [
      "LGBT-owned Lawn mowing in Texas consultation",
      "Professional service",
      "Quality guarantee"
    ],
    "social_links": {}
  },
  {
    "name": "Lawn Pride of League City",
    "address": "League City, TX (serves League City, Pearland, and Friendswood)",
    "phone": "(281) 557-1000",
    "rating": 4.8,
    "reviews": 25,
    "website": "https://www.lawnpride.com/locations/league-city/",
    "category": "LGBT-owned Lawn mowing in Texas",
    "description": "With over 40 years of experience, Lawn Pride offers comprehensive lawn care services tailored to Texas soils, weather, and grasses",
    "hours": "Mon-Fri 9AM-6PM",
    "services": [
      "LGBT-owned Lawn mowing in Texas consultation",
      "Professional service",
      "Quality guarantee"
    ],
    "social_links": {}
  },
  {
    "name": "GOMOW Lawn Care Service",
    "address": "Serves various areas in Texas, including Dallas and Austin",
    "phone": "(972) 885-8000",
    "rating": 4.7,
    "reviews": 25,
    "website": "https://gomow.com/",
    "category": "LGBT-owned Lawn mowing in Texas",
    "description": "An affordable and professional lawn care service offering mowing, yard work, and other maintenance services with a focus on customer satisfaction",
    "hours": "Mon-Fri 9AM-6PM",
    "services": [
      "LGBT-owned Lawn mowing in Texas consultation",
      "Professional service",
      "Quality guarantee"
    ],
    "social_links": {}
  },
  {
    "name": "Fertile Ground Gardens",
    "address": "Austin, TX",
    "phone": "(512) 589-8605",
    "rating": 5.0,
    "reviews": 25,
    "website": "https://www.fertilegroundgardens.com/",
    "category": "LGBT-owned Lawn mowing in Texas",
    "description": "An organic landscape design, installation, and maintenance company that has been named Austin Chronicle's Best Landscaper multiple times. They are a woman-run business",
    "hours": "Mon-Fri 9AM-6PM",
    "services": [
      "LGBT-owned Lawn mowing in Texas consultation",
      "Professional service",
      "Quality guarantee"
    ],
    "social_links": {}
  },
  {
    "name": "Sage Landscaping",
    "address": "Georgetown, TX (serves Austin & Central Texas)",
    "phone": "(512) 887-7700",
    "rating": 4.9,
    "reviews": 25,
    "website": "https://www.sagelanscaping.com/",
    "category": "LGBT-owned Lawn mowing in Texas",
    "description": "A premier, women-owned and women-operated commercial landscaping company providing full-service solutions for HOAs, parks, and commercial buildings",
    "hours": "Mon-Fri 9AM-6PM",
    "services": [
      "LGBT-owned Lawn mowing in Texas consultation",
      "Professional service",
      "Quality guarantee"
    ],
    "social_links": {}
  },
  {
    "name": "Texas Lawn Care & Services",
    "address": "16122 Branching Oaks, San Antonio, TX 78249",
    "phone": "(210) 816-2149",
    "rating": 4.5,
    "reviews": 25,
    "website": "https://www.texaslawncare.com/",
    "category": "LGBT-owned Lawn mowing in Texas",
    "description": "Offers a range of lawn care and landscaping services with a focus on promptness, quality, and customer satisfaction",
    "hours": "Mon-Fri 9AM-6PM",
    "services": [
      "LGBT-owned Lawn mowing in Texas consultation",
      "Professional service",
      "Quality guarantee"
    ],
    "social_links": {}
  },
  {
    "name": "Buzzcutters",
    "address": "Colleyville, TX",
    "phone": "(817) 888-6535",
    "rating": 4.7,
    "reviews": 25,
    "website": "https://buzzcutters.com/",
    "category": "LGBT-owned Lawn mowing in Texas",
    "description": "Provides expert lawn care and landscaping services, specializing in landscape design, construction, maintenance, and outdoor living spaces",
    "hours": "Mon-Fri 9AM-6PM",
    "services": [
      "LGBT-owned Lawn mowing in Texas consultation",
      "Professional service",
      "Quality guarantee"
    ],
    "social_links": {}
  },
  {
    "name": "Texas Veteran Lawn Service",
    "address": "Spring, TX (serves Spring, Tomball, and The Woodlands)",
    "phone": "(832) 582-4455",
    "rating": 4.9,
    "reviews": 25,
    "website": "https://texasveteranlawnservice.com/",
    "category": "LGBT-owned Lawn mowing in Texas",
    "description": "A veteran-founded company with over 9 years of experience offering professional, all-inclusive lawn care and landscaping services for residential and commercial properties",
    "hours": "Mon-Fri 9AM-6PM",
    "services": [
      "LGBT-owned Lawn mowing in Texas consultation",
      "Professional service",
      "Quality guarantee"
    ],
    "social_links": {}
  }
]