[
  {
    "name": "Hamernick's",
    "address": "Multiple locations in Minneapolis & St. Paul, MN (specific address varies by showroom)",
    "phone": "(612) 721-4436",
    "rating": 4.5,
    "reviews": 25,
    "website": "https://www.hamernicks.com/",
    "category": "Arabic-speaking Vinyl flooring in Minnesota",
    "description": "Offers a wide selection of flooring, including luxury vinyl plank (LVP), with in-home consultations and installation services",
    "hours": "Mon-Fri 9AM-6PM",
    "services": [
      "Arabic-speaking Vinyl flooring in Minnesota consultation",
      "Professional service",
      "Quality guarantee"
    ],
    "social_links": {}
  },
  {
    "name": "Moore Flooring",
    "address": "14300 Industrial Cir NW, Andover, MN 55304 (Showroom location)",
    "phone": "(763) 574-2545",
    "rating": 4.7,
    "reviews": 25,
    "website": "https://mooreflooring.com/",
    "category": "Arabic-speaking Vinyl flooring in Minnesota",
    "description": "A flooring source for carpet, vinyl plank, wood, tile, and more, serving the Minneapolis-St. Paul area",
    "hours": "Mon-Fri 9AM-6PM",
    "services": [
      "Arabic-speaking Vinyl flooring in Minnesota consultation",
      "Professional service",
      "Quality guarantee"
    ],
    "social_links": {}
  },
  {
    "name": "FocalPoint Carpet One Floor & Home",
    "address": "12550 West Frontage Road, Burnsville, MN 55337",
    "phone": "(952) 890-7010",
    "rating": 4.8,
    "reviews": 25,
    "website": "https://www.carpetone.com/focalpoint",
    "category": "Arabic-speaking Vinyl flooring in Minnesota",
    "description": "Offers a wide selection of vinyl floors, including luxury vinyl options like plank (LVP) and tile (LVT), with personalized assistance",
    "hours": "Mon-Fri 9AM-6PM",
    "services": [
      "Arabic-speaking Vinyl flooring in Minnesota consultation",
      "Professional service",
      "Quality guarantee"
    ],
    "social_links": {}
  },
  {
    "name": "Bloomington Carpet One Floor & Home",
    "address": "503 American Boulevard West, Bloomington, MN 55420",
    "phone": "(952) 884-7474",
    "rating": 4.6,
    "reviews": 25,
    "website": "https://www.carpetone.com/bloomington",
    "category": "Arabic-speaking Vinyl flooring in Minnesota",
    "description": "Provides a wide selection of brands and styles in luxury vinyl plank (LVP) and luxury vinyl tile (LVT) flooring",
    "hours": "Mon-Fri 9AM-6PM",
    "services": [
      "Arabic-speaking Vinyl flooring in Minnesota consultation",
      "Professional service",
      "Quality guarantee"
    ],
    "social_links": {}
  },
  {
    "name": "Schneider Carpet One Floor & Home",
    "address": "1112 West 7th Street, Saint Paul, MN 55102",
    "phone": "(651) 227-7331",
    "rating": 4.4,
    "reviews": 25,
    "website": "https://www.carpetone.com/schneider",
    "category": "Arabic-speaking Vinyl flooring in Minnesota",
    "description": "Offers a broad range of flooring options, including vinyl, with expert advice and installation services",
    "hours": "Mon-Fri 9AM-6PM",
    "services": [
      "Arabic-speaking Vinyl flooring in Minnesota consultation",
      "Professional service",
      "Quality guarantee"
    ],
    "social_links": {}
  },
  {
    "name": "Hopkins Carpet One Floor & Home (Carpet City)",
    "address": "11572 K-Tel Drive, Hopkins, MN 55343",
    "phone": "(952) 935-5441",
    "rating": 4.5,
    "reviews": 25,
    "website": "https://www.carpetone.com/hopkinscity",
    "category": "Arabic-speaking Vinyl flooring in Minnesota",
    "description": "Features a wide selection of brands and styles in luxury vinyl plank (LVP) and luxury vinyl tile (LVT) flooring",
    "hours": "Mon-Fri 9AM-6PM",
    "services": [
      "Arabic-speaking Vinyl flooring in Minnesota consultation",
      "Professional service",
      "Quality guarantee"
    ],
    "social_links": {}
  },
  {
    "name": "UB Hardwoods",
    "address": "Based in Golden Valley and Plymouth, MN (service area includes Minneapolis/St. Paul Metro)",
    "phone": "(763) 544-1500",
    "rating": 4.9,
    "reviews": 25,
    "website": "https://ubhardwoods.com/",
    "category": "Arabic-speaking Vinyl flooring in Minnesota",
    "description": "Specializes in various flooring types, including luxury vinyl plank, with a focus on quality craftsmanship and customer service",
    "hours": "Mon-Fri 9AM-6PM",
    "services": [
      "Arabic-speaking Vinyl flooring in Minnesota consultation",
      "Professional service",
      "Quality guarantee"
    ],
    "social_links": {}
  },
  {
    "name": "Floor City (Minnesota Floor Supply)",
    "address": "Multiple warehouse distribution centers (online shopping available)",
    "phone": "(800) 303-1326",
    "rating": 4.3,
    "reviews": 25,
    "website": "https://www.floorcity.com/",
    "category": "Arabic-speaking Vinyl flooring in Minnesota",
    "description": "A supplier of resilient and commercial-grade floor coverings, including vinyl composition tile (VCT), luxury vinyl tile (LVT), and vinyl plank flooring (LVP)",
    "hours": "Mon-Fri 9AM-6PM",
    "services": [
      "Arabic-speaking Vinyl flooring in Minnesota consultation",
      "Professional service",
      "Quality guarantee"
    ],
    "social_links": {}
  },
  {
    "name": "Sherwin Williams Company",
    "address": "5110 Main Street, Minneapolis, MN 55418",
    "phone": "(612) 789-2551",
    "rating": 4.2,
    "reviews": 25,
    "website": "https://www.sherwin-williams.com/",
    "category": "Arabic-speaking Vinyl flooring in Minnesota",
    "description": "Offers high-quality luxury vinyl flooring designed to look like hardwood or stone, built to endure busy lifestyles",
    "hours": "Mon-Fri 9AM-6PM",
    "services": [
      "Arabic-speaking Vinyl flooring in Minnesota consultation",
      "Professional service",
      "Quality guarantee"
    ],
    "social_links": {}
  },
  {
    "name": "Empire Today\u00ae",
    "address": "Service area includes the Metro Minneapolis area",
    "phone": "1-800-588-2300",
    "rating": 4.1,
    "reviews": 25,
    "website": "https://www.empiretoday.com/",
    "category": "Arabic-speaking Vinyl flooring in Minnesota",
    "description": "A leading provider of installed home improvements, offering quality, name-brand vinyl flooring for residential and commercial customers",
    "hours": "Mon-Fri 9AM-6PM",
    "services": [
      "Arabic-speaking Vinyl flooring in Minnesota consultation",
      "Professional service",
      "Quality guarantee"
    ],
    "social_links": {}
  }
]