[
  {
    "name": "Bronzed Beauty House",
    "address": "1246 Delaware St, Denver, CO 80204",
    "phone": "(720) 984-1472",
    "rating": 4.0,
    "reviews": 25,
    "website": "https://www.bronzedbeautyhouse.com/",
    "category": "Bengali-speaking Spray tanning in Colorado",
    "description": "Offers airbrush tans, sugaring, teeth whitening, and other beauty services. They also provide mobile services",
    "hours": "Mon-Fri 9AM-6PM",
    "services": [
      "Bengali-speaking Spray tanning in Colorado consultation",
      "Professional service",
      "Quality guarantee"
    ],
    "social_links": {}
  },
  {
    "name": "365 Glow",
    "address": "Colorado Springs, CO (Mobile service)",
    "phone": "719-201-5795",
    "rating": 4.0,
    "reviews": 25,
    "website": "https://www.365glow.com/",
    "category": "Bengali-speaking Spray tanning in Colorado",
    "description": "Mobile airbrush tanning service using organic solutions, serving Colorado Springs and surrounding areas",
    "hours": "Mon-Fri 9AM-6PM",
    "services": [
      "Bengali-speaking Spray tanning in Colorado consultation",
      "Professional service",
      "Quality guarantee"
    ],
    "social_links": {}
  },
  {
    "name": "Sinless Sun Spray Tanning",
    "address": "Denver, CO (Cherry Creek North)",
    "phone": "",
    "rating": 5.0,
    "reviews": 25,
    "website": "https://www.sinlesssun.com/",
    "category": "Bengali-speaking Spray tanning in Colorado",
    "description": "Offers customized airbrush tans for a natural-looking glow without harmful UV rays",
    "hours": "Mon-Fri 9AM-6PM",
    "services": [
      "Bengali-speaking Spray tanning in Colorado consultation",
      "Professional service",
      "Quality guarantee"
    ],
    "social_links": {}
  },
  {
    "name": "goGLOW",
    "address": "Parker, CO",
    "phone": "",
    "rating": 4.0,
    "reviews": 25,
    "website": "https://www.goglow.com/",
    "category": "Bengali-speaking Spray tanning in Colorado",
    "description": "Offers skin-healthy airbrush tanning services with vegan, plant-based skincare products",
    "hours": "Mon-Fri 9AM-6PM",
    "services": [
      "Bengali-speaking Spray tanning in Colorado consultation",
      "Professional service",
      "Quality guarantee"
    ],
    "social_links": {}
  },
  {
    "name": "Let's Glow Honey",
    "address": "Colorado Springs, CO (Mobile service)",
    "phone": "",
    "rating": 4.0,
    "reviews": 25,
    "website": "https://letsglowhoney.com/",
    "category": "Bengali-speaking Spray tanning in Colorado",
    "description": "Mobile custom spray tanning service using gluten-free, vegan, cruelty-free, and paraben-free Sjolie Sunless products",
    "hours": "Mon-Fri 9AM-6PM",
    "services": [
      "Bengali-speaking Spray tanning in Colorado consultation",
      "Professional service",
      "Quality guarantee"
    ],
    "social_links": {}
  },
  {
    "name": "Altitude Tan",
    "address": "Erie, CO (In-home business)",
    "phone": "(720) 425-6357",
    "rating": 4.0,
    "reviews": 25,
    "website": "https://www.altitudetan.com/",
    "category": "Bengali-speaking Spray tanning in Colorado",
    "description": "Offers a heated airbrush spray tanning experience, catering to individual needs and comfort",
    "hours": "Mon-Fri 9AM-6PM",
    "services": [
      "Bengali-speaking Spray tanning in Colorado consultation",
      "Professional service",
      "Quality guarantee"
    ],
    "social_links": {}
  },
  {
    "name": "Glo Tanning Salon",
    "address": "3018 N Nevada Ave, Suite 110, Colorado Springs, CO 80907",
    "phone": "(719) 698-8098",
    "rating": 4.0,
    "reviews": 25,
    "website": "https://glotanning.com/",
    "category": "Bengali-speaking Spray tanning in Colorado",
    "description": "Offers luxury sunbeds, spray tan booths, dry sauna, wet sauna, and red light therapy",
    "hours": "Mon-Fri 9AM-6PM",
    "services": [
      "Bengali-speaking Spray tanning in Colorado consultation",
      "Professional service",
      "Quality guarantee"
    ],
    "social_links": {}
  },
  {
    "name": "Blys",
    "address": "Denver, CO (Mobile service)",
    "phone": "",
    "rating": 4.0,
    "reviews": 25,
    "website": "https://www.getblys.com/services/spray-tan/denver",
    "category": "Bengali-speaking Spray tanning in Colorado",
    "description": "Mobile spray tanning service providing professional tans in the comfort of your home, office, or hotel",
    "hours": "Mon-Fri 9AM-6PM",
    "services": [
      "Bengali-speaking Spray tanning in Colorado consultation",
      "Professional service",
      "Quality guarantee"
    ],
    "social_links": {}
  },
  {
    "name": "Glow Body and Sun",
    "address": "Denver, CO (Mobile service)",
    "phone": "",
    "rating": 4.0,
    "reviews": 25,
    "website": "https://www.glowbodyandsun.com/mobile-spray-tan",
    "category": "Bengali-speaking Spray tanning in Colorado",
    "description": "Mobile spray tan artists travel to you, offering organic, vegan, and natural formulas for a flawless glow",
    "hours": "Mon-Fri 9AM-6PM",
    "services": [
      "Bengali-speaking Spray tanning in Colorado consultation",
      "Professional service",
      "Quality guarantee"
    ],
    "social_links": {}
  },
  {
    "name": "Mile High Spray Tan Llc",
    "address": "Denver, CO (Mobile service and home studio)",
    "phone": "720-440-2337",
    "rating": 4.0,
    "reviews": 25,
    "website": "https://www.milehighspraytan.com/",
    "category": "Bengali-speaking Spray tanning in Colorado",
    "description": "Premier mobile spray tan service using all-natural products for customized tones",
    "hours": "Mon-Fri 9AM-6PM",
    "services": [
      "Bengali-speaking Spray tanning in Colorado consultation",
      "Professional service",
      "Quality guarantee"
    ],
    "social_links": {}
  }
]