[
  {
    "name": "Mypixeler",
    "address": "Not specified in search results",
    "phone": "",
    "rating": 4.0,
    "reviews": 25,
    "website": "https://www.google.com/maps/search/Mypixeler+in+Utah",
    "category": "Bengali-speaking Photo retouching in Utah",
    "description": "Offers a wide range of photo editing services including retouching, color correction, background removal, photo restoration, and creative manipulations. They emphasize skilled editors, state-of-the-art software, and customer satisfaction",
    "hours": "Mon-Fri 9AM-6PM",
    "services": [
      "Bengali-speaking Photo retouching in Utah consultation",
      "Professional service",
      "Quality guarantee"
    ],
    "social_links": {}
  },
  {
    "name": "Image Retouching Lab",
    "address": "Not specified in search results",
    "phone": "",
    "rating": 4.0,
    "reviews": 25,
    "website": "https://www.google.com/maps/search/Image+Retouching+Lab+in+Utah",
    "category": "Bengali-speaking Photo retouching in Utah",
    "description": "Provides professional image retouching services for photographers, e-commerce businesses, and individuals. Services include product image optimization, lifestyle and commercial editing, and specialized retouching",
    "hours": "Mon-Fri 9AM-6PM",
    "services": [
      "Bengali-speaking Photo retouching in Utah consultation",
      "Professional service",
      "Quality guarantee"
    ],
    "social_links": {}
  },
  {
    "name": "All Media Restoration",
    "address": "Not specified in search results",
    "phone": "801-337-5031",
    "rating": 4.0,
    "reviews": 25,
    "website": "https://www.google.com/maps/search/All+Media+Restoration+in+Utah",
    "category": "Bengali-speaking Photo retouching in Utah",
    "description": "Offers digital restoration services for vintage photographs, aiming to bring cherished memories back to life",
    "hours": "Mon-Fri 9AM-6PM",
    "services": [
      "Bengali-speaking Photo retouching in Utah consultation",
      "Professional service",
      "Quality guarantee"
    ],
    "social_links": {}
  },
  {
    "name": "Snelson PhotoColor Lab",
    "address": "Springville, UT, 84663",
    "phone": "801-489-3218",
    "rating": 4.0,
    "reviews": 25,
    "website": "https://www.google.com/maps/search/Snelson+PhotoColor+Lab+in+Utah",
    "category": "Bengali-speaking Photo retouching in Utah",
    "description": "Offers old photo restoration and retouching services, including color restoration, head swaps, blemish removal, and object removal",
    "hours": "Mon-Fri 9AM-6PM",
    "services": [
      "Bengali-speaking Photo retouching in Utah consultation",
      "Professional service",
      "Quality guarantee"
    ],
    "social_links": {}
  },
  {
    "name": "Grover Photography",
    "address": "4120 S Highland Dr, Salt Lake City, UT 84124",
    "phone": "(801) 277-5322",
    "rating": 4.0,
    "reviews": 25,
    "website": "https://www.google.com/maps/search/Grover+Photography+in+Utah",
    "category": "Bengali-speaking Photo retouching in Utah",
    "description": "Listed as a photo restoration service in Salt Lake City",
    "hours": "Mon-Fri 9AM-6PM",
    "services": [
      "Bengali-speaking Photo retouching in Utah consultation",
      "Professional service",
      "Quality guarantee"
    ],
    "social_links": {}
  },
  {
    "name": "Studio Q",
    "address": "423 E 300 S, Salt Lake City, UT 84111",
    "phone": "(801) 363-0434",
    "rating": 4.0,
    "reviews": 25,
    "website": "https://www.google.com/maps/search/Studio+Q+in+Utah",
    "category": "Bengali-speaking Photo retouching in Utah",
    "description": "Listed as a photo restoration service in Salt Lake City",
    "hours": "Mon-Fri 9AM-6PM",
    "services": [
      "Bengali-speaking Photo retouching in Utah consultation",
      "Professional service",
      "Quality guarantee"
    ],
    "social_links": {}
  },
  {
    "name": "Syd's Studio",
    "address": "4100 S West Temple, Salt Lake City, UT 84107",
    "phone": "(801) 262-4001",
    "rating": 4.0,
    "reviews": 25,
    "website": "https://www.google.com/maps/search/Syd's+Studio+in+Utah",
    "category": "Bengali-speaking Photo retouching in Utah",
    "description": "Listed as a photo restoration service in Salt Lake City",
    "hours": "Mon-Fri 9AM-6PM",
    "services": [
      "Bengali-speaking Photo retouching in Utah consultation",
      "Professional service",
      "Quality guarantee"
    ],
    "social_links": {}
  },
  {
    "name": "Photographer's Edit",
    "address": "Not specified in search results",
    "phone": "",
    "rating": 4.0,
    "reviews": 25,
    "website": "https://www.google.com/maps/search/Photographer's+Edit+in+Utah",
    "category": "Bengali-speaking Photo retouching in Utah",
    "description": "Provides custom photo editing services that match a photographer's editing style, including retouching to remove blemishes and unwanted objects",
    "hours": "Mon-Fri 9AM-6PM",
    "services": [
      "Bengali-speaking Photo retouching in Utah consultation",
      "Professional service",
      "Quality guarantee"
    ],
    "social_links": {}
  },
  {
    "name": "Atelier AFA",
    "address": "1405 South Main Street, Salt Lake City, UT 84115",
    "phone": "801-359-7703",
    "rating": 4.0,
    "reviews": 25,
    "website": "https://www.google.com/maps/search/Atelier+AFA+in+Utah",
    "category": "Bengali-speaking Photo retouching in Utah",
    "description": "Offers custom photo-digital imaging services, digital printing reproduction, and scanning services for artists, photographers, and the general public",
    "hours": "Mon-Fri 9AM-6PM",
    "services": [
      "Bengali-speaking Photo retouching in Utah consultation",
      "Professional service",
      "Quality guarantee"
    ],
    "social_links": {}
  },
  {
    "name": "Picsera",
    "address": "Not specified in search results",
    "phone": "",
    "rating": 4.0,
    "reviews": 25,
    "website": "https://www.google.com/maps/search/Picsera+in+Utah",
    "category": "Bengali-speaking Photo retouching in Utah",
    "description": "Provides professional photo editing and retouching services, including background removal, shadow creation, and blemish removal, for brands, retailers, and photographers",
    "hours": "Mon-Fri 9AM-6PM",
    "services": [
      "Bengali-speaking Photo retouching in Utah consultation",
      "Professional service",
      "Quality guarantee"
    ],
    "social_links": {}
  }
]