[
  {
    "name": "Indiana Small Business Development Center (SBDC)",
    "address": "Multiple locations across Indiana. The main office is often associated with the Indiana Economic Development Corporation",
    "phone": "(317) 232-8800 (General Information)",
    "rating": 4.0,
    "reviews": 25,
    "website": "https://www.isbdc.org/",
    "category": "Mexican-American-owned Productivity training in Indiana",
    "description": "Offers no-cost business advising, training, and resources for startups and existing businesses. They have a network of regional offices throughout the state",
    "hours": "Mon-Fri 9AM-6PM",
    "services": [
      "Mexican-American-owned Productivity training in Indiana consultation",
      "Professional service",
      "Quality guarantee"
    ],
    "social_links": {}
  },
  {
    "name": "Northeast Indiana Small Business Development Center (SBDC)",
    "address": "Various locations within the Northeast Indiana region",
    "phone": "(260) 437-0007 (Example number for a regional office, specific numbers vary)",
    "rating": 4.0,
    "reviews": 25,
    "website": "https://www.neindiana.org/",
    "category": "Mexican-American-owned Productivity training in Indiana",
    "description": "Provides entrepreneurs with expert guidance in areas like planning, market analysis, and government contracting",
    "hours": "Mon-Fri 9AM-6PM",
    "services": [
      "Mexican-American-owned Productivity training in Indiana consultation",
      "Professional service",
      "Quality guarantee"
    ],
    "social_links": {}
  },
  {
    "name": "Focal Point Business Coach / Consultant",
    "address": "Lowell, IN (Serves Northwest Indiana and Chicago)",
    "phone": "(312) 415-9074",
    "rating": 4.0,
    "reviews": 25,
    "website": "https://www.focalpointcoaching.com/",
    "category": "Mexican-American-owned Productivity training in Indiana",
    "description": "Professional business coaching, consulting, and training firm focused on helping small business owners grow value and achieve freedom",
    "hours": "Mon-Fri 9AM-6PM",
    "services": [
      "Mexican-American-owned Productivity training in Indiana consultation",
      "Professional service",
      "Quality guarantee"
    ],
    "social_links": {}
  },
  {
    "name": "Coachfirm",
    "address": "Nationwide services, including Indiana. Specific Indiana office not detailed",
    "phone": "(888) 227-4717 (General Inquiry)",
    "rating": 4.0,
    "reviews": 25,
    "website": "https://coachfirm.com/",
    "category": "Mexican-American-owned Productivity training in Indiana",
    "description": "Offers professional business coaching services to small businesses, specializing in business development and goal setting",
    "hours": "Mon-Fri 9AM-6PM",
    "services": [
      "Mexican-American-owned Productivity training in Indiana consultation",
      "Professional service",
      "Quality guarantee"
    ],
    "social_links": {}
  },
  {
    "name": "Dale Carnegie Training - Indianapolis & Central Indiana",
    "address": "Various locations or on-site training available in Indianapolis and Central Indiana",
    "phone": "(317) 705-4200",
    "rating": 4.0,
    "reviews": 25,
    "website": "https://www.dalecarnegie.com/locations/indianapolis-central-indiana/",
    "category": "Mexican-American-owned Productivity training in Indiana",
    "description": "Provides award-winning training in leadership, communication, sales, and customer service to enhance employee skills and productivity",
    "hours": "Mon-Fri 9AM-6PM",
    "services": [
      "Mexican-American-owned Productivity training in Indiana consultation",
      "Professional service",
      "Quality guarantee"
    ],
    "social_links": {}
  },
  {
    "name": "Indy Chamber - Coaching Services",
    "address": "Multiple coaching locations throughout Indianapolis and surrounding counties",
    "phone": "(317) 464-2258",
    "rating": 4.0,
    "reviews": 25,
    "website": "https://www.indychamber.com/",
    "category": "Mexican-American-owned Productivity training in Indiana",
    "description": "Offers personalized, one-on-one business coaching in English and Spanish to help businesses grow and succeed",
    "hours": "Mon-Fri 9AM-6PM",
    "services": [
      "Mexican-American-owned Productivity training in Indiana consultation",
      "Professional service",
      "Quality guarantee"
    ],
    "social_links": {}
  },
  {
    "name": "Purdue University Fort Wayne - Continuing Studies (Productivity Training)",
    "address": "2101 E. Coliseum Blvd., Fort Wayne, IN 46805",
    "phone": "(260) 481-6615",
    "rating": 4.0,
    "reviews": 25,
    "website": "https://www.pfw.edu/continuing-studies/",
    "category": "Mexican-American-owned Productivity training in Indiana",
    "description": "Offers courses like \"Productivity Boost: Stop Procrastinating and Get Things Done!\" taught by certified professionals",
    "hours": "Mon-Fri 9AM-6PM",
    "services": [
      "Mexican-American-owned Productivity training in Indiana consultation",
      "Professional service",
      "Quality guarantee"
    ],
    "social_links": {}
  },
  {
    "name": "Deep End Talent Strategies",
    "address": "Indianapolis, IN (Services offered statewide)",
    "phone": "(317) 207-7000",
    "rating": 4.0,
    "reviews": 25,
    "website": "https://deependtalent.com/",
    "category": "Mexican-American-owned Productivity training in Indiana",
    "description": "Provides comprehensive employee training with a learning management system (H2L) offering over 3,200 courses, including business skills and software training",
    "hours": "Mon-Fri 9AM-6PM",
    "services": [
      "Mexican-American-owned Productivity training in Indiana consultation",
      "Professional service",
      "Quality guarantee"
    ],
    "social_links": {}
  },
  {
    "name": "Business Training Works, Inc.",
    "address": "Statewide services, including Indianapolis and smaller communities",
    "phone": "(317) 570-0555",
    "rating": 4.0,
    "reviews": 25,
    "website": "https://businesstrainingworks.com/",
    "category": "Mexican-American-owned Productivity training in Indiana",
    "description": "Offers onsite and hands-on workshops in Indiana, specializing in leadership, communication, and problem-solving skills tailored to organizational needs",
    "hours": "Mon-Fri 9AM-6PM",
    "services": [
      "Mexican-American-owned Productivity training in Indiana consultation",
      "Professional service",
      "Quality guarantee"
    ],
    "social_links": {}
  },
  {
    "name": "Northern Industrial Training, LLC",
    "address": "Specific Indiana address not detailed, but offers services in Indiana",
    "phone": "(800) 550-7070",
    "rating": 4.0,
    "reviews": 25,
    "website": "https://www.northernindustrial.com/",
    "category": "Mexican-American-owned Productivity training in Indiana",
    "description": "Provides productivity training programs, including time management and courses based on \"7 Habits of Highly Effective People,\" to increase workplace productivity",
    "hours": "Mon-Fri 9AM-6PM",
    "services": [
      "Mexican-American-owned Productivity training in Indiana consultation",
      "Professional service",
      "Quality guarantee"
    ],
    "social_links": {}
  }
]