[
  {
    "name": "Lambert Moving Systems",
    "address": "Multiple locations, including Nashville, TN",
    "phone": "615-623-8228",
    "rating": 4.0,
    "reviews": 25,
    "website": "https://www.lambert-moving.com/",
    "category": "Asian-owned Specialty item moving in Tennessee",
    "description": "Offers specialized moving services for items like antiques, fine art, pianos, fragile technology, and specialized business equipment",
    "hours": "Mon-Fri 9AM-6PM",
    "services": [
      "Asian-owned Specialty item moving in Tennessee consultation",
      "Professional service",
      "Quality guarantee"
    ],
    "social_links": {}
  },
  {
    "name": "Apex Moving + Storage",
    "address": "Multiple locations, including Nashville, TN",
    "phone": "",
    "rating": 4.0,
    "reviews": 25,
    "website": "https://www.apexmoving.com/",
    "category": "Asian-owned Specialty item moving in Tennessee",
    "description": "Provides specialized moving services for items such as pianos, fine art, trade show booths, computers, electronics, vehicles, and lab/medical equipment",
    "hours": "Mon-Fri 9AM-6PM",
    "services": [
      "Asian-owned Specialty item moving in Tennessee consultation",
      "Professional service",
      "Quality guarantee"
    ],
    "social_links": {}
  },
  {
    "name": "Move On",
    "address": "Nashville, TN",
    "phone": "615-727-8300",
    "rating": 4.0,
    "reviews": 25,
    "website": "https://www.moveonmovers.com/",
    "category": "Asian-owned Specialty item moving in Tennessee",
    "description": "Offers specialty moving for items like pool tables, gun safes, playsets, exercise equipment, and vehicles, with protective wrapping and specific training for their crews",
    "hours": "Mon-Fri 9AM-6PM",
    "services": [
      "Asian-owned Specialty item moving in Tennessee consultation",
      "Professional service",
      "Quality guarantee"
    ],
    "social_links": {}
  },
  {
    "name": "Black Tie Moving",
    "address": "Multiple locations, including Nashville, TN",
    "phone": "",
    "rating": 4.0,
    "reviews": 25,
    "website": "https://blacktiemoving.com/",
    "category": "Asian-owned Specialty item moving in Tennessee",
    "description": "Provides specialized moving services for high-value fine art, delicate antique furniture, and other hard-to-pack items, with a personal move coordinator for each relocation",
    "hours": "Mon-Fri 9AM-6PM",
    "services": [
      "Asian-owned Specialty item moving in Tennessee consultation",
      "Professional service",
      "Quality guarantee"
    ],
    "social_links": {}
  },
  {
    "name": "Home-Aid Moving",
    "address": "Spring Hill, TN",
    "phone": "(615) 260-3204",
    "rating": 4.0,
    "reviews": 25,
    "website": "https://www.homeaidmoving.com/",
    "category": "Asian-owned Specialty item moving in Tennessee",
    "description": "Offers specialty moving services for items like upright pianos, antiques, and artwork, with a focus on white-glove service",
    "hours": "Mon-Fri 9AM-6PM",
    "services": [
      "Asian-owned Specialty item moving in Tennessee consultation",
      "Professional service",
      "Quality guarantee"
    ],
    "social_links": {}
  },
  {
    "name": "InterAsian Market & Deli",
    "address": "10672321 Nolanville Pike, Nashville, TN 37211",
    "phone": "",
    "rating": 4.0,
    "reviews": 25,
    "website": "https://www.google.com/maps/search/InterAsian+Market+&+Deli+in+Tennessee",
    "category": "Asian-owned Specialty item moving in Tennessee",
    "description": "Offers a wide variety of Asian groceries and authentic deli cuisine, including Vietnamese-style bahn mi sandwiches",
    "hours": "Mon-Fri 9AM-6PM",
    "services": [
      "Asian-owned Specialty item moving in Tennessee consultation",
      "Professional service",
      "Quality guarantee"
    ],
    "social_links": {}
  },
  {
    "name": "Chauhan Ale and Masala House",
    "address": "10752 Parkside Dr, Knoxville, TN 37934",
    "phone": "(865) 247-0000",
    "rating": 4.0,
    "reviews": 25,
    "website": "https://chauhanale.com/",
    "category": "Asian-owned Specialty item moving in Tennessee",
    "description": "Indian restaurant offering a blend of Indian flavors with a modern twist",
    "hours": "Mon-Fri 9AM-6PM",
    "services": [
      "Asian-owned Specialty item moving in Tennessee consultation",
      "Professional service",
      "Quality guarantee"
    ],
    "social_links": {}
  },
  {
    "name": "Sunda New Asian",
    "address": "1419 3rd Ave S, Nashville, TN 37210",
    "phone": "(615) 610-0044",
    "rating": 4.0,
    "reviews": 25,
    "website": "https://sundanashville.com/",
    "category": "Asian-owned Specialty item moving in Tennessee",
    "description": "Modern Asian restaurant offering a diverse menu with influences from various Asian cuisines",
    "hours": "Mon-Fri 9AM-6PM",
    "services": [
      "Asian-owned Specialty item moving in Tennessee consultation",
      "Professional service",
      "Quality guarantee"
    ],
    "social_links": {}
  },
  {
    "name": "Suzy Wong's House of Yum",
    "address": "1511 6th Ave S, Nashville, TN 37203",
    "phone": "(615) 928-0201",
    "rating": 4.0,
    "reviews": 25,
    "website": "https://suzywongsnashville.com/",
    "category": "Asian-owned Specialty item moving in Tennessee",
    "description": "Asian-inspired restaurant and bar with a unique atmosphere",
    "hours": "Mon-Fri 9AM-6PM",
    "services": [
      "Asian-owned Specialty item moving in Tennessee consultation",
      "Professional service",
      "Quality guarantee"
    ],
    "social_links": {}
  },
  {
    "name": "Vui's Kitchen",
    "address": "7039 Executive Center Dr, Brentwood, TN 37027",
    "phone": "(615) 679-0333",
    "rating": 4.0,
    "reviews": 25,
    "website": "https://vuiskitchen.com/",
    "category": "Asian-owned Specialty item moving in Tennessee",
    "description": "Vietnamese restaurant offering fresh and flavorful dishes",
    "hours": "Mon-Fri 9AM-6PM",
    "services": [
      "Asian-owned Specialty item moving in Tennessee consultation",
      "Professional service",
      "Quality guarantee"
    ],
    "social_links": {}
  }
]