[
  {
    "name": "All Convention & Expo Services (ACES)",
    "address": "1310 Old Sevierville Pike, Knoxville, TN 37920",
    "phone": "(865) 577-0000",
    "rating": 4.0,
    "reviews": 25,
    "website": "https://www.aces-expo.com/",
    "category": "Agnostic-owned Trade show support in Tennessee",
    "description": "Provides pipe and drape, carpeting, design and layout services, material handling, and custom exhibit rentals for trade shows and events",
    "hours": "Mon-Fri 9AM-6PM",
    "services": [
      "Agnostic-owned Trade show support in Tennessee consultation",
      "Professional service",
      "Quality guarantee"
    ],
    "social_links": {}
  },
  {
    "name": "Ovation Events",
    "address": "1415 4th Ave S, Nashville, TN 37210",
    "phone": "(615) 254-1777",
    "rating": 4.0,
    "reviews": 25,
    "website": "https://ovationevents.com/",
    "category": "Agnostic-owned Trade show support in Tennessee",
    "description": "Offers event production, creative services, expo design, and strategy for live, hybrid, and virtual events",
    "hours": "Mon-Fri 9AM-6PM",
    "services": [
      "Agnostic-owned Trade show support in Tennessee consultation",
      "Professional service",
      "Quality guarantee"
    ],
    "social_links": {}
  },
  {
    "name": "4Wall Entertainment",
    "address": "1415 4th Ave S, Nashville, TN 37210",
    "phone": "(615) 254-1777",
    "rating": 4.0,
    "reviews": 25,
    "website": "https://www.4wall.com/",
    "category": "Agnostic-owned Trade show support in Tennessee",
    "description": "Provides comprehensive event production services including audio, video, lighting, and grip equipment rentals and support for exhibitions and corporate events",
    "hours": "Mon-Fri 9AM-6PM",
    "services": [
      "Agnostic-owned Trade show support in Tennessee consultation",
      "Professional service",
      "Quality guarantee"
    ],
    "social_links": {}
  },
  {
    "name": "Polaris Brand Promotions",
    "address": "1000 17th Ave S, Nashville, TN 37212",
    "phone": "(484) 885-0090",
    "rating": 4.0,
    "reviews": 25,
    "website": "https://polarisbrandpromotions.com/",
    "category": "Agnostic-owned Trade show support in Tennessee",
    "description": "Specializes in promotional staffing, brand ambassadors, and experiential marketing for events and trade shows",
    "hours": "Mon-Fri 9AM-6PM",
    "services": [
      "Agnostic-owned Trade show support in Tennessee consultation",
      "Professional service",
      "Quality guarantee"
    ],
    "social_links": {}
  },
  {
    "name": "Skyline Exhibits",
    "address": "1000 17th Ave S, Nashville, TN 37212",
    "phone": "(615) 321-4444",
    "rating": 4.0,
    "reviews": 25,
    "website": "https://www.skyline.com/locations/nashville",
    "category": "Agnostic-owned Trade show support in Tennessee",
    "description": "Offers trade show exhibit design, fabrication, and services, including rentals and purchases, for businesses in Nashville and Eastern Tennessee",
    "hours": "Mon-Fri 9AM-6PM",
    "services": [
      "Agnostic-owned Trade show support in Tennessee consultation",
      "Professional service",
      "Quality guarantee"
    ],
    "social_links": {}
  },
  {
    "name": "All Aces Promotional Staffing",
    "address": "211 Commerce St, Nashville, TN 37201",
    "phone": "(646) 829-1602",
    "rating": 4.0,
    "reviews": 25,
    "website": "https://www.acespromo.com/",
    "category": "Agnostic-owned Trade show support in Tennessee",
    "description": "Provides event staffing, brand ambassadors, and promotional professionals for events, conferences, and brand experiences",
    "hours": "Mon-Fri 9AM-6PM",
    "services": [
      "Agnostic-owned Trade show support in Tennessee consultation",
      "Professional service",
      "Quality guarantee"
    ],
    "social_links": {}
  },
  {
    "name": "ON Services",
    "address": "1415 4th Ave S, Nashville, TN 37210",
    "phone": "(800) 967-2419",
    "rating": 4.0,
    "reviews": 25,
    "website": "https://onservices.com/",
    "category": "Agnostic-owned Trade show support in Tennessee",
    "description": "A full-service live event audio-visual production company offering support for conferences, trade shows, and exhibitors",
    "hours": "Mon-Fri 9AM-6PM",
    "services": [
      "Agnostic-owned Trade show support in Tennessee consultation",
      "Professional service",
      "Quality guarantee"
    ],
    "social_links": {}
  },
  {
    "name": "AMP Event Group",
    "address": "1000 17th Ave S, Nashville, TN 37212",
    "phone": "(615) 942-7000",
    "rating": 4.0,
    "reviews": 25,
    "website": "https://ampeventgroup.com/",
    "category": "Agnostic-owned Trade show support in Tennessee",
    "description": "Offers comprehensive event planning and production services, including trade show and expo management, audio-visual production, and destination management",
    "hours": "Mon-Fri 9AM-6PM",
    "services": [
      "Agnostic-owned Trade show support in Tennessee consultation",
      "Professional service",
      "Quality guarantee"
    ],
    "social_links": {}
  },
  {
    "name": "Trade Show Tools",
    "address": "1000 17th Ave S, Nashville, TN 37212",
    "phone": "(615) 321-4444",
    "rating": 4.0,
    "reviews": 25,
    "website": "https://tradeshowtools.com/",
    "category": "Agnostic-owned Trade show support in Tennessee",
    "description": "Provides portable displays, custom exhibits, large-format graphics, and end-to-end trade show services, including design, shipping, and setup",
    "hours": "Mon-Fri 9AM-6PM",
    "services": [
      "Agnostic-owned Trade show support in Tennessee consultation",
      "Professional service",
      "Quality guarantee"
    ],
    "social_links": {}
  },
  {
    "name": "ProExhibits",
    "address": "1000 17th Ave S, Nashville, TN 37212",
    "phone": "(408) 734-3600",
    "rating": 4.0,
    "reviews": 25,
    "website": "https://www.proexhibits.com/",
    "category": "Agnostic-owned Trade show support in Tennessee",
    "description": "Offers full-service trade show exhibit solutions in Nashville, including booth design, custom fabrication, rentals, logistics, and onsite support",
    "hours": "Mon-Fri 9AM-6PM",
    "services": [
      "Agnostic-owned Trade show support in Tennessee consultation",
      "Professional service",
      "Quality guarantee"
    ],
    "social_links": {}
  }
]