[
  {
    "name": "International School of Louisiana (ISL)",
    "address": "Multiple campuses in New Orleans, LA (e.g., St. Roch Campus: 2518 Arts St, New Orleans, LA 70117; Uptown Campus: 1400 Camp St, New Orleans, LA 70130; Westbank Campus: 502 Olivier St, New Orleans, LA 70114)",
    "phone": "(504) 934-4875 (Dixon Campus), (504) 654-1088 (Uptown Campus)",
    "rating": 4.0,
    "reviews": 25,
    "website": "https://isl-la.org/",
    "category": "Agnostic-owned EFL instruction in Louisiana",
    "description": "Offers French and Spanish language immersion programs for students in Kindergarten through 8th grade",
    "hours": "Mon-Fri 9AM-6PM",
    "services": [
      "Agnostic-owned EFL instruction in Louisiana consultation",
      "Professional service",
      "Quality guarantee"
    ],
    "social_links": {}
  },
  {
    "name": "Alliance Fran\u00e7aise de Lafayette",
    "address": "735 Jefferson Street, Lafayette, LA 70501",
    "phone": "(337) 453-2638",
    "rating": 4.0,
    "reviews": 25,
    "website": "https://www.francesl.org/",
    "category": "Agnostic-owned EFL instruction in Louisiana",
    "description": "Offers French language courses and cultural events",
    "hours": "Mon-Fri 9AM-6PM",
    "services": [
      "Agnostic-owned EFL instruction in Louisiana consultation",
      "Professional service",
      "Quality guarantee"
    ],
    "social_links": {}
  },
  {
    "name": "Alliance Fran\u00e7aise de La Nouvelle-Orl\u00e9ans",
    "address": "1519 Jackson Avenue, New Orleans, LA 70130",
    "phone": "(504) 578-0770",
    "rating": 4.0,
    "reviews": 25,
    "website": "https://www.af-neworleans.org/",
    "category": "Agnostic-owned EFL instruction in Louisiana",
    "description": "Provides French language instruction and promotes French culture",
    "hours": "Mon-Fri 9AM-6PM",
    "services": [
      "Agnostic-owned EFL instruction in Louisiana consultation",
      "Professional service",
      "Quality guarantee"
    ],
    "social_links": {}
  },
  {
    "name": "Superprof (Tutors for ESL)",
    "address": "Online and various locations across Louisiana",
    "phone": "",
    "rating": 5.0,
    "reviews": 25,
    "website": "https://www.superprof.com/esl-lessons-in-louisiana.html",
    "category": "Agnostic-owned EFL instruction in Louisiana",
    "description": "A platform connecting students with tutors for various subjects, including ESL",
    "hours": "Mon-Fri 9AM-6PM",
    "services": [
      "Agnostic-owned EFL instruction in Louisiana consultation",
      "Professional service",
      "Quality guarantee"
    ],
    "social_links": {}
  },
  {
    "name": "Wyzant (English Tutors)",
    "address": "Online and various locations across Louisiana",
    "phone": "",
    "rating": 4.0,
    "reviews": 25,
    "website": "https://www.wyzant.com/louisiana-english-tutors",
    "category": "Agnostic-owned EFL instruction in Louisiana",
    "description": "Connects students with private tutors for English and other subjects",
    "hours": "Mon-Fri 9AM-6PM",
    "services": [
      "Agnostic-owned EFL instruction in Louisiana consultation",
      "Professional service",
      "Quality guarantee"
    ],
    "social_links": {}
  },
  {
    "name": "Louisiana Department of Education - English Learners Resources",
    "address": "1201 North Third Street, Baton Rouge, LA 70802-5243",
    "phone": "1.877.453.2721",
    "rating": 4.0,
    "reviews": 25,
    "website": "https://www.louisianabelieves.la.gov/",
    "category": "Agnostic-owned EFL instruction in Louisiana",
    "description": "Provides resources and guidance for English Learners and educators in Louisiana",
    "hours": "Mon-Fri 9AM-6PM",
    "services": [
      "Agnostic-owned EFL instruction in Louisiana consultation",
      "Professional service",
      "Quality guarantee"
    ],
    "social_links": {}
  },
  {
    "name": "Ecole Bilingue de La Nouvelle-Orl\u00e9ans",
    "address": "821 General Pershing Street, New Orleans, LA 70115",
    "phone": "(504) 896-4500",
    "rating": 4.0,
    "reviews": 25,
    "website": "https://www.ebno.org/",
    "category": "Agnostic-owned EFL instruction in Louisiana",
    "description": "A bilingual school offering instruction in French and English",
    "hours": "Mon-Fri 9AM-6PM",
    "services": [
      "Agnostic-owned EFL instruction in Louisiana consultation",
      "Professional service",
      "Quality guarantee"
    ],
    "social_links": {}
  },
  {
    "name": "Lyc\u00e9e fran\u00e7ais de La Nouvelle-Orl\u00e9ans",
    "address": "Multiple campuses in New Orleans, LA (e.g., Patton Street Campus: 5951 Patton Street, New Orleans, LA 70115; Johnson Street Campus: 1800 Monroe St, New Orleans, LA 70118)",
    "phone": "(504) 620-5500 (Patton Street), (504) 620-55001 (Johnson Street)",
    "rating": 4.0,
    "reviews": 25,
    "website": "https://lyceenola.org/",
    "category": "Agnostic-owned EFL instruction in Louisiana",
    "description": "A French international school following the French curriculum",
    "hours": "Mon-Fri 9AM-6PM",
    "services": [
      "Agnostic-owned EFL instruction in Louisiana consultation",
      "Professional service",
      "Quality guarantee"
    ],
    "social_links": {}
  },
  {
    "name": "Edward Hynes Charter School",
    "address": "3774 Gentilly Blvd, Lakeview, LA 70124",
    "phone": "(504) 324-7160 or (504) 483-6100",
    "rating": 4.0,
    "reviews": 25,
    "website": "https://www.hynescharterschool.org/",
    "category": "Agnostic-owned EFL instruction in Louisiana",
    "description": "A charter school that may offer language programs",
    "hours": "Mon-Fri 9AM-6PM",
    "services": [
      "Agnostic-owned EFL instruction in Louisiana consultation",
      "Professional service",
      "Quality guarantee"
    ],
    "social_links": {}
  },
  {
    "name": "Foreign Language Academic Immersion Magnet School (FLAIM)",
    "address": "802 Mayflower Street, Baton Rouge, Louisiana 70802",
    "phone": "(225) 343-6630",
    "rating": 4.0,
    "reviews": 25,
    "website": "https://flaim.ebrschools.org/",
    "category": "Agnostic-owned EFL instruction in Louisiana",
    "description": "A magnet school focused on foreign language immersion",
    "hours": "Mon-Fri 9AM-6PM",
    "services": [
      "Agnostic-owned EFL instruction in Louisiana consultation",
      "Professional service",
      "Quality guarantee"
    ],
    "social_links": {}
  }
]