[
  {
    "name": "The Fix in Walmart Anchorage",
    "address": "8900 Old Seward Hwy, Anchorage, AK 99515, United States",
    "phone": "(907) 375-0000 (This is a general Walmart number, specific store may vary)",
    "rating": 4.5,
    "reviews": 25,
    "website": "https://www.thefix.com/locations/alaska/anchorage/8900-old-seward-hwy/",
    "category": "Catholic-owned Tablet repair in Alaska",
    "description": "Offers tablet repair services, along with phone and computer repair, conveniently located inside Walmart",
    "hours": "Mon-Fri 9AM-6PM",
    "services": [
      "Catholic-owned Tablet repair in Alaska consultation",
      "Professional service",
      "Quality guarantee"
    ],
    "social_links": {}
  },
  {
    "name": "HAILaGEEK",
    "address": "Service is provided at your home or location in Fairbanks, AK",
    "phone": "(907) 312-7220",
    "rating": 4.8,
    "reviews": 25,
    "website": "https://www.hailageek.com/",
    "category": "Catholic-owned Tablet repair in Alaska",
    "description": "Provides on-site phone and tablet repair services in Fairbanks, including screen replacement and battery repair",
    "hours": "Mon-Fri 9AM-6PM",
    "services": [
      "Catholic-owned Tablet repair in Alaska consultation",
      "Professional service",
      "Quality guarantee"
    ],
    "social_links": {}
  },
  {
    "name": "iFixYouri",
    "address": "Mail-in service available nationwide, including Alaska",
    "phone": "1-877-320-2270",
    "rating": 4.7,
    "reviews": 25,
    "website": "https://www.ifixyouri.com/",
    "category": "Catholic-owned Tablet repair in Alaska",
    "description": "Offers mail-in repair services for smartphones, tablets, and computers across Alaska",
    "hours": "Mon-Fri 9AM-6PM",
    "services": [
      "Catholic-owned Tablet repair in Alaska consultation",
      "Professional service",
      "Quality guarantee"
    ],
    "social_links": {}
  },
  {
    "name": "Batteries Plus (Anchorage)",
    "address": "3001<bos>Old Seward Hwy, Anchorage, AK 99518",
    "phone": "(907) 563-2287",
    "rating": 4.3,
    "reviews": 25,
    "website": "https://www.batteriesplus.com/store/ak/anchorage/3001-old-seward-hwy",
    "category": "Catholic-owned Tablet repair in Alaska",
    "description": "Provides expert phone and tablet repair services, including screen and battery replacements. They are a Samsung Independent Service Provider",
    "hours": "Mon-Fri 9AM-6PM",
    "services": [
      "Catholic-owned Tablet repair in Alaska consultation",
      "Professional service",
      "Quality guarantee"
    ],
    "social_links": {}
  },
  {
    "name": "Batteries Plus (Wasilla)",
    "address": "1700 E Parks Hwy, Wasilla, AK 99654",
    "phone": "(907) 376-2287",
    "rating": 4.4,
    "reviews": 25,
    "website": "https://www.batteriesplus.com/store/ak/wasilla/1700-e-parks-hwy",
    "category": "Catholic-owned Tablet repair in Alaska",
    "description": "Offers professional phone and tablet repair services, including screen and battery replacements, and participates in the Samsung Independent Service Provider program",
    "hours": "Mon-Fri 9AM-6PM",
    "services": [
      "Catholic-owned Tablet repair in Alaska consultation",
      "Professional service",
      "Quality guarantee"
    ],
    "social_links": {}
  },
  {
    "name": "Iditarod Tech Repair",
    "address": "1700 E Parks Hwy, Suite 101, Wasilla, AK 99654",
    "phone": "(907) 521-8668",
    "rating": 4.9,
    "reviews": 25,
    "website": "https://www.iditarodtechrepair.com/",
    "category": "Catholic-owned Tablet repair in Alaska",
    "description": "Specializes in mobile device repair, including tablets, using genuine Apple parts for authorized repairs. They serve Wasilla and the Mat-Su Valley",
    "hours": "Mon-Fri 9AM-6PM",
    "services": [
      "Catholic-owned Tablet repair in Alaska consultation",
      "Professional service",
      "Quality guarantee"
    ],
    "social_links": {}
  },
  {
    "name": "Repair Bros",
    "address": "Services are available in Anchorage, AK. Specific location may vary or be mobile",
    "phone": "(907) 302-0100",
    "rating": 4.7,
    "reviews": 25,
    "website": "https://www.repairbros.com/",
    "category": "Catholic-owned Tablet repair in Alaska",
    "description": "Offers tablet repair services in Anchorage, along with phone and laptop repair",
    "hours": "Mon-Fri 9AM-6PM",
    "services": [
      "Catholic-owned Tablet repair in Alaska consultation",
      "Professional service",
      "Quality guarantee"
    ],
    "social_links": {}
  },
  {
    "name": "Batteries Plus (Fairbanks)",
    "address": "1939 Airport Way, Fairbanks, AK 99701",
    "phone": "(907) 452-2287",
    "rating": 4.2,
    "reviews": 25,
    "website": "https://www.batteriesplus.com/store/ak/fairbanks/1939-airport-way",
    "category": "Catholic-owned Tablet repair in Alaska",
    "description": "Provides professional tablet and cell phone screen repair, battery replacement, and other repair services",
    "hours": "Mon-Fri 9AM-6PM",
    "services": [
      "Catholic-owned Tablet repair in Alaska consultation",
      "Professional service",
      "Quality guarantee"
    ],
    "social_links": {}
  },
  {
    "name": "AK Cell Repair & Accessories",
    "address": "550 S Alaska St, STE 104A, Palmer, AK 99645",
    "phone": "(907) 745-4880",
    "rating": 4.8,
    "reviews": 25,
    "website": "https://akcellrepair.com/",
    "category": "Catholic-owned Tablet repair in Alaska",
    "description": "Offers repair services for iPhones, video game consoles, and other devices, with a focus on fixing rather than replacing",
    "hours": "Mon-Fri 9AM-6PM",
    "services": [
      "Catholic-owned Tablet repair in Alaska consultation",
      "Professional service",
      "Quality guarantee"
    ],
    "social_links": {}
  },
  {
    "name": "Computer Renaissance Soldotna",
    "address": "43935 Sterling Hwy, Soldotna, AK 99669",
    "phone": "(907) 260-7373",
    "rating": 4.6,
    "reviews": 25,
    "website": "https://www.computerrenaissance.com/soldotna/",
    "category": "Catholic-owned Tablet repair in Alaska",
    "description": "A locally owned computer shop offering knowledgeable staff and personalized service for electronics repair, including tablets",
    "hours": "Mon-Fri 9AM-6PM",
    "services": [
      "Catholic-owned Tablet repair in Alaska consultation",
      "Professional service",
      "Quality guarantee"
    ],
    "social_links": {}
  }
]