[
  {
    "name": "SafeStreets",
    "address": "Multiple locations throughout Mississippi (e.g., Jackson, Meridian, Gulfport, Tupelo)",
    "phone": "(855) 822-7233",
    "rating": 4.0,
    "reviews": 25,
    "website": "https://www.safestreets.com/",
    "category": "African-American-owned 24 7 monitoring in Mississippi",
    "description": "Offers home and business security systems with 24/7 ADT monitoring, including security cameras and doorbell cameras",
    "hours": "Mon-Fri 9AM-6PM",
    "services": [
      "African-American-owned 24 7 monitoring in Mississippi consultation",
      "Professional service",
      "Quality guarantee"
    ],
    "social_links": {}
  },
  {
    "name": "GeoArm Security",
    "address": "Meridian, MS (and other locations)",
    "phone": "(866) 447-4369",
    "rating": 4.0,
    "reviews": 25,
    "website": "https://www.geoarm.com/",
    "category": "African-American-owned 24 7 monitoring in Mississippi",
    "description": "Provides 24/7 professional monitoring with no long-term contracts, offering a range of security sensors and smart home automation",
    "hours": "Mon-Fri 9AM-6PM",
    "services": [
      "African-American-owned 24 7 monitoring in Mississippi consultation",
      "Professional service",
      "Quality guarantee"
    ],
    "social_links": {}
  },
  {
    "name": "Frase Protection",
    "address": "Multiple locations in Mississippi (e.g., Southaven) and Memphis, TN",
    "phone": "(877) 372-7378",
    "rating": 4.0,
    "reviews": 25,
    "website": "https://fraseprotection.com/",
    "category": "African-American-owned 24 7 monitoring in Mississippi",
    "description": "Offers comprehensive security systems, state-of-the-art camera solutions, and 24/7 monitoring for homes and businesses",
    "hours": "Mon-Fri 9AM-6PM",
    "services": [
      "African-American-owned 24 7 monitoring in Mississippi consultation",
      "Professional service",
      "Quality guarantee"
    ],
    "social_links": {}
  },
  {
    "name": "Mississippi Alarm, Inc.",
    "address": "Columbus and Tupelo, MS",
    "phone": "(662) 329-5990",
    "rating": 4.0,
    "reviews": 25,
    "website": "https://www.mississippialarm.com/",
    "category": "African-American-owned 24 7 monitoring in Mississippi",
    "description": "Provides 24/7 alarm monitoring, smart home security, and video surveillance for residential and commercial customers",
    "hours": "Mon-Fri 9AM-6PM",
    "services": [
      "African-American-owned 24 7 monitoring in Mississippi consultation",
      "Professional service",
      "Quality guarantee"
    ],
    "social_links": {}
  },
  {
    "name": "Vector Security",
    "address": "Jackson, MS",
    "phone": "(601) 956-0000",
    "rating": 4.0,
    "reviews": 25,
    "website": "https://www.vectorsecurity.com/locations/jackson-ms",
    "category": "African-American-owned 24 7 monitoring in Mississippi",
    "description": "Offers 24/7 alarm monitoring and customized security solutions for residential and business customers in the Jackson area",
    "hours": "Mon-Fri 9AM-6PM",
    "services": [
      "African-American-owned 24 7 monitoring in Mississippi consultation",
      "Professional service",
      "Quality guarantee"
    ],
    "social_links": {}
  },
  {
    "name": "AED Security Services",
    "address": "407 Briarwood Dr., Suite 206C, Jackson, Mississippi 39206",
    "phone": "(601) 624-3470",
    "rating": 4.0,
    "reviews": 25,
    "website": "https://www.google.com/maps/search/AED+Security+Services+in+Mississippi",
    "category": "African-American-owned 24 7 monitoring in Mississippi",
    "description": "Listed as a minority-owned business, but specific services like 24/7 monitoring are not detailed",
    "hours": "Mon-Fri 9AM-6PM",
    "services": [
      "African-American-owned 24 7 monitoring in Mississippi consultation",
      "Professional service",
      "Quality guarantee"
    ],
    "social_links": {}
  },
  {
    "name": "Berkley Security Inc.",
    "address": "Vicksburg, MS (601-636-6955); Natchez, MS (601-442-2293)",
    "phone": "(601) 636-6955 (Vicksburg)",
    "rating": 4.0,
    "reviews": 25,
    "website": "https://berkleysecurity.com/",
    "category": "African-American-owned 24 7 monitoring in Mississippi",
    "description": "Offers security alarms, video systems, and fire alarm panels with 24-hour security staff available",
    "hours": "Mon-Fri 9AM-6PM",
    "services": [
      "African-American-owned 24 7 monitoring in Mississippi consultation",
      "Professional service",
      "Quality guarantee"
    ],
    "social_links": {}
  },
  {
    "name": "Swetman Security Service Inc.",
    "address": "Biloxi, MS",
    "phone": "(228) 864-1111",
    "rating": 4.0,
    "reviews": 25,
    "website": "https://www.swetmansecurity.com/",
    "category": "African-American-owned 24 7 monitoring in Mississippi",
    "description": "Provides a range of security services including 24-hour patrol and security staffing",
    "hours": "Mon-Fri 9AM-6PM",
    "services": [
      "African-American-owned 24 7 monitoring in Mississippi consultation",
      "Professional service",
      "Quality guarantee"
    ],
    "social_links": {}
  },
  {
    "name": "Southern Security LLC",
    "address": "Tupelo, MS",
    "phone": "(662) 841-8812",
    "rating": 4.0,
    "reviews": 25,
    "website": "https://www.southernsecurityllc.com/",
    "category": "African-American-owned 24 7 monitoring in Mississippi",
    "description": "Offers alarm systems, camera installations, and access control services, with a focus on providing protection",
    "hours": "Mon-Fri 9AM-6PM",
    "services": [
      "African-American-owned 24 7 monitoring in Mississippi consultation",
      "Professional service",
      "Quality guarantee"
    ],
    "social_links": {}
  },
  {
    "name": "Security Solutions of America",
    "address": "3318 N. State St., Jackson, MS",
    "phone": "(601) 600-3432",
    "rating": 4.0,
    "reviews": 25,
    "website": "https://www.securitysolutionsofamerica.com/locations/jackson-ms/",
    "category": "African-American-owned 24 7 monitoring in Mississippi",
    "description": "Provides on-site security guard services, video surveillance, and 24/7 video monitoring",
    "hours": "Mon-Fri 9AM-6PM",
    "services": [
      "African-American-owned 24 7 monitoring in Mississippi consultation",
      "Professional service",
      "Quality guarantee"
    ],
    "social_links": {}
  }
]