[
  {
    "name": "A1 Tree Pros",
    "address": "Sykesville, MD (Specific address not publicly available, but serves the Sykesville area)",
    "phone": "(410) 890-0300",
    "rating": 4.0,
    "reviews": 25,
    "website": "https://a1treepros.com/",
    "category": "Chinese-speaking Tree removal in Maryland",
    "description": "Offers affordable tree removal and trimming, with a focus on preservation first. They also provide sod services",
    "hours": "Mon-Fri 9AM-6PM",
    "services": [
      "Chinese-speaking Tree removal in Maryland consultation",
      "Professional service",
      "Quality guarantee"
    ],
    "social_links": {}
  },
  {
    "name": "Maryland Professional Tree Service",
    "address": "Glen Burnie, MD (460 Lincoln Dr)",
    "phone": "(443) 678-9457",
    "rating": 4.9,
    "reviews": 25,
    "website": "https://www.mdprofessionaltreeservice.com/",
    "category": "Chinese-speaking Tree removal in Maryland",
    "description": "Licensed and insured tree experts providing quality tree care and stump grinding for residential and commercial clients",
    "hours": "Mon-Fri 9AM-6PM",
    "services": [
      "Chinese-speaking Tree removal in Maryland consultation",
      "Professional service",
      "Quality guarantee"
    ],
    "social_links": {}
  },
  {
    "name": "Universal Tree Expert",
    "address": "Not specified, but serves Maryland",
    "phone": "(410) 440-4000",
    "rating": 4.0,
    "reviews": 25,
    "website": "https://www.universaltreeexpert.com/",
    "category": "Chinese-speaking Tree removal in Maryland",
    "description": "Offers comprehensive tree care services including removal, stump grinding, and trimming, with over 20 years of experience",
    "hours": "Mon-Fri 9AM-6PM",
    "services": [
      "Chinese-speaking Tree removal in Maryland consultation",
      "Professional service",
      "Quality guarantee"
    ],
    "social_links": {}
  },
  {
    "name": "Deeply Rooted Tree Care",
    "address": "Central Maryland (Specific address not publicly available)",
    "phone": "(410) 777-4000",
    "rating": 4.0,
    "reviews": 25,
    "website": "https://deeplyrootedtreecare.com/",
    "category": "Chinese-speaking Tree removal in Maryland",
    "description": "Focuses on the health, beauty, and longevity of trees, offering services like tree removal and expert knowledge",
    "hours": "Mon-Fri 9AM-6PM",
    "services": [
      "Chinese-speaking Tree removal in Maryland consultation",
      "Professional service",
      "Quality guarantee"
    ],
    "social_links": {}
  },
  {
    "name": "Wesley Tree Specialists",
    "address": "313 Highland Ave, Accident, MD 21520",
    "phone": "(301) 387-4868",
    "rating": 4.0,
    "reviews": 25,
    "website": "https://wesleytree.com/",
    "category": "Chinese-speaking Tree removal in Maryland",
    "description": "Provides professional tree services including pruning, trimming, removal, and storm damage repair with a focus on safety and customer satisfaction",
    "hours": "Mon-Fri 9AM-6PM",
    "services": [
      "Chinese-speaking Tree removal in Maryland consultation",
      "Professional service",
      "Quality guarantee"
    ],
    "social_links": {}
  },
  {
    "name": "Hamby Tree Experts",
    "address": "Serves throughout the state of Maryland (Specific address not publicly available)",
    "phone": "(443) 962-4731",
    "rating": 4.0,
    "reviews": 25,
    "website": "https://hambytreeexperts.com/",
    "category": "Chinese-speaking Tree removal in Maryland",
    "description": "A second-generation family-run business offering full-service tree care for residential and commercial customers, including storm cleanup",
    "hours": "Mon-Fri 9AM-6PM",
    "services": [
      "Chinese-speaking Tree removal in Maryland consultation",
      "Professional service",
      "Quality guarantee"
    ],
    "social_links": {}
  },
  {
    "name": "JL Tree Service Inc.",
    "address": "Montgomery County, MD and surrounding areas (Specific address not publicly available)",
    "phone": "(301) 770-1000",
    "rating": 4.0,
    "reviews": 25,
    "website": "https://jltreeservice.com/",
    "category": "Chinese-speaking Tree removal in Maryland",
    "description": "Provides expert tree removal, trimming, and pruning services for residential and commercial clients, with a Maryland Tree Expert License",
    "hours": "Mon-Fri 9AM-6PM",
    "services": [
      "Chinese-speaking Tree removal in Maryland consultation",
      "Professional service",
      "Quality guarantee"
    ],
    "social_links": {}
  },
  {
    "name": "Centurion Tree Experts",
    "address": "Glen Arm, MD (Specific address not publicly available)",
    "phone": "(410) 529-7700",
    "rating": 4.0,
    "reviews": 25,
    "website": "https://www.centuriontreeexperts.com/",
    "category": "Chinese-speaking Tree removal in Maryland",
    "description": "Offers a range of tree services including emergency response, tree removal, and expert advice on tree health",
    "hours": "Mon-Fri 9AM-6PM",
    "services": [
      "Chinese-speaking Tree removal in Maryland consultation",
      "Professional service",
      "Quality guarantee"
    ],
    "social_links": {}
  },
  {
    "name": "Unlimbited Tree Service, Inc.",
    "address": "Glen Burnie, MD (Specific address not publicly available)",
    "phone": "(410) 729-2500",
    "rating": 4.4,
    "reviews": 25,
    "website": "https://www.unlimbitedtreeservice.com/",
    "category": "Chinese-speaking Tree removal in Maryland",
    "description": "Provides quality tree services in Maryland since 2001, including pruning and full tree removal, with free estimates",
    "hours": "Mon-Fri 9AM-6PM",
    "services": [
      "Chinese-speaking Tree removal in Maryland consultation",
      "Professional service",
      "Quality guarantee"
    ],
    "social_links": {}
  },
  {
    "name": "Maryland Tree Service",
    "address": "Bowie, MD (4301 Enterprise Rd)",
    "phone": "(301) 809-7777",
    "rating": 4.0,
    "reviews": 25,
    "website": "https://www.marylandtreeservice.com/",
    "category": "Chinese-speaking Tree removal in Maryland",
    "description": "Offers tree services and lawn maintenance, with a highlight of \"Se habla espa\u00f1ol\" (Spanish is spoken)",
    "hours": "Mon-Fri 9AM-6PM",
    "services": [
      "Chinese-speaking Tree removal in Maryland consultation",
      "Professional service",
      "Quality guarantee"
    ],
    "social_links": {}
  }
]