[
  {
    "name": "CMIT Solutions of Dulles",
    "address": "20130 Lakeview Center Plaza, Suite 400, Ashburn VA 20147",
    "phone": "(571) 463-0987",
    "rating": 4.0,
    "reviews": 25,
    "website": "https://www.google.com/maps/search/CMIT+Solutions+of+Dulles+in+Virginia",
    "category": "Latino-owned Equipment procurement in Virginia",
    "description": "Provides IT solutions",
    "hours": "Mon-Fri 9AM-6PM",
    "services": [
      "Latino-owned Equipment procurement in Virginia consultation",
      "Professional service",
      "Quality guarantee"
    ],
    "social_links": {}
  },
  {
    "name": "MAVENTRI",
    "address": "20956 Capilano Court, Ashburn VA 20147",
    "phone": "(703) 884-9038",
    "rating": 4.0,
    "reviews": 25,
    "website": "https://www.google.com/maps/search/MAVENTRI+in+Virginia",
    "category": "Latino-owned Equipment procurement in Virginia",
    "description": "Listed as a woman-owned business, but also appears in a list that includes Hispanic/Latino-owned businesses",
    "hours": "Mon-Fri 9AM-6PM",
    "services": [
      "Latino-owned Equipment procurement in Virginia consultation",
      "Professional service",
      "Quality guarantee"
    ],
    "social_links": {}
  },
  {
    "name": "Axia Management Group",
    "address": "1618 Purple Sage Dr, Reston VA 20194",
    "phone": "(813) 551-8021",
    "rating": 4.0,
    "reviews": 25,
    "website": "https://www.google.com/maps/search/Axia+Management+Group+in+Virginia",
    "category": "Latino-owned Equipment procurement in Virginia",
    "description": "Listed as a Hispanic/Latino-Owned business",
    "hours": "Mon-Fri 9AM-6PM",
    "services": [
      "Latino-owned Equipment procurement in Virginia consultation",
      "Professional service",
      "Quality guarantee"
    ],
    "social_links": {}
  },
  {
    "name": "Bright Wave Facilities Solutions",
    "address": "Sterling VA 20164",
    "phone": "(703) 498-6466",
    "rating": 4.0,
    "reviews": 25,
    "website": "https://www.google.com/maps/search/Bright+Wave+Facilities+Solutions+in+Virginia",
    "category": "Latino-owned Equipment procurement in Virginia",
    "description": "Listed as a Hispanic/Latino-Owned business",
    "hours": "Mon-Fri 9AM-6PM",
    "services": [
      "Latino-owned Equipment procurement in Virginia consultation",
      "Professional service",
      "Quality guarantee"
    ],
    "social_links": {}
  },
  {
    "name": "Veloz IT Solutions LLC",
    "address": "722 East Market Street, Suite 102 Ste 102, Leesburg VA 20176-4475",
    "phone": "(703) 362-1000",
    "rating": 4.0,
    "reviews": 25,
    "website": "https://www.google.com/maps/search/Veloz+IT+Solutions+LLC+in+Virginia",
    "category": "Latino-owned Equipment procurement in Virginia",
    "description": "Listed as a Hispanic/Latino-Owned business, providing IT solutions",
    "hours": "Mon-Fri 9AM-6PM",
    "services": [
      "Latino-owned Equipment procurement in Virginia consultation",
      "Professional service",
      "Quality guarantee"
    ],
    "social_links": {}
  },
  {
    "name": "VIGEO Health",
    "address": "150 S Washington St Suite 501, Falls Church VA 22046",
    "phone": "(703) 244-6884",
    "rating": 4.0,
    "reviews": 25,
    "website": "https://www.google.com/maps/search/VIGEO+Health+in+Virginia",
    "category": "Latino-owned Equipment procurement in Virginia",
    "description": "Listed as a Hispanic/Latino-Owned business, likely in the health sector",
    "hours": "Mon-Fri 9AM-6PM",
    "services": [
      "Latino-owned Equipment procurement in Virginia consultation",
      "Professional service",
      "Quality guarantee"
    ],
    "social_links": {}
  },
  {
    "name": "RedSky",
    "address": "40865 Tulip Poplar Pl, Aldie VA 20105",
    "phone": "(240) 491-7810",
    "rating": 4.0,
    "reviews": 25,
    "website": "https://www.google.com/maps/search/RedSky+in+Virginia",
    "category": "Latino-owned Equipment procurement in Virginia",
    "description": "Listed as a Hispanic/Latino-Owned business",
    "hours": "Mon-Fri 9AM-6PM",
    "services": [
      "Latino-owned Equipment procurement in Virginia consultation",
      "Professional service",
      "Quality guarantee"
    ],
    "social_links": {}
  },
  {
    "name": "Roof-Tech Services, Inc.",
    "address": "43760 Trade Center Place Suite 165, Dulles VA 20166",
    "phone": "(703) 999-9769",
    "rating": 4.0,
    "reviews": 25,
    "website": "https://www.google.com/maps/search/Roof-Tech+Services,+Inc.+in+Virginia",
    "category": "Latino-owned Equipment procurement in Virginia",
    "description": "Listed as a Hispanic/Latino-Owned business",
    "hours": "Mon-Fri 9AM-6PM",
    "services": [
      "Latino-owned Equipment procurement in Virginia consultation",
      "Professional service",
      "Quality guarantee"
    ],
    "social_links": {}
  },
  {
    "name": "Gusti Restaurant Equipment",
    "address": "Richmond, VA (Specific street address not provided in snippet, but located on Dabney Road)",
    "phone": "",
    "rating": 4.0,
    "reviews": 25,
    "website": "https://www.google.com/maps/search/Gusti+Restaurant+Equipment+in+Virginia",
    "category": "Latino-owned Equipment procurement in Virginia",
    "description": "A family-owned restaurant equipment supplier",
    "hours": "Mon-Fri 9AM-6PM",
    "services": [
      "Latino-owned Equipment procurement in Virginia consultation",
      "Professional service",
      "Quality guarantee"
    ],
    "social_links": {}
  },
  {
    "name": "United Medical",
    "address": "(Specific address not provided in snippet, but serves Virginia)",
    "phone": "",
    "rating": 4.0,
    "reviews": 25,
    "website": "https://www.google.com/maps/search/United+Medical+in+Virginia",
    "category": "Latino-owned Equipment procurement in Virginia",
    "description": "Provides medical equipment and supplies",
    "hours": "Mon-Fri 9AM-6PM",
    "services": [
      "Latino-owned Equipment procurement in Virginia consultation",
      "Professional service",
      "Quality guarantee"
    ],
    "social_links": {}
  }
]