[
  {
    "name": "Tint Factory",
    "address": "1011 10th Ave S, Great Falls, MT 59405",
    "phone": "(406) 652-3911",
    "rating": 4.0,
    "reviews": 25,
    "website": "https://www.tintfactorymt.com/",
    "category": "Asian-owned Window tinting in Montana",
    "description": "Offers high-quality window tints and custom wraps for vehicles, built on a passion for automobiles",
    "hours": "Mon-Fri 9AM-6PM",
    "services": [
      "Asian-owned Window tinting in Montana consultation",
      "Professional service",
      "Quality guarantee"
    ],
    "social_links": {}
  },
  {
    "name": "Precision Window Tinting",
    "address": "1003 W Babcock St, Bozeman, MT 59715",
    "phone": "(406) 587-1111",
    "rating": 4.0,
    "reviews": 25,
    "website": "https://www.precisionwindowtinting.com/",
    "category": "Asian-owned Window tinting in Montana",
    "description": "Premier provider of window tinting and paint protection solutions in Southwest Montana, serving the area since 1995",
    "hours": "Mon-Fri 9AM-6PM",
    "services": [
      "Asian-owned Window tinting in Montana consultation",
      "Professional service",
      "Quality guarantee"
    ],
    "social_links": {}
  },
  {
    "name": "Pro Auto Tint of Bozeman",
    "address": "1020 N Wallace Ave, Bozeman, MT 59715",
    "phone": "(406) 587-0004",
    "rating": 4.0,
    "reviews": 25,
    "website": "https://www.proautointmt.com/",
    "category": "Asian-owned Window tinting in Montana",
    "description": "Offers automobile window tinting and custom-made bras, locally owned and fully insured",
    "hours": "Mon-Fri 9AM-6PM",
    "services": [
      "Asian-owned Window tinting in Montana consultation",
      "Professional service",
      "Quality guarantee"
    ],
    "social_links": {}
  },
  {
    "name": "Tried And True Tint",
    "address": "3015 W Broadway St, Missoula, MT 59808",
    "phone": "(406) 830-1345",
    "rating": 4.0,
    "reviews": 25,
    "website": "https://www.triedandtruetint.com/",
    "category": "Asian-owned Window tinting in Montana",
    "description": "Provides professional window tint services for automotive, residential, and commercial needs in Missoula, MT",
    "hours": "Mon-Fri 9AM-6PM",
    "services": [
      "Asian-owned Window tinting in Montana consultation",
      "Professional service",
      "Quality guarantee"
    ],
    "social_links": {}
  },
  {
    "name": "Shady Business Window Tinting",
    "address": "10102 US-93, Polson, MT 59860",
    "phone": "(406) 880-1047",
    "rating": 4.0,
    "reviews": 25,
    "website": "https://www.shadybusinesswindowtinting.com/",
    "category": "Asian-owned Window tinting in Montana",
    "description": "Offers car, boat, home, and office window tinting services in the Mission Valley area of Montana",
    "hours": "Mon-Fri 9AM-6PM",
    "services": [
      "Asian-owned Window tinting in Montana consultation",
      "Professional service",
      "Quality guarantee"
    ],
    "social_links": {}
  },
  {
    "name": "Knights Auto Glass",
    "address": "Mobile service available in western Montana",
    "phone": "",
    "rating": 4.0,
    "reviews": 25,
    "website": "https://www.google.com/maps/search/Knights+Auto+Glass+in+Montana",
    "category": "Asian-owned Window tinting in Montana",
    "description": "Offers affordable mobile window tinting services and is highly recommended by customers",
    "hours": "Mon-Fri 9AM-6PM",
    "services": [
      "Asian-owned Window tinting in Montana consultation",
      "Professional service",
      "Quality guarantee"
    ],
    "social_links": {}
  },
  {
    "name": "Tinted Inc.",
    "address": "Billings, MT (Specific address not provided in search results)",
    "phone": "",
    "rating": 4.0,
    "reviews": 25,
    "website": "https://www.tintedinc.com/",
    "category": "Asian-owned Window tinting in Montana",
    "description": "Provides automotive, residential, and commercial window tinting services, as well as paint correction and ceramic coating",
    "hours": "Mon-Fri 9AM-6PM",
    "services": [
      "Asian-owned Window tinting in Montana consultation",
      "Professional service",
      "Quality guarantee"
    ],
    "social_links": {}
  },
  {
    "name": "Montana's Tint Spot",
    "address": "Cincinnati, OH (This business appears to be located in Ohio, not Montana, despite the name.)",
    "phone": "",
    "rating": 4.0,
    "reviews": 25,
    "website": "https://www.google.com/maps/search/Montana's+Tint+Spot+in+Montana",
    "category": "Asian-owned Window tinting in Montana",
    "description": "Offers residential and commercial window tinting and coating services",
    "hours": "Mon-Fri 9AM-6PM",
    "services": [
      "Asian-owned Window tinting in Montana consultation",
      "Professional service",
      "Quality guarantee"
    ],
    "social_links": {}
  },
  {
    "name": "Aiko's",
    "address": "Missoula, MT (Food truck, specific location varies)",
    "phone": "",
    "rating": 4.0,
    "reviews": 25,
    "website": "https://aikosmt.com/",
    "category": "Asian-owned Window tinting in Montana",
    "description": "A Japanese fusion food truck serving family-inspired recipes. While not a window tinting business, it is an Asian-owned business in Montana",
    "hours": "Mon-Fri 9AM-6PM",
    "services": [
      "Asian-owned Window tinting in Montana consultation",
      "Professional service",
      "Quality guarantee"
    ],
    "social_links": {}
  },
  {
    "name": "TAO NEW ASIAN",
    "address": "900 S. 24th St. West, Suite 1, Billings, MT 59102",
    "phone": "(406) 655-9898",
    "rating": 4.0,
    "reviews": 25,
    "website": "https://www.taonewasian.com/",
    "category": "Asian-owned Window tinting in Montana",
    "description": "An Asian fusion restaurant offering Thai, Korean, and Chinese cuisine. While not a window tinting business, it is an Asian-owned business in Montana",
    "hours": "Mon-Fri 9AM-6PM",
    "services": [
      "Asian-owned Window tinting in Montana consultation",
      "Professional service",
      "Quality guarantee"
    ],
    "social_links": {}
  }
]