[
  {
    "name": "Artesian Auto Repair",
    "address": "1012 Artesian St, Honolulu, HI 96819",
    "phone": "(808) 947-3011",
    "rating": 4.0,
    "reviews": 25,
    "website": "https://www.artesianautorepair.com/",
    "category": "Chinese-American-owned Tune-ups in Hawaii",
    "description": "Full-service auto repair and preventative maintenance facility specializing in Asian vehicles",
    "hours": "Mon-Fri 9AM-6PM",
    "services": [
      "Chinese-American-owned Tune-ups in Hawaii consultation",
      "Professional service",
      "Quality guarantee"
    ],
    "social_links": {}
  },
  {
    "name": "Pearl City Auto Works",
    "address": "98-020 Kamehameha Hwy, Aiea, HI 96701",
    "phone": "(808) 487-0050",
    "rating": 4.0,
    "reviews": 25,
    "website": "https://www.pearlcityautoworks.com/",
    "category": "Chinese-American-owned Tune-ups in Hawaii",
    "description": "Full-service auto repair and maintenance services",
    "hours": "Mon-Fri 9AM-6PM",
    "services": [
      "Chinese-American-owned Tune-ups in Hawaii consultation",
      "Professional service",
      "Quality guarantee"
    ],
    "social_links": {}
  },
  {
    "name": "Chungs Alignment and Auto Services",
    "address": "1015 Dillingham Blvd #101, Honolulu, HI 96817",
    "phone": "(808) 847-1015",
    "rating": 4.0,
    "reviews": 25,
    "website": "https://chungsauto.com/",
    "category": "Chinese-American-owned Tune-ups in Hawaii",
    "description": "Provides professional alignment and auto repair services",
    "hours": "Mon-Fri 9AM-6PM",
    "services": [
      "Chinese-American-owned Tune-ups in Hawaii consultation",
      "Professional service",
      "Quality guarantee"
    ],
    "social_links": {}
  },
  {
    "name": "Sky Auto Repair",
    "address": "653 Mapunapuna Street, Honolulu, HI 96819",
    "phone": "(808) 839-7777",
    "rating": 4.0,
    "reviews": 25,
    "website": "https://www.skyautorepairhi.com/",
    "category": "Chinese-American-owned Tune-ups in Hawaii",
    "description": "Family-owned and operated auto repair shop offering a wide range of services, including tune-ups",
    "hours": "Mon-Fri 9AM-6PM",
    "services": [
      "Chinese-American-owned Tune-ups in Hawaii consultation",
      "Professional service",
      "Quality guarantee"
    ],
    "social_links": {}
  },
  {
    "name": "O'Sung Autobody & Paint",
    "address": "1222 Dillingham Blvd, Honolulu, HI 96817",
    "phone": "(808) 841-2442",
    "rating": 4.0,
    "reviews": 25,
    "website": "https://osungautobody.com/",
    "category": "Chinese-American-owned Tune-ups in Hawaii",
    "description": "Offers auto body repairs, auto maintenance, and towing services",
    "hours": "Mon-Fri 9AM-6PM",
    "services": [
      "Chinese-American-owned Tune-ups in Hawaii consultation",
      "Professional service",
      "Quality guarantee"
    ],
    "social_links": {}
  },
  {
    "name": "Tony Auto Group",
    "address": "94-1299 Ka Uka Blvd, Waipahu, HI 96797",
    "phone": "(808) 680-7380",
    "rating": 4.0,
    "reviews": 25,
    "website": "https://www.tonyautogroup.com/",
    "category": "Chinese-American-owned Tune-ups in Hawaii",
    "description": "A family-owned and operated business offering automotive products and services, including maintenance",
    "hours": "Mon-Fri 9AM-6PM",
    "services": [
      "Chinese-American-owned Tune-ups in Hawaii consultation",
      "Professional service",
      "Quality guarantee"
    ],
    "social_links": {}
  },
  {
    "name": "Streamline Performance",
    "address": "1615A Democrat St, Honolulu, HI 96819",
    "phone": "(808) 792-0850",
    "rating": 4.0,
    "reviews": 25,
    "website": "https://streamlineperformancehi.com/",
    "category": "Chinese-American-owned Tune-ups in Hawaii",
    "description": "Premium auto repair and tire shop offering services like oil changes and tune-ups",
    "hours": "Mon-Fri 9AM-6PM",
    "services": [
      "Chinese-American-owned Tune-ups in Hawaii consultation",
      "Professional service",
      "Quality guarantee"
    ],
    "social_links": {}
  },
  {
    "name": "Waipahu Auto Care",
    "address": "94-1040 Waipahu St, Waipahu, HI 96797",
    "phone": "(808) 671-1000",
    "rating": 4.0,
    "reviews": 25,
    "website": "https://www.google.com/maps/search/Waipahu+Auto+Care+in+Hawaii",
    "category": "Chinese-American-owned Tune-ups in Hawaii",
    "description": "Mentioned as a trustworthy auto shop",
    "hours": "Mon-Fri 9AM-6PM",
    "services": [
      "Chinese-American-owned Tune-ups in Hawaii consultation",
      "Professional service",
      "Quality guarantee"
    ],
    "social_links": {}
  },
  {
    "name": "808 Safety",
    "address": "87-108 Farrington Hwy, Waianae, HI 96792",
    "phone": "(808) 696-1111",
    "rating": 4.0,
    "reviews": 25,
    "website": "https://www.google.com/maps/search/808+Safety+in+Hawaii",
    "category": "Chinese-American-owned Tune-ups in Hawaii",
    "description": "Mentioned as a trustworthy auto shop with good prices",
    "hours": "Mon-Fri 9AM-6PM",
    "services": [
      "Chinese-American-owned Tune-ups in Hawaii consultation",
      "Professional service",
      "Quality guarantee"
    ],
    "social_links": {}
  },
  {
    "name": "Top Level Cars",
    "address": "94-1030 Waipahu St, Waipahu, HI 96797",
    "phone": "(808) 676-5500",
    "rating": 4.0,
    "reviews": 25,
    "website": "https://www.toplevelcars.com/",
    "category": "Chinese-American-owned Tune-ups in Hawaii",
    "description": "Offers auto repair services",
    "hours": "Mon-Fri 9AM-6PM",
    "services": [
      "Chinese-American-owned Tune-ups in Hawaii consultation",
      "Professional service",
      "Quality guarantee"
    ],
    "social_links": {}
  }
]