[
  {
    "name": "LaMarca Law Group, P.C.",
    "address": "600 5th St, Des Moines, IA 50309",
    "phone": "(515) 705-0233",
    "rating": 4.8,
    "reviews": 25,
    "website": "https://lamarcalaw.com/",
    "category": "Baby-Boomer-owned Personal injury law in Iowa",
    "description": "This firm handles a broad range of personal injury cases, including trucking collisions, automobile accidents, and more, with a focus on representing clients against powerful corporations and insurance companies",
    "hours": "Mon-Fri 9AM-6PM",
    "services": [
      "Baby-Boomer-owned Personal injury law in Iowa consultation",
      "Professional service",
      "Quality guarantee"
    ],
    "social_links": {}
  },
  {
    "name": "Hemminger Personal Injury Law Firm",
    "address": "2900 Grand Ave, Des Moines, IA 50312",
    "phone": "(515) 283-2116",
    "rating": 4.9,
    "reviews": 25,
    "website": "https://www.hemmingerlaw.com/",
    "category": "Baby-Boomer-owned Personal injury law in Iowa",
    "description": "Specializing in severe and complex personal injury cases, including wrongful death, this firm has over 40 years of experience",
    "hours": "Mon-Fri 9AM-6PM",
    "services": [
      "Baby-Boomer-owned Personal injury law in Iowa consultation",
      "Professional service",
      "Quality guarantee"
    ],
    "social_links": {}
  },
  {
    "name": "Hope Law Firm",
    "address": "400 Locust St Suite 300, Des Moines, IA 50309",
    "phone": "(515) 298-5056",
    "rating": 4.9,
    "reviews": 25,
    "website": "https://www.hopelawfirm.com/",
    "category": "Baby-Boomer-owned Personal injury law in Iowa",
    "description": "This firm offers compassionate client service and fights for favorable outcomes in personal injury cases, with a strong emphasis on understanding comparative fault in Iowa",
    "hours": "Mon-Fri 9AM-6PM",
    "services": [
      "Baby-Boomer-owned Personal injury law in Iowa consultation",
      "Professional service",
      "Quality guarantee"
    ],
    "social_links": {}
  },
  {
    "name": "Nicolet Law Accident & Injury Lawyers",
    "address": "111 E Locust St Suite 300, Des Moines, IA 50309",
    "phone": "(515) 494-7111",
    "rating": 4.9,
    "reviews": 25,
    "website": "https://www.nicoletlaw.com/locations/des-moines-iowa/",
    "category": "Baby-Boomer-owned Personal injury law in Iowa",
    "description": "Nicolet Law handles all aspects of personal injury cases, allowing clients to focus on their health, and operates on a contingency fee basis",
    "hours": "Mon-Fri 9AM-6PM",
    "services": [
      "Baby-Boomer-owned Personal injury law in Iowa consultation",
      "Professional service",
      "Quality guarantee"
    ],
    "social_links": {}
  },
  {
    "name": "The Kryder Law Group, LLC",
    "address": "400 Locust St Suite 300, Des Moines, IA 50309",
    "phone": "(515) 512-0000",
    "rating": 4.9,
    "reviews": 25,
    "website": "https://kryderlaw.com/locations/iowa/des-moines/",
    "category": "Baby-Boomer-owned Personal injury law in Iowa",
    "description": "This group of attorneys is committed to protecting the rights of injured individuals across Iowa and offers free initial consultations",
    "hours": "Mon-Fri 9AM-6PM",
    "services": [
      "Baby-Boomer-owned Personal injury law in Iowa consultation",
      "Professional service",
      "Quality guarantee"
    ],
    "social_links": {}
  },
  {
    "name": "Law Group of Iowa",
    "address": "317 6th Ave Suite 200, Des Moines, IA 50309",
    "phone": "(515) 414-1311",
    "rating": 4.8,
    "reviews": 25,
    "website": "https://www.lawgrouplaw.com/",
    "category": "Baby-Boomer-owned Personal injury law in Iowa",
    "description": "A multi-service law firm offering personal injury advocacy, they craft detailed cases to seek full and fair compensation for clients",
    "hours": "Mon-Fri 9AM-6PM",
    "services": [
      "Baby-Boomer-owned Personal injury law in Iowa consultation",
      "Professional service",
      "Quality guarantee"
    ],
    "social_links": {}
  },
  {
    "name": "RSH Legal",
    "address": "102 S Clinton St, Iowa City, IA 52240",
    "phone": "(319) 409-6575",
    "rating": 4.9,
    "reviews": 25,
    "website": "https://www.rshlegal.com/",
    "category": "Baby-Boomer-owned Personal injury law in Iowa",
    "description": "RSH Legal has a statewide reputation for helping injured victims and their loved ones get justice, focusing on personal injury, medical malpractice, and workers' compensation",
    "hours": "Mon-Fri 9AM-6PM",
    "services": [
      "Baby-Boomer-owned Personal injury law in Iowa consultation",
      "Professional service",
      "Quality guarantee"
    ],
    "social_links": {}
  },
  {
    "name": "Pothitakis Law Firm",
    "address": "1111 2nd Ave, Suite 101, Rock Island, IL 61201 (Note: While this address is in Illinois, the firm serves Iowa clients and is recognized for its work in Iowa.)",
    "phone": "(319) 318-0450",
    "rating": 4.9,
    "reviews": 25,
    "website": "https://www.pothitakislaw.com/",
    "category": "Baby-Boomer-owned Personal injury law in Iowa",
    "description": "This firm specializes in workers' compensation and personal injury cases, with a nationally recognized attorney who travels to ensure clients receive rightful compensation",
    "hours": "Mon-Fri 9AM-6PM",
    "services": [
      "Baby-Boomer-owned Personal injury law in Iowa consultation",
      "Professional service",
      "Quality guarantee"
    ],
    "social_links": {}
  },
  {
    "name": "Sokolove Law",
    "address": "505 5th Ave Suite 200, Des Moines, IA 50309",
    "phone": "(800) 995-1212",
    "rating": 4.8,
    "reviews": 25,
    "website": "https://www.sokolovelaw.com/locations/iowa/",
    "category": "Baby-Boomer-owned Personal injury law in Iowa",
    "description": "Founded over 45 years ago, Sokolove Law has helped thousands of families secure compensation for injuries, recovering over $10.1 billion nationwide",
    "hours": "Mon-Fri 9AM-6PM",
    "services": [
      "Baby-Boomer-owned Personal injury law in Iowa consultation",
      "Professional service",
      "Quality guarantee"
    ],
    "social_links": {}
  },
  {
    "name": "Hedberg & Boulton, P.C.",
    "address": "300 Walnut St Suite 1000, Des Moines, IA 50309",
    "phone": "(515) 446-9861",
    "rating": 4.7,
    "reviews": 25,
    "website": "https://www.hedberglaw.com/",
    "category": "Baby-Boomer-owned Personal injury law in Iowa",
    "description": "This firm is dedicated to standing up for the rights of workers in Iowa, representing individuals in workers' compensation, employment law, and labor cases",
    "hours": "Mon-Fri 9AM-6PM",
    "services": [
      "Baby-Boomer-owned Personal injury law in Iowa consultation",
      "Professional service",
      "Quality guarantee"
    ],
    "social_links": {}
  }
]