[
  {
    "name": "InDepth Detailing",
    "address": "7230 W. Overland Rd., Boise, ID 83709",
    "phone": "(208) 908-0040",
    "rating": 5.0,
    "reviews": 25,
    "website": "https://www.indepthdetailingboise.com/",
    "category": "Bengali-speaking Paint correction in Idaho",
    "description": "Offers a range of services including ceramic coating, paint protection film (PPF), wash & wax, and interior details",
    "hours": "Mon-Fri 9AM-6PM",
    "services": [
      "Bengali-speaking Paint correction in Idaho consultation",
      "Professional service",
      "Quality guarantee"
    ],
    "social_links": {}
  },
  {
    "name": "EZ Detailing LLC",
    "address": "1040 S. Yellowstone Hwy, Idaho Falls, ID 83402",
    "phone": "(208) 529-3380",
    "rating": 4.0,
    "reviews": 25,
    "website": "https://ezdetailingidaho.com/",
    "category": "Bengali-speaking Paint correction in Idaho",
    "description": "Provides comprehensive interior and exterior detailing, paint protection, and ceramic coating services. They are also certified by IGL Coatings and IDA",
    "hours": "Mon-Fri 9AM-6PM",
    "services": [
      "Bengali-speaking Paint correction in Idaho consultation",
      "Professional service",
      "Quality guarantee"
    ],
    "social_links": {}
  },
  {
    "name": "Desideratum Auto Spa",
    "address": "5771 W. State St., Boise, ID 83703",
    "phone": "(208) 391-3555",
    "rating": 4.0,
    "reviews": 25,
    "website": "https://desideratumautospa.com/",
    "category": "Bengali-speaking Paint correction in Idaho",
    "description": "A premier specialist shop for paint correction services, aiming to remove scratches, swirl marks, oxidation, and more to restore a vehicle's gloss and shine",
    "hours": "Mon-Fri 9AM-6PM",
    "services": [
      "Bengali-speaking Paint correction in Idaho consultation",
      "Professional service",
      "Quality guarantee"
    ],
    "social_links": {}
  },
  {
    "name": "Ceramic Pro Elite Boise",
    "address": "7230 S. Cole Rd., Boise, ID 83709",
    "phone": "(208) 297-2117",
    "rating": 4.0,
    "reviews": 25,
    "website": "https://www.ceramicproboise.com/",
    "category": "Bengali-speaking Paint correction in Idaho",
    "description": "Offers Ceramic Pro coatings, KAVACA Paint Protection Film (PPF), and window tinting to protect vehicles from environmental damage and road debris",
    "hours": "Mon-Fri 9AM-6PM",
    "services": [
      "Bengali-speaking Paint correction in Idaho consultation",
      "Professional service",
      "Quality guarantee"
    ],
    "social_links": {}
  },
  {
    "name": "Idaho Express Detail",
    "address": "Mobile service based in Boise, ID",
    "phone": "(208) 567-0181",
    "rating": 4.0,
    "reviews": 25,
    "website": "https://idahoexpressdetail.com/",
    "category": "Bengali-speaking Paint correction in Idaho",
    "description": "A locally owned mobile car detailing business in Boise offering services like interior detailing, ceramic coating, and full auto detailing at the customer's location",
    "hours": "Mon-Fri 9AM-6PM",
    "services": [
      "Bengali-speaking Paint correction in Idaho consultation",
      "Professional service",
      "Quality guarantee"
    ],
    "social_links": {}
  },
  {
    "name": "Dynamic Auto Pros",
    "address": "1150 S. Progress Ave., Boise, ID 83712",
    "phone": "(208) 473-7034",
    "rating": 4.0,
    "reviews": 25,
    "website": "https://www.dynamicautopro.com/",
    "category": "Bengali-speaking Paint correction in Idaho",
    "description": "Provides premium auto detailing, ceramic coatings, paint protection film (PPF), window tint, and vinyl wraps with a focus on convenience and professionalism",
    "hours": "Mon-Fri 9AM-6PM",
    "services": [
      "Bengali-speaking Paint correction in Idaho consultation",
      "Professional service",
      "Quality guarantee"
    ],
    "social_links": {}
  },
  {
    "name": "Gatlin Mobile Detailing",
    "address": "Mobile service in Boise, ID",
    "phone": "(208) 891-7854",
    "rating": 4.0,
    "reviews": 25,
    "website": "https://gatlinmobiledetailing.com/",
    "category": "Bengali-speaking Paint correction in Idaho",
    "description": "Offers premium mobile auto detailing services including interior cleaning, exterior cleaning, paint correction, and ceramic coating, bringing services directly to the customer",
    "hours": "Mon-Fri 9AM-6PM",
    "services": [
      "Bengali-speaking Paint correction in Idaho consultation",
      "Professional service",
      "Quality guarantee"
    ],
    "social_links": {}
  },
  {
    "name": "Pristine Auto Detailing Idaho",
    "address": "Mobile service, serving the Treasure Valley area",
    "phone": "(208) 861-0861",
    "rating": 4.0,
    "reviews": 25,
    "website": "https://pristineautodetailingidaho.com/",
    "category": "Bengali-speaking Paint correction in Idaho",
    "description": "Offers full-service detailing, including exterior washes, interior deep cleans, and specialized restoration services, using top-quality products and techniques",
    "hours": "Mon-Fri 9AM-6PM",
    "services": [
      "Bengali-speaking Paint correction in Idaho consultation",
      "Professional service",
      "Quality guarantee"
    ],
    "social_links": {}
  },
  {
    "name": "OC Detailing",
    "address": "Based in Boise, ID (offers mobile service)",
    "phone": "(208) 901-7853",
    "rating": 4.0,
    "reviews": 25,
    "website": "https://ocdetailing.com/",
    "category": "Bengali-speaking Paint correction in Idaho",
    "description": "Specializes in vehicle interior detailing, ceramic coating, paint correction, and exterior detailing, with a focus on convenience and uncompromised quality",
    "hours": "Mon-Fri 9AM-6PM",
    "services": [
      "Bengali-speaking Paint correction in Idaho consultation",
      "Professional service",
      "Quality guarantee"
    ],
    "social_links": {}
  },
  {
    "name": "Gl\u00e4nzen PPF + Ceramic Coatings",
    "address": "1003 N. 3rd St., Post Falls, ID 83854",
    "phone": "(208) 244-6961",
    "rating": 4.0,
    "reviews": 25,
    "website": "https://www.glaenzenppf.com/",
    "category": "Bengali-speaking Paint correction in Idaho",
    "description": "Offers expert paint correction, PPF installation, and ceramic coatings to rejuvenate a vehicle's paintwork and provide long-lasting protection",
    "hours": "Mon-Fri 9AM-6PM",
    "services": [
      "Bengali-speaking Paint correction in Idaho consultation",
      "Professional service",
      "Quality guarantee"
    ],
    "social_links": {}
  }
]