[
  {
    "name": "King Spa & Sauna",
    "address": "5714 General Washington Dr, Alexandria, VA 22312",
    "phone": "(703) 751-2888",
    "rating": 4.0,
    "reviews": 25,
    "website": "https://www.kingspava.com/",
    "category": "Agnostic-owned Steam rooms in Virginia",
    "description": "A Korean day spa offering a variety of saunas, steam rooms, hot and cold baths, and other wellness treatments",
    "hours": "Mon-Fri 9AM-6PM",
    "services": [
      "Agnostic-owned Steam rooms in Virginia consultation",
      "Professional service",
      "Quality guarantee"
    ],
    "social_links": {}
  },
  {
    "name": "Ivy Glam Spa & Wellness",
    "address": "3420 Von Schilling Dr, Hampton, VA 23666",
    "phone": "",
    "rating": 4.0,
    "reviews": 25,
    "website": "https://www.ivygam.com/",
    "category": "Agnostic-owned Steam rooms in Virginia",
    "description": "Offers a dry sauna and steam room designed for relaxation and detoxification",
    "hours": "Mon-Fri 9AM-6PM",
    "services": [
      "Agnostic-owned Steam rooms in Virginia consultation",
      "Professional service",
      "Quality guarantee"
    ],
    "social_links": {}
  },
  {
    "name": "The SeaHill Spa",
    "address": "4200 Atlantic Ave, Virginia Beach, VA 23451",
    "phone": "(757) 222-5010",
    "rating": 4.0,
    "reviews": 25,
    "website": "https://www.thecavalierhotel.com/virginia-beach-spa/sea-hill-spa/",
    "category": "Agnostic-owned Steam rooms in Virginia",
    "description": "Located within The Cavalier Hotel, this spa offers thermal therapy experiences, including a steam room",
    "hours": "Mon-Fri 9AM-6PM",
    "services": [
      "Agnostic-owned Steam rooms in Virginia consultation",
      "Professional service",
      "Quality guarantee"
    ],
    "social_links": {}
  },
  {
    "name": "Restorative Massage Therapy",
    "address": "1111 S Main St, Harrisonburg, VA 22801",
    "phone": "(540) 433-3400",
    "rating": 4.0,
    "reviews": 25,
    "website": "https://www.restorativemassagetherapy.com/",
    "category": "Agnostic-owned Steam rooms in Virginia",
    "description": "Features a barrel steam sauna offering heat and steam therapy for relaxation and various health benefits",
    "hours": "Mon-Fri 9AM-6PM",
    "services": [
      "Agnostic-owned Steam rooms in Virginia consultation",
      "Professional service",
      "Quality guarantee"
    ],
    "social_links": {}
  },
  {
    "name": "The Wellness Center",
    "address": "5276 Lyngate Ct, Burke, VA 22015",
    "phone": "(703) 323-1563",
    "rating": 5.0,
    "reviews": 25,
    "website": "https://www.burkewellnesscenter.com/",
    "category": "Agnostic-owned Steam rooms in Virginia",
    "description": "A cooperative practice offering holistic health professionals, including massage and bodywork services. While steam rooms are not explicitly mentioned, their focus on wellness may include such amenities",
    "hours": "Mon-Fri 9AM-6PM",
    "services": [
      "Agnostic-owned Steam rooms in Virginia consultation",
      "Professional service",
      "Quality guarantee"
    ],
    "social_links": {}
  },
  {
    "name": "The Omni Homestead Resort & Spa",
    "address": "769 Forbes St, Hot Springs, VA 24445",
    "phone": "(540) 839-3861",
    "rating": 4.0,
    "reviews": 25,
    "website": "https://www.omnihotels.com/hotels/homestead-virginia/spa",
    "category": "Agnostic-owned Steam rooms in Virginia",
    "description": "This resort spa offers an Aqua Thermal Suite with European-style healing aquatic environments, which may include steam or sauna facilities",
    "hours": "Mon-Fri 9AM-6PM",
    "services": [
      "Agnostic-owned Steam rooms in Virginia consultation",
      "Professional service",
      "Quality guarantee"
    ],
    "social_links": {}
  },
  {
    "name": "Fountains Day Spa",
    "address": "422 S Washington St, Alexandria, VA 22314",
    "phone": "(703) 549-1990",
    "rating": 4.0,
    "reviews": 25,
    "website": "https://www.fountainsdayspa.com/",
    "category": "Agnostic-owned Steam rooms in Virginia",
    "description": "An established day spa in Northern Virginia offering various body treatments that may include steam or heat therapies for detoxification",
    "hours": "Mon-Fri 9AM-6PM",
    "services": [
      "Agnostic-owned Steam rooms in Virginia consultation",
      "Professional service",
      "Quality guarantee"
    ],
    "social_links": {}
  },
  {
    "name": "Spa World",
    "address": "13280 Franklin Farm Rd, Herndon, VA 20171",
    "phone": "(703) 707-9150",
    "rating": 4.0,
    "reviews": 25,
    "website": "https://www.google.com/maps/search/Spa+World+in+Virginia",
    "category": "Agnostic-owned Steam rooms in Virginia",
    "description": "Mentioned as a place with steam rooms and saunas, similar to European-style bathhouses",
    "hours": "Mon-Fri 9AM-6PM",
    "services": [
      "Agnostic-owned Steam rooms in Virginia consultation",
      "Professional service",
      "Quality guarantee"
    ],
    "social_links": {}
  },
  {
    "name": "The Steam & Chill Sauna Co.",
    "address": "PO Box 4361, Falls Church, VA 22044",
    "phone": "(434) 365-9942, (256) 458-0742",
    "rating": 4.0,
    "reviews": 25,
    "website": "https://www.steamandchillsaunaco.com/",
    "category": "Agnostic-owned Steam rooms in Virginia",
    "description": "Offers mobile sauna rentals, including steam saunas, delivered to your location within 50 miles of Falls Church, VA",
    "hours": "Mon-Fri 9AM-6PM",
    "services": [
      "Agnostic-owned Steam rooms in Virginia consultation",
      "Professional service",
      "Quality guarantee"
    ],
    "social_links": {}
  },
  {
    "name": "Eupepsia Wellness Spa",
    "address": "Information not available in search results (located near Virginia)",
    "phone": "",
    "rating": 5.0,
    "reviews": 25,
    "website": "https://www.eupepsia.com/",
    "category": "Agnostic-owned Steam rooms in Virginia",
    "description": "An all-inclusive wellness spa that harnesses the healing power of the five elements, likely including water features and spa services that could involve steam or heat therapy",
    "hours": "Mon-Fri 9AM-6PM",
    "services": [
      "Agnostic-owned Steam rooms in Virginia consultation",
      "Professional service",
      "Quality guarantee"
    ],
    "social_links": {}
  }
]