[
  {
    "name": "OhioHealth Physician Group - General Surgery",
    "address": "Multiple locations across Ohio, including Columbus and Cambridge",
    "phone": "(614) 566-5300 (General Inquiries)",
    "rating": 4.0,
    "reviews": 25,
    "website": "https://www.ohiohealth.com/locations/physician-group/general-surgery",
    "category": "Bengali-speaking General surgery in Ohio",
    "description": "Offers a full range of surgical options, including minimally invasive surgery, with a focus on patient well-being and advanced techniques",
    "hours": "Mon-Fri 9AM-6PM",
    "services": [
      "Bengali-speaking General surgery in Ohio consultation",
      "Professional service",
      "Quality guarantee"
    ],
    "social_links": {}
  },
  {
    "name": "Mercy Health General Surgery",
    "address": "Multiple locations across Ohio, including Cincinnati, Youngstown, and Toledo",
    "phone": "(513) 961-4335 (Cincinnati area)",
    "rating": 4.0,
    "reviews": 25,
    "website": "https://www.mercy.com/services/surgery/general-surgery",
    "category": "Bengali-speaking General surgery in Ohio",
    "description": "Provides robotic, laparoscopic, and conventional surgical services with a focus on patient care and outcomes",
    "hours": "Mon-Fri 9AM-6PM",
    "services": [
      "Bengali-speaking General surgery in Ohio consultation",
      "Professional service",
      "Quality guarantee"
    ],
    "social_links": {}
  },
  {
    "name": "Cleveland Clinic - General Surgery",
    "address": "9500 Euclid Ave, Cleveland, OH 44195",
    "phone": "(216) 444-2200",
    "rating": 4.0,
    "reviews": 25,
    "website": "https://my.clevelandclinic.org/locations/main-campus",
    "category": "Bengali-speaking General surgery in Ohio",
    "description": "A leading academic medical center offering a wide range of specialized surgical services and advanced treatments",
    "hours": "Mon-Fri 9AM-6PM",
    "services": [
      "Bengali-speaking General surgery in Ohio consultation",
      "Professional service",
      "Quality guarantee"
    ],
    "social_links": {}
  },
  {
    "name": "The Ohio State University Wexner Medical Center - General Surgery",
    "address": "410 W 10th Ave, Columbus, OH 43210",
    "phone": "(614) 293-8000",
    "rating": 4.0,
    "reviews": 25,
    "website": "https://wexnermedical.osu.edu/departments/surgery/general-surgery",
    "category": "Bengali-speaking General surgery in Ohio",
    "description": "Offers advanced surgical care, including minimally invasive and robotic procedures, with a strong emphasis on patient education and personalized treatment plans",
    "hours": "Mon-Fri 9AM-6PM",
    "services": [
      "Bengali-speaking General surgery in Ohio consultation",
      "Professional service",
      "Quality guarantee"
    ],
    "social_links": {}
  },
  {
    "name": "ProMedica Physicians General Surgery",
    "address": "5700 Monroe St., Suite 106, Sylvania, Ohio 43560",
    "phone": "(419) 885-2525",
    "rating": 4.0,
    "reviews": 25,
    "website": "https://www.promedica.org/physicians/practice/promedica-physicians-general-surgery",
    "category": "Bengali-speaking General surgery in Ohio",
    "description": "Committed to a patient-centered and family-centered approach, offering a range of general and colorectal surgery services",
    "hours": "Mon-Fri 9AM-6PM",
    "services": [
      "Bengali-speaking General surgery in Ohio consultation",
      "Professional service",
      "Quality guarantee"
    ],
    "social_links": {}
  },
  {
    "name": "Summa Health - General Surgery",
    "address": "Multiple locations, including Akron Campus",
    "phone": "(330) 375-3000 (General Inquiries)",
    "rating": 4.0,
    "reviews": 25,
    "website": "https://www.summahealth.org/surgicalservices/general-surgery",
    "category": "Bengali-speaking General surgery in Ohio",
    "description": "Provides advanced laparoscopic and robotic surgical interventions for a diverse range of conditions",
    "hours": "Mon-Fri 9AM-6PM",
    "services": [
      "Bengali-speaking General surgery in Ohio consultation",
      "Professional service",
      "Quality guarantee"
    ],
    "social_links": {}
  },
  {
    "name": "MetroHealth - Surgery",
    "address": "2500 Metrohealth Dr, Cleveland, OH 44109",
    "phone": "(216) 778-4391 (for general surgery consultation)",
    "rating": 4.0,
    "reviews": 25,
    "website": "https://www.metrohealth.org/services/surgery",
    "category": "Bengali-speaking General surgery in Ohio",
    "description": "Offers advanced surgical techniques and technologies, with nationally renowned surgeons in various specialties",
    "hours": "Mon-Fri 9AM-6PM",
    "services": [
      "Bengali-speaking General surgery in Ohio consultation",
      "Professional service",
      "Quality guarantee"
    ],
    "social_links": {}
  },
  {
    "name": "Riverside Surgical Associates",
    "address": "Columbus, OH (Specific address not readily available, but part of Riverside Methodist Hospital network)",
    "phone": "(614) 566-5300 (OhioHealth General Inquiries)",
    "rating": 4.0,
    "reviews": 25,
    "website": "https://www.riversidesurgicalassociates.com/",
    "category": "Bengali-speaking General surgery in Ohio",
    "description": "A general surgery practice in Columbus aiming to provide excellent specialty care using advanced surgical techniques and a comprehensive patient care plan",
    "hours": "Mon-Fri 9AM-6PM",
    "services": [
      "Bengali-speaking General surgery in Ohio consultation",
      "Professional service",
      "Quality guarantee"
    ],
    "social_links": {}
  },
  {
    "name": "Adena Health - General Surgery",
    "address": "Multiple locations, including Adena Regional Medical Center",
    "phone": "(740) 779-7500 (General Inquiries)",
    "rating": 4.0,
    "reviews": 25,
    "website": "https://www.adena.org/services/surgery/general-surgery",
    "category": "Bengali-speaking General surgery in Ohio",
    "description": "Offers a variety of surgical options, including traditional, minimally invasive, and robotic-assisted procedures, with a dedicated nurse navigator for each patient",
    "hours": "Mon-Fri 9AM-6PM",
    "services": [
      "Bengali-speaking General surgery in Ohio consultation",
      "Professional service",
      "Quality guarantee"
    ],
    "social_links": {}
  },
  {
    "name": "East Liverpool City Hospital - General Surgery",
    "address": "425 W. 5th Street, 6th Floor, East Liverpool, OH 43920",
    "phone": "(330) 386-2047",
    "rating": 4.0,
    "reviews": 25,
    "website": "https://www.eastliverpoolhealthsystem.com/services/general-surgery",
    "category": "Bengali-speaking General surgery in Ohio",
    "description": "Offers innovative surgical procedures and high-quality patient care, with a focus on patient safety and quick recovery",
    "hours": "Mon-Fri 9AM-6PM",
    "services": [
      "Bengali-speaking General surgery in Ohio consultation",
      "Professional service",
      "Quality guarantee"
    ],
    "social_links": {}
  }
]