[
  {
    "name": "Mike's Motorcycle Parts & Repair",
    "address": "G3413 Corunna Rd, Flint, MI 48532",
    "phone": "(810) 767-9230",
    "rating": 4.4,
    "reviews": 25,
    "website": "https://www.google.com/maps/search/Mike's+Motorcycle+Parts+&+Repair+in+Michigan",
    "category": "Chinese-speaking Motorcycle repair in Michigan",
    "description": "Offers motorcycle repair services and parts",
    "hours": "Mon-Fri 9AM-6PM",
    "services": [
      "Chinese-speaking Motorcycle repair in Michigan consultation",
      "Professional service",
      "Quality guarantee"
    ],
    "social_links": {}
  },
  {
    "name": "Bright Power Sports",
    "address": "11500 Allen Rd, Southgate, MI 48195 (This address is inferred from search results mentioning Lincoln Park, MI, and their services)",
    "phone": "(734) 283-0200",
    "rating": 4.6,
    "reviews": 25,
    "website": "https://www.google.com/maps/search/Bright+Power+Sports+in+Michigan",
    "category": "Chinese-speaking Motorcycle repair in Michigan",
    "description": "A motorcycle repair shop in the metro Detroit area that works on all makes and models",
    "hours": "Mon-Fri 9AM-6PM",
    "services": [
      "Chinese-speaking Motorcycle repair in Michigan consultation",
      "Professional service",
      "Quality guarantee"
    ],
    "social_links": {}
  },
  {
    "name": "Platinum Powersports",
    "address": "16200 S Cedar Springs Rd, Rockford, MI 49341",
    "phone": "(616) 855-3660",
    "rating": 4.7,
    "reviews": 25,
    "website": "https://www.google.com/maps/search/Platinum+Powersports+in+Michigan",
    "category": "Chinese-speaking Motorcycle repair in Michigan",
    "description": "Offers a full-service department with certified mechanics for motorcycles, ATVs, scooters, and more",
    "hours": "Mon-Fri 9AM-6PM",
    "services": [
      "Chinese-speaking Motorcycle repair in Michigan consultation",
      "Professional service",
      "Quality guarantee"
    ],
    "social_links": {}
  },
  {
    "name": "US 27 Motorsports",
    "address": "1101 N US-27, St. Johns, MI 48879",
    "phone": "(989) 224-8874",
    "rating": 4.7,
    "reviews": 25,
    "website": "https://www.google.com/maps/search/US+27+Motorsports+in+Michigan",
    "category": "Chinese-speaking Motorcycle repair in Michigan",
    "description": "A motorcycle repair shop in Michigan servicing a wide variety of brands",
    "hours": "Mon-Fri 9AM-6PM",
    "services": [
      "Chinese-speaking Motorcycle repair in Michigan consultation",
      "Professional service",
      "Quality guarantee"
    ],
    "social_links": {}
  },
  {
    "name": "Free Ride Power Sports",
    "address": "4405 Jackson Rd, Ann Arbor, MI 48103",
    "phone": "(734) 585-3300",
    "rating": 4.6,
    "reviews": 25,
    "website": "https://www.google.com/maps/search/Free+Ride+Power+Sports+in+Michigan",
    "category": "Chinese-speaking Motorcycle repair in Michigan",
    "description": "Offers service and repair for motorcycles, ATVs, UTVs, scooters, and more",
    "hours": "Mon-Fri 9AM-6PM",
    "services": [
      "Chinese-speaking Motorcycle repair in Michigan consultation",
      "Professional service",
      "Quality guarantee"
    ],
    "social_links": {}
  },
  {
    "name": "College Bike Shop",
    "address": "340 North Larch St, Lansing, MI 48912",
    "phone": "(517) 482-1200",
    "rating": 4.6,
    "reviews": 25,
    "website": "https://www.google.com/maps/search/College+Bike+Shop+in+Michigan",
    "category": "Chinese-speaking Motorcycle repair in Michigan",
    "description": "A Honda and Kawasaki dealership offering a full-service department for motorcycles",
    "hours": "Mon-Fri 9AM-6PM",
    "services": [
      "Chinese-speaking Motorcycle repair in Michigan consultation",
      "Professional service",
      "Quality guarantee"
    ],
    "social_links": {}
  },
  {
    "name": "Fox Powersports Grand Rapids",
    "address": "720 44th Street SW, Wyoming, MI 49509",
    "phone": "(616) 855-3660",
    "rating": 4.5,
    "reviews": 25,
    "website": "https://www.google.com/maps/search/Fox+Powersports+Grand+Rapids+in+Michigan",
    "category": "Chinese-speaking Motorcycle repair in Michigan",
    "description": "A Michigan dealer offering service for ATVs, UTVs, motorcycles, scooters, and snowmobiles",
    "hours": "Mon-Fri 9AM-6PM",
    "services": [
      "Chinese-speaking Motorcycle repair in Michigan consultation",
      "Professional service",
      "Quality guarantee"
    ],
    "social_links": {}
  },
  {
    "name": "Village Motorsports",
    "address": "4575 W River Dr NE, Comstock Park, MI 49321",
    "phone": "(616) 432-6262",
    "rating": 4.6,
    "reviews": 25,
    "website": "https://www.google.com/maps/search/Village+Motorsports+in+Michigan",
    "category": "Chinese-speaking Motorcycle repair in Michigan",
    "description": "Offers service and repair for various powersport vehicles, including motorcycles",
    "hours": "Mon-Fri 9AM-6PM",
    "services": [
      "Chinese-speaking Motorcycle repair in Michigan consultation",
      "Professional service",
      "Quality guarantee"
    ],
    "social_links": {}
  },
  {
    "name": "Rosenau Powersports",
    "address": "20777 W Outer Dr, Dearborn Heights, MI 48127",
    "phone": "(313) 274-2200",
    "rating": 4.5,
    "reviews": 25,
    "website": "https://www.google.com/maps/search/Rosenau+Powersports+in+Michigan",
    "category": "Chinese-speaking Motorcycle repair in Michigan",
    "description": "Specializes in sales, service, parts, and accessories for motorcycles, ATVs, UTVs, and more",
    "hours": "Mon-Fri 9AM-6PM",
    "services": [
      "Chinese-speaking Motorcycle repair in Michigan consultation",
      "Professional service",
      "Quality guarantee"
    ],
    "social_links": {}
  },
  {
    "name": "Macomb Powersports",
    "address": "43700 Van Dyke Ave, Sterling Heights, MI 48310",
    "phone": "(586) 731-5000",
    "rating": 4.5,
    "reviews": 25,
    "website": "https://www.google.com/maps/search/Macomb+Powersports+in+Michigan",
    "category": "Chinese-speaking Motorcycle repair in Michigan",
    "description": "A powersports dealership with service, parts, and sales departments for motorcycles, dirt bikes, scooters, ATVs, and UTVs",
    "hours": "Mon-Fri 9AM-6PM",
    "services": [
      "Chinese-speaking Motorcycle repair in Michigan consultation",
      "Professional service",
      "Quality guarantee"
    ],
    "social_links": {}
  }
]