[
  {
    "name": "Pare Corporation",
    "address": "1600 Division Rd, Lincoln, RI 02865",
    "phone": "(401) 333-7100",
    "rating": 4.0,
    "reviews": 25,
    "website": "https://www.parecorp.com/",
    "category": "Asian-owned Infrastructure optimization in Rhode-Island",
    "description": "Engineering and consulting firm specializing in water, wastewater, water resources management, environmental consulting, and stormwater management",
    "hours": "Mon-Fri 9AM-6PM",
    "services": [
      "Asian-owned Infrastructure optimization in Rhode-Island consultation",
      "Professional service",
      "Quality guarantee"
    ],
    "social_links": {}
  },
  {
    "name": "Odeh Engineers",
    "address": "1000 Centerville Rd, North Providence, RI 02911",
    "phone": "(401) 231-5500",
    "rating": 4.0,
    "reviews": 25,
    "website": "https://odehengineers.com/",
    "category": "Asian-owned Infrastructure optimization in Rhode-Island",
    "description": "Structural engineering company providing design solutions for high-performance structures",
    "hours": "Mon-Fri 9AM-6PM",
    "services": [
      "Asian-owned Infrastructure optimization in Rhode-Island consultation",
      "Professional service",
      "Quality guarantee"
    ],
    "social_links": {}
  },
  {
    "name": "Caputo & Wick Ltd.",
    "address": "1440 Atwood Ave, Johnston, RI 02919",
    "phone": "(401) 231-3000",
    "rating": 4.0,
    "reviews": 25,
    "website": "https://www.google.com/maps/search/Caputo+&+Wick+Ltd.+Rhode+Island",
    "category": "Asian-owned Infrastructure optimization in Rhode-Island",
    "description": "Rhode Island-based firm providing engineering services including site and drainage design, structural design, and wetland management",
    "hours": "Mon-Fri 9AM-6PM",
    "services": [
      "Asian-owned Infrastructure optimization in Rhode-Island consultation",
      "Professional service",
      "Quality guarantee"
    ],
    "social_links": {}
  },
  {
    "name": "Narragansett Engineering Inc.",
    "address": "125 Industrial Way, Portsmouth, RI 02871",
    "phone": "(401) 683-1000",
    "rating": 4.0,
    "reviews": 25,
    "website": "https://www.narragansettengineering.com/",
    "category": "Asian-owned Infrastructure optimization in Rhode-Island",
    "description": "Civil and survey firm offering efficient and practical design solutions, with a focus on green and low-impact environmental solutions",
    "hours": "Mon-Fri 9AM-6PM",
    "services": [
      "Asian-owned Infrastructure optimization in Rhode-Island consultation",
      "Professional service",
      "Quality guarantee"
    ],
    "social_links": {}
  },
  {
    "name": "RP Engineering",
    "address": "1150 Douglas Pike, Smithfield, RI 02917",
    "phone": "(401) 231-7700",
    "rating": 4.0,
    "reviews": 25,
    "website": "https://rpengineering.com/",
    "category": "Asian-owned Infrastructure optimization in Rhode-Island",
    "description": "Provides civil, structural, marine/coastal, and environmental engineering services for residential and commercial projects",
    "hours": "Mon-Fri 9AM-6PM",
    "services": [
      "Asian-owned Infrastructure optimization in Rhode-Island consultation",
      "Professional service",
      "Quality guarantee"
    ],
    "social_links": {}
  },
  {
    "name": "Joe Casali Engineering",
    "address": "1000 Centerville Rd, Warwick, RI 02886",
    "phone": "(401) 739-4300",
    "rating": 4.0,
    "reviews": 25,
    "website": "https://www.joecasali.com/",
    "category": "Asian-owned Infrastructure optimization in Rhode-Island",
    "description": "Offers civil and site engineering services including stormwater management, drainage design, site development, and wetland permitting",
    "hours": "Mon-Fri 9AM-6PM",
    "services": [
      "Asian-owned Infrastructure optimization in Rhode-Island consultation",
      "Professional service",
      "Quality guarantee"
    ],
    "social_links": {}
  },
  {
    "name": "Commonwealth Engineers & Consultants, Inc.",
    "address": "400 Smith Street, Providence, RI 02908",
    "phone": "(401) 273-6600",
    "rating": 4.0,
    "reviews": 25,
    "website": "https://commonwealth-eng.com/",
    "category": "Asian-owned Infrastructure optimization in Rhode-Island",
    "description": "Multi-disciplinary professional civil engineering firm providing services for public and private clients, including bridge design, building design, and stormwater management",
    "hours": "Mon-Fri 9AM-6PM",
    "services": [
      "Asian-owned Infrastructure optimization in Rhode-Island consultation",
      "Professional service",
      "Quality guarantee"
    ],
    "social_links": {}
  },
  {
    "name": "ACR Construction & Management, Corp.",
    "address": "2170 Mineral Spring Ave, N Providence, RI 02911",
    "phone": "(401) 331-0700",
    "rating": 4.0,
    "reviews": 25,
    "website": "https://www.google.com/maps/search/ACR+Construction+&+Management,+Corp.+Rhode+Island",
    "category": "Asian-owned Infrastructure optimization in Rhode-Island",
    "description": "Provides construction services including new construction, renovation, remodeling, and construction management for residential and commercial properties",
    "hours": "Mon-Fri 9AM-6PM",
    "services": [
      "Asian-owned Infrastructure optimization in Rhode-Island consultation",
      "Professional service",
      "Quality guarantee"
    ],
    "social_links": {}
  },
  {
    "name": "The Damon Company",
    "address": "62 Warner Street, Newport, RI 02840",
    "phone": "(401) 846-4574",
    "rating": 4.0,
    "reviews": 25,
    "website": "https://www.thedamonco.com/",
    "category": "Asian-owned Infrastructure optimization in Rhode-Island",
    "description": "General contracting and construction management firm with expertise in residential, commercial, and military construction, including ADA compliance and historic restoration",
    "hours": "Mon-Fri 9AM-6PM",
    "services": [
      "Asian-owned Infrastructure optimization in Rhode-Island consultation",
      "Professional service",
      "Quality guarantee"
    ],
    "social_links": {}
  },
  {
    "name": "KCM Group",
    "address": "312 Waterman Avenue, East Providence, RI 02914",
    "phone": "(401) 438-0000",
    "rating": 4.0,
    "reviews": 25,
    "website": "https://kcm-group.com/",
    "category": "Asian-owned Infrastructure optimization in Rhode-Island",
    "description": "Specializes in Owner's Project Management and Construction Management services, overseeing projects from concept through completion",
    "hours": "Mon-Fri 9AM-6PM",
    "services": [
      "Asian-owned Infrastructure optimization in Rhode-Island consultation",
      "Professional service",
      "Quality guarantee"
    ],
    "social_links": {}
  }
]