[
  {
    "name": "Mosquito Joe of Columbia",
    "address": "1415 Main St, Columbia, SC 29201",
    "phone": "(803) 298-8251",
    "rating": 4.8,
    "reviews": 25,
    "website": "https://www.mosquitojoe.com/columbia",
    "category": "Italian-speaking Mosquito control in South-Carolina",
    "description": "Offers mosquito and tick control services with a satisfaction guarantee. They provide regular treatments to keep properties free of pests",
    "hours": "Mon-Fri 9AM-6PM",
    "services": [
      "Italian-speaking Mosquito control in South-Carolina consultation",
      "Professional service",
      "Quality guarantee"
    ],
    "social_links": {}
  },
  {
    "name": "Mosquito Authority - Greater Columbia SC",
    "address": "1415 Main St, Columbia, SC 29201",
    "phone": "(803) 298-8251",
    "rating": 4.8,
    "reviews": 25,
    "website": "https://www.mosquitoauthority.com/greater-columbia-sc",
    "category": "Italian-speaking Mosquito control in South-Carolina",
    "description": "Provides mosquito and tick treatment services with flexible options and no contracts. They focus on breaking the mosquito lifecycle",
    "hours": "Mon-Fri 9AM-6PM",
    "services": [
      "Italian-speaking Mosquito control in South-Carolina consultation",
      "Professional service",
      "Quality guarantee"
    ],
    "social_links": {}
  },
  {
    "name": "Stark Exterminators",
    "address": "647 Dupont Rd, Charleston, SC 29407",
    "phone": "(843) 906-9457",
    "rating": 4.5,
    "reviews": 25,
    "website": "https://www.starkexterminators.com/",
    "category": "Italian-speaking Mosquito control in South-Carolina",
    "description": "Offers comprehensive mosquito control services to protect homes and families from mosquitoes and the diseases they can transmit",
    "hours": "Mon-Fri 9AM-6PM",
    "services": [
      "Italian-speaking Mosquito control in South-Carolina consultation",
      "Professional service",
      "Quality guarantee"
    ],
    "social_links": {}
  },
  {
    "name": "Arrow Exterminators",
    "address": "1307 East Pine Log Rd, Aiken, SC 29803",
    "phone": "(803) 306-5939",
    "rating": 4.6,
    "reviews": 25,
    "website": "https://www.arrowexterminators.com/",
    "category": "Italian-speaking Mosquito control in South-Carolina",
    "description": "Provides a range of pest control services, including mosquito control, to protect homes and businesses",
    "hours": "Mon-Fri 9AM-6PM",
    "services": [
      "Italian-speaking Mosquito control in South-Carolina consultation",
      "Professional service",
      "Quality guarantee"
    ],
    "social_links": {}
  },
  {
    "name": "Palmetto Exterminators",
    "address": "11 Mathews Dr #6, Hilton Head Island, SC 29926",
    "phone": "(843) 681-4404",
    "rating": 4.7,
    "reviews": 25,
    "website": "https://www.palmettoexterminators.com/",
    "category": "Italian-speaking Mosquito control in South-Carolina",
    "description": "Specializes in pest, termite, and mosquito control, offering effective solutions for peaceful outdoor living",
    "hours": "Mon-Fri 9AM-6PM",
    "services": [
      "Italian-speaking Mosquito control in South-Carolina consultation",
      "Professional service",
      "Quality guarantee"
    ],
    "social_links": {}
  },
  {
    "name": "Mosquito Squad of The Lowcountry",
    "address": "10698 Ocean Highway, Pawleys Island, SC 29585",
    "phone": "(854) 850-6016",
    "rating": 4.9,
    "reviews": 25,
    "website": "https://www.mosquitosquad.com/lowcountry",
    "category": "Italian-speaking Mosquito control in South-Carolina",
    "description": "Offers mosquito and tick control services, including a natural barrier treatment, to protect families and pets",
    "hours": "Mon-Fri 9AM-6PM",
    "services": [
      "Italian-speaking Mosquito control in South-Carolina consultation",
      "Professional service",
      "Quality guarantee"
    ],
    "social_links": {}
  },
  {
    "name": "Knockout Mosquito",
    "address": "701 N. Cedar Street, North Charleston, SC 29405",
    "phone": "(843) 795-0000",
    "rating": 4.7,
    "reviews": 25,
    "website": "https://www.knockoutmosquito.com/",
    "category": "Italian-speaking Mosquito control in South-Carolina",
    "description": "Provides effective mosquito control solutions, including misting systems and regular treatments, to keep outdoor spaces pest-free",
    "hours": "Mon-Fri 9AM-6PM",
    "services": [
      "Italian-speaking Mosquito control in South-Carolina consultation",
      "Professional service",
      "Quality guarantee"
    ],
    "social_links": {}
  },
  {
    "name": "Harris Pest Control",
    "address": "10698 Ocean Highway, Pawleys Island, SC 29585",
    "phone": "(843) 905-3596",
    "rating": 5.0,
    "reviews": 25,
    "website": "https://www.harrispestcontrol.com/",
    "category": "Italian-speaking Mosquito control in South-Carolina",
    "description": "Offers seasonal mosquito control services in the Pee Dee and Grand Strand areas, including Florence and Myrtle Beach, to protect families from bites and illnesses",
    "hours": "Mon-Fri 9AM-6PM",
    "services": [
      "Italian-speaking Mosquito control in South-Carolina consultation",
      "Professional service",
      "Quality guarantee"
    ],
    "social_links": {}
  },
  {
    "name": "Ledford's Pest Control",
    "address": "2013 W Palmetto St, Florence, SC 29501",
    "phone": "(843) 665-4325",
    "rating": 4.8,
    "reviews": 25,
    "website": "https://www.ledfords.com/",
    "category": "Italian-speaking Mosquito control in South-Carolina",
    "description": "Provides residential and commercial mosquito pest control services in Florence County, SC, using personalized treatment plans and safe solutions",
    "hours": "Mon-Fri 9AM-6PM",
    "services": [
      "Italian-speaking Mosquito control in South-Carolina consultation",
      "Professional service",
      "Quality guarantee"
    ],
    "social_links": {}
  },
  {
    "name": "Berkeley County Mosquito Abatement",
    "address": "St. Stephen, SC 29479",
    "phone": "(843) 567-3136",
    "rating": 4.0,
    "reviews": 25,
    "website": "https://www.google.com/maps/search/Berkeley+County+Mosquito+Abatement+South+Carolina",
    "category": "Italian-speaking Mosquito control in South-Carolina",
    "description": "A county-level service focused on mosquito control within Berkeley County",
    "hours": "Mon-Fri 9AM-6PM",
    "services": [
      "Italian-speaking Mosquito control in South-Carolina consultation",
      "Professional service",
      "Quality guarantee"
    ],
    "social_links": {}
  }
]