[
  {
    "name": "The Home Depot",
    "address": "Multiple locations across South Dakota, including Sioux Falls",
    "phone": "1-800-HOME-DEPOT (1-800-466-3337)",
    "rating": 4.0,
    "reviews": 25,
    "website": "https://www.homedepot.com/services/flooring-installation/",
    "category": "Bengali-speaking Carpet installation in South-Dakota",
    "description": "Offers professional, licensed, and insured carpet installation services with in-home consultations and a wide selection of carpets",
    "hours": "Mon-Fri 9AM-6PM",
    "services": [
      "Bengali-speaking Carpet installation in South-Dakota consultation",
      "Professional service",
      "Quality guarantee"
    ],
    "social_links": {}
  },
  {
    "name": "Walden Flooring",
    "address": "3100 S Carolyn Avenue, Sioux Falls, SD 57106",
    "phone": "(605) 361-6199",
    "rating": 4.0,
    "reviews": 25,
    "website": "https://www.waldenflooring.com/",
    "category": "Bengali-speaking Carpet installation in South-Dakota",
    "description": "A locally owned flooring store offering carpet, hardwood, luxury vinyl, and tile with professional installation and free estimates",
    "hours": "Mon-Fri 9AM-6PM",
    "services": [
      "Bengali-speaking Carpet installation in South-Dakota consultation",
      "Professional service",
      "Quality guarantee"
    ],
    "social_links": {}
  },
  {
    "name": "Carpet Land",
    "address": "4001 W 34th Street, Sioux Falls, SD 57106",
    "phone": "(605) 336-1540",
    "rating": 4.0,
    "reviews": 25,
    "website": "https://carpetlandusa.com/",
    "category": "Bengali-speaking Carpet installation in South-Dakota",
    "description": "A family-owned business since 1986, providing professional flooring installation for residential and commercial spaces with a wide range of options",
    "hours": "Mon-Fri 9AM-6PM",
    "services": [
      "Bengali-speaking Carpet installation in South-Dakota consultation",
      "Professional service",
      "Quality guarantee"
    ],
    "social_links": {}
  },
  {
    "name": "Flooring America of Sioux Falls",
    "address": "Multiple locations, including a showroom in Sioux Falls",
    "phone": "(605) 498-8000 (for Sioux Falls location)",
    "rating": 4.0,
    "reviews": 25,
    "website": "https://www.flooringamerica.com/sioux-falls",
    "category": "Bengali-speaking Carpet installation in South-Dakota",
    "description": "Offers a wide variety of carpet styles with professional installation and an \"Adore Your Floor Guarantee.\"",
    "hours": "Mon-Fri 9AM-6PM",
    "services": [
      "Bengali-speaking Carpet installation in South-Dakota consultation",
      "Professional service",
      "Quality guarantee"
    ],
    "social_links": {}
  },
  {
    "name": "Carpet One of Sioux Falls",
    "address": "Multiple locations, including Sioux Falls",
    "phone": "",
    "rating": 4.0,
    "reviews": 25,
    "website": "https://www.carpetone.com/sioux-falls",
    "category": "Bengali-speaking Carpet installation in South-Dakota",
    "description": "A flooring store offering carpet, hardwood, laminate, vinyl, and tile with expert guidance and a \"Beautiful Guarantee.\"",
    "hours": "Mon-Fri 9AM-6PM",
    "services": [
      "Bengali-speaking Carpet installation in South-Dakota consultation",
      "Professional service",
      "Quality guarantee"
    ],
    "social_links": {}
  },
  {
    "name": "Black Hills Flooring",
    "address": "Multiple locations, including Rapid City and Spearfish, SD",
    "phone": "",
    "rating": 4.0,
    "reviews": 25,
    "website": "https://www.blackhillsflooring.com/",
    "category": "Bengali-speaking Carpet installation in South-Dakota",
    "description": "A local, family-owned business offering a wide selection of flooring products, including carpet, with professional installation services",
    "hours": "Mon-Fri 9AM-6PM",
    "services": [
      "Bengali-speaking Carpet installation in South-Dakota consultation",
      "Professional service",
      "Quality guarantee"
    ],
    "social_links": {}
  },
  {
    "name": "Home Dynamics Flooring",
    "address": "Serving Sioux Falls and Harrisburg, SD, and within a 90-mile radius",
    "phone": "",
    "rating": 4.0,
    "reviews": 25,
    "website": "https://homedynamicsflooring.com/",
    "category": "Bengali-speaking Carpet installation in South-Dakota",
    "description": "Offers professional flooring sales and installation services for homeowners and business owners, including carpet",
    "hours": "Mon-Fri 9AM-6PM",
    "services": [
      "Bengali-speaking Carpet installation in South-Dakota consultation",
      "Professional service",
      "Quality guarantee"
    ],
    "social_links": {}
  },
  {
    "name": "Thornton Flooring Outlet",
    "address": "2300 North Landing Ave, Tea, SD 57064",
    "phone": "(605) 368-2568",
    "rating": 4.0,
    "reviews": 25,
    "website": "https://www.google.com/maps/search/Thornton+Flooring+Outlet+South+Dakota",
    "category": "Bengali-speaking Carpet installation in South-Dakota",
    "description": "Offers flooring solutions and installation services",
    "hours": "Mon-Fri 9AM-6PM",
    "services": [
      "Bengali-speaking Carpet installation in South-Dakota consultation",
      "Professional service",
      "Quality guarantee"
    ],
    "social_links": {}
  },
  {
    "name": "Dave's Flooring America",
    "address": "27107 Independence Ave, Sioux Falls, SD 57108",
    "phone": "(605) 498-8000",
    "rating": 4.0,
    "reviews": 25,
    "website": "https://www.davesflooringamerica.com/",
    "category": "Bengali-speaking Carpet installation in South-Dakota",
    "description": "Provides flooring sales and installation services, including carpet",
    "hours": "Mon-Fri 9AM-6PM",
    "services": [
      "Bengali-speaking Carpet installation in South-Dakota consultation",
      "Professional service",
      "Quality guarantee"
    ],
    "social_links": {}
  },
  {
    "name": "Spencer Furniture & Floors",
    "address": "3901 S Duluth Ave, Sioux Falls, SD 57105",
    "phone": "(605) 332-3312",
    "rating": 4.0,
    "reviews": 25,
    "website": "https://www.google.com/maps/search/Spencer+Furniture+&+Floors+South+Dakota",
    "category": "Bengali-speaking Carpet installation in South-Dakota",
    "description": "Offers furniture and flooring sales, including carpet installation services",
    "hours": "Mon-Fri 9AM-6PM",
    "services": [
      "Bengali-speaking Carpet installation in South-Dakota consultation",
      "Professional service",
      "Quality guarantee"
    ],
    "social_links": {}
  }
]