[
  {
    "name": "Lyons Roofing",
    "address": "Multiple locations, including Phoenix and Tucson metro areas",
    "phone": "(602) 777-0000",
    "rating": 4.7,
    "reviews": 25,
    "website": "https://www.lyonsroofing.com/",
    "category": "Chinese-American-owned Roofing replacement in Arizona",
    "description": "A family-owned company with decades of local experience, offering a wide range of roofing systems including metal and clay tiles",
    "hours": "Mon-Fri 9AM-6PM",
    "services": [
      "Chinese-American-owned Roofing replacement in Arizona consultation",
      "Professional service",
      "Quality guarantee"
    ],
    "social_links": {}
  },
  {
    "name": "Scott Roofing Company",
    "address": "Phoenix, AZ",
    "phone": "(602) 445-4132",
    "rating": 4.6,
    "reviews": 25,
    "website": "https://www.scottroofingcompany.com/",
    "category": "Chinese-American-owned Roofing replacement in Arizona",
    "description": "A family-owned business established in 1982, specializing in both residential and commercial roofing services, known for quality workmanship and customer service",
    "hours": "Mon-Fri 9AM-6PM",
    "services": [
      "Chinese-American-owned Roofing replacement in Arizona consultation",
      "Professional service",
      "Quality guarantee"
    ],
    "social_links": {}
  },
  {
    "name": "America Roofing",
    "address": "Multiple locations, including Phoenix, Tempe, Scottsdale, and San Tan Valley, AZ. Main Phoenix address: 1005 S 30th Ave, Phoenix, AZ 85009",
    "phone": "(602) 237-2478",
    "rating": 4.7,
    "reviews": 25,
    "website": "https://americaroofing.com/",
    "category": "Chinese-American-owned Roofing replacement in Arizona",
    "description": "A family-owned and operated company since 1999, known as one of the largest and most reputable roofing companies in Arizona, specializing in both residential and commercial projects",
    "hours": "Mon-Fri 9AM-6PM",
    "services": [
      "Chinese-American-owned Roofing replacement in Arizona consultation",
      "Professional service",
      "Quality guarantee"
    ],
    "social_links": {}
  },
  {
    "name": "KY-KO Roofing Systems",
    "address": "Phoenix, AZ",
    "phone": "(602) 900-0635",
    "rating": 4.6,
    "reviews": 25,
    "website": "https://ky-koroofing.com/",
    "category": "Chinese-American-owned Roofing replacement in Arizona",
    "description": "Serving the local community since 1993, this company offers repairs, replacements, and installations for residential and commercial properties, emphasizing quality workmanship and customer satisfaction",
    "hours": "Mon-Fri 9AM-6PM",
    "services": [
      "Chinese-American-owned Roofing replacement in Arizona consultation",
      "Professional service",
      "Quality guarantee"
    ],
    "social_links": {}
  },
  {
    "name": "Overson Roofing",
    "address": "Phoenix, AZ",
    "phone": "(480) 788-1152",
    "rating": 4.8,
    "reviews": 25,
    "website": "https://oversonroofing.com/",
    "category": "Chinese-American-owned Roofing replacement in Arizona",
    "description": "A family-owned and operated roofing company with nearly 40 years of experience, recognized for its commitment to ethical business practices",
    "hours": "Mon-Fri 9AM-6PM",
    "services": [
      "Chinese-American-owned Roofing replacement in Arizona consultation",
      "Professional service",
      "Quality guarantee"
    ],
    "social_links": {}
  },
  {
    "name": "CMR Construction & Roofing",
    "address": "Multiple locations, including Phoenix, AZ",
    "phone": "(602) 354-0511",
    "rating": 4.6,
    "reviews": 25,
    "website": "https://cmrconstructionandrroofing.com/",
    "category": "Chinese-American-owned Roofing replacement in Arizona",
    "description": "Known for offering a wide variety of roofing services and solutions for both residential and commercial clients",
    "hours": "Mon-Fri 9AM-6PM",
    "services": [
      "Chinese-American-owned Roofing replacement in Arizona consultation",
      "Professional service",
      "Quality guarantee"
    ],
    "social_links": {}
  },
  {
    "name": "Apple Roofing",
    "address": "Phoenix, AZ",
    "phone": "(602) 445-4132",
    "rating": 4.6,
    "reviews": 25,
    "website": "https://www.appleroofingaz.com/",
    "category": "Chinese-American-owned Roofing replacement in Arizona",
    "description": "Serving residents, commercial businesses, and new builders across the Phoenix Metro area, providing honest and transparent work",
    "hours": "Mon-Fri 9AM-6PM",
    "services": [
      "Chinese-American-owned Roofing replacement in Arizona consultation",
      "Professional service",
      "Quality guarantee"
    ],
    "social_links": {}
  },
  {
    "name": "Panda Roofing & Construction",
    "address": "Gilbert, AZ",
    "phone": "(480) 571-7779",
    "rating": 4.9,
    "reviews": 25,
    "website": "https://pandaroofingaz.com/",
    "category": "Chinese-American-owned Roofing replacement in Arizona",
    "description": "Founded by brothers, this company specializes in roofing and full-scale home remodeling, emphasizing certified craftsmanship and clear communication",
    "hours": "Mon-Fri 9AM-6PM",
    "services": [
      "Chinese-American-owned Roofing replacement in Arizona consultation",
      "Professional service",
      "Quality guarantee"
    ],
    "social_links": {}
  },
  {
    "name": "MSW Contracting",
    "address": "Phoenix, AZ",
    "phone": "(480) 420-0550",
    "rating": 4.8,
    "reviews": 25,
    "website": "https://www.mswcontracting.com/",
    "category": "Chinese-American-owned Roofing replacement in Arizona",
    "description": "A licensed, bonded, and insured roofing contractor with years of experience in installing and repairing all types of residential and commercial roofs",
    "hours": "Mon-Fri 9AM-6PM",
    "services": [
      "Chinese-American-owned Roofing replacement in Arizona consultation",
      "Professional service",
      "Quality guarantee"
    ],
    "social_links": {}
  },
  {
    "name": "SUNVEK Roofing",
    "address": "Phoenix, AZ",
    "phone": "(602) 445-4132",
    "rating": 4.7,
    "reviews": 25,
    "website": "https://www.sunvek.com/",
    "category": "Chinese-American-owned Roofing replacement in Arizona",
    "description": "In business since 1984, SUNVEK Roofing has over 40 years of experience providing expert installation and maintenance for a wide variety of roofing systems",
    "hours": "Mon-Fri 9AM-6PM",
    "services": [
      "Chinese-American-owned Roofing replacement in Arizona consultation",
      "Professional service",
      "Quality guarantee"
    ],
    "social_links": {}
  }
]