[
  {
    "name": "Posha Salon",
    "address": "Madison, WI",
    "phone": "",
    "rating": 4.0,
    "reviews": 25,
    "website": "https://www.google.com/maps/search/Posha+Salon+in+Wisconsin",
    "category": "Chinese-American-owned Keratin treatments in Wisconsin",
    "description": "Offers haircuts, color, extensions, and keratin treatments",
    "hours": "Mon-Fri 9AM-6PM",
    "services": [
      "Chinese-American-owned Keratin treatments in Wisconsin consultation",
      "Professional service",
      "Quality guarantee"
    ],
    "social_links": {}
  },
  {
    "name": "iLLustria Salon",
    "address": "Milwaukee, WI 53204",
    "phone": "(414) 831-4247",
    "rating": 4.0,
    "reviews": 25,
    "website": "https://www.google.com/maps/search/iLLustria+Salon+in+Wisconsin",
    "category": "Chinese-American-owned Keratin treatments in Wisconsin",
    "description": "Specializes in Brazilian Blowout keratin treatments for smoothing and frizz reduction",
    "hours": "Mon-Fri 9AM-6PM",
    "services": [
      "Chinese-American-owned Keratin treatments in Wisconsin consultation",
      "Professional service",
      "Quality guarantee"
    ],
    "social_links": {}
  },
  {
    "name": "Blanc Salon",
    "address": "1541 N Water St, Milwaukee, WI 53202",
    "phone": "(414) 323-4241",
    "rating": 4.0,
    "reviews": 25,
    "website": "https://www.google.com/maps/search/Blanc+Salon+in+Wisconsin",
    "category": "Chinese-American-owned Keratin treatments in Wisconsin",
    "description": "Offers customized keratin treatments and uses sulfate-free shampoos for maintenance",
    "hours": "Mon-Fri 9AM-6PM",
    "services": [
      "Chinese-American-owned Keratin treatments in Wisconsin consultation",
      "Professional service",
      "Quality guarantee"
    ],
    "social_links": {}
  },
  {
    "name": "Serenity Salon",
    "address": "Not specified in search results",
    "phone": "",
    "rating": 4.0,
    "reviews": 25,
    "website": "https://www.google.com/maps/search/Serenity+Salon+in+Wisconsin",
    "category": "Chinese-American-owned Keratin treatments in Wisconsin",
    "description": "Offers Keratin Complex treatments for smoothing and adding shine",
    "hours": "Mon-Fri 9AM-6PM",
    "services": [
      "Chinese-American-owned Keratin treatments in Wisconsin consultation",
      "Professional service",
      "Quality guarantee"
    ],
    "social_links": {}
  },
  {
    "name": "ANiU Salon",
    "address": "2275 Deming Way, Middleton, WI, 53562",
    "phone": "(608) 833-2898",
    "rating": 4.0,
    "reviews": 25,
    "website": "https://www.google.com/maps/search/ANiU+Salon+in+Wisconsin",
    "category": "Chinese-American-owned Keratin treatments in Wisconsin",
    "description": "Provides formaldehyde-free Perfect Finish Keratin Smoothing Treatments and other hair services",
    "hours": "Mon-Fri 9AM-6PM",
    "services": [
      "Chinese-American-owned Keratin treatments in Wisconsin consultation",
      "Professional service",
      "Quality guarantee"
    ],
    "social_links": {}
  },
  {
    "name": "Salon Fifty Four",
    "address": "154 N Broadway, Green Bay, WI 54303",
    "phone": "",
    "rating": 4.0,
    "reviews": 25,
    "website": "https://www.google.com/maps/search/Salon+Fifty+Four+in+Wisconsin",
    "category": "Chinese-American-owned Keratin treatments in Wisconsin",
    "description": "Offers Brazilian Blowout Keratin Treatments",
    "hours": "Mon-Fri 9AM-6PM",
    "services": [
      "Chinese-American-owned Keratin treatments in Wisconsin consultation",
      "Professional service",
      "Quality guarantee"
    ],
    "social_links": {}
  },
  {
    "name": "Epic Modern Salon",
    "address": "Neenah, WI",
    "phone": "920/969-9393",
    "rating": 4.0,
    "reviews": 25,
    "website": "https://www.google.com/maps/search/Epic+Modern+Salon+in+Wisconsin",
    "category": "Chinese-American-owned Keratin treatments in Wisconsin",
    "description": "Offers Keratin Smoothing Treatments and Brazilian Blowouts",
    "hours": "Mon-Fri 9AM-6PM",
    "services": [
      "Chinese-American-owned Keratin treatments in Wisconsin consultation",
      "Professional service",
      "Quality guarantee"
    ],
    "social_links": {}
  },
  {
    "name": "Kookai Hair Salon",
    "address": "7815 W. Burleigh St. Milwaukee, WI 53222",
    "phone": "414.367.9265 (Text or DM only)",
    "rating": 4.0,
    "reviews": 25,
    "website": "https://www.google.com/maps/search/Kookai+Hair+Salon+in+Wisconsin",
    "category": "Chinese-American-owned Keratin treatments in Wisconsin",
    "description": "Offers various hair services",
    "hours": "Mon-Fri 9AM-6PM",
    "services": [
      "Chinese-American-owned Keratin treatments in Wisconsin consultation",
      "Professional service",
      "Quality guarantee"
    ],
    "social_links": {}
  },
  {
    "name": "RIAH\u2022HAIR",
    "address": "Sun Prairie, WI",
    "phone": "",
    "rating": 4.0,
    "reviews": 25,
    "website": "https://www.google.com/maps/search/RIAH\u2022HAIR+in+Wisconsin",
    "category": "Chinese-American-owned Keratin treatments in Wisconsin",
    "description": "A luxury hair salon offering various services, likely including keratin treatments",
    "hours": "Mon-Fri 9AM-6PM",
    "services": [
      "Chinese-American-owned Keratin treatments in Wisconsin consultation",
      "Professional service",
      "Quality guarantee"
    ],
    "social_links": {}
  },
  {
    "name": "Jin Lee Hair Studio",
    "address": "6808 University Ave, Middleton, WI 53562",
    "phone": "(608) 438-5588 (Text to book)",
    "rating": 4.0,
    "reviews": 25,
    "website": "https://www.google.com/maps/search/Jin+Lee+Hair+Studio+in+Wisconsin",
    "category": "Chinese-American-owned Keratin treatments in Wisconsin",
    "description": "A Korean hair studio offering various hair services",
    "hours": "Mon-Fri 9AM-6PM",
    "services": [
      "Chinese-American-owned Keratin treatments in Wisconsin consultation",
      "Professional service",
      "Quality guarantee"
    ],
    "social_links": {}
  }
]