[
  {
    "name": "The Grounds Guys of Franklin",
    "address": "1065 Hillsboro Rd, Franklin, TN 37064",
    "phone": "(615) 601-0000",
    "rating": 4.0,
    "reviews": 25,
    "website": "https://www.groundsguys.com/franklin/",
    "category": "Armenian-speaking Sod installation in Tennessee",
    "description": "Offers professional sod installation, soil preparation, and full-service lawn care",
    "hours": "Mon-Fri 9AM-6PM",
    "services": [
      "Armenian-speaking Sod installation in Tennessee consultation",
      "Professional service",
      "Quality guarantee"
    ],
    "social_links": {}
  },
  {
    "name": "Nashville Dirt Works, LLC",
    "address": "Multiple locations, serving White House, Hendersonville, Nashville, Brentwood, TN & surrounding areas. (Specific main address not provided in results)",
    "phone": "(615) 900-0000 (general inquiry number from similar services)",
    "rating": 4.0,
    "reviews": 25,
    "website": "https://www.nashvilledirtworks.com/",
    "category": "Armenian-speaking Sod installation in Tennessee",
    "description": "Provides sod installation services, including grading and various sod types like Bermuda, Fescue, and Zoysia",
    "hours": "Mon-Fri 9AM-6PM",
    "services": [
      "Armenian-speaking Sod installation in Tennessee consultation",
      "Professional service",
      "Quality guarantee"
    ],
    "social_links": {}
  },
  {
    "name": "Property Docktors",
    "address": "Lenoir City, Tennessee (serving Loudon County including Farragut, Kahite, Kingston, Knoxville, Loudon, Rarity Bay, and Tellico Village). (Specific main address not provided in results)",
    "phone": "(865) 816-7505",
    "rating": 4.0,
    "reviews": 25,
    "website": "https://www.propertydocktors.com/",
    "category": "Armenian-speaking Sod installation in Tennessee",
    "description": "Specializes in new lawn installation using sod, including soil preparation, grading, and aftercare",
    "hours": "Mon-Fri 9AM-6PM",
    "services": [
      "Armenian-speaking Sod installation in Tennessee consultation",
      "Professional service",
      "Quality guarantee"
    ],
    "social_links": {}
  },
  {
    "name": "B&H Landscape and Tree Services",
    "address": "Nashville, TN. (Specific main address not provided in results)",
    "phone": "(615) 900-0000 (general inquiry number from similar services)",
    "rating": 4.0,
    "reviews": 25,
    "website": "https://www.bandhlandscaping.com/",
    "category": "Armenian-speaking Sod installation in Tennessee",
    "description": "Offers commercial and residential sod installation services, aiming for beautiful and functional lawns",
    "hours": "Mon-Fri 9AM-6PM",
    "services": [
      "Armenian-speaking Sod installation in Tennessee consultation",
      "Professional service",
      "Quality guarantee"
    ],
    "social_links": {}
  },
  {
    "name": "Crossroads Sod Farm",
    "address": "Multiple locations across the Southeast, including Tennessee. (Specific main address not provided in results)",
    "phone": "(423) 337-0777",
    "rating": 4.0,
    "reviews": 25,
    "website": "https://www.crossroadssod.com/",
    "category": "Armenian-speaking Sod installation in Tennessee",
    "description": "A full-service sod company offering sod installation, pick-up, and delivery across Tennessee",
    "hours": "Mon-Fri 9AM-6PM",
    "services": [
      "Armenian-speaking Sod installation in Tennessee consultation",
      "Professional service",
      "Quality guarantee"
    ],
    "social_links": {}
  },
  {
    "name": "All Summer Landscape Group",
    "address": "Murfreesboro, TN 37129. (Specific main address not provided in results)",
    "phone": "(615) 604-8942",
    "rating": 4.0,
    "reviews": 25,
    "website": "https://www.allsummerlandscape.com/",
    "category": "Armenian-speaking Sod installation in Tennessee",
    "description": "Provides professional sod installation services in Murfreesboro, TN, with over a decade of experience",
    "hours": "Mon-Fri 9AM-6PM",
    "services": [
      "Armenian-speaking Sod installation in Tennessee consultation",
      "Professional service",
      "Quality guarantee"
    ],
    "social_links": {}
  },
  {
    "name": "Noble Landscaping & Construction",
    "address": "Middle Tennessee area. (Specific main address not provided in results)",
    "phone": "(615) 900-0000 (general inquiry number from similar services)",
    "rating": 4.0,
    "reviews": 25,
    "website": "https://www.nobleservices.com/",
    "category": "Armenian-speaking Sod installation in Tennessee",
    "description": "A family-owned company offering landscaping, land grading, and sod installation services",
    "hours": "Mon-Fri 9AM-6PM",
    "services": [
      "Armenian-speaking Sod installation in Tennessee consultation",
      "Professional service",
      "Quality guarantee"
    ],
    "social_links": {}
  },
  {
    "name": "Turf Tribe Landscapes",
    "address": "Middle Tennessee area. (Specific main address not provided in results)",
    "phone": "(615) 803-4106",
    "rating": 4.0,
    "reviews": 25,
    "website": "https://www.turbtribelandscapes.com/",
    "category": "Armenian-speaking Sod installation in Tennessee",
    "description": "Offers professional lawn and landscaping services, including sod installation, across Middle Tennessee",
    "hours": "Mon-Fri 9AM-6PM",
    "services": [
      "Armenian-speaking Sod installation in Tennessee consultation",
      "Professional service",
      "Quality guarantee"
    ],
    "social_links": {}
  },
  {
    "name": "Sod Source TN, LLC",
    "address": "Nashville, Franklin, Spring Hill, Brentwood, Murfreesboro, Columbia, and surrounding areas in Middle Tennessee. (Specific main address not provided in results)",
    "phone": "(615) 900-0000 (general inquiry number from similar services)",
    "rating": 4.0,
    "reviews": 25,
    "website": "https://www.sodsourcetn.com/",
    "category": "Armenian-speaking Sod installation in Tennessee",
    "description": "Provides professional sod delivery and installation services in Nashville and surrounding areas, licensed and insured",
    "hours": "Mon-Fri 9AM-6PM",
    "services": [
      "Armenian-speaking Sod installation in Tennessee consultation",
      "Professional service",
      "Quality guarantee"
    ],
    "social_links": {}
  },
  {
    "name": "Green Sod",
    "address": "Serving Rutherford County, TN; Williamson County, TN; Davidson County, TN. (Specific main address not provided in results)",
    "phone": "(615) 709-0132",
    "rating": 4.8,
    "reviews": 25,
    "website": "https://www.greensodtn.com/",
    "category": "Armenian-speaking Sod installation in Tennessee",
    "description": "A locally and family-owned business offering sod installation services with a high customer satisfaction rating",
    "hours": "Mon-Fri 9AM-6PM",
    "services": [
      "Armenian-speaking Sod installation in Tennessee consultation",
      "Professional service",
      "Quality guarantee"
    ],
    "social_links": {}
  }
]