[
  {
    "name": "Mavis Tires & Brakes",
    "address": "6371 Interstate 55, Jackson, MS 39213",
    "phone": "(601) 202-3839",
    "rating": 5.0,
    "reviews": 25,
    "website": "https://www.mavistires.com/",
    "category": "Catholic-owned Brake repair in Mississippi",
    "description": "Offers a full range of auto repair services, including brake repair, tire services, and general maintenance. They emphasize quality replacement parts and experienced technicians",
    "hours": "Mon-Fri 9AM-6PM",
    "services": [
      "Catholic-owned Brake repair in Mississippi consultation",
      "Professional service",
      "Quality guarantee"
    ],
    "social_links": {}
  },
  {
    "name": "Christian Brothers Automotive Southaven",
    "address": "1676 Goodman Rd E, Southaven, MS 38671",
    "phone": "(662) 203-9441",
    "rating": 4.8,
    "reviews": 25,
    "website": "https://www.christianbrothersauto.com/locations/southaven/",
    "category": "Catholic-owned Brake repair in Mississippi",
    "description": "This shop is part of a national chain with a mission to \"Love Your Neighbor as Yourself.\" They offer comprehensive auto repair services, including brake work, and are known for their customer service and warranty",
    "hours": "Mon-Fri 9AM-6PM",
    "services": [
      "Catholic-owned Brake repair in Mississippi consultation",
      "Professional service",
      "Quality guarantee"
    ],
    "social_links": {}
  },
  {
    "name": "Freeman Auto Repair",
    "address": "1140 W Capitol St, Jackson, MS 39203",
    "phone": "(601) 948-3358",
    "rating": 4.5,
    "reviews": 25,
    "website": "https://www.freemanautorepair.com/",
    "category": "Catholic-owned Brake repair in Mississippi",
    "description": "A third-generation, family-owned business serving the Jackson Metro area since 1965. They offer a wide range of services, including brake repair, and pride themselves on honesty and fair pricing",
    "hours": "Mon-Fri 9AM-6PM",
    "services": [
      "Catholic-owned Brake repair in Mississippi consultation",
      "Professional service",
      "Quality guarantee"
    ],
    "social_links": {}
  },
  {
    "name": "Capital Car Care",
    "address": "5770 US-80, Jackson, MS 39209",
    "phone": "(601) 203-0610",
    "rating": 4.7,
    "reviews": 25,
    "website": "https://www.capitalcarcare.com/",
    "category": "Catholic-owned Brake repair in Mississippi",
    "description": "A trusted, family-owned auto repair shop serving Jackson, Mississippi, since 1987. They provide expert auto repair services, including brake services, with a focus on quality and a personal touch",
    "hours": "Mon-Fri 9AM-6PM",
    "services": [
      "Catholic-owned Brake repair in Mississippi consultation",
      "Professional service",
      "Quality guarantee"
    ],
    "social_links": {}
  },
  {
    "name": "Marty's Service Center",
    "address": "2000 N Lamar Blvd, Oxford, MS 38655",
    "phone": "(662) 234-7070",
    "rating": 4.8,
    "reviews": 25,
    "website": "https://www.google.com/maps/search/Marty's+Service+Center+in+Mississippi",
    "category": "Catholic-owned Brake repair in Mississippi",
    "description": "Known for being dependable, fairly priced, knowledgeable, and courteous. They offer a range of auto repair services",
    "hours": "Mon-Fri 9AM-6PM",
    "services": [
      "Catholic-owned Brake repair in Mississippi consultation",
      "Professional service",
      "Quality guarantee"
    ],
    "social_links": {}
  },
  {
    "name": "One Stop Goodyear Tire/Service",
    "address": "1412 25th Ave, Gulfport, MS 39501",
    "phone": "(228) 864-1111",
    "rating": 4.9,
    "reviews": 25,
    "website": "https://www.goodyearautoservice.com/en-US/location/one-stop-goodyear-tire-service-gulfport-ms-39501/11879",
    "category": "Catholic-owned Brake repair in Mississippi",
    "description": "Offers a variety of auto services, including tire and brake work, with highly positive customer feedback for their service and staff",
    "hours": "Mon-Fri 9AM-6PM",
    "services": [
      "Catholic-owned Brake repair in Mississippi consultation",
      "Professional service",
      "Quality guarantee"
    ],
    "social_links": {}
  },
  {
    "name": "Seller's Auto & RV Repairs",
    "address": "1412 25th Ave, Gulfport, MS 39501",
    "phone": "(228) 863-7777",
    "rating": 4.5,
    "reviews": 25,
    "website": "https://www.google.com/maps/search/Seller's+Auto+&+RV+Repairs+in+Mississippi",
    "category": "Catholic-owned Brake repair in Mississippi",
    "description": "Praised for excellent service and expertise in auto and RV repairs",
    "hours": "Mon-Fri 9AM-6PM",
    "services": [
      "Catholic-owned Brake repair in Mississippi consultation",
      "Professional service",
      "Quality guarantee"
    ],
    "social_links": {}
  },
  {
    "name": "Precision Tune Auto Care",
    "address": "1801 N Lamar Blvd, Oxford, MS 38655",
    "phone": "(662) 234-8880",
    "rating": 4.6,
    "reviews": 25,
    "website": "https://www.precision \u03b1\u03c5\u03c4\u03cc.com/locations/oxford-ms/",
    "category": "Catholic-owned Brake repair in Mississippi",
    "description": "Offers a range of auto repair services, with customers noting friendly staff and efficient service",
    "hours": "Mon-Fri 9AM-6PM",
    "services": [
      "Catholic-owned Brake repair in Mississippi consultation",
      "Professional service",
      "Quality guarantee"
    ],
    "social_links": {}
  },
  {
    "name": "William Wells Three Star Tire & Auto Repair",
    "address": "2000 US-45, Columbus, MS 39705",
    "phone": "(662) 328-1900",
    "rating": 4.7,
    "reviews": 25,
    "website": "https://www.google.com/maps/search/William+Wells+Three+Star+Tire+&+Auto+Repair+in+Mississippi",
    "category": "Catholic-owned Brake repair in Mississippi",
    "description": "Customers report quick and efficient service for their vehicle needs",
    "hours": "Mon-Fri 9AM-6PM",
    "services": [
      "Catholic-owned Brake repair in Mississippi consultation",
      "Professional service",
      "Quality guarantee"
    ],
    "social_links": {}
  },
  {
    "name": "Heritage Motorcars Of Byram LLC",
    "address": "4607 US-49, Byram, MS 39272",
    "phone": "(601) 371-9000",
    "rating": 4.6,
    "reviews": 25,
    "website": "https://www.heritagemotorcarsbyram.com/",
    "category": "Catholic-owned Brake repair in Mississippi",
    "description": "A full-service auto mechanic shop with certified mechanics capable of handling various repairs, including brakes. They aim for honest work at affordable prices",
    "hours": "Mon-Fri 9AM-6PM",
    "services": [
      "Catholic-owned Brake repair in Mississippi consultation",
      "Professional service",
      "Quality guarantee"
    ],
    "social_links": {}
  }
]