[
  {
    "name": "Latino Community Development Agency (LCDA)",
    "address": "420 SW 10th Street, Oklahoma City, OK 73109",
    "phone": "(405) 236-0701",
    "rating": 4.0,
    "reviews": 25,
    "website": "https://www.latinoagencyokc.org/",
    "category": "Central-American-owned Crisis intervention in Oklahoma",
    "description": "The LCDA offers a range of services, including crisis intervention, domestic violence education, and counseling, with a focus on empowering the Latino community. They also have a 24-hour crisis line",
    "hours": "Mon-Fri 9AM-6PM",
    "services": [
      "Central-American-owned Crisis intervention in Oklahoma consultation",
      "Professional service",
      "Quality guarantee"
    ],
    "social_links": {}
  },
  {
    "name": "Red Rock Behavioral Health Services",
    "address": "Multiple locations, including Norman, Shawnee, and Weatherford. For a full list, please visit their website",
    "phone": "405-987-ROCK (7625) for crisis line",
    "rating": 4.0,
    "reviews": 25,
    "website": "https://www.redrockok.org/",
    "category": "Central-American-owned Crisis intervention in Oklahoma",
    "description": "Red Rock offers comprehensive crisis services, including a crisis hotline, stabilization units, and mobile crisis teams, available 24/7",
    "hours": "Mon-Fri 9AM-6PM",
    "services": [
      "Central-American-owned Crisis intervention in Oklahoma consultation",
      "Professional service",
      "Quality guarantee"
    ],
    "social_links": {}
  },
  {
    "name": "YES Tulsa",
    "address": "Tulsa Office: [Specific address not provided in search results, but services are available in Tulsa.]",
    "phone": "918.492.2554 (Tulsa Office)",
    "rating": 4.0,
    "reviews": 25,
    "website": "https://www.yestulsa.org/",
    "category": "Central-American-owned Crisis intervention in Oklahoma",
    "description": "YES Tulsa provides crisis intervention, diversion, and de-escalation services for youth aged 5-17, operating 24/7",
    "hours": "Mon-Fri 9AM-6PM",
    "services": [
      "Central-American-owned Crisis intervention in Oklahoma consultation",
      "Professional service",
      "Quality guarantee"
    ],
    "social_links": {}
  },
  {
    "name": "NorthCare",
    "address": "[Specific address not provided in search results, but serves Oklahoma and Logan Counties.]",
    "phone": "(405) 858-2700",
    "rating": 4.0,
    "reviews": 25,
    "website": "https://www.northcare.org/",
    "category": "Central-American-owned Crisis intervention in Oklahoma",
    "description": "NorthCare offers 24/7 crisis intervention for all ages in Oklahoma and Logan Counties, including services for mental health and substance use disorders",
    "hours": "Mon-Fri 9AM-6PM",
    "services": [
      "Central-American-owned Crisis intervention in Oklahoma consultation",
      "Professional service",
      "Quality guarantee"
    ],
    "social_links": {}
  },
  {
    "name": "Oklahoma County Crisis Intervention Center (OCCIC)",
    "address": "2625 General Pershing Boulevard, Oklahoma City, OK 73107",
    "phone": "405-945-2300",
    "rating": 4.0,
    "reviews": 25,
    "website": "https://www.ok.gov/odmhsas/Mental-Health/Comprehensive-Crisis-Response/Oklahoma-County-Crisis-Intervention-Center/",
    "category": "Central-American-owned Crisis intervention in Oklahoma",
    "description": "OCCIC provides crisis intervention and emergency assessments for mental health and substance abuse crises, with a short-term crisis stabilization unit",
    "hours": "Mon-Fri 9AM-6PM",
    "services": [
      "Central-American-owned Crisis intervention in Oklahoma consultation",
      "Professional service",
      "Quality guarantee"
    ],
    "social_links": {}
  },
  {
    "name": "Hope Community Services",
    "address": "8125 S. Walker Ave., Oklahoma City, OK 73139",
    "phone": "405-226-6200 (HOPE Help Line 24/7)",
    "rating": 4.0,
    "reviews": 25,
    "website": "https://www.hopecommunityservices.org/",
    "category": "Central-American-owned Crisis intervention in Oklahoma",
    "description": "Hope Community Services offers an Urgent Recovery Center (URC) for stabilization, providing emergency assessments and support for mental health or substance use crises",
    "hours": "Mon-Fri 9AM-6PM",
    "services": [
      "Central-American-owned Crisis intervention in Oklahoma consultation",
      "Professional service",
      "Quality guarantee"
    ],
    "social_links": {}
  },
  {
    "name": "Family & Children's Services (COPES)",
    "address": "Multiple locations, including Tulsa",
    "phone": "918.744.4800 (COPES Crisis Line)",
    "rating": 4.0,
    "reviews": 25,
    "website": "https://www.fcsok.org/",
    "category": "Central-American-owned Crisis intervention in Oklahoma",
    "description": "COPES provides 24/7 mobile crisis response and intervention services for adults and children in psychiatric crises",
    "hours": "Mon-Fri 9AM-6PM",
    "services": [
      "Central-American-owned Crisis intervention in Oklahoma consultation",
      "Professional service",
      "Quality guarantee"
    ],
    "social_links": {}
  },
  {
    "name": "C.O.P.E.S. (Crisis Outreach Psychiatric Emergency Services)",
    "address": "Tulsa County",
    "phone": "918-744-4800",
    "rating": 4.0,
    "reviews": 25,
    "website": "https://www.fcsok.org/our-services/crisis-intervention/copes/",
    "category": "Central-American-owned Crisis intervention in Oklahoma",
    "description": "C.O.P.E.S. offers 24/7 intervention services for ages 5 to adult in Tulsa County, focusing on crisis management and stabilization",
    "hours": "Mon-Fri 9AM-6PM",
    "services": [
      "Central-American-owned Crisis intervention in Oklahoma consultation",
      "Professional service",
      "Quality guarantee"
    ],
    "social_links": {}
  },
  {
    "name": "Domestic Violence Intervention Services (DVIS)",
    "address": "[Specific address not provided in search results, but serves Tulsa.]",
    "phone": "918-585-3143 (24 Hour Crisis Assistance)",
    "rating": 4.0,
    "reviews": 25,
    "website": "http://www.dvis.org/",
    "category": "Central-American-owned Crisis intervention in Oklahoma",
    "description": "DVIS provides 24-hour crisis assistance and support for victims of domestic violence",
    "hours": "Mon-Fri 9AM-6PM",
    "services": [
      "Central-American-owned Crisis intervention in Oklahoma consultation",
      "Professional service",
      "Quality guarantee"
    ],
    "social_links": {}
  },
  {
    "name": "Intervention & Crisis Advocacy Network (ICAN!)",
    "address": "PO Box 754, El Reno, OK 73036",
    "phone": "(405) 262-4455",
    "rating": 4.0,
    "reviews": 25,
    "website": "https://www.unitedwaycentralok.org/ican/",
    "category": "Central-American-owned Crisis intervention in Oklahoma",
    "description": "ICAN! provides crisis intervention and support services to victims of domestic violence, sexual assault, and stalking, including hotline and emergency shelter",
    "hours": "Mon-Fri 9AM-6PM",
    "services": [
      "Central-American-owned Crisis intervention in Oklahoma consultation",
      "Professional service",
      "Quality guarantee"
    ],
    "social_links": {}
  }
]