[
  {
    "name": "Collaborative Counseling",
    "address": "10700 86th Ave N, Maple Grove, MN 55369",
    "phone": "(763) 210-9966",
    "rating": 4.0,
    "reviews": 25,
    "website": "https://www.collaborativecounseling.com/",
    "category": "Baby-Boomer-owned Teletherapy platforms in Minnesota",
    "description": "Offers online therapy via Zoom for clients in Minnesota, focusing on convenience and accessibility",
    "hours": "Mon-Fri 9AM-6PM",
    "services": [
      "Baby-Boomer-owned Teletherapy platforms in Minnesota consultation",
      "Professional service",
      "Quality guarantee"
    ],
    "social_links": {}
  },
  {
    "name": "CFC Health (Center for Collaborative Health)",
    "address": "5500 Vernon Ave S, Edina, MN 55424",
    "phone": "(952) 926-7474",
    "rating": 4.0,
    "reviews": 25,
    "website": "https://www.cfchealth.com/",
    "category": "Baby-Boomer-owned Teletherapy platforms in Minnesota",
    "description": "Provides secure telehealth services statewide in Minnesota, offering convenient and effective mental health care",
    "hours": "Mon-Fri 9AM-6PM",
    "services": [
      "Baby-Boomer-owned Teletherapy platforms in Minnesota consultation",
      "Professional service",
      "Quality guarantee"
    ],
    "social_links": {}
  },
  {
    "name": "IPC (Integrated Psychological Center)",
    "address": "15000 73rd Ave N, Maple Grove, MN 55311",
    "phone": "(763) 420-7111",
    "rating": 4.0,
    "reviews": 25,
    "website": "https://www.ipc-mn.com/",
    "category": "Baby-Boomer-owned Teletherapy platforms in Minnesota",
    "description": "Offers tele-therapy services from the comfort of home, using the OnCall Health video platform for secure and confidential sessions",
    "hours": "Mon-Fri 9AM-6PM",
    "services": [
      "Baby-Boomer-owned Teletherapy platforms in Minnesota consultation",
      "Professional service",
      "Quality guarantee"
    ],
    "social_links": {}
  },
  {
    "name": "The Remedy Mental Health",
    "address": "2645 Louisiana Ave S, St Louis Park, MN 55426",
    "phone": "(612) 217-1211",
    "rating": 4.0,
    "reviews": 25,
    "website": "https://theremedymh.com/",
    "category": "Baby-Boomer-owned Teletherapy platforms in Minnesota",
    "description": "Provides HIPAA-compliant telemental health services, allowing clients to maintain a virtual relationship with their therapist for continuity and convenience",
    "hours": "Mon-Fri 9AM-6PM",
    "services": [
      "Baby-Boomer-owned Teletherapy platforms in Minnesota consultation",
      "Professional service",
      "Quality guarantee"
    ],
    "social_links": {}
  },
  {
    "name": "Secure Base Counseling Center",
    "address": "10700 86th Ave N, Maple Grove, MN 55369",
    "phone": "(763) 210-9966",
    "rating": 4.0,
    "reviews": 25,
    "website": "https://www.securebasecounseling.com/",
    "category": "Baby-Boomer-owned Teletherapy platforms in Minnesota",
    "description": "Offers online therapy services to all residents of Minnesota, emphasizing comfort, flexibility, and accessibility through a HIPAA-compliant platform",
    "hours": "Mon-Fri 9AM-6PM",
    "services": [
      "Baby-Boomer-owned Teletherapy platforms in Minnesota consultation",
      "Professional service",
      "Quality guarantee"
    ],
    "social_links": {}
  },
  {
    "name": "Twin Cities Mental Health & Couples Center",
    "address": "7373 147th St W, Apple Valley, MN 55124",
    "phone": "(952) 736-4400",
    "rating": 4.0,
    "reviews": 25,
    "website": "https://twincitiesmentalhealth.com/",
    "category": "Baby-Boomer-owned Teletherapy platforms in Minnesota",
    "description": "Provides telehealth therapy for residents of the Twin Cities, Minnesota area, making mental health care accessible, effective, and convenient through virtual sessions",
    "hours": "Mon-Fri 9AM-6PM",
    "services": [
      "Baby-Boomer-owned Teletherapy platforms in Minnesota consultation",
      "Professional service",
      "Quality guarantee"
    ],
    "social_links": {}
  },
  {
    "name": "Mental Health Solutions",
    "address": "12700 Lake Street Extension, Minnetonka, MN 55305",
    "phone": "(952) 474-4747",
    "rating": 4.0,
    "reviews": 25,
    "website": "https://www.mhsmn.com/",
    "category": "Baby-Boomer-owned Teletherapy platforms in Minnesota",
    "description": "Offers Telehealth services across Minnesota, allowing individuals to receive necessary mental health support from the comfort of their homes",
    "hours": "Mon-Fri 9AM-6PM",
    "services": [
      "Baby-Boomer-owned Teletherapy platforms in Minnesota consultation",
      "Professional service",
      "Quality guarantee"
    ],
    "social_links": {}
  },
  {
    "name": "Psychology Today - Online Therapists in Minnesota",
    "address": "Various locations across Minnesota (online directory)",
    "phone": "",
    "rating": 4.0,
    "reviews": 25,
    "website": "https://www.psychologytoday.com/us/therapists/mn/online",
    "category": "Baby-Boomer-owned Teletherapy platforms in Minnesota",
    "description": "A directory of therapists in Minnesota offering online teletherapy sessions, catering to various needs and preferences",
    "hours": "Mon-Fri 9AM-6PM",
    "services": [
      "Baby-Boomer-owned Teletherapy platforms in Minnesota consultation",
      "Professional service",
      "Quality guarantee"
    ],
    "social_links": {}
  },
  {
    "name": "Learn to Live",
    "address": "800 LaSalle Ave, Minneapolis, MN 55402",
    "phone": "(888) 545-0075",
    "rating": 4.0,
    "reviews": 25,
    "website": "https://www.learntolive.com/",
    "category": "Baby-Boomer-owned Teletherapy platforms in Minnesota",
    "description": "Offers online digital cognitive behavioral therapy (CBT) as a benefit, aiming to help individuals with depression and anxiety through self-directed training and access to therapists via phone, text, or videoconferencing",
    "hours": "Mon-Fri 9AM-6PM",
    "services": [
      "Baby-Boomer-owned Teletherapy platforms in Minnesota consultation",
      "Professional service",
      "Quality guarantee"
    ],
    "social_links": {}
  },
  {
    "name": "Total Life",
    "address": "Information not available (operates statewide)",
    "phone": "",
    "rating": 4.0,
    "reviews": 25,
    "website": "https://www.totallife.com/",
    "category": "Baby-Boomer-owned Teletherapy platforms in Minnesota",
    "description": "Provides senior telehealth services, including virtual counseling and specialized wellness programs, to make mental wellness more accessible for older adults in Minnesota",
    "hours": "Mon-Fri 9AM-6PM",
    "services": [
      "Baby-Boomer-owned Teletherapy platforms in Minnesota consultation",
      "Professional service",
      "Quality guarantee"
    ],
    "social_links": {}
  }
]