[
  {
    "name": "Gateway Cyclery",
    "address": "Livingston, Montana (Mobile service)",
    "phone": "",
    "rating": 4.0,
    "reviews": 25,
    "website": "https://www.gatewaycyclerymt.com/",
    "category": "Atheist-owned Mobile bicycle repair in Montana",
    "description": "Offers mobile bicycle repair services in Livingston and surrounding areas, coming directly to the customer",
    "hours": "Mon-Fri 9AM-6PM",
    "services": [
      "Atheist-owned Mobile bicycle repair in Montana consultation",
      "Professional service",
      "Quality guarantee"
    ],
    "social_links": {}
  },
  {
    "name": "Ride On MT LLC",
    "address": "168 Shepherd Trail, Suite E, Bozeman, Montana 59718",
    "phone": "(406) 589-7713",
    "rating": 4.0,
    "reviews": 25,
    "website": "https://www.rideonmt.com/",
    "category": "Atheist-owned Mobile bicycle repair in Montana",
    "description": "Provides mobile bicycle repair and fittings, meeting customers at their location. They also service bikes at the Copper City trailhead",
    "hours": "Mon-Fri 9AM-6PM",
    "services": [
      "Atheist-owned Mobile bicycle repair in Montana consultation",
      "Professional service",
      "Quality guarantee"
    ],
    "social_links": {}
  },
  {
    "name": "Nomadic Bike Service",
    "address": "Bozeman, Montana (Mobile service)",
    "phone": "",
    "rating": 4.0,
    "reviews": 25,
    "website": "https://www.nomadicbikeservice.com/",
    "category": "Atheist-owned Mobile bicycle repair in Montana",
    "description": "Offers convenient mobile bicycle repair, picking up bikes, fixing them, and returning them to the customer",
    "hours": "Mon-Fri 9AM-6PM",
    "services": [
      "Atheist-owned Mobile bicycle repair in Montana consultation",
      "Professional service",
      "Quality guarantee"
    ],
    "social_links": {}
  },
  {
    "name": "Bicycle Mobile Tune",
    "address": "Not specified, but operates as a mobile service",
    "phone": "303-261-2333",
    "rating": 4.0,
    "reviews": 25,
    "website": "https://www.bicyclemobiletune.com/",
    "category": "Atheist-owned Mobile bicycle repair in Montana",
    "description": "Provides mobile bicycle repair and e-bike repair services at the customer's location",
    "hours": "Mon-Fri 9AM-6PM",
    "services": [
      "Atheist-owned Mobile bicycle repair in Montana consultation",
      "Professional service",
      "Quality guarantee"
    ],
    "social_links": {}
  },
  {
    "name": "Mobile Wrench Montana",
    "address": "Not specified, but operates as a mobile service",
    "phone": "",
    "rating": 4.0,
    "reviews": 25,
    "website": "https://www.google.com/maps/search/Mobile+Wrench+Montana+in+Montana",
    "category": "Atheist-owned Mobile bicycle repair in Montana",
    "description": "A mobile service that repairs and maintains bicycles, including electric bikes",
    "hours": "Mon-Fri 9AM-6PM",
    "services": [
      "Atheist-owned Mobile bicycle repair in Montana consultation",
      "Professional service",
      "Quality guarantee"
    ],
    "social_links": {}
  },
  {
    "name": "Bangtail Bicycle",
    "address": "1120 W Babcock St, Bozeman, MT 59715",
    "phone": "(406) 587-4905",
    "rating": 4.8,
    "reviews": 25,
    "website": "https://www.bangtail.com/",
    "category": "Atheist-owned Mobile bicycle repair in Montana",
    "description": "A highly-rated bicycle shop offering sales, service, and repairs",
    "hours": "Mon-Fri 9AM-6PM",
    "services": [
      "Atheist-owned Mobile bicycle repair in Montana consultation",
      "Professional service",
      "Quality guarantee"
    ],
    "social_links": {}
  },
  {
    "name": "Glacier Cyclery & Nordic",
    "address": "205 Wisconsin St, Whitefish, MT 59937",
    "phone": "(406) 862-6446",
    "rating": 4.9,
    "reviews": 25,
    "website": "https://www.glaciercyclery.com/",
    "category": "Atheist-owned Mobile bicycle repair in Montana",
    "description": "Offers a wide range of services including bike repair and rentals, with a strong focus on customer satisfaction",
    "hours": "Mon-Fri 9AM-6PM",
    "services": [
      "Atheist-owned Mobile bicycle repair in Montana consultation",
      "Professional service",
      "Quality guarantee"
    ],
    "social_links": {}
  },
  {
    "name": "Hellgate Cyclery",
    "address": "1802 S Higgins Ave, Missoula, MT 59801",
    "phone": "(406) 721-6000",
    "rating": 4.9,
    "reviews": 25,
    "website": "https://www.hellgatecyclery.com/",
    "category": "Atheist-owned Mobile bicycle repair in Montana",
    "description": "A friendly and knowledgeable bike shop known for its expertise and good customer service",
    "hours": "Mon-Fri 9AM-6PM",
    "services": [
      "Atheist-owned Mobile bicycle repair in Montana consultation",
      "Professional service",
      "Quality guarantee"
    ],
    "social_links": {}
  },
  {
    "name": "Missoula Bicycle Works",
    "address": "1115 S Higgins Ave, Missoula, MT 59801",
    "phone": "(406) 543-5300",
    "rating": 4.5,
    "reviews": 25,
    "website": "https://www.missoulabicycleworks.com/",
    "category": "Atheist-owned Mobile bicycle repair in Montana",
    "description": "A well-regarded bike shop offering professional repairs and high-end services",
    "hours": "Mon-Fri 9AM-6PM",
    "services": [
      "Atheist-owned Mobile bicycle repair in Montana consultation",
      "Professional service",
      "Quality guarantee"
    ],
    "social_links": {}
  },
  {
    "name": "The Bike Shop",
    "address": "2455 Overland Ave, Billings, MT 59102",
    "phone": "(406) 652-1202",
    "rating": 4.0,
    "reviews": 25,
    "website": "https://www.billingsbikeshop.com/",
    "category": "Atheist-owned Mobile bicycle repair in Montana",
    "description": "A comprehensive bike shop offering sales, service, and a variety of brands. They also provide free pick-up and delivery within town",
    "hours": "Mon-Fri 9AM-6PM",
    "services": [
      "Atheist-owned Mobile bicycle repair in Montana consultation",
      "Professional service",
      "Quality guarantee"
    ],
    "social_links": {}
  }
]