[
  {
    "name": "Welton Street Cafe",
    "address": "2883 Welton St, Denver, CO 80205",
    "phone": "(303) 296-6602",
    "rating": 4.0,
    "reviews": 25,
    "website": "https://www.google.com/maps/search/Welton+Street+Cafe+in+Colorado",
    "category": "African-American-owned Specialty restaurants in Colorado",
    "description": "A Denver staple serving soul food and Southern cuisine with a Caribbean twist, known for its fried chicken and smothered pork chops",
    "hours": "Mon-Fri 9AM-6PM",
    "services": [
      "African-American-owned Specialty restaurants in Colorado consultation",
      "Professional service",
      "Quality guarantee"
    ],
    "social_links": {}
  },
  {
    "name": "The Blazing Chicken Shack II",
    "address": "5560 E 33rd Ave, Denver, CO 80207",
    "phone": "(303) 355-5448",
    "rating": 4.0,
    "reviews": 25,
    "website": "https://www.google.com/maps/search/The+Blazing+Chicken+Shack+II+in+Colorado",
    "category": "African-American-owned Specialty restaurants in Colorado",
    "description": "Offers soul food, with a focus on delicious catfish and cornbread",
    "hours": "Mon-Fri 9AM-6PM",
    "services": [
      "African-American-owned Specialty restaurants in Colorado consultation",
      "Professional service",
      "Quality guarantee"
    ],
    "social_links": {}
  },
  {
    "name": "Q's Quisine",
    "address": "5428 S Parker Rd, Aurora, CO 80015",
    "phone": "(720) 541-6444",
    "rating": 4.0,
    "reviews": 25,
    "website": "https://www.google.com/maps/search/Q's+Quisine+in+Colorado",
    "category": "African-American-owned Specialty restaurants in Colorado",
    "description": "A soul food and BBQ restaurant",
    "hours": "Mon-Fri 9AM-6PM",
    "services": [
      "African-American-owned Specialty restaurants in Colorado consultation",
      "Professional service",
      "Quality guarantee"
    ],
    "social_links": {}
  },
  {
    "name": "Jamaican Jerk & BBQ",
    "address": "4611 Peoria St, Denver, CO 80239",
    "phone": "",
    "rating": 4.0,
    "reviews": 25,
    "website": "https://www.google.com/maps/search/Jamaican+Jerk+&+BBQ+in+Colorado",
    "category": "African-American-owned Specialty restaurants in Colorado",
    "description": "Specializes in Jamaican jerk and BBQ dishes",
    "hours": "Mon-Fri 9AM-6PM",
    "services": [
      "African-American-owned Specialty restaurants in Colorado consultation",
      "Professional service",
      "Quality guarantee"
    ],
    "social_links": {}
  },
  {
    "name": "Reggae Pot Jamaican Grill",
    "address": "2243 S Monaco St Pkwy #104, Denver, CO 80222",
    "phone": "(720) 410-2956",
    "rating": 4.0,
    "reviews": 25,
    "website": "https://www.google.com/maps/search/Reggae+Pot+Jamaican+Grill+in+Colorado",
    "category": "African-American-owned Specialty restaurants in Colorado",
    "description": "Serves authentic Jamaican cuisine",
    "hours": "Mon-Fri 9AM-6PM",
    "services": [
      "African-American-owned Specialty restaurants in Colorado consultation",
      "Professional service",
      "Quality guarantee"
    ],
    "social_links": {}
  },
  {
    "name": "Jerk Pit Smokehouse",
    "address": "3210 Wyandot St, Denver, CO 80211",
    "phone": "(303) 386-3225",
    "rating": 4.0,
    "reviews": 25,
    "website": "https://www.google.com/maps/search/Jerk+Pit+Smokehouse+in+Colorado",
    "category": "African-American-owned Specialty restaurants in Colorado",
    "description": "Offers a variety of smoked meats and Caribbean-inspired dishes",
    "hours": "Mon-Fri 9AM-6PM",
    "services": [
      "African-American-owned Specialty restaurants in Colorado consultation",
      "Professional service",
      "Quality guarantee"
    ],
    "social_links": {}
  },
  {
    "name": "Whittier Cafe",
    "address": "1710 E 25th Ave, Denver, CO 80205",
    "phone": "(720) 550-7440",
    "rating": 4.0,
    "reviews": 25,
    "website": "https://www.google.com/maps/search/Whittier+Cafe+in+Colorado",
    "category": "African-American-owned Specialty restaurants in Colorado",
    "description": "Denver's only African espresso bar, offering unique coffee, pastries, and light bites",
    "hours": "Mon-Fri 9AM-6PM",
    "services": [
      "African-American-owned Specialty restaurants in Colorado consultation",
      "Professional service",
      "Quality guarantee"
    ],
    "social_links": {}
  },
  {
    "name": "TeaLee's Teahouse & Bookstore",
    "address": "611 22nd St, Denver, CO 80205",
    "phone": "(303) 593-2013",
    "rating": 4.0,
    "reviews": 25,
    "website": "https://www.google.com/maps/search/TeaLee's+Teahouse+&+Bookstore+in+Colorado",
    "category": "African-American-owned Specialty restaurants in Colorado",
    "description": "A unique combination of a teahouse and bookstore, serving a variety of teas, coffee, soups, salads, and sandwiches",
    "hours": "Mon-Fri 9AM-6PM",
    "services": [
      "African-American-owned Specialty restaurants in Colorado consultation",
      "Professional service",
      "Quality guarantee"
    ],
    "social_links": {}
  },
  {
    "name": "Nile Ethiopian Restaurant",
    "address": "1951 S Havana St, Aurora, CO 80014",
    "phone": "",
    "rating": 4.0,
    "reviews": 25,
    "website": "https://www.google.com/maps/search/Nile+Ethiopian+Restaurant+in+Colorado",
    "category": "African-American-owned Specialty restaurants in Colorado",
    "description": "Offers authentic Ethiopian cuisine",
    "hours": "Mon-Fri 9AM-6PM",
    "services": [
      "African-American-owned Specialty restaurants in Colorado consultation",
      "Professional service",
      "Quality guarantee"
    ],
    "social_links": {}
  },
  {
    "name": "Jacaranda",
    "address": "1109 Walnut Street, Boulder, CO 80302 (located within Rosetta Hall)",
    "phone": "",
    "rating": 4.0,
    "reviews": 25,
    "website": "https://www.google.com/maps/search/Jacaranda+in+Colorado",
    "category": "African-American-owned Specialty restaurants in Colorado",
    "description": "Specializes in West African cuisine with influences from New Orleans and the Carolinas, known for its peanut butter stew and Ghana po'boy",
    "hours": "Mon-Fri 9AM-6PM",
    "services": [
      "African-American-owned Specialty restaurants in Colorado consultation",
      "Professional service",
      "Quality guarantee"
    ],
    "social_links": {}
  }
]