[
  {
    "name": "Home Systems Appliance Repair",
    "address": "805 Peppard Dr., Bel Air, MD 21014",
    "phone": "443-865-0419",
    "rating": 4.0,
    "reviews": 25,
    "website": "http://www.homesystemsappliancerepair.com/",
    "category": "Black-owned Small appliance repair in Maryland",
    "description": "Offers repair services for all major residential appliance brands and has been in business for 30 years",
    "hours": "Mon-Fri 9AM-6PM",
    "services": [
      "Black-owned Small appliance repair in Maryland consultation",
      "Professional service",
      "Quality guarantee"
    ],
    "social_links": {}
  },
  {
    "name": "Expert Appliance Fix",
    "address": "1229 Rustic Avenue, Rosedale, Maryland, 21237",
    "phone": "240-575-8536",
    "rating": 5.0,
    "reviews": 25,
    "website": "http://www.expertappliancefix.com/",
    "category": "Black-owned Small appliance repair in Maryland",
    "description": "Specializes in refrigerator and freezer repair, as well as oven and washing machine repair. They offer same-day service and are a Black-owned and family-owned business",
    "hours": "Mon-Fri 9AM-6PM",
    "services": [
      "Black-owned Small appliance repair in Maryland consultation",
      "Professional service",
      "Quality guarantee"
    ],
    "social_links": {}
  },
  {
    "name": "ABW Appliances",
    "address": "8309b Sherwick Ct. Jessup MD 20794",
    "phone": "301-589-1445",
    "rating": 4.0,
    "reviews": 25,
    "website": "http://www.abwappliances.com/",
    "category": "Black-owned Small appliance repair in Maryland",
    "description": "Provides appliance shopping, delivery, installation, and certified repair services. They are a minority-owned business",
    "hours": "Mon-Fri 9AM-6PM",
    "services": [
      "Black-owned Small appliance repair in Maryland consultation",
      "Professional service",
      "Quality guarantee"
    ],
    "social_links": {}
  },
  {
    "name": "Clark-Forbes LLC",
    "address": "North East, MD 21901",
    "phone": "",
    "rating": 4.0,
    "reviews": 25,
    "website": "http://www.clark-forbesllc.com/",
    "category": "Black-owned Small appliance repair in Maryland",
    "description": "Offers small and major appliance repair, maintenance, and installation services for residential and commercial clients",
    "hours": "Mon-Fri 9AM-6PM",
    "services": [
      "Black-owned Small appliance repair in Maryland consultation",
      "Professional service",
      "Quality guarantee"
    ],
    "social_links": {}
  },
  {
    "name": "Nirouze Appliance Repair",
    "address": "5927 Holland Rd, Rockville MD 20851",
    "phone": "240-360-3428",
    "rating": 4.0,
    "reviews": 25,
    "website": "http://www.nirouzeappliancerepair.com/",
    "category": "Black-owned Small appliance repair in Maryland",
    "description": "Provides same-day appliance repair services for all brands and types of appliances in the DC, VA, and MD areas",
    "hours": "Mon-Fri 9AM-6PM",
    "services": [
      "Black-owned Small appliance repair in Maryland consultation",
      "Professional service",
      "Quality guarantee"
    ],
    "social_links": {}
  },
  {
    "name": "Best Service Appliance Repair",
    "address": "Pasadena, MD",
    "phone": "",
    "rating": 4.0,
    "reviews": 25,
    "website": "http://www.bestsrvappliancerepair.com/",
    "category": "Black-owned Small appliance repair in Maryland",
    "description": "Offers expert appliance repair with over 20 years of experience, serving Pasadena, Glen Burnie, Annapolis, Columbia, and surrounding areas",
    "hours": "Mon-Fri 9AM-6PM",
    "services": [
      "Black-owned Small appliance repair in Maryland consultation",
      "Professional service",
      "Quality guarantee"
    ],
    "social_links": {}
  },
  {
    "name": "Raker Appliance Repair",
    "address": "Serves Baltimore, MD and surrounding areas",
    "phone": "",
    "rating": 4.0,
    "reviews": 25,
    "website": "http://www.rakerappliancerepair.com/",
    "category": "Black-owned Small appliance repair in Maryland",
    "description": "A family-owned and operated business with 45 years of experience providing same-day service for most repair situations. They have been awarded the Angie's List Super Service Award",
    "hours": "Mon-Fri 9AM-6PM",
    "services": [
      "Black-owned Small appliance repair in Maryland consultation",
      "Professional service",
      "Quality guarantee"
    ],
    "social_links": {}
  },
  {
    "name": "Local Professional Appliance Repair",
    "address": "2150 Alice Ave, 102. Oxon Hill-Glassmanor, Maryland 20745",
    "phone": "240-754-4600",
    "rating": 4.0,
    "reviews": 25,
    "website": "https://www.google.com/maps/search/Local+Professional+Appliance+Repair+in+Maryland",
    "category": "Black-owned Small appliance repair in Maryland",
    "description": "Listed as a minority-owned business in Maryland",
    "hours": "Mon-Fri 9AM-6PM",
    "services": [
      "Black-owned Small appliance repair in Maryland consultation",
      "Professional service",
      "Quality guarantee"
    ],
    "social_links": {}
  },
  {
    "name": "AllStar Appliance Repair",
    "address": "Baltimore, Maryland",
    "phone": "443-744-6899 or 443-500-1655",
    "rating": 4.0,
    "reviews": 25,
    "website": "http://www.allstarappliancerepair.com/",
    "category": "Black-owned Small appliance repair in Maryland",
    "description": "Offers same-day service for most major brands and models, serving Baltimore and surrounding counties. They have been voted \"Best of Baltimore\" multiple times",
    "hours": "Mon-Fri 9AM-6PM",
    "services": [
      "Black-owned Small appliance repair in Maryland consultation",
      "Professional service",
      "Quality guarantee"
    ],
    "social_links": {}
  },
  {
    "name": "HAT Appliance Repair",
    "address": "Serves the DMV metro area",
    "phone": "202-294-5352",
    "rating": 4.0,
    "reviews": 25,
    "website": "http://www.hatappliancerepair.com/",
    "category": "Black-owned Small appliance repair in Maryland",
    "description": "Provides appliance repair and installation services with a focus on fair prices, superior quality, and exceptional customer service",
    "hours": "Mon-Fri 9AM-6PM",
    "services": [
      "Black-owned Small appliance repair in Maryland consultation",
      "Professional service",
      "Quality guarantee"
    ],
    "social_links": {}
  }
]