[
  {
    "name": "Bubble Dentistry: Pediatric Dentistry & Ortho",
    "address": "2000 Washington St, Newton, MA 02462",
    "phone": "(617) 795-0777",
    "rating": 4.8,
    "reviews": 25,
    "website": "https://www.bubbledentistry.com/",
    "category": "Central-American-owned Pediatric dentistry in Massachusetts",
    "description": "Award-winning practice focusing on quality care and patient education in a fun, engaging, and stress-free environment for kids and teens",
    "hours": "Mon-Fri 9AM-6PM",
    "services": [
      "Central-American-owned Pediatric dentistry in Massachusetts consultation",
      "Professional service",
      "Quality guarantee"
    ],
    "social_links": {}
  },
  {
    "name": "The Pediatric Dental Group",
    "address": "136 S Franklin St, Holliston, MA 01746 (also has locations in Milford and Northborough)",
    "phone": "(508) 429-5100",
    "rating": 4.9,
    "reviews": 25,
    "website": "https://www.thepediatricdentist.com/",
    "category": "Central-American-owned Pediatric dentistry in Massachusetts",
    "description": "Offers top-rated pediatric dentistry, braces, and orthodontic care with a dedicated team committed to children's oral health",
    "hours": "Mon-Fri 9AM-6PM",
    "services": [
      "Central-American-owned Pediatric dentistry in Massachusetts consultation",
      "Professional service",
      "Quality guarantee"
    ],
    "social_links": {}
  },
  {
    "name": "Village Pediatric Dental",
    "address": "525 Mass Ave, Acton, MA 01720",
    "phone": "(978) 263-3376",
    "rating": 4.9,
    "reviews": 25,
    "website": "https://www.villagepediatricdental.com/",
    "category": "Central-American-owned Pediatric dentistry in Massachusetts",
    "description": "Committed to delivering high-quality, advanced dental care with warmth and kindness, aiming to create a positive relationship with dentistry for children",
    "hours": "Mon-Fri 9AM-6PM",
    "services": [
      "Central-American-owned Pediatric dentistry in Massachusetts consultation",
      "Professional service",
      "Quality guarantee"
    ],
    "social_links": {}
  },
  {
    "name": "The Center for Pediatric Dental Care & Orthodontics",
    "address": "1000 Beacon St, Brookline, MA 02446",
    "phone": "(617) 731-4400",
    "rating": 4.7,
    "reviews": 25,
    "website": "https://www.pediatricdentalcenter.com/",
    "category": "Central-American-owned Pediatric dentistry in Massachusetts",
    "description": "A trusted dental practice offering general and cosmetic dentistry, implants, and other dental care for children and adolescents",
    "hours": "Mon-Fri 9AM-6PM",
    "services": [
      "Central-American-owned Pediatric dentistry in Massachusetts consultation",
      "Professional service",
      "Quality guarantee"
    ],
    "social_links": {}
  },
  {
    "name": "Children's Dentistry of Chicopee",
    "address": "145 Burnett Rd, Chicopee, MA 01020",
    "phone": "(413) 594-3411",
    "rating": 4.8,
    "reviews": 25,
    "website": "https://www.chicopeepediatricdentistry.com/",
    "category": "Central-American-owned Pediatric dentistry in Massachusetts",
    "description": "Provides specialized dentistry for children and adolescents in a warm, caring, and child-friendly environment, focusing on preventive care",
    "hours": "Mon-Fri 9AM-6PM",
    "services": [
      "Central-American-owned Pediatric dentistry in Massachusetts consultation",
      "Professional service",
      "Quality guarantee"
    ],
    "social_links": {}
  },
  {
    "name": "Sturbridge Children's Dentistry",
    "address": "358 Worcester Rd, Sturbridge, MA 01566",
    "phone": "(508) 347-5131",
    "rating": 4.9,
    "reviews": 25,
    "website": "https://www.sturbridgepediatricdentist.com/",
    "category": "Central-American-owned Pediatric dentistry in Massachusetts",
    "description": "Dr. Olga Restrepo is dedicated to pediatric dentistry for children, offering cleanings, exams, X-rays, and more with a gentle touch",
    "hours": "Mon-Fri 9AM-6PM",
    "services": [
      "Central-American-owned Pediatric dentistry in Massachusetts consultation",
      "Professional service",
      "Quality guarantee"
    ],
    "social_links": {}
  },
  {
    "name": "Pediatric Dentistry and Braces (Peabody, MA)",
    "address": "229 Andover St, Peabody, MA 01960",
    "phone": "(978) 531-3000",
    "rating": 4.9,
    "reviews": 25,
    "website": "https://www.pediatricdentistryandbraces.com/",
    "category": "Central-American-owned Pediatric dentistry in Massachusetts",
    "description": "Offers a wide range of pediatric and orthodontic services with a team dedicated to helping children and teenagers achieve healthy, confident smiles",
    "hours": "Mon-Fri 9AM-6PM",
    "services": [
      "Central-American-owned Pediatric dentistry in Massachusetts consultation",
      "Professional service",
      "Quality guarantee"
    ],
    "social_links": {}
  },
  {
    "name": "Children's Dental of Waltham",
    "address": "1032 Main St, Waltham, MA 02451",
    "phone": "(781) 899-0400",
    "rating": 4.8,
    "reviews": 25,
    "website": "https://www.childrensdentalwaltham.com/",
    "category": "Central-American-owned Pediatric dentistry in Massachusetts",
    "description": "Provides a gentle approach for children with experienced pediatric dentists and hygienists, offering a kid-friendly office and sedation dentistry",
    "hours": "Mon-Fri 9AM-6PM",
    "services": [
      "Central-American-owned Pediatric dentistry in Massachusetts consultation",
      "Professional service",
      "Quality guarantee"
    ],
    "social_links": {}
  },
  {
    "name": "A Mother's Touch Pediatric Dentistry",
    "address": "104 Whalon St, Suite 2D, Fitchburg, MA 01420",
    "phone": "(978) 342-7000",
    "rating": 4.9,
    "reviews": 25,
    "website": "https://www.amothers-touch.com/",
    "category": "Central-American-owned Pediatric dentistry in Massachusetts",
    "description": "A Harvard-trained pediatric dentist aims to treat every child like her own, with a focus on making children comfortable and providing tender loving care",
    "hours": "Mon-Fri 9AM-6PM",
    "services": [
      "Central-American-owned Pediatric dentistry in Massachusetts consultation",
      "Professional service",
      "Quality guarantee"
    ],
    "social_links": {}
  },
  {
    "name": "Bright Smiles Pediatric Dentistry",
    "address": "1000 Main St, Suite 201, Waltham, MA 02451",
    "phone": "(781) 899-0400",
    "rating": 4.8,
    "reviews": 25,
    "website": "https://www.brightsmileswaltham.com/",
    "category": "Central-American-owned Pediatric dentistry in Massachusetts",
    "description": "Offers comprehensive pediatric dental care in a fun and friendly environment, with a focus on preventive care and making dental visits enjoyable for children",
    "hours": "Mon-Fri 9AM-6PM",
    "services": [
      "Central-American-owned Pediatric dentistry in Massachusetts consultation",
      "Professional service",
      "Quality guarantee"
    ],
    "social_links": {}
  }
]