[
  {
    "name": "Lumina Solar",
    "address": "Not specified in search results",
    "phone": "",
    "rating": 4.0,
    "reviews": 25,
    "website": "https://luminasolar.com/",
    "category": "Black-owned Solar panel installation in Delaware",
    "description": "A solar installation company serving the Mid-Atlantic region, including Delaware, since 2018. They focus on providing quality installations and customer service",
    "hours": "Mon-Fri 9AM-6PM",
    "services": [
      "Black-owned Solar panel installation in Delaware consultation",
      "Professional service",
      "Quality guarantee"
    ],
    "social_links": {}
  },
  {
    "name": "Venture Solar",
    "address": "Not specified in search results",
    "phone": "",
    "rating": 4.8,
    "reviews": 25,
    "website": "https://venturesolar.com/",
    "category": "Black-owned Solar panel installation in Delaware",
    "description": "A solar installer operating in the Northeast, including Delaware. They are noted for quality installations and offer a 25-year warranty",
    "hours": "Mon-Fri 9AM-6PM",
    "services": [
      "Black-owned Solar panel installation in Delaware consultation",
      "Professional service",
      "Quality guarantee"
    ],
    "social_links": {}
  },
  {
    "name": "Green Street Solar",
    "address": "Not specified in search results",
    "phone": "(302) 297-8174",
    "rating": 4.0,
    "reviews": 25,
    "website": "https://greenstreetsolar.com/",
    "category": "Black-owned Solar panel installation in Delaware",
    "description": "Installs residential and commercial PV solar systems in Delaware and Maryland, offering a 10-year installation guarantee",
    "hours": "Mon-Fri 9AM-6PM",
    "services": [
      "Black-owned Solar panel installation in Delaware consultation",
      "Professional service",
      "Quality guarantee"
    ],
    "social_links": {}
  },
  {
    "name": "Clean Energy USA",
    "address": "Not specified in search results",
    "phone": "(302) 227-1337",
    "rating": 4.0,
    "reviews": 25,
    "website": "https://www.ceusa.com/",
    "category": "Black-owned Solar panel installation in Delaware",
    "description": "A Delaware-based solar provider since 2007, offering residential and commercial installations. They are part of the Schell Brothers family",
    "hours": "Mon-Fri 9AM-6PM",
    "services": [
      "Black-owned Solar panel installation in Delaware consultation",
      "Professional service",
      "Quality guarantee"
    ],
    "social_links": {}
  },
  {
    "name": "Paradise Energy Solutions",
    "address": "Not specified in search results",
    "phone": "",
    "rating": 4.4,
    "reviews": 25,
    "website": "https://www.paradiseenergy.com/",
    "category": "Black-owned Solar panel installation in Delaware",
    "description": "Offers solar panel installations with strong warranty coverage and competitive pricing",
    "hours": "Mon-Fri 9AM-6PM",
    "services": [
      "Black-owned Solar panel installation in Delaware consultation",
      "Professional service",
      "Quality guarantee"
    ],
    "social_links": {}
  },
  {
    "name": "Solair",
    "address": "Not specified in search results",
    "phone": "302-841-1108",
    "rating": 4.0,
    "reviews": 25,
    "website": "https://solair.com/",
    "category": "Black-owned Solar panel installation in Delaware",
    "description": "A solar company serving Delaware, Maryland, New Jersey, and Pennsylvania, providing customized clean energy installations for residential, commercial, and agricultural customers",
    "hours": "Mon-Fri 9AM-6PM",
    "services": [
      "Black-owned Solar panel installation in Delaware consultation",
      "Professional service",
      "Quality guarantee"
    ],
    "social_links": {}
  },
  {
    "name": "Solar Energy World",
    "address": "Not specified in search results",
    "phone": "",
    "rating": 4.4,
    "reviews": 25,
    "website": "https://www.sew.com/",
    "category": "Black-owned Solar panel installation in Delaware",
    "description": "An East Coast installer offering a 25-30 year warranty on solar panels and inverters",
    "hours": "Mon-Fri 9AM-6PM",
    "services": [
      "Black-owned Solar panel installation in Delaware consultation",
      "Professional service",
      "Quality guarantee"
    ],
    "social_links": {}
  },
  {
    "name": "Blue Raven Solar",
    "address": "Not specified in search results",
    "phone": "",
    "rating": 4.7,
    "reviews": 25,
    "website": "https://blueravensolar.com/",
    "category": "Black-owned Solar panel installation in Delaware",
    "description": "Recognized for its reputable customer service and warranty coverage, offering a 25-year panel and 10-year workmanship warranty",
    "hours": "Mon-Fri 9AM-6PM",
    "services": [
      "Black-owned Solar panel installation in Delaware consultation",
      "Professional service",
      "Quality guarantee"
    ],
    "social_links": {}
  },
  {
    "name": "Arise Solar",
    "address": "Not specified in search results",
    "phone": "(302) 409-9407",
    "rating": 4.0,
    "reviews": 25,
    "website": "https://www.arisesolarllc.com/",
    "category": "Black-owned Solar panel installation in Delaware",
    "description": "A minority woman-owned business installing residential and commercial solar systems in DE, MD, NJ, and PA since 2008",
    "hours": "Mon-Fri 9AM-6PM",
    "services": [
      "Black-owned Solar panel installation in Delaware consultation",
      "Professional service",
      "Quality guarantee"
    ],
    "social_links": {}
  },
  {
    "name": "CMI Solar & Electric, Inc.",
    "address": "Not specified in search results",
    "phone": "(302) 731-5556",
    "rating": 4.0,
    "reviews": 25,
    "website": "https://www.cmielectric.com/",
    "category": "Black-owned Solar panel installation in Delaware",
    "description": "A family-owned Delaware company since 1998, providing customized solar solutions and holding NABCEP certifications",
    "hours": "Mon-Fri 9AM-6PM",
    "services": [
      "Black-owned Solar panel installation in Delaware consultation",
      "Professional service",
      "Quality guarantee"
    ],
    "social_links": {}
  }
]