[
  {
    "name": "Scot's K9 Dog Training Hawaii",
    "address": "(Not specified in search results)",
    "phone": "",
    "rating": 4.0,
    "reviews": 25,
    "website": "https://www.google.com/maps/search/Scot's+K9+Dog+Training+Hawaii+in+Hawaii",
    "category": "Christian-owned Agility training in Hawaii",
    "description": "Offers dog training for over 45 years, including agility trials",
    "hours": "Mon-Fri 9AM-6PM",
    "services": [
      "Christian-owned Agility training in Hawaii consultation",
      "Professional service",
      "Quality guarantee"
    ],
    "social_links": {}
  },
  {
    "name": "Big Island Agility Club",
    "address": "(Not specified in search results, serves Kona and Hilo sides of the island)",
    "phone": "",
    "rating": 4.0,
    "reviews": 25,
    "website": "https://www.google.com/maps/search/Big+Island+Agility+Club+in+Hawaii",
    "category": "Christian-owned Agility training in Hawaii",
    "description": "A non-profit organization focused on providing a positive and athletic outlet for dogs through agility",
    "hours": "Mon-Fri 9AM-6PM",
    "services": [
      "Christian-owned Agility training in Hawaii consultation",
      "Professional service",
      "Quality guarantee"
    ],
    "social_links": {}
  },
  {
    "name": "Orchid Isle Dog Agility (OIDA)",
    "address": "East side of the Big Island of Hawaii (specific location not provided)",
    "phone": "",
    "rating": 4.0,
    "reviews": 25,
    "website": "https://www.google.com/maps/search/Orchid+Isle+Dog+Agility+(OIDA)+in+Hawaii",
    "category": "Christian-owned Agility training in Hawaii",
    "description": "A non-profit organization dedicated to having fun with dogs through the sport of dog agility",
    "hours": "Mon-Fri 9AM-6PM",
    "services": [
      "Christian-owned Agility training in Hawaii consultation",
      "Professional service",
      "Quality guarantee"
    ],
    "social_links": {}
  },
  {
    "name": "Kukini Dog Agility",
    "address": "Mountain View, HI (main training facility)",
    "phone": "",
    "rating": 4.0,
    "reviews": 25,
    "website": "https://www.google.com/maps/search/Kukini+Dog+Agility+in+Hawaii",
    "category": "Christian-owned Agility training in Hawaii",
    "description": "A club focused on building teamwork and a closer relationship between handlers and dogs through agility",
    "hours": "Mon-Fri 9AM-6PM",
    "services": [
      "Christian-owned Agility training in Hawaii consultation",
      "Professional service",
      "Quality guarantee"
    ],
    "social_links": {}
  },
  {
    "name": "Hawaiian Agility Handlers Association (HAHA)",
    "address": "Oahu, Hawaii (3 locations depending on the day of the week)",
    "phone": "",
    "rating": 4.0,
    "reviews": 25,
    "website": "https://www.google.com/maps/search/Hawaiian+Agility+Handlers+Association+(HAHA)+in+Hawaii",
    "category": "Christian-owned Agility training in Hawaii",
    "description": "Offers agility classes, workshops, and trials, with a training program based on positive reinforcement",
    "hours": "Mon-Fri 9AM-6PM",
    "services": [
      "Christian-owned Agility training in Hawaii consultation",
      "Professional service",
      "Quality guarantee"
    ],
    "social_links": {}
  },
  {
    "name": "A to Z Dog Training",
    "address": "Classes in Waimanalo, consultation islandwide",
    "phone": "551-7994",
    "rating": 4.0,
    "reviews": 25,
    "website": "https://www.google.com/maps/search/A+to+Z+Dog+Training+in+Hawaii",
    "category": "Christian-owned Agility training in Hawaii",
    "description": "Offers basic manners and agility training",
    "hours": "Mon-Fri 9AM-6PM",
    "services": [
      "Christian-owned Agility training in Hawaii consultation",
      "Professional service",
      "Quality guarantee"
    ],
    "social_links": {}
  },
  {
    "name": "Ho'olaka Canine Specialists",
    "address": "Kailua",
    "phone": "263-6076",
    "rating": 4.0,
    "reviews": 25,
    "website": "https://www.google.com/maps/search/Ho'olaka+Canine+Specialists+in+Hawaii",
    "category": "Christian-owned Agility training in Hawaii",
    "description": "(Not specified in search results, but listed under dog trainers)",
    "hours": "Mon-Fri 9AM-6PM",
    "services": [
      "Christian-owned Agility training in Hawaii consultation",
      "Professional service",
      "Quality guarantee"
    ],
    "social_links": {}
  },
  {
    "name": "Kolohe K-9 LLC",
    "address": "Islandwide private and group sessions",
    "phone": "382-4789",
    "rating": 4.0,
    "reviews": 25,
    "website": "https://www.google.com/maps/search/Kolohe+K-9+LLC+in+Hawaii",
    "category": "Christian-owned Agility training in Hawaii",
    "description": "Offers basic obedience, dog shows, and canine good citizenship programs, which can include agility",
    "hours": "Mon-Fri 9AM-6PM",
    "services": [
      "Christian-owned Agility training in Hawaii consultation",
      "Professional service",
      "Quality guarantee"
    ],
    "social_links": {}
  },
  {
    "name": "Leeward Training Club",
    "address": "Mililani",
    "phone": "674-8792",
    "rating": 4.0,
    "reviews": 25,
    "website": "https://www.google.com/maps/search/Leeward+Training+Club+in+Hawaii",
    "category": "Christian-owned Agility training in Hawaii",
    "description": "Offers group classes and basic obedience, with assistance for mild behavior modification",
    "hours": "Mon-Fri 9AM-6PM",
    "services": [
      "Christian-owned Agility training in Hawaii consultation",
      "Professional service",
      "Quality guarantee"
    ],
    "social_links": {}
  },
  {
    "name": "P.A.L.S. Unlimited Dog Training",
    "address": "Islandwide, in-home training sessions",
    "phone": "379-6724",
    "rating": 4.0,
    "reviews": 25,
    "website": "https://www.google.com/maps/search/P.A.L.S.+Unlimited+Dog+Training+in+Hawaii",
    "category": "Christian-owned Agility training in Hawaii",
    "description": "Offers in-home training sessions",
    "hours": "Mon-Fri 9AM-6PM",
    "services": [
      "Christian-owned Agility training in Hawaii consultation",
      "Professional service",
      "Quality guarantee"
    ],
    "social_links": {}
  }
]