[
  {
    "name": "Asian Driving School",
    "address": "Not specified in search results",
    "phone": "",
    "rating": 4.0,
    "reviews": 25,
    "website": "https://www.google.com/maps/search/Asian+Driving+School+in+Missouri",
    "category": "Chinese-speaking Adult driving lessons in Missouri",
    "description": "Offers various road test services for teens and adults",
    "hours": "Mon-Fri 9AM-6PM",
    "services": [
      "Chinese-speaking Adult driving lessons in Missouri consultation",
      "Professional service",
      "Quality guarantee"
    ],
    "social_links": {}
  },
  {
    "name": "A+ Missouri Driving Instruction",
    "address": "Lee's Summit, MO",
    "phone": "816-540-5930",
    "rating": 4.0,
    "reviews": 25,
    "website": "https://www.google.com/maps/search/A++Missouri+Driving+Instruction+in+Missouri",
    "category": "Chinese-speaking Adult driving lessons in Missouri",
    "description": "Offers driving instruction with over 30 years of experience, serving Lee's Summit and surrounding areas",
    "hours": "Mon-Fri 9AM-6PM",
    "services": [
      "Chinese-speaking Adult driving lessons in Missouri consultation",
      "Professional service",
      "Quality guarantee"
    ],
    "social_links": {}
  },
  {
    "name": "St Charles Driving Academy",
    "address": "Luling, LA (Note: This result appears to be for a Louisiana location, not Missouri, despite the name.)",
    "phone": "504-450-5333",
    "rating": 4.0,
    "reviews": 25,
    "website": "https://www.google.com/maps/search/St+Charles+Driving+Academy+in+Missouri",
    "category": "Chinese-speaking Adult driving lessons in Missouri",
    "description": "Offers behind-the-wheel and classroom instruction",
    "hours": "Mon-Fri 9AM-6PM",
    "services": [
      "Chinese-speaking Adult driving lessons in Missouri consultation",
      "Professional service",
      "Quality guarantee"
    ],
    "social_links": {}
  },
  {
    "name": "St. Joseph Safety & Health Council",
    "address": "St. Joseph, MO",
    "phone": "",
    "rating": 4.0,
    "reviews": 25,
    "website": "https://www.google.com/maps/search/St.+Joseph+Safety+&+Health+Council+in+Missouri",
    "category": "Chinese-speaking Adult driving lessons in Missouri",
    "description": "Offers private driving lessons for residents of Northwest Missouri and Northeast Kansas",
    "hours": "Mon-Fri 9AM-6PM",
    "services": [
      "Chinese-speaking Adult driving lessons in Missouri consultation",
      "Professional service",
      "Quality guarantee"
    ],
    "social_links": {}
  },
  {
    "name": "Ready For The Road Driving School",
    "address": "Columbia, MO",
    "phone": "",
    "rating": 4.0,
    "reviews": 25,
    "website": "https://www.google.com/maps/search/Ready+For+The+Road+Driving+School+in+Missouri",
    "category": "Chinese-speaking Adult driving lessons in Missouri",
    "description": "Provides professional driving instruction in the Columbia area",
    "hours": "Mon-Fri 9AM-6PM",
    "services": [
      "Chinese-speaking Adult driving lessons in Missouri consultation",
      "Professional service",
      "Quality guarantee"
    ],
    "social_links": {}
  },
  {
    "name": "Missouri Driving School",
    "address": "St. Louis, MO",
    "phone": "314-849-4590",
    "rating": 4.0,
    "reviews": 25,
    "website": "https://www.google.com/maps/search/Missouri+Driving+School+in+Missouri",
    "category": "Chinese-speaking Adult driving lessons in Missouri",
    "description": "Offers driver's education for teens and adults with experienced instructors",
    "hours": "Mon-Fri 9AM-6PM",
    "services": [
      "Chinese-speaking Adult driving lessons in Missouri consultation",
      "Professional service",
      "Quality guarantee"
    ],
    "social_links": {}
  },
  {
    "name": "S&J Driving School",
    "address": "St. Louis and Jefferson County, MO",
    "phone": "(314) 898-5382",
    "rating": 4.0,
    "reviews": 25,
    "website": "https://www.google.com/maps/search/S&J+Driving+School+in+Missouri",
    "category": "Chinese-speaking Adult driving lessons in Missouri",
    "description": "Specializes in beginner driving lessons and refresher courses for teens and adults",
    "hours": "Mon-Fri 9AM-6PM",
    "services": [
      "Chinese-speaking Adult driving lessons in Missouri consultation",
      "Professional service",
      "Quality guarantee"
    ],
    "social_links": {}
  },
  {
    "name": "Coach Harder Driving School",
    "address": "St. Louis, MO",
    "phone": "",
    "rating": 4.0,
    "reviews": 25,
    "website": "https://www.google.com/maps/search/Coach+Harder+Driving+School+in+Missouri",
    "category": "Chinese-speaking Adult driving lessons in Missouri",
    "description": "A large driving school in the St. Louis metro area offering lessons for teens, adults, and international drivers",
    "hours": "Mon-Fri 9AM-6PM",
    "services": [
      "Chinese-speaking Adult driving lessons in Missouri consultation",
      "Professional service",
      "Quality guarantee"
    ],
    "social_links": {}
  },
  {
    "name": "Learn 2 Drive KC",
    "address": "Independence, MO (also serves Kansas City, Lee's Summit, Blue Springs, Liberty, etc.)",
    "phone": "816-916-2516",
    "rating": 4.0,
    "reviews": 25,
    "website": "https://www.google.com/maps/search/Learn+2+Drive+KC+in+Missouri",
    "category": "Chinese-speaking Adult driving lessons in Missouri",
    "description": "Offers driver's education classes and behind-the-wheel training for teens and adults",
    "hours": "Mon-Fri 9AM-6PM",
    "services": [
      "Chinese-speaking Adult driving lessons in Missouri consultation",
      "Professional service",
      "Quality guarantee"
    ],
    "social_links": {}
  },
  {
    "name": "Total Driving Instruction 1",
    "address": "Lee's Summit, MO",
    "phone": "816-398-0078",
    "rating": 4.0,
    "reviews": 25,
    "website": "https://www.google.com/maps/search/Total+Driving+Instruction+1+in+Missouri",
    "category": "Chinese-speaking Adult driving lessons in Missouri",
    "description": "Provides driver's education classes and driving school services in the Kansas City area",
    "hours": "Mon-Fri 9AM-6PM",
    "services": [
      "Chinese-speaking Adult driving lessons in Missouri consultation",
      "Professional service",
      "Quality guarantee"
    ],
    "social_links": {}
  }
]