[
  {
    "name": "UCHealth Diabetes and Endocrinology Clinic - Cheyenne",
    "address": "5050 Powderhouse Road, Cheyenne, WY 82009",
    "phone": "307.634.1311",
    "rating": 4.0,
    "reviews": 25,
    "website": "https://www.uchealth.org/locations/uchealth-diabetes-and-endocrinology-clinic-cheyenne/",
    "category": "Chinese-speaking Endocrinologists in Wyoming",
    "description": "This clinic provides specialized care for adult endocrine disorders, diabetes, and thyroid disease",
    "hours": "Mon-Fri 9AM-6PM",
    "services": [
      "Chinese-speaking Endocrinologists in Wyoming consultation",
      "Professional service",
      "Quality guarantee"
    ],
    "social_links": {}
  },
  {
    "name": "Cheyenne Regional Medical Group Endocrinology & Diabetes Education",
    "address": "800 East 20th St., Suite 230, Cheyenne, WY 82001",
    "phone": "(307) 996-4770",
    "rating": 4.0,
    "reviews": 25,
    "website": "https://www.cheyenneregional.org/services/endocrinology-diabetes-education/",
    "category": "Chinese-speaking Endocrinologists in Wyoming",
    "description": "Offers a full range of endocrinology services and diabetes education",
    "hours": "Mon-Fri 9AM-6PM",
    "services": [
      "Chinese-speaking Endocrinologists in Wyoming consultation",
      "Professional service",
      "Quality guarantee"
    ],
    "social_links": {}
  },
  {
    "name": "Dr. Akhilesh Wadhwa, MD (Cheyenne Regional Medical Center)",
    "address": "800 East 20th St., Suite 230, Cheyenne, WY 82001",
    "phone": "(307) 996-4770",
    "rating": 4.9,
    "reviews": 25,
    "website": "https://www.cheyenneregional.org/providers/wadhwa-akhilesh-md/",
    "category": "Chinese-speaking Endocrinologists in Wyoming",
    "description": "An endocrinologist accepting new patients, known for being personable and thorough",
    "hours": "Mon-Fri 9AM-6PM",
    "services": [
      "Chinese-speaking Endocrinologists in Wyoming consultation",
      "Professional service",
      "Quality guarantee"
    ],
    "social_links": {}
  },
  {
    "name": "Dr. Joseph Gutman, MD (Western Medical Associates)",
    "address": "6500 E. 2nd St., Suite 200, Casper, WY 82609",
    "phone": "307.577.5100",
    "rating": 4.5,
    "reviews": 25,
    "website": "https://www.westernmedicalassociates.com/our-providers/joseph-gutman-md/",
    "category": "Chinese-speaking Endocrinologists in Wyoming",
    "description": "Board-certified in internal medicine, endocrinology, diabetes, and metabolism, with extensive experience",
    "hours": "Mon-Fri 9AM-6PM",
    "services": [
      "Chinese-speaking Endocrinologists in Wyoming consultation",
      "Professional service",
      "Quality guarantee"
    ],
    "social_links": {}
  },
  {
    "name": "Dr. Clare Allison Parker, MD (Casper, WY)",
    "address": "1233 E 2nd St, Casper, WY, 82601",
    "phone": "",
    "rating": 4.0,
    "reviews": 25,
    "website": "https://www.google.com/maps/search/Dr.+Clare+Allison+Parker,+MD+(Casper,+WY)+in+Wyoming",
    "category": "Chinese-speaking Endocrinologists in Wyoming",
    "description": "An endocrinologist practicing in Casper, WY",
    "hours": "Mon-Fri 9AM-6PM",
    "services": [
      "Chinese-speaking Endocrinologists in Wyoming consultation",
      "Professional service",
      "Quality guarantee"
    ],
    "social_links": {}
  },
  {
    "name": "Dr. Vishwanath Pattan, MD (Wyoming Medical Center)",
    "address": "245 S Fenway St, Casper, WY 82609",
    "phone": "",
    "rating": 4.0,
    "reviews": 25,
    "website": "https://aace.membercentral.info/aace/Find-a-Doctor/member-profile?id=001f200001v912XAAQ",
    "category": "Chinese-speaking Endocrinologists in Wyoming",
    "description": "Specializes in adrenal, bone and parathyroid, lipids and CV health, nutrition and obesity, pituitary and neuroendocrine, and reproductive health",
    "hours": "Mon-Fri 9AM-6PM",
    "services": [
      "Chinese-speaking Endocrinologists in Wyoming consultation",
      "Professional service",
      "Quality guarantee"
    ],
    "social_links": {}
  },
  {
    "name": "Dr. Thomas Repas, DO (Campbell County Health)",
    "address": "Gillette, WY (Specific clinic address not detailed, but affiliated with Campbell County Health)",
    "phone": "",
    "rating": 4.0,
    "reviews": 25,
    "website": "https://www.cchwyo.org/Find-a-Doctor/Thomas-Repas-DO",
    "category": "Chinese-speaking Endocrinologists in Wyoming",
    "description": "An endocrinologist and lipidologist, offering specialized treatments like LDL apheresis",
    "hours": "Mon-Fri 9AM-6PM",
    "services": [
      "Chinese-speaking Endocrinologists in Wyoming consultation",
      "Professional service",
      "Quality guarantee"
    ],
    "social_links": {}
  },
  {
    "name": "Hoskinson Health & Wellness Clinic",
    "address": "469 WY-50, Gillette, WY",
    "phone": "307-387-9850",
    "rating": 4.0,
    "reviews": 25,
    "website": "https://hoskinsonhealth.com/",
    "category": "Chinese-speaking Endocrinologists in Wyoming",
    "description": "Offers a range of services including endocrinology, with a focus on integrated care",
    "hours": "Mon-Fri 9AM-6PM",
    "services": [
      "Chinese-speaking Endocrinologists in Wyoming consultation",
      "Professional service",
      "Quality guarantee"
    ],
    "social_links": {}
  },
  {
    "name": "Uinta Medical Group (Evanston, WY)",
    "address": "196 Arrowhead Drive Suite 1, Evanston, WY 82930",
    "phone": "307-789-9355",
    "rating": 4.0,
    "reviews": 25,
    "website": "https://uintamedicalgroup.com/",
    "category": "Chinese-speaking Endocrinologists in Wyoming",
    "description": "Offers family medicine and has a provider certified in endocrinology, treating conditions like thyroid disorders and diabetes",
    "hours": "Mon-Fri 9AM-6PM",
    "services": [
      "Chinese-speaking Endocrinologists in Wyoming consultation",
      "Professional service",
      "Quality guarantee"
    ],
    "social_links": {}
  },
  {
    "name": "Health West Rock Springs",
    "address": "2620 Commercial Way Ste. 140, Rock Springs, WY 82901",
    "phone": "(307) 212-5116",
    "rating": 4.0,
    "reviews": 25,
    "website": "https://healthwest.org/locations/rock-springs-clinic/",
    "category": "Chinese-speaking Endocrinologists in Wyoming",
    "description": "Provides primary care and other services, including Hormone Replacement Therapy",
    "hours": "Mon-Fri 9AM-6PM",
    "services": [
      "Chinese-speaking Endocrinologists in Wyoming consultation",
      "Professional service",
      "Quality guarantee"
    ],
    "social_links": {}
  }
]