[
  {
    "name": "BLUSH Dental Studio",
    "address": "1203 Cleveland Ave Suite 1A, East Point, GA 30344",
    "phone": "(404) 595-5104",
    "rating": 4.8,
    "reviews": 25,
    "website": "https://www.blushdentalstudio.com/",
    "category": "Asian-owned Emergency dental care in Georgia",
    "description": "Offers same-day emergency dental care for various issues including toothaches, broken teeth, and lost fillings",
    "hours": "Mon-Fri 9AM-6PM",
    "services": [
      "Asian-owned Emergency dental care in Georgia consultation",
      "Professional service",
      "Quality guarantee"
    ],
    "social_links": {}
  },
  {
    "name": "Feather Touch Dental Care",
    "address": "1175 Peachtree St NE Ste 1204, Atlanta, GA 30361",
    "phone": "(404) 892-2097",
    "rating": 5.0,
    "reviews": 25,
    "website": "https://www.feathertouchdental.com/",
    "category": "Asian-owned Emergency dental care in Georgia",
    "description": "Provides emergency dentistry services in Atlanta, aiming for same-day appointments for urgent dental needs",
    "hours": "Mon-Fri 9AM-6PM",
    "services": [
      "Asian-owned Emergency dental care in Georgia consultation",
      "Professional service",
      "Quality guarantee"
    ],
    "social_links": {}
  },
  {
    "name": "Jones Bridge Dental Care",
    "address": "11925 Jones Bridge Rd Ste 200, Alpharetta, GA 30022",
    "phone": "(770) 772-0606",
    "rating": 4.0,
    "reviews": 25,
    "website": "https://www.jonesbridgedentalcare.com/",
    "category": "Asian-owned Emergency dental care in Georgia",
    "description": "Offers emergency dental care in Alpharetta, with a focus on prompt assistance for dental emergencies",
    "hours": "Mon-Fri 9AM-6PM",
    "services": [
      "Asian-owned Emergency dental care in Georgia consultation",
      "Professional service",
      "Quality guarantee"
    ],
    "social_links": {}
  },
  {
    "name": "Radiant Smile",
    "address": "3420 Olde Point Cir NE, Suwanee, GA 30024",
    "phone": "",
    "rating": 4.0,
    "reviews": 25,
    "website": "https://www.radiantsmilesuwanee.com/",
    "category": "Asian-owned Emergency dental care in Georgia",
    "description": "Provides same-day emergency dental care in Suwanee, including extractions and urgent treatments",
    "hours": "Mon-Fri 9AM-6PM",
    "services": [
      "Asian-owned Emergency dental care in Georgia consultation",
      "Professional service",
      "Quality guarantee"
    ],
    "social_links": {}
  },
  {
    "name": "Orchard Family Dental",
    "address": "3420 Olde Point Cir NE, Suwanee, GA 30024",
    "phone": "(678) 544-1010",
    "rating": 4.0,
    "reviews": 25,
    "website": "https://www.orchardfamilydental.com/",
    "category": "Asian-owned Emergency dental care in Georgia",
    "description": "Offers emergency dental care in Suwanee, emphasizing prompt treatment for urgent dental issues",
    "hours": "Mon-Fri 9AM-6PM",
    "services": [
      "Asian-owned Emergency dental care in Georgia consultation",
      "Professional service",
      "Quality guarantee"
    ],
    "social_links": {}
  },
  {
    "name": "Yi-Tsu Cheng, D.D.S. & Associates",
    "address": "5008 Buford Hwy NE, Chamblee, GA 30341",
    "phone": "(770) 457-3671",
    "rating": 4.0,
    "reviews": 25,
    "website": "https://www.yitsuchengdds.com/",
    "category": "Asian-owned Emergency dental care in Georgia",
    "description": "Provides family dentistry and dental emergencies in Chamblee, with a team that speaks English, Chinese, Vietnamese, and Spanish",
    "hours": "Mon-Fri 9AM-6PM",
    "services": [
      "Asian-owned Emergency dental care in Georgia consultation",
      "Professional service",
      "Quality guarantee"
    ],
    "social_links": {}
  },
  {
    "name": "Bella Hanono Family Dentistry",
    "address": "11925 Jones Bridge Rd Ste 200, Alpharetta, GA 30022",
    "phone": "(770) 343-4052 (New Patients) / (770) 752-5400 (Existing Patients)",
    "rating": 4.0,
    "reviews": 25,
    "website": "https://www.bellahanonodentistry.com/",
    "category": "Asian-owned Emergency dental care in Georgia",
    "description": "Offers emergency dentistry services in Alpharetta, accommodating emergency needs and welcoming new patients",
    "hours": "Mon-Fri 9AM-6PM",
    "services": [
      "Asian-owned Emergency dental care in Georgia consultation",
      "Professional service",
      "Quality guarantee"
    ],
    "social_links": {}
  },
  {
    "name": "Emergency Dentist Atlanta",
    "address": "275 14th St NW #100, Atlanta, GA 30318",
    "phone": "(770) 525-3546",
    "rating": 4.0,
    "reviews": 25,
    "website": "https://emergencydentistatlanta.com/",
    "category": "Asian-owned Emergency dental care in Georgia",
    "description": "Provides same-day emergency dental appointments and after-hours care in Atlanta, with affordable options",
    "hours": "Mon-Fri 9AM-6PM",
    "services": [
      "Asian-owned Emergency dental care in Georgia consultation",
      "Professional service",
      "Quality guarantee"
    ],
    "social_links": {}
  },
  {
    "name": "Emergency Dental Services Atlanta",
    "address": "(Multiple locations, including Stockbridge)",
    "phone": "(404) 692-6252 or (404) 348-8845",
    "rating": 4.0,
    "reviews": 25,
    "website": "https://www.emergencydentalservicesatlanta.com/",
    "category": "Asian-owned Emergency dental care in Georgia",
    "description": "Offers walk-in emergency dentistry 7 days a week in the greater Atlanta area, accepting cash and insurance",
    "hours": "Mon-Fri 9AM-6PM",
    "services": [
      "Asian-owned Emergency dental care in Georgia consultation",
      "Professional service",
      "Quality guarantee"
    ],
    "social_links": {}
  },
  {
    "name": "Dental Care 24/7 Atlanta",
    "address": "285 Centennial Olympic Park Drive NW, CU-2B, Atlanta, GA 30313",
    "phone": "(470) 809-1584",
    "rating": 4.0,
    "reviews": 25,
    "website": "https://www.dentalcare247atlanta.com/",
    "category": "Asian-owned Emergency dental care in Georgia",
    "description": "Provides emergency dental care 24/7 through a collaboration with a medical urgent care clinic, addressing pain, discomfort, and infection",
    "hours": "Mon-Fri 9AM-6PM",
    "services": [
      "Asian-owned Emergency dental care in Georgia consultation",
      "Professional service",
      "Quality guarantee"
    ],
    "social_links": {}
  }
]