[
  {
    "name": "Eastern Tire Distributors",
    "address": "1664 Center Point Pkwy, Birmingham, AL 35215",
    "phone": "(205) 854-2326",
    "rating": 4.0,
    "reviews": 25,
    "website": "http://www.easterntire.net/",
    "category": "Armenian-speaking Tire sales in Alabama",
    "description": "Offers a variety of tires, automotive repairs, and services",
    "hours": "Mon-Fri 9AM-6PM",
    "services": [
      "Armenian-speaking Tire sales in Alabama consultation",
      "Professional service",
      "Quality guarantee"
    ],
    "social_links": {}
  },
  {
    "name": "Tri-State Tire & Rubber Company",
    "address": "1455 Ross Clark Circle, Dothan, AL 36303",
    "phone": "(334) 794-4739",
    "rating": 4.0,
    "reviews": 25,
    "website": "http://www.tristatetire.com/",
    "category": "Armenian-speaking Tire sales in Alabama",
    "description": "A tire dealer and auto repair shop offering tires and tire services",
    "hours": "Mon-Fri 9AM-6PM",
    "services": [
      "Armenian-speaking Tire sales in Alabama consultation",
      "Professional service",
      "Quality guarantee"
    ],
    "social_links": {}
  },
  {
    "name": "Forestdale Tire & Wheel Inc.",
    "address": "1052 Forestdale Blvd, Birmingham, AL 35214",
    "phone": "(205) 798-0010",
    "rating": 4.0,
    "reviews": 25,
    "website": "http://www.forestdaletire.com/",
    "category": "Armenian-speaking Tire sales in Alabama",
    "description": "Provides a large selection of new tires and wheels, along with alignments and brake repair",
    "hours": "Mon-Fri 9AM-6PM",
    "services": [
      "Armenian-speaking Tire sales in Alabama consultation",
      "Professional service",
      "Quality guarantee"
    ],
    "social_links": {}
  },
  {
    "name": "Greystone Tire and Auto",
    "address": "5465 Hwy 280 S, Suite 101, Birmingham, AL 35242",
    "phone": "(205) 980-5113",
    "rating": 4.0,
    "reviews": 25,
    "website": "http://www.greystonetireandauto.com/",
    "category": "Armenian-speaking Tire sales in Alabama",
    "description": "A tire dealer and auto repair shop offering various tire brands and automotive services",
    "hours": "Mon-Fri 9AM-6PM",
    "services": [
      "Armenian-speaking Tire sales in Alabama consultation",
      "Professional service",
      "Quality guarantee"
    ],
    "social_links": {}
  },
  {
    "name": "Lee-Rodgers Tire Company",
    "address": "Multiple locations including Birmingham, Decatur, and Mobile, AL. (Example: 200 W Valley St, Birmingham, AL 35209)",
    "phone": "(205) 942-0404 (Birmingham location)",
    "rating": 4.0,
    "reviews": 25,
    "website": "http://www.leerodgerstire.com/",
    "category": "Armenian-speaking Tire sales in Alabama",
    "description": "Offers commercial tire services, automotive services, and a wide selection of top tire brands",
    "hours": "Mon-Fri 9AM-6PM",
    "services": [
      "Armenian-speaking Tire sales in Alabama consultation",
      "Professional service",
      "Quality guarantee"
    ],
    "social_links": {}
  },
  {
    "name": "Vulcan Tire & Automotive",
    "address": "Multiple locations including Birmingham, Moody, Hoover, and Pell City, AL. (Example: 3214 Edwards Lake Pkwy, Birmingham, AL 35235)",
    "phone": "(205) 661-2970 (Trussville location)",
    "rating": 4.0,
    "reviews": 25,
    "website": "http://www.vulcantireandauto.com/",
    "category": "Armenian-speaking Tire sales in Alabama",
    "description": "A family-owned tire dealer and automotive service center offering various tire brands and repair services",
    "hours": "Mon-Fri 9AM-6PM",
    "services": [
      "Armenian-speaking Tire sales in Alabama consultation",
      "Professional service",
      "Quality guarantee"
    ],
    "social_links": {}
  },
  {
    "name": "Mavis Tires and Brakes",
    "address": "Multiple locations in Birmingham, AL. (Example: 215 Green Springs Hwy, Birmingham, AL 35209)",
    "phone": "(205) 942-0404 (Green Springs location)",
    "rating": 4.0,
    "reviews": 25,
    "website": "https://www.mavis.com/",
    "category": "Armenian-speaking Tire sales in Alabama",
    "description": "Offers high-quality tires at great prices, along with auto maintenance and repair services",
    "hours": "Mon-Fri 9AM-6PM",
    "services": [
      "Armenian-speaking Tire sales in Alabama consultation",
      "Professional service",
      "Quality guarantee"
    ],
    "social_links": {}
  },
  {
    "name": "RAW Wheels + Tires",
    "address": "2116 Center Point Pkwy, Birmingham, AL 35215",
    "phone": "",
    "rating": 4.0,
    "reviews": 25,
    "website": "http://www.rawwheelsandtires.com/",
    "category": "Armenian-speaking Tire sales in Alabama",
    "description": "Offers a large selection of in-stock tires and wheels with financing options",
    "hours": "Mon-Fri 9AM-6PM",
    "services": [
      "Armenian-speaking Tire sales in Alabama consultation",
      "Professional service",
      "Quality guarantee"
    ],
    "social_links": {}
  },
  {
    "name": "Stephenson Tire & Alignment",
    "address": "Multiple locations in Florence, Killen, and Muscle Shoals, AL. (Example: 1075 Hwy 72, Killen, AL 35645)",
    "phone": "",
    "rating": 4.0,
    "reviews": 25,
    "website": "http://www.stephensontirepros.com/",
    "category": "Armenian-speaking Tire sales in Alabama",
    "description": "Provides a wide selection of tires and automotive services, with certified technicians",
    "hours": "Mon-Fri 9AM-6PM",
    "services": [
      "Armenian-speaking Tire sales in Alabama consultation",
      "Professional service",
      "Quality guarantee"
    ],
    "social_links": {}
  },
  {
    "name": "Wetumpka Tire Pros / Toulouse Tire Pros",
    "address": "1745 US Hwy 231, Wetumpka, AL 36092 (Wetumpka location)",
    "phone": "(334) 514-0455",
    "rating": 4.0,
    "reviews": 25,
    "website": "http://www.wetumpkatiresales.com/",
    "category": "Armenian-speaking Tire sales in Alabama",
    "description": "Offers auto repair and tire services, including brake inspections, wheel alignments, and oil changes",
    "hours": "Mon-Fri 9AM-6PM",
    "services": [
      "Armenian-speaking Tire sales in Alabama consultation",
      "Professional service",
      "Quality guarantee"
    ],
    "social_links": {}
  }
]