[
  {
    "name": "Dr. Michel Matouk - South Florida Dental Implant and Facial Surgery Institute",
    "address": "2600 E Commercial Blvd Ste 200, Fort Lauderdale, FL 33308-4125",
    "phone": "(954) 977-7777",
    "rating": 4.0,
    "reviews": 25,
    "website": "https://www.google.com/maps/search/Dr.+Michel+Matouk+-+South+Florida+Dental+Implant+and+Facial+Surgery+Institute+in+Florida",
    "category": "Arabic-speaking Oral surgery in Florida",
    "description": "Dr. Matouk is a board-certified oral and maxillofacial surgeon who speaks English, French, German, and Arabic",
    "hours": "Mon-Fri 9AM-6PM",
    "services": [
      "Arabic-speaking Oral surgery in Florida consultation",
      "Professional service",
      "Quality guarantee"
    ],
    "social_links": {}
  },
  {
    "name": "Dr. Takashi Koyama",
    "address": "2402 Frist Blvd, Suite 100, Fort Pierce, FL 34951",
    "phone": "(772) 461-9700",
    "rating": 4.0,
    "reviews": 25,
    "website": "https://www.google.com/maps/search/Dr.+Takashi+Koyama+in+Florida",
    "category": "Arabic-speaking Oral surgery in Florida",
    "description": "Dr. Koyama is an Oral and Maxillofacial Surgeon who speaks English, Arabic, Bulgarian, Farsi, French, Greek, Japanese, Korean, and Spanish",
    "hours": "Mon-Fri 9AM-6PM",
    "services": [
      "Arabic-speaking Oral surgery in Florida consultation",
      "Professional service",
      "Quality guarantee"
    ],
    "social_links": {}
  },
  {
    "name": "Florida Oral & Maxillofacial Surgery",
    "address": "Multiple locations, including Tampa. (Specific address for Tampa: 1300 W Swann Ave, Tampa, FL 33606)",
    "phone": "(813) 932-5555 (for Tampa location)",
    "rating": 5.0,
    "reviews": 25,
    "website": "https://www.floridaoralandmaxillofacialsurgery.com/",
    "category": "Arabic-speaking Oral surgery in Florida",
    "description": "This practice has been serving Florida for over 30 years and offers a full scope of oral and maxillofacial surgery. While not explicitly stated that all surgeons speak Arabic, they are a large practice serving diverse communities",
    "hours": "Mon-Fri 9AM-6PM",
    "services": [
      "Arabic-speaking Oral surgery in Florida consultation",
      "Professional service",
      "Quality guarantee"
    ],
    "social_links": {}
  },
  {
    "name": "Jax OMS (Dr. Zane Khan)",
    "address": "1075 San Jose Blvd, Suite 101, Jacksonville, FL 32217",
    "phone": "(904) 220-1755",
    "rating": 4.0,
    "reviews": 25,
    "website": "https://www.jaxoms.com/",
    "category": "Arabic-speaking Oral surgery in Florida",
    "description": "Dr. Zane Khan is a Fellow of the American Association of Oral & Maxillofacial Surgeons. While Arabic is not listed as a spoken language for Dr. Khan, the practice emphasizes patient comfort and advanced technology",
    "hours": "Mon-Fri 9AM-6PM",
    "services": [
      "Arabic-speaking Oral surgery in Florida consultation",
      "Professional service",
      "Quality guarantee"
    ],
    "social_links": {}
  },
  {
    "name": "Coral Springs Oral Surgery (Dr. Azzouni)",
    "address": "3157 North University Drive, Coral Springs, FL 33065",
    "phone": "(954) 344-4444",
    "rating": 5.0,
    "reviews": 25,
    "website": "https://www.coralspringsoralsurgery.com/",
    "category": "Arabic-speaking Oral surgery in Florida",
    "description": "Dr. Azzouni is an experienced oral surgeon. While Arabic is not listed as a spoken language, the practice emphasizes compassionate care and patient comfort",
    "hours": "Mon-Fri 9AM-6PM",
    "services": [
      "Arabic-speaking Oral surgery in Florida consultation",
      "Professional service",
      "Quality guarantee"
    ],
    "social_links": {}
  }
]