[
  {
    "name": "Advantage Vision Center",
    "address": "1016 S Church St, Charlotte, NC 28203",
    "phone": "(704) 375-3935",
    "rating": 4.0,
    "reviews": 25,
    "website": "https://www.advantagevisioncenters.com/",
    "category": "African-American-owned LASIK surgery in North-Carolina",
    "description": "Dr. Paula Newsome, the first female African-American optometrist to open a practice in North Carolina, offers comprehensive eye care and can co-manage LASIK surgery",
    "hours": "Mon-Fri 9AM-6PM",
    "services": [
      "African-American-owned LASIK surgery in North-Carolina consultation",
      "Professional service",
      "Quality guarantee"
    ],
    "social_links": {}
  },
  {
    "name": "Accuvision LASIK",
    "address": "13024 Conlan Cir, Charlotte, NC 28277",
    "phone": "(704) 765-2745",
    "rating": 4.0,
    "reviews": 25,
    "website": "https://www.accuvisionlasik.com/",
    "category": "African-American-owned LASIK surgery in North-Carolina",
    "description": "While not exclusively African-American-owned, Accuvision LASIK is noted as Veteran Owned and Operated, and Dr. Hammonds is the LASIK provider for the Carolina Panthers and Charlotte Hornets",
    "hours": "Mon-Fri 9AM-6PM",
    "services": [
      "African-American-owned LASIK surgery in North-Carolina consultation",
      "Professional service",
      "Quality guarantee"
    ],
    "social_links": {}
  },
  {
    "name": "Metrolina Eye Associates",
    "address": "1320 Matthews Mint Hill Rd Ste 100, Matthews, NC 28105",
    "phone": "(704) 234-1930",
    "rating": 4.0,
    "reviews": 25,
    "website": "https://www.metrolinaeye.com/",
    "category": "African-American-owned LASIK surgery in North-Carolina",
    "description": "Metrolina Eye Associates offers LASIK surgery in the Charlotte area, with locations in Matthews and Monroe",
    "hours": "Mon-Fri 9AM-6PM",
    "services": [
      "African-American-owned LASIK surgery in North-Carolina consultation",
      "Professional service",
      "Quality guarantee"
    ],
    "social_links": {}
  },
  {
    "name": "TLC Laser Eye Centers",
    "address": "Multiple locations in North Carolina (e.g., 3000WakeMed Dr, Ste 200, Raleigh, NC 27607)",
    "phone": "Varies by location (e.g., (919) 870-0070 for Raleigh)",
    "rating": 4.0,
    "reviews": 25,
    "website": "https://www.tlcvision.com/locations/north-carolina/raleigh/",
    "category": "African-American-owned LASIK surgery in North-Carolina",
    "description": "TLC Laser Eye Centers is a leading provider of laser eye surgery with extensive experience and a network of surgeons nationwide",
    "hours": "Mon-Fri 9AM-6PM",
    "services": [
      "African-American-owned LASIK surgery in North-Carolina consultation",
      "Professional service",
      "Quality guarantee"
    ],
    "social_links": {}
  },
  {
    "name": "Wilson Eye Associates",
    "address": "1200 Tarboro St SW, Wilson, NC 27893",
    "phone": "(252) 237-2525",
    "rating": 4.0,
    "reviews": 25,
    "website": "https://www.wilsoneye.com/",
    "category": "African-American-owned LASIK surgery in North-Carolina",
    "description": "Wilson Eye Associates provides evaluations and referrals for LASIK surgery, offering pre- and post-operative care",
    "hours": "Mon-Fri 9AM-6PM",
    "services": [
      "African-American-owned LASIK surgery in North-Carolina consultation",
      "Professional service",
      "Quality guarantee"
    ],
    "social_links": {}
  },
  {
    "name": "Laser Eye Center of Carolina",
    "address": "10750 N Tryon St, Charlotte, NC 28262",
    "phone": "(704) 549-4000",
    "rating": 4.0,
    "reviews": 25,
    "website": "https://www.lasereyecenterofcharlotte.com/",
    "category": "African-American-owned LASIK surgery in North-Carolina",
    "description": "Dr. Dean Dornic, a board-certified, fellowship-trained vision correction specialist, leads the Laser Eye Center of Carolina, known for its experienced surgeons and advanced technology",
    "hours": "Mon-Fri 9AM-6PM",
    "services": [
      "African-American-owned LASIK surgery in North-Carolina consultation",
      "Professional service",
      "Quality guarantee"
    ],
    "social_links": {}
  },
  {
    "name": "Porter Ophthalmology",
    "address": "10750 N Tryon St, Suite 210, Charlotte, NC 28262",
    "phone": "(704) 770-1324",
    "rating": 4.0,
    "reviews": 25,
    "website": "https://portereye.com/",
    "category": "African-American-owned LASIK surgery in North-Carolina",
    "description": "Dr. Isaac W. Porter is a fellowship-trained refractive surgeon offering a range of advanced surgical options, including LASIK, SMILE, and PRK",
    "hours": "Mon-Fri 9AM-6PM",
    "services": [
      "African-American-owned LASIK surgery in North-Carolina consultation",
      "Professional service",
      "Quality guarantee"
    ],
    "social_links": {}
  },
  {
    "name": "Black Eye Doctor Locator",
    "address": "Various locations across North Carolina",
    "phone": "",
    "rating": 4.0,
    "reviews": 25,
    "website": "https://blackeyedoctor.com/",
    "category": "African-American-owned LASIK surgery in North-Carolina",
    "description": "This directory lists Black optometrists and ophthalmologists, some of whom may offer LASIK co-management or referrals. Masherrill F. Koonce and Rashele Sharkey are listed as optometrists in Charlotte",
    "hours": "Mon-Fri 9AM-6PM",
    "services": [
      "African-American-owned LASIK surgery in North-Carolina consultation",
      "Professional service",
      "Quality guarantee"
    ],
    "social_links": {}
  },
  {
    "name": "Charlotte Optometric Clinic",
    "address": "11025 Carolina Pl Pkwy B29, Pineville, NC 28134",
    "phone": "(704) 341-7676",
    "rating": 4.0,
    "reviews": 25,
    "website": "https://www.google.com/maps/search/Charlotte+Optometric+Clinic+North+Carolina",
    "category": "African-American-owned LASIK surgery in North-Carolina",
    "description": "Masherrill F. Koonce is listed as an optometrist at Charlotte Optometric Clinic",
    "hours": "Mon-Fri 9AM-6PM",
    "services": [
      "African-American-owned LASIK surgery in North-Carolina consultation",
      "Professional service",
      "Quality guarantee"
    ],
    "social_links": {}
  },
  {
    "name": "North Carolina Primary Vision Care Assoc.",
    "address": "9733 Northlake Centre Pkwy, Charlotte, NC 28216",
    "phone": "(704) 921-3744",
    "rating": 4.0,
    "reviews": 25,
    "website": "https://www.google.com/maps/search/North+Carolina+Primary+Vision+Care+Assoc.+North+Carolina",
    "category": "African-American-owned LASIK surgery in North-Carolina",
    "description": "Rashele Sharkey is listed as an optometrist at North Carolina Primary Vision Care Assoc",
    "hours": "Mon-Fri 9AM-6PM",
    "services": [
      "African-American-owned LASIK surgery in North-Carolina consultation",
      "Professional service",
      "Quality guarantee"
    ],
    "social_links": {}
  }
]