[
  {
    "name": "OCB Plumbing",
    "address": "Serves Omaha, Council Bluffs, and Lincoln, NE. (Specific street address not provided in search results.)",
    "phone": "402-915-2622",
    "rating": 4.0,
    "reviews": 25,
    "website": "https://www.google.com/maps/search/OCB+Plumbing+in+Nebraska",
    "category": "Black-owned Sewer lines in Nebraska",
    "description": "Offers a range of plumbing services including leak repair, water heaters, drain clogs, and sewer repair for residential and commercial properties",
    "hours": "Mon-Fri 9AM-6PM",
    "services": [
      "Black-owned Sewer lines in Nebraska consultation",
      "Professional service",
      "Quality guarantee"
    ],
    "social_links": {}
  },
  {
    "name": "Mr. Rooter Plumbing",
    "address": "Offutt AFB, Nebraska (Specific street address not provided in search results.)",
    "phone": "402-819-5960",
    "rating": 4.6,
    "reviews": 25,
    "website": "https://www.google.com/maps/search/Mr.+Rooter+Plumbing+in+Nebraska",
    "category": "Black-owned Sewer lines in Nebraska",
    "description": "Provides sewer line repair services for residential and commercial customers, including drain cleaning and trenchless sewer line repair",
    "hours": "Mon-Fri 9AM-6PM",
    "services": [
      "Black-owned Sewer lines in Nebraska consultation",
      "Professional service",
      "Quality guarantee"
    ],
    "social_links": {}
  },
  {
    "name": "Vibe Sewer",
    "address": "Lincoln, NE (Specific street address not provided in search results.)",
    "phone": "",
    "rating": 4.0,
    "reviews": 25,
    "website": "https://www.google.com/maps/search/Vibe+Sewer+in+Nebraska",
    "category": "Black-owned Sewer lines in Nebraska",
    "description": "Specializes in sewer line inspections, cleaning, repairs, replacements, root removal, maintenance, and trenchless sewer repair",
    "hours": "Mon-Fri 9AM-6PM",
    "services": [
      "Black-owned Sewer lines in Nebraska consultation",
      "Professional service",
      "Quality guarantee"
    ],
    "social_links": {}
  },
  {
    "name": "Aksarben ARS",
    "address": "Omaha, NE (Specific street address not provided in search results.)",
    "phone": "402-509-4016",
    "rating": 4.0,
    "reviews": 25,
    "website": "https://www.google.com/maps/search/Aksarben+ARS+in+Nebraska",
    "category": "Black-owned Sewer lines in Nebraska",
    "description": "Offers drain cleaning, sewer line repair, sewer line replacement, video sewer inspections, and water line repair",
    "hours": "Mon-Fri 9AM-6PM",
    "services": [
      "Black-owned Sewer lines in Nebraska consultation",
      "Professional service",
      "Quality guarantee"
    ],
    "social_links": {}
  },
  {
    "name": "NuFlow Nebraska",
    "address": "Blair, NE (Specific street address not provided in search results.)",
    "phone": "402-909-3149",
    "rating": 4.0,
    "reviews": 25,
    "website": "https://www.google.com/maps/search/NuFlow+Nebraska+in+Nebraska",
    "category": "Black-owned Sewer lines in Nebraska",
    "description": "Specializes in trenchless pipe repair and lining solutions for damaged pipes and sewer lines, avoiding excavation",
    "hours": "Mon-Fri 9AM-6PM",
    "services": [
      "Black-owned Sewer lines in Nebraska consultation",
      "Professional service",
      "Quality guarantee"
    ],
    "social_links": {}
  },
  {
    "name": "Snell Services",
    "address": "Serves Nebraska (Specific street address not provided in search results.)",
    "phone": "308-337-6337",
    "rating": 4.0,
    "reviews": 25,
    "website": "https://www.google.com/maps/search/Snell+Services+in+Nebraska",
    "category": "Black-owned Sewer lines in Nebraska",
    "description": "Offers expert plumbing solutions, including emergency sewer service, using advanced technology for diagnosis and repair. They also handle sewer line replacement",
    "hours": "Mon-Fri 9AM-6PM",
    "services": [
      "Black-owned Sewer lines in Nebraska consultation",
      "Professional service",
      "Quality guarantee"
    ],
    "social_links": {}
  },
  {
    "name": "Bob Nohavec Plumbing",
    "address": "Lincoln, NE (Specific street address not provided in search results.)",
    "phone": "",
    "rating": 4.0,
    "reviews": 25,
    "website": "https://www.google.com/maps/search/Bob+Nohavec+Plumbing+in+Nebraska",
    "category": "Black-owned Sewer lines in Nebraska",
    "description": "Provides full excavation and plumbing services, including sewer line installation and repair, with camera inspections",
    "hours": "Mon-Fri 9AM-6PM",
    "services": [
      "Black-owned Sewer lines in Nebraska consultation",
      "Professional service",
      "Quality guarantee"
    ],
    "social_links": {}
  },
  {
    "name": "Big Birge Plumbing",
    "address": "Omaha, NE (Specific street address not provided in search results.)",
    "phone": "402-575-0102",
    "rating": 4.0,
    "reviews": 25,
    "website": "https://www.google.com/maps/search/Big+Birge+Plumbing+in+Nebraska",
    "category": "Black-owned Sewer lines in Nebraska",
    "description": "Offers a wide range of plumbing services, including drain and sewer cleaning, water and gas piping, and sump pumps",
    "hours": "Mon-Fri 9AM-6PM",
    "services": [
      "Black-owned Sewer lines in Nebraska consultation",
      "Professional service",
      "Quality guarantee"
    ],
    "social_links": {}
  },
  {
    "name": "Wellmann Plumbing",
    "address": "3130 S 6th Street, Lincoln, Nebraska",
    "phone": "402-434-2400",
    "rating": 4.0,
    "reviews": 25,
    "website": "https://www.google.com/maps/search/Wellmann+Plumbing+in+Nebraska",
    "category": "Black-owned Sewer lines in Nebraska",
    "description": "Provides plumbing installation, replacement, and repair services, including drain cleaning and sewer and water service work",
    "hours": "Mon-Fri 9AM-6PM",
    "services": [
      "Black-owned Sewer lines in Nebraska consultation",
      "Professional service",
      "Quality guarantee"
    ],
    "social_links": {}
  },
  {
    "name": "Drain Daddy",
    "address": "Omaha, NE (Specific street address not provided in search results.)",
    "phone": "",
    "rating": 4.0,
    "reviews": 25,
    "website": "https://www.google.com/maps/search/Drain+Daddy+in+Nebraska",
    "category": "Black-owned Sewer lines in Nebraska",
    "description": "Offers same-day drain cleaning, sewer cleaning, and sewer inspections for residential and commercial properties",
    "hours": "Mon-Fri 9AM-6PM",
    "services": [
      "Black-owned Sewer lines in Nebraska consultation",
      "Professional service",
      "Quality guarantee"
    ],
    "social_links": {}
  }
]