[
  {
    "name": "Inspire Advisors \u2013 Upward Management Group",
    "address": "Columbus, OH",
    "phone": "",
    "rating": 4.0,
    "reviews": 25,
    "website": "https://www.inspireadvisors.com/",
    "category": "Christian-owned Budget management in Ohio",
    "description": "A team of Christian Financial Advisors helping clients reach their financial goals with biblical principles",
    "hours": "Mon-Fri 9AM-6PM",
    "services": [
      "Christian-owned Budget management in Ohio consultation",
      "Professional service",
      "Quality guarantee"
    ],
    "social_links": {}
  },
  {
    "name": "Family Life Financial Planning",
    "address": "Mentor, OH 44060",
    "phone": "",
    "rating": 4.0,
    "reviews": 25,
    "website": "https://www.familylifefp.com/",
    "category": "Christian-owned Budget management in Ohio",
    "description": "Christian financial planning services, including wealth management, retirement planning, and college funding",
    "hours": "Mon-Fri 9AM-6PM",
    "services": [
      "Christian-owned Budget management in Ohio consultation",
      "Professional service",
      "Quality guarantee"
    ],
    "social_links": {}
  },
  {
    "name": "21st Century Financial",
    "address": "7185 Liberty Centre Dr - Ste C, West Chester, OH 45069",
    "phone": "(513) 900-0813",
    "rating": 4.0,
    "reviews": 25,
    "website": "https://www.google.com/maps/search/21st+Century+Financial+in+Ohio",
    "category": "Christian-owned Budget management in Ohio",
    "description": "Offers holistic financial guidance and specializes in retirement planning, wealth management, and risk management",
    "hours": "Mon-Fri 9AM-6PM",
    "services": [
      "Christian-owned Budget management in Ohio consultation",
      "Professional service",
      "Quality guarantee"
    ],
    "social_links": {}
  },
  {
    "name": "Assurgent Wealth Management",
    "address": "9435 Waterstone Blvd, Suite 140, Cincinnati, OH 45249",
    "phone": "(513) 504-1803",
    "rating": 4.0,
    "reviews": 25,
    "website": "https://www.google.com/maps/search/Assurgent+Wealth+Management+in+Ohio",
    "category": "Christian-owned Budget management in Ohio",
    "description": "Provides wealth management services with a focus on retirement planning, tax planning, and estate planning",
    "hours": "Mon-Fri 9AM-6PM",
    "services": [
      "Christian-owned Budget management in Ohio consultation",
      "Professional service",
      "Quality guarantee"
    ],
    "social_links": {}
  },
  {
    "name": "Buckeye Planning Concepts Inc.",
    "address": "Not specified, but serves Ohio",
    "phone": "(937) 206-2254",
    "rating": 4.0,
    "reviews": 25,
    "website": "https://www.google.com/maps/search/Buckeye+Planning+Concepts+Inc.+in+Ohio",
    "category": "Christian-owned Budget management in Ohio",
    "description": "Offers life insurance, annuities, and long-term care services",
    "hours": "Mon-Fri 9AM-6PM",
    "services": [
      "Christian-owned Budget management in Ohio consultation",
      "Professional service",
      "Quality guarantee"
    ],
    "social_links": {}
  },
  {
    "name": "Trinity",
    "address": "Not specified, but offers services nationwide including Ohio",
    "phone": "1-800-793-9049",
    "rating": 4.0,
    "reviews": 25,
    "website": "https://www.trinitydebtmanagement.org/",
    "category": "Christian-owned Budget management in Ohio",
    "description": "A non-profit agency providing debt management counseling and services to individuals and families",
    "hours": "Mon-Fri 9AM-6PM",
    "services": [
      "Christian-owned Budget management in Ohio consultation",
      "Professional service",
      "Quality guarantee"
    ],
    "social_links": {}
  },
  {
    "name": "The Church \u2013 Budget Envelope & Mailing Co.",
    "address": "271 S. Ellsworth Avenue, Salem, OH 44460",
    "phone": "800.446.9780",
    "rating": 4.0,
    "reviews": 25,
    "website": "https://www.churchbudget.com/",
    "category": "Christian-owned Budget management in Ohio",
    "description": "Provides quality products and services for churches, including offering envelopes and mailing solutions, with a focus on biblical financial discipline",
    "hours": "Mon-Fri 9AM-6PM",
    "services": [
      "Christian-owned Budget management in Ohio consultation",
      "Professional service",
      "Quality guarantee"
    ],
    "social_links": {}
  },
  {
    "name": "Christian Credit Counselors (Crown)",
    "address": "Services available in Ohio",
    "phone": "",
    "rating": 4.0,
    "reviews": 25,
    "website": "https://www.crown.org/",
    "category": "Christian-owned Budget management in Ohio",
    "description": "Offers debt management plans and financial counseling based on biblical stewardship principles",
    "hours": "Mon-Fri 9AM-6PM",
    "services": [
      "Christian-owned Budget management in Ohio consultation",
      "Professional service",
      "Quality guarantee"
    ],
    "social_links": {}
  },
  {
    "name": "MissionAccounting",
    "address": "4181 E Main Street, Columbus, Oh 43213",
    "phone": "614-599-4793",
    "rating": 4.0,
    "reviews": 25,
    "website": "https://missionaccounting.com/",
    "category": "Christian-owned Budget management in Ohio",
    "description": "Provides outsourced CFO services, accounting, and tax solutions for faith-based organizations",
    "hours": "Mon-Fri 9AM-6PM",
    "services": [
      "Christian-owned Budget management in Ohio consultation",
      "Professional service",
      "Quality guarantee"
    ],
    "social_links": {}
  },
  {
    "name": "Christian Care Connection, LLC",
    "address": "6530 Secor Rd, Toledo, OH (implied by search result context, but not explicitly stated as the business address)",
    "phone": "(734) 854-7061",
    "rating": 4.0,
    "reviews": 25,
    "website": "https://www.christiancareconnection.com/",
    "category": "Christian-owned Budget management in Ohio",
    "description": "Offers financial therapy services with a Christian perspective, focusing on the psychological and emotional aspects of money management",
    "hours": "Mon-Fri 9AM-6PM",
    "services": [
      "Christian-owned Budget management in Ohio consultation",
      "Professional service",
      "Quality guarantee"
    ],
    "social_links": {}
  }
]