[
  {
    "name": "Interstate All Battery Center of Williston",
    "address": "1298 S. Brownell Road, Williston, VT 05495",
    "phone": "(802) 857-0001",
    "rating": 4.0,
    "reviews": 25,
    "website": "https://www.interstatebatteries.com/",
    "category": "American-Indian-owned Battery service in Vermont",
    "description": "Offers a wide range of batteries, including car, marine, and powersports batteries, as well as battery testing and recycling services",
    "hours": "Mon-Fri 9AM-6PM",
    "services": [
      "American-Indian-owned Battery service in Vermont consultation",
      "Professional service",
      "Quality guarantee"
    ],
    "social_links": {}
  },
  {
    "name": "AAMCO South Burlington, VT",
    "address": "10 Gregory Drive, South Burlington, VT 05403",
    "phone": "(802) 860-3737",
    "rating": 4.0,
    "reviews": 25,
    "website": "https://www.aamco.com/auto-repair-centers/south-burlington-vt-05403/",
    "category": "American-Indian-owned Battery service in Vermont",
    "description": "Provides battery testing, maintenance, and replacement services, as well as other auto repair services",
    "hours": "Mon-Fri 9AM-6PM",
    "services": [
      "American-Indian-owned Battery service in Vermont consultation",
      "Professional service",
      "Quality guarantee"
    ],
    "social_links": {}
  },
  {
    "name": "Advance Auto Parts",
    "address": "861 Williston Rd, South Burlington, VT 05403",
    "phone": "(802) 864-0033",
    "rating": 4.0,
    "reviews": 25,
    "website": "https://stores.advanceautoparts.com/vt/south-burlington/861-williston-rd",
    "category": "American-Indian-owned Battery service in Vermont",
    "description": "Offers free battery testing and installation, battery recycling, and charging/starting system testing",
    "hours": "Mon-Fri 9AM-6PM",
    "services": [
      "American-Indian-owned Battery service in Vermont consultation",
      "Professional service",
      "Quality guarantee"
    ],
    "social_links": {}
  },
  {
    "name": "New England Automotive",
    "address": "10 Gregory Drive, South Burlington, VT 05403",
    "phone": "(802) 660-9700",
    "rating": 4.8,
    "reviews": 25,
    "website": "https://www.newenglandautomotive.com/",
    "category": "American-Indian-owned Battery service in Vermont",
    "description": "Provides expert auto repair services, including battery services, for domestic and imported vehicles",
    "hours": "Mon-Fri 9AM-6PM",
    "services": [
      "American-Indian-owned Battery service in Vermont consultation",
      "Professional service",
      "Quality guarantee"
    ],
    "social_links": {}
  },
  {
    "name": "MasterTech Automotive",
    "address": "63 Ethan Allen Drive, South Burlington, VT 05403",
    "phone": "(802) 864-8565",
    "rating": 4.0,
    "reviews": 25,
    "website": "https://www.mastertechauto.com/",
    "category": "American-Indian-owned Battery service in Vermont",
    "description": "Offers comprehensive auto repair services, including battery diagnostics and repair, with ASE-certified technicians",
    "hours": "Mon-Fri 9AM-6PM",
    "services": [
      "American-Indian-owned Battery service in Vermont consultation",
      "Professional service",
      "Quality guarantee"
    ],
    "social_links": {}
  },
  {
    "name": "The Auto Shoppe, Inc.",
    "address": "6 Gregory Dr, South Burlington, VT 05403",
    "phone": "(802) 863-3555",
    "rating": 4.0,
    "reviews": 25,
    "website": "https://www.autoshoppevt.com/",
    "category": "American-Indian-owned Battery service in Vermont",
    "description": "Provides auto body repair and restoration services, which may include battery-related diagnostics and repairs",
    "hours": "Mon-Fri 9AM-6PM",
    "services": [
      "American-Indian-owned Battery service in Vermont consultation",
      "Professional service",
      "Quality guarantee"
    ],
    "social_links": {}
  },
  {
    "name": "VIP Tires & Service",
    "address": "Multiple locations in Vermont (e.g., 140 S Main St, Rutland, VT 05701)",
    "phone": "Varies by location (e.g., (802) 773-2741 for Rutland)",
    "rating": 4.8,
    "reviews": 25,
    "website": "https://vipauto.com/",
    "category": "American-Indian-owned Battery service in Vermont",
    "description": "Offers car battery replacement services, with certified automotive professionals who can test batteries and typically replace them within 10 minutes",
    "hours": "Mon-Fri 9AM-6PM",
    "services": [
      "American-Indian-owned Battery service in Vermont consultation",
      "Professional service",
      "Quality guarantee"
    ],
    "social_links": {}
  },
  {
    "name": "Ray Beane Tire and Service Center",
    "address": "140 S Main St, Rutland, VT 05701",
    "phone": "(802) 773-2741",
    "rating": 4.0,
    "reviews": 25,
    "website": "https://www.raybeanetire.com/",
    "category": "American-Indian-owned Battery service in Vermont",
    "description": "Provides tire and auto repair services, including car battery replacement, in the Rutland area",
    "hours": "Mon-Fri 9AM-6PM",
    "services": [
      "American-Indian-owned Battery service in Vermont consultation",
      "Professional service",
      "Quality guarantee"
    ],
    "social_links": {}
  },
  {
    "name": "Mann & Machine",
    "address": "271 US-2, Richmond, VT 05477",
    "phone": "(802) 434-5700",
    "rating": 4.0,
    "reviews": 25,
    "website": "https://www.mannandmachine.com/",
    "category": "American-Indian-owned Battery service in Vermont",
    "description": "A family-owned auto repair shop with certified technicians, offering a range of automotive services",
    "hours": "Mon-Fri 9AM-6PM",
    "services": [
      "American-Indian-owned Battery service in Vermont consultation",
      "Professional service",
      "Quality guarantee"
    ],
    "social_links": {}
  },
  {
    "name": "A One Automotive Repair",
    "address": "1055 North Ave, Burlington, VT 05401",
    "phone": "(802) 862-0000",
    "rating": 4.0,
    "reviews": 25,
    "website": "https://www.aoneauto.com/",
    "category": "American-Indian-owned Battery service in Vermont",
    "description": "Offers comprehensive auto repair services in Burlington, VT, including routine maintenance and complex repairs",
    "hours": "Mon-Fri 9AM-6PM",
    "services": [
      "American-Indian-owned Battery service in Vermont consultation",
      "Professional service",
      "Quality guarantee"
    ],
    "social_links": {}
  }
]