[
  {
    "name": "Oklahoma Will and Trust",
    "address": "Not specified in search results",
    "phone": "(918) 876-4500",
    "rating": 4.0,
    "reviews": 25,
    "website": "https://www.google.com/maps/search/Oklahoma+Will+and+Trust+in+Oklahoma",
    "category": "Indian-American-owned Probate law in Oklahoma",
    "description": "Offers experienced probate attorneys knowledgeable about Oklahoma probate laws",
    "hours": "Mon-Fri 9AM-6PM",
    "services": [
      "Indian-American-owned Probate law in Oklahoma consultation",
      "Professional service",
      "Quality guarantee"
    ],
    "social_links": {}
  },
  {
    "name": "David C. Fisher, Attorney at Law",
    "address": "Not specified in search results",
    "phone": "(918) 201-1062",
    "rating": 4.0,
    "reviews": 25,
    "website": "https://www.google.com/maps/search/David+C.+Fisher,+Attorney+at+Law+in+Oklahoma",
    "category": "Indian-American-owned Probate law in Oklahoma",
    "description": "Assists families with estate planning services and can help with probate matters",
    "hours": "Mon-Fri 9AM-6PM",
    "services": [
      "Indian-American-owned Probate law in Oklahoma consultation",
      "Professional service",
      "Quality guarantee"
    ],
    "social_links": {}
  },
  {
    "name": "Beverly Atteberry, Attorney at Law",
    "address": "Not specified in search results",
    "phone": "",
    "rating": 4.0,
    "reviews": 25,
    "website": "https://www.google.com/maps/search/Beverly+Atteberry,+Attorney+at+Law+in+Oklahoma",
    "category": "Indian-American-owned Probate law in Oklahoma",
    "description": "A sole practitioner with a primary practice in wills, trusts, and probate",
    "hours": "Mon-Fri 9AM-6PM",
    "services": [
      "Indian-American-owned Probate law in Oklahoma consultation",
      "Professional service",
      "Quality guarantee"
    ],
    "social_links": {}
  },
  {
    "name": "Jorjana Marx, Attorney at Law",
    "address": "Not specified in search results",
    "phone": "",
    "rating": 4.0,
    "reviews": 25,
    "website": "https://www.google.com/maps/search/Jorjana+Marx,+Attorney+at+Law+in+Oklahoma",
    "category": "Indian-American-owned Probate law in Oklahoma",
    "description": "Focuses on elder law and helps families with legal issues affecting them",
    "hours": "Mon-Fri 9AM-6PM",
    "services": [
      "Indian-American-owned Probate law in Oklahoma consultation",
      "Professional service",
      "Quality guarantee"
    ],
    "social_links": {}
  },
  {
    "name": "Gary W. Crews, PLLC",
    "address": "Not specified in search results",
    "phone": "",
    "rating": 4.0,
    "reviews": 25,
    "website": "https://www.google.com/maps/search/Gary+W.+Crews,+PLLC+in+Oklahoma",
    "category": "Indian-American-owned Probate law in Oklahoma",
    "description": "Provides probate services with over 20 years of experience navigating Oklahoma probate laws",
    "hours": "Mon-Fri 9AM-6PM",
    "services": [
      "Indian-American-owned Probate law in Oklahoma consultation",
      "Professional service",
      "Quality guarantee"
    ],
    "social_links": {}
  },
  {
    "name": "Julie A. Evans, P.C.",
    "address": "Not specified in search results",
    "phone": "918-592-5566",
    "rating": 4.0,
    "reviews": 25,
    "website": "https://www.google.com/maps/search/Julie+A.+Evans,+P.C.+in+Oklahoma",
    "category": "Indian-American-owned Probate law in Oklahoma",
    "description": "Devoted to probate in Tulsa County, Oklahoma, with over 35 years of experience",
    "hours": "Mon-Fri 9AM-6PM",
    "services": [
      "Indian-American-owned Probate law in Oklahoma consultation",
      "Professional service",
      "Quality guarantee"
    ],
    "social_links": {}
  },
  {
    "name": "McBride & Associates",
    "address": "Not specified in search results",
    "phone": "(405) 896-3615",
    "rating": 4.0,
    "reviews": 25,
    "website": "https://www.google.com/maps/search/McBride+&+Associates+in+Oklahoma",
    "category": "Indian-American-owned Probate law in Oklahoma",
    "description": "Experienced probate attorneys serving clients since 1996, offering free initial consultations",
    "hours": "Mon-Fri 9AM-6PM",
    "services": [
      "Indian-American-owned Probate law in Oklahoma consultation",
      "Professional service",
      "Quality guarantee"
    ],
    "social_links": {}
  },
  {
    "name": "Ball Morse Lowe",
    "address": "Not specified in search results",
    "phone": "405.701. (The rest of the number was cut off in the search result)",
    "rating": 4.0,
    "reviews": 25,
    "website": "https://www.google.com/maps/search/Ball+Morse+Lowe+in+Oklahoma",
    "category": "Indian-American-owned Probate law in Oklahoma",
    "description": "Experienced probate attorneys dedicated to providing high-quality legal services and protecting family interests",
    "hours": "Mon-Fri 9AM-6PM",
    "services": [
      "Indian-American-owned Probate law in Oklahoma consultation",
      "Professional service",
      "Quality guarantee"
    ],
    "social_links": {}
  },
  {
    "name": "Zuhdi & Flynn, PLLC",
    "address": "Not specified in search results",
    "phone": "405-416-2711",
    "rating": 4.0,
    "reviews": 25,
    "website": "https://www.google.com/maps/search/Zuhdi+&+Flynn,+PLLC+in+Oklahoma",
    "category": "Indian-American-owned Probate law in Oklahoma",
    "description": "Experienced and compassionate Oklahoma City probate lawyers guiding clients through the estate administration process",
    "hours": "Mon-Fri 9AM-6PM",
    "services": [
      "Indian-American-owned Probate law in Oklahoma consultation",
      "Professional service",
      "Quality guarantee"
    ],
    "social_links": {}
  },
  {
    "name": "Helton Law Firm",
    "address": "Not specified in search results",
    "phone": "(918) 928-7104",
    "rating": 4.0,
    "reviews": 25,
    "website": "https://www.google.com/maps/search/Helton+Law+Firm+in+Oklahoma",
    "category": "Indian-American-owned Probate law in Oklahoma",
    "description": "Offers over 20 years of experience helping families navigate probate complexities in Oklahoma City",
    "hours": "Mon-Fri 9AM-6PM",
    "services": [
      "Indian-American-owned Probate law in Oklahoma consultation",
      "Professional service",
      "Quality guarantee"
    ],
    "social_links": {}
  }
]