[
  {
    "name": "InnerSource Wellness Center",
    "address": "3101 Skyline Drive, Wilmington, DE 19808",
    "phone": "(302) 737-6924",
    "rating": 4.0,
    "reviews": 25,
    "website": "https://innersourcewellnesscenter.com/",
    "category": "Atheist-owned Aromatherapy in Delaware",
    "description": "Offers energy healing, holistic wellness, and is situated on a permaculture homestead",
    "hours": "Mon-Fri 9AM-6PM",
    "services": [
      "Atheist-owned Aromatherapy in Delaware consultation",
      "Professional service",
      "Quality guarantee"
    ],
    "social_links": {}
  },
  {
    "name": "Natural Center for Wellness LLC",
    "address": "Virtual practice operating in Delaware",
    "phone": "",
    "rating": 4.0,
    "reviews": 25,
    "website": "https://www.naturalcenterforwellness.com/",
    "category": "Atheist-owned Aromatherapy in Delaware",
    "description": "A virtual wellness practice focused on holistic healing and functional medicine",
    "hours": "Mon-Fri 9AM-6PM",
    "services": [
      "Atheist-owned Aromatherapy in Delaware consultation",
      "Professional service",
      "Quality guarantee"
    ],
    "social_links": {}
  },
  {
    "name": "Chrysalis Natural Medicine Clinic",
    "address": "Information not available (operates in Delaware since 1986)",
    "phone": "(302) 994-0565",
    "rating": 4.0,
    "reviews": 25,
    "website": "https://chrysalisnaturalmedicine.com/",
    "category": "Atheist-owned Aromatherapy in Delaware",
    "description": "A family-owned integrative holistic health center offering traditional Chinese and Ayurvedic medicines, acupuncture, and functional medicine",
    "hours": "Mon-Fri 9AM-6PM",
    "services": [
      "Atheist-owned Aromatherapy in Delaware consultation",
      "Professional service",
      "Quality guarantee"
    ],
    "social_links": {}
  },
  {
    "name": "Hockessin Holistic Health",
    "address": "530 Schoolhouse Road, Suite F, Hockessin, DE 19707",
    "phone": "(302) 234-4424",
    "rating": 4.0,
    "reviews": 25,
    "website": "https://www.hockessinholistichealth.com/",
    "category": "Atheist-owned Aromatherapy in Delaware",
    "description": "Provides holistic care including acupuncture, chiropractic, herbal medicine, and massage",
    "hours": "Mon-Fri 9AM-6PM",
    "services": [
      "Atheist-owned Aromatherapy in Delaware consultation",
      "Professional service",
      "Quality guarantee"
    ],
    "social_links": {}
  },
  {
    "name": "Monarch Wellness Center",
    "address": "2601 Annand Dr, Suite 17, Wilmington, DE 19808",
    "phone": "",
    "rating": 4.0,
    "reviews": 25,
    "website": "https://monarchwellnessde.com/",
    "category": "Atheist-owned Aromatherapy in Delaware",
    "description": "Offers wellness and beauty treatments aimed at enhancing health and confidence from the inside out",
    "hours": "Mon-Fri 9AM-6PM",
    "services": [
      "Atheist-owned Aromatherapy in Delaware consultation",
      "Professional service",
      "Quality guarantee"
    ],
    "social_links": {}
  },
  {
    "name": "Nature's Way of Delaware",
    "address": "Information not available (operates in Delaware)",
    "phone": "",
    "rating": 4.0,
    "reviews": 25,
    "website": "https://www.natureswayofdelaware.com/",
    "category": "Atheist-owned Aromatherapy in Delaware",
    "description": "Offers a selection of vitamins, supplements, and natural products, including essential oils",
    "hours": "Mon-Fri 9AM-6PM",
    "services": [
      "Atheist-owned Aromatherapy in Delaware consultation",
      "Professional service",
      "Quality guarantee"
    ],
    "social_links": {}
  },
  {
    "name": "First State Health & Wellness",
    "address": "Multiple locations including Newark, Wilmington, Lewes, Middletown, Rehoboth Beach, DE",
    "phone": "(302) 454-1200",
    "rating": 4.0,
    "reviews": 25,
    "website": "https://firststatehealth.net/",
    "category": "Atheist-owned Aromatherapy in Delaware",
    "description": "Provides a line of vitamin and nutritional supplements, with a focus on natural ingredients and healing",
    "hours": "Mon-Fri 9AM-6PM",
    "services": [
      "Atheist-owned Aromatherapy in Delaware consultation",
      "Professional service",
      "Quality guarantee"
    ],
    "social_links": {}
  },
  {
    "name": "The Vitamin Shoppe\u00ae Concord Pike",
    "address": "4609 Concord Pike, Wilmington, DE 19803",
    "phone": "(302) 479-9080",
    "rating": 4.0,
    "reviews": 25,
    "website": "https://www.vitaminshoppe.com/stores/wilmington-de/4609",
    "category": "Atheist-owned Aromatherapy in Delaware",
    "description": "Offers a variety of health and wellness products, including essential oils and aromatherapy items",
    "hours": "Mon-Fri 9AM-6PM",
    "services": [
      "Atheist-owned Aromatherapy in Delaware consultation",
      "Professional service",
      "Quality guarantee"
    ],
    "social_links": {}
  },
  {
    "name": "Delaware Integrative Medicine",
    "address": "Information not available (operates in Delaware)",
    "phone": "",
    "rating": 4.0,
    "reviews": 25,
    "website": "https://www.delawareintegrativemedicine.com/",
    "category": "Atheist-owned Aromatherapy in Delaware",
    "description": "Focuses on wellness therapies such as IV nutrient therapy and peptides for age management and general wellness",
    "hours": "Mon-Fri 9AM-6PM",
    "services": [
      "Atheist-owned Aromatherapy in Delaware consultation",
      "Professional service",
      "Quality guarantee"
    ],
    "social_links": {}
  },
  {
    "name": "Enlightened Elements",
    "address": "38 Clinton St, Delaware City, Delaware 19706",
    "phone": "(302) 772-2012",
    "rating": 4.0,
    "reviews": 25,
    "website": "https://www.theenlightenedelements.com/",
    "category": "Atheist-owned Aromatherapy in Delaware",
    "description": "Provides a space for healing through wholistic and natural approaches, offering a tranquil atmosphere for mind, body, and spirit",
    "hours": "Mon-Fri 9AM-6PM",
    "services": [
      "Atheist-owned Aromatherapy in Delaware consultation",
      "Professional service",
      "Quality guarantee"
    ],
    "social_links": {}
  }
]