[
  {
    "name": "The Inferno Hot Yoga & Pilates",
    "address": "1000 John Fitch Hwy, Fitchburg, MA 01420",
    "phone": "(978) 514-0123",
    "rating": 4.0,
    "reviews": 25,
    "website": "http://www.theinfernohotyoga.com/",
    "category": "African-American-owned Hot yoga in Massachusetts",
    "description": "Offers Bikram Yoga, Inferno Hot Pilates, Hatha Yoga, and Power Yoga classes in a heated room",
    "hours": "Mon-Fri 9AM-6PM",
    "services": [
      "African-American-owned Hot yoga in Massachusetts consultation",
      "Professional service",
      "Quality guarantee"
    ],
    "social_links": {}
  },
  {
    "name": "BREATHE Cambridge",
    "address": "335 Broadway, Cambridge, MA 02139",
    "phone": "(617) 860-6000",
    "rating": 4.0,
    "reviews": 25,
    "website": "https://www.breathecambridge.com/",
    "category": "African-American-owned Hot yoga in Massachusetts",
    "description": "A hot yoga studio offering yoga, Pilates, and HIIT classes in Harvard Square",
    "hours": "Mon-Fri 9AM-6PM",
    "services": [
      "African-American-owned Hot yoga in Massachusetts consultation",
      "Professional service",
      "Quality guarantee"
    ],
    "social_links": {}
  },
  {
    "name": "Hot Power Yoga Center",
    "address": "100 Grove St, Worcester, MA 01604",
    "phone": "(508) 755-9642",
    "rating": 4.0,
    "reviews": 25,
    "website": "https://www.hotpoweryogacenter.com/",
    "category": "African-American-owned Hot yoga in Massachusetts",
    "description": "A hot vinyasa yoga studio and yoga teacher training facility",
    "hours": "Mon-Fri 9AM-6PM",
    "services": [
      "African-American-owned Hot yoga in Massachusetts consultation",
      "Professional service",
      "Quality guarantee"
    ],
    "social_links": {}
  },
  {
    "name": "Mystic Fitness",
    "address": "500 Old Connecticut Path, Framingham, MA 01701",
    "phone": "(508) 875-0400",
    "rating": 4.0,
    "reviews": 25,
    "website": "https://mysticfitness.com/",
    "category": "African-American-owned Hot yoga in Massachusetts",
    "description": "Offers over 30 hot yoga classes per week",
    "hours": "Mon-Fri 9AM-6PM",
    "services": [
      "African-American-owned Hot yoga in Massachusetts consultation",
      "Professional service",
      "Quality guarantee"
    ],
    "social_links": {}
  },
  {
    "name": "Hot Yoga Auburn",
    "address": "406 Washington St, Auburn, MA 01501",
    "phone": "(508) 832-9642",
    "rating": 4.0,
    "reviews": 25,
    "website": "https://www.hotyogaauburn.com/",
    "category": "African-American-owned Hot yoga in Massachusetts",
    "description": "Offers hot yoga, hot Pilates, Barre, Buti Yoga, Yin Yoga, Power Yoga, and Vinyasa classes",
    "hours": "Mon-Fri 9AM-6PM",
    "services": [
      "African-American-owned Hot yoga in Massachusetts consultation",
      "Professional service",
      "Quality guarantee"
    ],
    "social_links": {}
  },
  {
    "name": "HOTWORX - Northborough, MA",
    "address": "1110 Worcester St, Northborough, MA 01532",
    "phone": "(508) 351-6100",
    "rating": 4.0,
    "reviews": 25,
    "website": "https://www.hotworx.net/northborough",
    "category": "African-American-owned Hot yoga in Massachusetts",
    "description": "A 24-hour infrared fitness studio offering Hot Yoga, Pilates, Barre, Cycle, and HIIT workouts",
    "hours": "Mon-Fri 9AM-6PM",
    "services": [
      "African-American-owned Hot yoga in Massachusetts consultation",
      "Professional service",
      "Quality guarantee"
    ],
    "social_links": {}
  },
  {
    "name": "VIBE Hot Yoga & Pilates (Chelmsford)",
    "address": "185 Olde Concord Rd, Chelmsford, MA 01824",
    "phone": "(978) 250-9000",
    "rating": 4.0,
    "reviews": 25,
    "website": "https://www.vibehotyoga.com/",
    "category": "African-American-owned Hot yoga in Massachusetts",
    "description": "Offers hot yoga, Pilates, and strength-based classes",
    "hours": "Mon-Fri 9AM-6PM",
    "services": [
      "African-American-owned Hot yoga in Massachusetts consultation",
      "Professional service",
      "Quality guarantee"
    ],
    "social_links": {}
  },
  {
    "name": "VIBE Hot Yoga & Pilates (Westford)",
    "address": "175 Littleton Rd, Westford, MA 01886",
    "phone": "(978) 692-9000",
    "rating": 4.0,
    "reviews": 25,
    "website": "https://www.vibehotyoga.com/",
    "category": "African-American-owned Hot yoga in Massachusetts",
    "description": "Offers hot yoga, Pilates, and strength-based classes",
    "hours": "Mon-Fri 9AM-6PM",
    "services": [
      "African-American-owned Hot yoga in Massachusetts consultation",
      "Professional service",
      "Quality guarantee"
    ],
    "social_links": {}
  },
  {
    "name": "Wellness Hot Yoga",
    "address": "34 Merrimack St, Haverhill, MA 01830",
    "phone": "(978) 374-9642",
    "rating": 4.0,
    "reviews": 25,
    "website": "https://www.wellnesshotyoga.com/",
    "category": "African-American-owned Hot yoga in Massachusetts",
    "description": "Offers hot yoga, massage therapy, and wellness center services",
    "hours": "Mon-Fri 9AM-6PM",
    "services": [
      "African-American-owned Hot yoga in Massachusetts consultation",
      "Professional service",
      "Quality guarantee"
    ],
    "social_links": {}
  },
  {
    "name": "Stayin' Aligned Hot Yoga",
    "address": "103 E Main St, Unit 2, Orange, MA 01364",
    "phone": "(978) 335-1090",
    "rating": 4.0,
    "reviews": 25,
    "website": "https://stayinalignedhotyoga.com/",
    "category": "African-American-owned Hot yoga in Massachusetts",
    "description": "Offers the Original 26&2 Hot Yoga",
    "hours": "Mon-Fri 9AM-6PM",
    "services": [
      "African-American-owned Hot yoga in Massachusetts consultation",
      "Professional service",
      "Quality guarantee"
    ],
    "social_links": {}
  }
]