[
  {
    "name": "Adagio Day Spa",
    "address": "510 W Tudor Rd, Anchorage, AK 99503, United States",
    "phone": "+1 907-563-2324",
    "rating": 4.5,
    "reviews": 25,
    "website": "https://www.adagiodayspa.com/",
    "category": "Arabic-speaking Body wraps in Alaska",
    "description": "Adagio Day Spa offers a variety of body treatments, including mud and green tea wraps, seaweed wraps, and herbal cellulite treatments. They utilize a Soft Pack heated floatation bed for enhanced relaxation",
    "hours": "Mon-Fri 9AM-6PM",
    "services": [
      "Arabic-speaking Body wraps in Alaska consultation",
      "Professional service",
      "Quality guarantee"
    ],
    "social_links": {}
  },
  {
    "name": "The Lexington Salon And Spa",
    "address": "1007 E 7th Ave, Anchorage, AK 99501, United States",
    "phone": "+1 907-276-5500",
    "rating": 4.6,
    "reviews": 25,
    "website": "https://www.lexingtonsalonandspa.com/",
    "category": "Arabic-speaking Body wraps in Alaska",
    "description": "This salon and spa offers an \"Alaska Glacial Mud Detoxifying Body Wrap\" using mineral-rich mud from the Copper River Delta. They also offer papaya-pineapple and Lumafirm body treatments",
    "hours": "Mon-Fri 9AM-6PM",
    "services": [
      "Arabic-speaking Body wraps in Alaska consultation",
      "Professional service",
      "Quality guarantee"
    ],
    "social_links": {}
  },
  {
    "name": "Pure Essentials Day Spa",
    "address": "1716 University Ave S, Fairbanks, AK 99707, United States",
    "phone": "+1 907-456-3727",
    "rating": 4.9,
    "reviews": 25,
    "website": "https://www.pureessentialsfairbanks.com/",
    "category": "Arabic-speaking Body wraps in Alaska",
    "description": "Pure Essentials Day Spa offers various skin care treatments, including body wraps, microdermabrasion, facials, and massages",
    "hours": "Mon-Fri 9AM-6PM",
    "services": [
      "Arabic-speaking Body wraps in Alaska consultation",
      "Professional service",
      "Quality guarantee"
    ],
    "social_links": {}
  },
  {
    "name": "Ravens Nest Spa",
    "address": "8115 Jewel Lake Road, Anchorage, AK 99502, United States",
    "phone": "+1 907-570-7700",
    "rating": 4.8,
    "reviews": 25,
    "website": "https://www.ravensnestspa.com/",
    "category": "Arabic-speaking Body wraps in Alaska",
    "description": "Ravens Nest Spa offers a \"Detox Wrap\" using blue-green algae, along with a Himalayan Salt Scrub and moisturizing body butter application",
    "hours": "Mon-Fri 9AM-6PM",
    "services": [
      "Arabic-speaking Body wraps in Alaska consultation",
      "Professional service",
      "Quality guarantee"
    ],
    "social_links": {}
  },
  {
    "name": "Glacier Med Spa",
    "address": "425 E Dahlia Avenue Suite J, Palmer, AK 99645, United States",
    "phone": "+1 907-745-1524",
    "rating": 4.7,
    "reviews": 25,
    "website": "https://glaciermedspa.com/",
    "category": "Arabic-speaking Body wraps in Alaska",
    "description": "Glacier Med Spa offers various aesthetic and wellness treatments, including body contouring and skin rejuvenation. While they don't explicitly list body wraps, their focus on body treatments suggests they may offer them or similar services",
    "hours": "Mon-Fri 9AM-6PM",
    "services": [
      "Arabic-speaking Body wraps in Alaska consultation",
      "Professional service",
      "Quality guarantee"
    ],
    "social_links": {}
  },
  {
    "name": "Rejuvenating Skin and Body",
    "address": "2853 Tongass Ave Suite 203, Ketchikan, Alaska 99901, United States",
    "phone": "+1 833-887-9141",
    "rating": 4.9,
    "reviews": 25,
    "website": "https://www.rejuvenatingskinandbody.com/",
    "category": "Arabic-speaking Body wraps in Alaska",
    "description": "This spa offers body wraps as part of their comprehensive skin and body treatments, alongside facials, waxing, and spray tans",
    "hours": "Mon-Fri 9AM-6PM",
    "services": [
      "Arabic-speaking Body wraps in Alaska consultation",
      "Professional service",
      "Quality guarantee"
    ],
    "social_links": {}
  },
  {
    "name": "Integrated Wellness",
    "address": "1700 E Bogard Rd Building A Suite 204, Wasilla, AK 99654, United States",
    "phone": "+1 907-373-0373",
    "rating": 4.8,
    "reviews": 25,
    "website": "https://www.integratedwellnessak.com/",
    "category": "Arabic-speaking Body wraps in Alaska",
    "description": "Integrated Wellness offers personalized wellness and beauty treatments, focusing on holistic healing and relaxation. While specific body wrap services aren't detailed, their emphasis on body revitalization suggests potential offerings",
    "hours": "Mon-Fri 9AM-6PM",
    "services": [
      "Arabic-speaking Body wraps in Alaska consultation",
      "Professional service",
      "Quality guarantee"
    ],
    "social_links": {}
  },
  {
    "name": "Spruce and Feather Spa",
    "address": "315 3rd St, Fairbanks, AK 99701, United States",
    "phone": "+1 907-374-0003",
    "rating": 4.9,
    "reviews": 25,
    "website": "https://www.spruceandfeatherspa.com/",
    "category": "Arabic-speaking Body wraps in Alaska",
    "description": "This organic and holistic day spa specializes in facial treatments, waxing, and other skin and body services. They focus on plant-powered, cruelty-free products",
    "hours": "Mon-Fri 9AM-6PM",
    "services": [
      "Arabic-speaking Body wraps in Alaska consultation",
      "Professional service",
      "Quality guarantee"
    ],
    "social_links": {}
  },
  {
    "name": "Relax Solutions Beauty Spa",
    "address": "701 E 16th Ave, Anchorage, AK 99501, United States",
    "phone": "+1 907-929-7200",
    "rating": 4.7,
    "reviews": 25,
    "website": "https://www.relaxsolutionsanchorage.com/",
    "category": "Arabic-speaking Body wraps in Alaska",
    "description": "Relax Solutions Beauty Spa offers a range of personalized treatments, including facials and massages, aimed at refreshing the body and mind. They may offer body wraps or similar revitalizing treatments",
    "hours": "Mon-Fri 9AM-6PM",
    "services": [
      "Arabic-speaking Body wraps in Alaska consultation",
      "Professional service",
      "Quality guarantee"
    ],
    "social_links": {}
  },
  {
    "name": "Bella Bronze Body Spa Elevated Wellness",
    "address": "1421 Mill Bay Rd, Kodiak, AK 99615, United States",
    "phone": "+1 907-486-3300",
    "rating": 4.9,
    "reviews": 25,
    "website": "https://www.bellabronzekodiak.com/",
    "category": "Arabic-speaking Body wraps in Alaska",
    "description": "This spa offers a variety of wellness and beauty treatments, including infrared sauna, red-light therapy, and spray tans. While not explicitly listing body wraps, their focus on body treatments and wellness suggests they might offer them",
    "hours": "Mon-Fri 9AM-6PM",
    "services": [
      "Arabic-speaking Body wraps in Alaska consultation",
      "Professional service",
      "Quality guarantee"
    ],
    "social_links": {}
  }
]