[
  {
    "name": "Dakota Equipment Rental",
    "address": "4435 E Colorado Blvd, Spearfish, SD 57783",
    "phone": "(605) 722-1111",
    "rating": 4.0,
    "reviews": 25,
    "website": "https://www.dakotaequipmentrental.com/",
    "category": "Bengali-speaking Equipment leasing in South-Dakota",
    "description": "Offers a variety of equipment rentals and sales",
    "hours": "Mon-Fri 9AM-6PM",
    "services": [
      "Bengali-speaking Equipment leasing in South-Dakota consultation",
      "Professional service",
      "Quality guarantee"
    ],
    "social_links": {}
  },
  {
    "name": "The Cat Rental Store",
    "address": "Multiple locations across South Dakota (e.g., Sioux Falls, Rapid City)",
    "phone": "",
    "rating": 4.0,
    "reviews": 25,
    "website": "https://www.catrentalstore.com/",
    "category": "Bengali-speaking Equipment leasing in South-Dakota",
    "description": "Provides a wide range of Caterpillar and other brand equipment rentals for construction, earthworks, forestry, and more",
    "hours": "Mon-Fri 9AM-6PM",
    "services": [
      "Bengali-speaking Equipment leasing in South-Dakota consultation",
      "Professional service",
      "Quality guarantee"
    ],
    "social_links": {}
  },
  {
    "name": "Rapid Equipment",
    "address": "Box Elder, SD (specific street address not provided in search results)",
    "phone": "(605) 341-0200",
    "rating": 4.0,
    "reviews": 25,
    "website": "https://rapidequip.com/",
    "category": "Bengali-speaking Equipment leasing in South-Dakota",
    "description": "Offers Develon construction equipment for rent and sale, including excavators, wheel loaders, and telehandlers",
    "hours": "Mon-Fri 9AM-6PM",
    "services": [
      "Bengali-speaking Equipment leasing in South-Dakota consultation",
      "Professional service",
      "Quality guarantee"
    ],
    "social_links": {}
  },
  {
    "name": "Stan Houston Equipment Company, INC.",
    "address": "Multiple locations including Sioux Falls, Rapid City, Aberdeen, and Watertown, SD. (e.g., 3020 W 12th St, Sioux Falls, SD 57104)",
    "phone": "(605) 336-3727 (Sioux Falls)",
    "rating": 4.0,
    "reviews": 25,
    "website": "https://www.stanhoustonequipment.com/",
    "category": "Bengali-speaking Equipment leasing in South-Dakota",
    "description": "Provides construction equipment rental, tool sales, and more, serving the construction industry since 1948",
    "hours": "Mon-Fri 9AM-6PM",
    "services": [
      "Bengali-speaking Equipment leasing in South-Dakota consultation",
      "Professional service",
      "Quality guarantee"
    ],
    "social_links": {}
  },
  {
    "name": "Time Equipment Rental and Sales",
    "address": "Rapid City, SD (specific street address not provided in search results)",
    "phone": "(605) 343-0515",
    "rating": 4.0,
    "reviews": 25,
    "website": "https://www.timerentalrapidcity.com/",
    "category": "Bengali-speaking Equipment leasing in South-Dakota",
    "description": "Offers a wide range of rental equipment and truck accessories for contractors and homeowners",
    "hours": "Mon-Fri 9AM-6PM",
    "services": [
      "Bengali-speaking Equipment leasing in South-Dakota consultation",
      "Professional service",
      "Quality guarantee"
    ],
    "social_links": {}
  },
  {
    "name": "Trident Leasing Corp",
    "address": "Serves all of South Dakota. (No specific physical address provided for a branch in SD)",
    "phone": "(800) 274-0007",
    "rating": 4.0,
    "reviews": 25,
    "website": "https://www.tridentleasing.com/",
    "category": "Bengali-speaking Equipment leasing in South-Dakota",
    "description": "Provides equipment financing options and leasing solutions for businesses in South Dakota",
    "hours": "Mon-Fri 9AM-6PM",
    "services": [
      "Bengali-speaking Equipment leasing in South-Dakota consultation",
      "Professional service",
      "Quality guarantee"
    ],
    "social_links": {}
  },
  {
    "name": "Lift Pro Equipment",
    "address": "Sioux Falls, SD (specific street address not provided in search results)",
    "phone": "(605) 338-0400",
    "rating": 4.0,
    "reviews": 25,
    "website": "https://www.liftproequip.com/",
    "category": "Bengali-speaking Equipment leasing in South-Dakota",
    "description": "Offers financing solutions for Toyota Forklifts and other equipment and warehousing brands",
    "hours": "Mon-Fri 9AM-6PM",
    "services": [
      "Bengali-speaking Equipment leasing in South-Dakota consultation",
      "Professional service",
      "Quality guarantee"
    ],
    "social_links": {}
  },
  {
    "name": "Patriot Financial LLC",
    "address": "McIntosh, SD (specific street address not provided in search results)",
    "phone": "(605) 934-5200",
    "rating": 4.0,
    "reviews": 25,
    "website": "https://patriotfinancialllc.com/",
    "category": "Bengali-speaking Equipment leasing in South-Dakota",
    "description": "Provides equipment financing and leasing options to help businesses in McIntosh, SD with cash flow management",
    "hours": "Mon-Fri 9AM-6PM",
    "services": [
      "Bengali-speaking Equipment leasing in South-Dakota consultation",
      "Professional service",
      "Quality guarantee"
    ],
    "social_links": {}
  },
  {
    "name": "Liberty Capital Group",
    "address": "Serves South Dakota. (No specific physical address provided for a branch in SD)",
    "phone": "888-511-6223",
    "rating": 4.0,
    "reviews": 25,
    "website": "https://libertycapitalgroup.com/",
    "category": "Bengali-speaking Equipment leasing in South-Dakota",
    "description": "Offers equipment financing solutions for various industries, including event services, in South Dakota",
    "hours": "Mon-Fri 9AM-6PM",
    "services": [
      "Bengali-speaking Equipment leasing in South-Dakota consultation",
      "Professional service",
      "Quality guarantee"
    ],
    "social_links": {}
  },
  {
    "name": "Kinetic Leasing",
    "address": "Fargo, ND (serves surrounding areas, potentially including parts of SD)",
    "phone": "(701) 235-0111",
    "rating": 4.0,
    "reviews": 25,
    "website": "https://www.kineticleasing.com/",
    "category": "Bengali-speaking Equipment leasing in South-Dakota",
    "description": "Provides equipment finance options for virtually any type of equipment",
    "hours": "Mon-Fri 9AM-6PM",
    "services": [
      "Bengali-speaking Equipment leasing in South-Dakota consultation",
      "Professional service",
      "Quality guarantee"
    ],
    "social_links": {}
  }
]