[
  {
    "name": "Zen Massage USA",
    "address": "12615 Metcalf Avenue, Overland Park, KS 66213",
    "phone": "(913) 338-1111",
    "rating": 4.0,
    "reviews": 25,
    "website": "https://www.zenmassageusa.com/",
    "category": "Bengali-speaking Couples massage in Kansas",
    "description": "Offers couples massages with various options like Swedish and Deep Tissue",
    "hours": "Mon-Fri 9AM-6PM",
    "services": [
      "Bengali-speaking Couples massage in Kansas consultation",
      "Professional service",
      "Quality guarantee"
    ],
    "social_links": {}
  },
  {
    "name": "Ultimate Escape Day Spa",
    "address": "Information not available",
    "phone": "",
    "rating": 4.0,
    "reviews": 25,
    "website": "https://www.ultimateescapedayspa.com/",
    "category": "Bengali-speaking Couples massage in Kansas",
    "description": "Provides couples massages in a relaxing atmosphere, with Swedish and Swe-Deep options",
    "hours": "Mon-Fri 9AM-6PM",
    "services": [
      "Bengali-speaking Couples massage in Kansas consultation",
      "Professional service",
      "Quality guarantee"
    ],
    "social_links": {}
  },
  {
    "name": "The Health & Wellness Clinic KC",
    "address": "Information not available",
    "phone": "",
    "rating": 4.0,
    "reviews": 25,
    "website": "https://www.healthandwellnessclinic.com/",
    "category": "Bengali-speaking Couples massage in Kansas",
    "description": "Offers couples massages with customizable options including Swedish, Deep Tissue, Hot Stone, and Aromatherapy",
    "hours": "Mon-Fri 9AM-6PM",
    "services": [
      "Bengali-speaking Couples massage in Kansas consultation",
      "Professional service",
      "Quality guarantee"
    ],
    "social_links": {}
  },
  {
    "name": "Spavia Day Spa (Topeka)",
    "address": "Information not available",
    "phone": "",
    "rating": 4.0,
    "reviews": 25,
    "website": "https://www.spavia.com/topeka",
    "category": "Bengali-speaking Couples massage in Kansas",
    "description": "Offers couples massages in a couple's room, with options to upgrade to Deep Tissue, Salt Stone, and Sports Massage",
    "hours": "Mon-Fri 9AM-6PM",
    "services": [
      "Bengali-speaking Couples massage in Kansas consultation",
      "Professional service",
      "Quality guarantee"
    ],
    "social_links": {}
  },
  {
    "name": "Lifestyle Massage + Bodywork",
    "address": "Information not available",
    "phone": "(913) 942-0340",
    "rating": 4.0,
    "reviews": 25,
    "website": "https://www.lifestylemassagekc.com/",
    "category": "Bengali-speaking Couples massage in Kansas",
    "description": "Provides couples massage therapy in Kansas City, with options for relaxation, therapeutic, and deep tissue massages",
    "hours": "Mon-Fri 9AM-6PM",
    "services": [
      "Bengali-speaking Couples massage in Kansas consultation",
      "Professional service",
      "Quality guarantee"
    ],
    "social_links": {}
  },
  {
    "name": "Solaris Massage",
    "address": "Information not available",
    "phone": "",
    "rating": 4.0,
    "reviews": 25,
    "website": "https://www.solarismassage.com/",
    "category": "Bengali-speaking Couples massage in Kansas",
    "description": "Offers couples massages in Kansas City, performed in the same room with individual therapists",
    "hours": "Mon-Fri 9AM-6PM",
    "services": [
      "Bengali-speaking Couples massage in Kansas consultation",
      "Professional service",
      "Quality guarantee"
    ],
    "social_links": {}
  },
  {
    "name": "Remedy Spa",
    "address": "Information not available",
    "phone": "",
    "rating": 4.0,
    "reviews": 25,
    "website": "https://www.remedyspa.com/",
    "category": "Bengali-speaking Couples massage in Kansas",
    "description": "Offers couples spa services in Wichita, including side-by-side massage and facial packages",
    "hours": "Mon-Fri 9AM-6PM",
    "services": [
      "Bengali-speaking Couples massage in Kansas consultation",
      "Professional service",
      "Quality guarantee"
    ],
    "social_links": {}
  },
  {
    "name": "Body & Soul Therapeutic Massage",
    "address": "Hillside | Wichita, Kansas | 67214",
    "phone": "(316) 618-5789",
    "rating": 4.0,
    "reviews": 25,
    "website": "https://www.bodyandsoulwichita.com/",
    "category": "Bengali-speaking Couples massage in Kansas",
    "description": "Provides couples massages where each person receives a personalized massage from their therapist in the same room",
    "hours": "Mon-Fri 9AM-6PM",
    "services": [
      "Bengali-speaking Couples massage in Kansas consultation",
      "Professional service",
      "Quality guarantee"
    ],
    "social_links": {}
  },
  {
    "name": "Junction City Spa",
    "address": "316 E Chestnut St, Junction City, Kansas 66441, USA",
    "phone": "(785) 226-2421",
    "rating": 4.0,
    "reviews": 25,
    "website": "https://www.junctioncityspa.com/",
    "category": "Bengali-speaking Couples massage in Kansas",
    "description": "Offers expert deep tissue, body, couple, and foot massage services",
    "hours": "Mon-Fri 9AM-6PM",
    "services": [
      "Bengali-speaking Couples massage in Kansas consultation",
      "Professional service",
      "Quality guarantee"
    ],
    "social_links": {}
  },
  {
    "name": "Rock Haven Spa",
    "address": "1530 Smoky Hill River Rd, Hays, KS 67601",
    "phone": "(785) 650-0772",
    "rating": 4.0,
    "reviews": 25,
    "website": "https://www.rockhavenspa.com/",
    "category": "Bengali-speaking Couples massage in Kansas",
    "description": "Offers various couples packages including massages, spa pedicures, and facials",
    "hours": "Mon-Fri 9AM-6PM",
    "services": [
      "Bengali-speaking Couples massage in Kansas consultation",
      "Professional service",
      "Quality guarantee"
    ],
    "social_links": {}
  }
]