[
  {
    "name": "White Buffalo Bar Restaurant & Rooftop Grille",
    "address": "Mackinaw City, Michigan (Specific address not found in search results)",
    "phone": "(231) 436-6104",
    "rating": 4.0,
    "reviews": 25,
    "website": "https://www.google.com/maps/search/White+Buffalo+Bar+Restaurant+&+Rooftop+Grille+in+Michigan",
    "category": "American-Indian-owned Wine bars in Michigan",
    "description": "This restaurant features American and traditional Native American cuisine",
    "hours": "Mon-Fri 9AM-6PM",
    "services": [
      "American-Indian-owned Wine bars in Michigan consultation",
      "Professional service",
      "Quality guarantee"
    ],
    "social_links": {}
  },
  {
    "name": "Pour Michigan Wine Barn",
    "address": "(Specific address not found in search results)",
    "phone": "(616) 799-5948",
    "rating": 4.0,
    "reviews": 25,
    "website": "https://www.google.com/maps/search/Pour+Michigan+Wine+Barn+in+Michigan",
    "category": "American-Indian-owned Wine bars in Michigan",
    "description": "Specializes in Michigan wine and cider, with self-serve wine machines and events",
    "hours": "Mon-Fri 9AM-6PM",
    "services": [
      "American-Indian-owned Wine bars in Michigan consultation",
      "Professional service",
      "Quality guarantee"
    ],
    "social_links": {}
  },
  {
    "name": "Round Barn Winery & Estate",
    "address": "10983 Hills Road, Baroda, MI 49101",
    "phone": "(269) 422-1200 (General contact number found for Moersch Hospitality Group)",
    "rating": 4.0,
    "reviews": 25,
    "website": "https://www.roundbarn.com/",
    "category": "American-Indian-owned Wine bars in Michigan",
    "description": "Offers wine tastings, spirits, craft beers, and events in a picturesque vineyard setting",
    "hours": "Mon-Fri 9AM-6PM",
    "services": [
      "American-Indian-owned Wine bars in Michigan consultation",
      "Professional service",
      "Quality guarantee"
    ],
    "social_links": {}
  },
  {
    "name": "Tabor Hill Winery",
    "address": "(Specific address not found in search results, but located in Michigan's wine country)",
    "phone": "(269) 422-1200 (General contact number found for Moersch Hospitality Group)",
    "rating": 4.0,
    "reviews": 25,
    "website": "https://www.taborhill.com/",
    "category": "American-Indian-owned Wine bars in Michigan",
    "description": "A premier destination for wine, food, and celebrations, with a winery and restaurant",
    "hours": "Mon-Fri 9AM-6PM",
    "services": [
      "American-Indian-owned Wine bars in Michigan consultation",
      "Professional service",
      "Quality guarantee"
    ],
    "social_links": {}
  },
  {
    "name": "Michigan By The Bottle",
    "address": "Multiple tasting room locations in Michigan (Specific addresses not found in search results)",
    "phone": "(586) 884-4200 (General contact number found)",
    "rating": 4.0,
    "reviews": 25,
    "website": "https://michiganbythebottle.com/",
    "category": "American-Indian-owned Wine bars in Michigan",
    "description": "Showcases 100% Pure Michigan wines from various local wineries",
    "hours": "Mon-Fri 9AM-6PM",
    "services": [
      "American-Indian-owned Wine bars in Michigan consultation",
      "Professional service",
      "Quality guarantee"
    ],
    "social_links": {}
  },
  {
    "name": "Beviamo Vino",
    "address": "414 Shelden Avenue, Houghton, Michigan 49931",
    "phone": "(906) 482-9463",
    "rating": 4.0,
    "reviews": 25,
    "website": "https://www.beviamovino.com/",
    "category": "American-Indian-owned Wine bars in Michigan",
    "description": "A wine bar offering wine, specialty cocktails, and small bites in a relaxing environment",
    "hours": "Mon-Fri 9AM-6PM",
    "services": [
      "American-Indian-owned Wine bars in Michigan consultation",
      "Professional service",
      "Quality guarantee"
    ],
    "social_links": {}
  },
  {
    "name": "Soaring Eagle Casino And Resort",
    "address": "6339 E Remus Rd, Mt Pleasant, MI 48858",
    "phone": "(888) 732-4537",
    "rating": 4.0,
    "reviews": 25,
    "website": "https://www.soaringeaglecasino.com/",
    "category": "American-Indian-owned Wine bars in Michigan",
    "description": "While primarily a casino, it features dining options like Siniikaung Bistro which may offer wine",
    "hours": "Mon-Fri 9AM-6PM",
    "services": [
      "American-Indian-owned Wine bars in Michigan consultation",
      "Professional service",
      "Quality guarantee"
    ],
    "social_links": {}
  }
]