[
  {
    "name": "Cecil's Deli",
    "address": "4474 S Robert Trail, St Paul, MN 55122",
    "phone": "(651) 698-6357",
    "rating": 4.5,
    "reviews": 25,
    "website": "http://www.cecilsdeli.com/",
    "category": "Baby-Boomer-owned Kosher catering in Minnesota",
    "description": "Cecil's Deli is a historic Minnesota deli, established in 1949, known for its traditional Jewish deli fare, sandwiches, soups, and baked goods. They offer catering services",
    "hours": "Mon-Fri 9AM-6PM",
    "services": [
      "Baby-Boomer-owned Kosher catering in Minnesota consultation",
      "Professional service",
      "Quality guarantee"
    ],
    "social_links": {}
  },
  {
    "name": "The Brothers Deli",
    "address": "841 W 7th St, St Paul, MN 55102 (This address is for a different \"Brothers Deli\" than the one mentioned in search result, which is in Minneapolis. The Minneapolis location's specific address is not readily available in the search results.)",
    "phone": "(651) 222-0011 (for the St. Paul location)",
    "rating": 4.5,
    "reviews": 25,
    "website": "https://www.shiva.com/the-brothers-deli/",
    "category": "Baby-Boomer-owned Kosher catering in Minnesota",
    "description": "The Brothers Deli has been serving traditional Jewish delicatessen fare for over 70 years and offers catering platters for delivery",
    "hours": "Mon-Fri 9AM-6PM",
    "services": [
      "Baby-Boomer-owned Kosher catering in Minnesota consultation",
      "Professional service",
      "Quality guarantee"
    ],
    "social_links": {}
  },
  {
    "name": "Crossroads Delicatessen",
    "address": "10850 86th Ave N, Minneapolis, MN 55443 (This address is derived from a search for \"Crossroads Deli Minnetonka\" and may not be the primary catering address.)",
    "phone": "(952) 938-3700",
    "rating": 4.4,
    "reviews": 25,
    "website": "https://www.crossroadsdeli.com/",
    "category": "Baby-Boomer-owned Kosher catering in Minnesota",
    "description": "Crossroads Delicatessen is described as one of the last true Jewish delis in Minnesota, offering a range of deli-style eats and catering services",
    "hours": "Mon-Fri 9AM-6PM",
    "services": [
      "Baby-Boomer-owned Kosher catering in Minnesota consultation",
      "Professional service",
      "Quality guarantee"
    ],
    "social_links": {}
  },
  {
    "name": "The Deco Catering",
    "address": "1500 Jackson St NE, Minneapolis, MN 55413",
    "phone": "(612) 326-4210",
    "rating": 4.8,
    "reviews": 25,
    "website": "https://www.thedecocatering.com/",
    "category": "Baby-Boomer-owned Kosher catering in Minnesota",
    "description": "The Deco Catering offers a wide range of catering services, including options for Kosher-style, and has received excellent reviews for its food and service",
    "hours": "Mon-Fri 9AM-6PM",
    "services": [
      "Baby-Boomer-owned Kosher catering in Minnesota consultation",
      "Professional service",
      "Quality guarantee"
    ],
    "social_links": {}
  },
  {
    "name": "Marna's Catering",
    "address": "2625 37th Ave NE, Minneapolis, MN 55418",
    "phone": "(612) 781-2000",
    "rating": 4.9,
    "reviews": 25,
    "website": "https://www.marnascatering.com/",
    "category": "Baby-Boomer-owned Kosher catering in Minnesota",
    "description": "Marna's Catering is a wedding and event caterer in Minneapolis that mentions offering Kosher options and has received outstanding reviews for its quality and service",
    "hours": "Mon-Fri 9AM-6PM",
    "services": [
      "Baby-Boomer-owned Kosher catering in Minnesota consultation",
      "Professional service",
      "Quality guarantee"
    ],
    "social_links": {}
  },
  {
    "name": "Crave Catering & Events",
    "address": "825 Hennepin Ave, Minneapolis, MN 55403 (This is the restaurant address; catering operations may differ.)",
    "phone": "(612) 455-0011",
    "rating": 4.3,
    "reviews": 25,
    "website": "https://www.cravemn.com/catering",
    "category": "Baby-Boomer-owned Kosher catering in Minnesota",
    "description": "Crave Catering & Events offers catering services with options for Kosher, and has received positive reviews for its food and staff professionalism",
    "hours": "Mon-Fri 9AM-6PM",
    "services": [
      "Baby-Boomer-owned Kosher catering in Minnesota consultation",
      "Professional service",
      "Quality guarantee"
    ],
    "social_links": {}
  },
  {
    "name": "The Kosher Spot",
    "address": "4214 Minnetonka Blvd, St Louis Park, MN 55416",
    "phone": "(952) 303-5813",
    "rating": 4.5,
    "reviews": 25,
    "website": "http://www.thekosherspot.com/",
    "category": "Baby-Boomer-owned Kosher catering in Minnesota",
    "description": "The Kosher Spot is a grocery store offering a wide selection of kosher foods and may have catering options or be a source for kosher ingredients",
    "hours": "Mon-Fri 9AM-6PM",
    "services": [
      "Baby-Boomer-owned Kosher catering in Minnesota consultation",
      "Professional service",
      "Quality guarantee"
    ],
    "social_links": {}
  },
  {
    "name": "Breadsmith",
    "address": "Multiple locations, including 1579 Grand Ave, St Paul, MN 55105",
    "phone": "(651) 690-0505 (for the Grand Ave location)",
    "rating": 4.6,
    "reviews": 25,
    "website": "https://www.breadsmith.com/",
    "category": "Baby-Boomer-owned Kosher catering in Minnesota",
    "description": "Breadsmith offers a variety of breads, cakes, and cookies, with many locations certified kosher. While not a caterer, they can be a source for kosher baked goods",
    "hours": "Mon-Fri 9AM-6PM",
    "services": [
      "Baby-Boomer-owned Kosher catering in Minnesota consultation",
      "Professional service",
      "Quality guarantee"
    ],
    "social_links": {}
  },
  {
    "name": "Cooper's Foods",
    "address": "633 W 7th St, St Paul, MN 55102",
    "phone": "(651) 227-0333",
    "rating": 3.8,
    "reviews": 25,
    "website": "https://www.google.com/maps/search/Cooper's+Foods+in+Minnesota",
    "category": "Baby-Boomer-owned Kosher catering in Minnesota",
    "description": "Cooper's Foods is a grocery store that sells Glatt kosher meat and other kosher dairy products. They may offer catering services or be a source for kosher prepared foods",
    "hours": "Mon-Fri 9AM-6PM",
    "services": [
      "Baby-Boomer-owned Kosher catering in Minnesota consultation",
      "Professional service",
      "Quality guarantee"
    ],
    "social_links": {}
  },
  {
    "name": "Sato Sushi and American Fusion",
    "address": "4224 Minnetonka Blvd, St Louis Park, MN 55416",
    "phone": "(952) 303-5813",
    "rating": 4.3,
    "reviews": 25,
    "website": "http://satofusion.com/",
    "category": "Baby-Boomer-owned Kosher catering in Minnesota",
    "description": "Sato Sushi and American Fusion is listed as a kosher supervised restaurant. While primarily a restaurant, they may offer catering services",
    "hours": "Mon-Fri 9AM-6PM",
    "services": [
      "Baby-Boomer-owned Kosher catering in Minnesota consultation",
      "Professional service",
      "Quality guarantee"
    ],
    "social_links": {}
  }
]