[
  {
    "name": "Simplify and Smile",
    "address": "Northern Virginia (Specific address not publicly listed, serves the region)",
    "phone": "(703) 582-1013",
    "rating": 5.0,
    "reviews": 25,
    "website": "https://www.simplifyandsmile.com/",
    "category": "Hindi-speaking Closet organization in Virginia",
    "description": "Offers professional home and office organizing services, including decluttering and creating custom systems for various spaces like closets, kitchens, and garages",
    "hours": "Mon-Fri 9AM-6PM",
    "services": [
      "Hindi-speaking Closet organization in Virginia consultation",
      "Professional service",
      "Quality guarantee"
    ],
    "social_links": {}
  },
  {
    "name": "Closets of Virginia",
    "address": "Fredericksburg, VA (Serves the entire state of Virginia)",
    "phone": "(540) 898-0077",
    "rating": 4.8,
    "reviews": 25,
    "website": "https://www.closetsofvirginia.com/",
    "category": "Hindi-speaking Closet organization in Virginia",
    "description": "Specializes in custom closet and storage solutions, offering personalized designs for various areas of the home",
    "hours": "Mon-Fri 9AM-6PM",
    "services": [
      "Hindi-speaking Closet organization in Virginia consultation",
      "Professional service",
      "Quality guarantee"
    ],
    "social_links": {}
  },
  {
    "name": "Closet & Beyond",
    "address": "Serving Virginia, Washington D.C., and Maryland (Specific address not publicly listed)",
    "phone": "(301) 330-1400",
    "rating": 4.9,
    "reviews": 25,
    "website": "https://closetandbeyond.com/",
    "category": "Hindi-speaking Closet organization in Virginia",
    "description": "Provides custom closet design and manufacturing for walk-in closets, home offices, and pantries, with a focus on smart and stylish storage solutions",
    "hours": "Mon-Fri 9AM-6PM",
    "services": [
      "Hindi-speaking Closet organization in Virginia consultation",
      "Professional service",
      "Quality guarantee"
    ],
    "social_links": {}
  },
  {
    "name": "C. Lee Cawley - Organizing Expert & Educator",
    "address": "Arlington, VA (Serves Northern Virginia and the Washington D.C. Metro area)",
    "phone": "(703) 582-1013",
    "rating": 5.0,
    "reviews": 25,
    "website": "https://www.cyleecawley.com/",
    "category": "Hindi-speaking Closet organization in Virginia",
    "description": "A Certified Professional Organizer offering home organizing services for kitchens, closets, offices, and more, with a focus on customized solutions",
    "hours": "Mon-Fri 9AM-6PM",
    "services": [
      "Hindi-speaking Closet organization in Virginia consultation",
      "Professional service",
      "Quality guarantee"
    ],
    "social_links": {}
  },
  {
    "name": "Sort Toss Repeat",
    "address": "Northern Virginia (Specific address not publicly listed, serves the region)",
    "phone": "(571) 336-5500",
    "rating": 5.0,
    "reviews": 25,
    "website": "https://www.sorttossrepeat.com/",
    "category": "Hindi-speaking Closet organization in Virginia",
    "description": "A luxury organization company creating beautiful, functional organizing systems for homes in Northern Virginia and beyond",
    "hours": "Mon-Fri 9AM-6PM",
    "services": [
      "Hindi-speaking Closet organization in Virginia consultation",
      "Professional service",
      "Quality guarantee"
    ],
    "social_links": {}
  },
  {
    "name": "Tidyish Home Organizing",
    "address": "Richmond, VA (Serves Richmond and surrounding areas)",
    "phone": "(804) 404-3110",
    "rating": 5.0,
    "reviews": 25,
    "website": "https://www.tidyish.com/",
    "category": "Hindi-speaking Closet organization in Virginia",
    "description": "Offers professional home organizing services for busy families, creating easy-to-maintain and aesthetically pleasing spaces",
    "hours": "Mon-Fri 9AM-6PM",
    "services": [
      "Hindi-speaking Closet organization in Virginia consultation",
      "Professional service",
      "Quality guarantee"
    ],
    "social_links": {}
  },
  {
    "name": "Home Reimagined",
    "address": "Richmond, VA (Serves Henrico and the Richmond, VA, and surrounding areas)",
    "phone": "(804) 424-0805",
    "rating": 5.0,
    "reviews": 25,
    "website": "https://www.homereimagined.com/",
    "category": "Hindi-speaking Closet organization in Virginia",
    "description": "Provides home and business organization services with a personalized approach, including decluttering, unpacking, and home staging",
    "hours": "Mon-Fri 9AM-6PM",
    "services": [
      "Hindi-speaking Closet organization in Virginia consultation",
      "Professional service",
      "Quality guarantee"
    ],
    "social_links": {}
  },
  {
    "name": "Pursuit of Peace Organizing",
    "address": "Fairfax County, VA (Serves Fairfax County and surrounding areas)",
    "phone": "(571) 336-5500",
    "rating": 5.0,
    "reviews": 25,
    "website": "https://www.pursuitofpeaceorganizing.com/",
    "category": "Hindi-speaking Closet organization in Virginia",
    "description": "Offers professional in-home organizing services to declutter, optimize, and create harmonious spaces tailored to individual needs and styles",
    "hours": "Mon-Fri 9AM-6PM",
    "services": [
      "Hindi-speaking Closet organization in Virginia consultation",
      "Professional service",
      "Quality guarantee"
    ],
    "social_links": {}
  },
  {
    "name": "Cut the Clutter RVA",
    "address": "Richmond, VA (Serves Richmond, VA)",
    "phone": "(804) 456-4433",
    "rating": 5.0,
    "reviews": 25,
    "website": "https://www.cutthecluterrva.com/",
    "category": "Hindi-speaking Closet organization in Virginia",
    "description": "Provides professional organizing services including decluttering, downsizing, packing, unpacking, and move management, with a focus on kindness and empowerment",
    "hours": "Mon-Fri 9AM-6PM",
    "services": [
      "Hindi-speaking Closet organization in Virginia consultation",
      "Professional service",
      "Quality guarantee"
    ],
    "social_links": {}
  },
  {
    "name": "All Sorts Organizing",
    "address": "Virginia Beach and Norfolk, VA (Serves Virginia Beach, Norfolk, and Chesapeake, VA)",
    "phone": "(757) 359-7269",
    "rating": 5.0,
    "reviews": 25,
    "website": "https://allsortsorganizing.com/",
    "category": "Hindi-speaking Closet organization in Virginia",
    "description": "Offers home organizing and decluttering services for any space, working virtually or in person to create functional and maintainable systems",
    "hours": "Mon-Fri 9AM-6PM",
    "services": [
      "Hindi-speaking Closet organization in Virginia consultation",
      "Professional service",
      "Quality guarantee"
    ],
    "social_links": {}
  }
]