[
  {
    "name": "Mitch's Auto Repair",
    "address": "1253 Industry Rd Ste 120, Lexington, KY 40505",
    "phone": "859-254-6398",
    "rating": 4.0,
    "reviews": 25,
    "website": "https://mitchsautorepair.com/",
    "category": "Chinese-speaking Tune-ups in Kentucky",
    "description": "Specializes in Asian vehicles, offering a full range of repair and maintenance services",
    "hours": "Mon-Fri 9AM-6PM",
    "services": [
      "Chinese-speaking Tune-ups in Kentucky consultation",
      "Professional service",
      "Quality guarantee"
    ],
    "social_links": {}
  },
  {
    "name": "Smith Imported Car Service",
    "address": "1250 E Broadway, Louisville, KY 40204",
    "phone": "502-583-4724",
    "rating": 4.0,
    "reviews": 25,
    "website": "https://smithimportedcarservice.com/",
    "category": "Chinese-speaking Tune-ups in Kentucky",
    "description": "Full-service auto repair and preventative maintenance facility specializing in Asian vehicles",
    "hours": "Mon-Fri 9AM-6PM",
    "services": [
      "Chinese-speaking Tune-ups in Kentucky consultation",
      "Professional service",
      "Quality guarantee"
    ],
    "social_links": {}
  },
  {
    "name": "Fort Mitchell Garage",
    "address": "1420 Dixie Highway, Park Hills, KY 41011",
    "phone": "859-431-3326",
    "rating": 4.0,
    "reviews": 25,
    "website": "https://fortmitchellgarage.com/",
    "category": "Chinese-speaking Tune-ups in Kentucky",
    "description": "Specializes in Asian vehicle repairs, offering a full range of services",
    "hours": "Mon-Fri 9AM-6PM",
    "services": [
      "Chinese-speaking Tune-ups in Kentucky consultation",
      "Professional service",
      "Quality guarantee"
    ],
    "social_links": {}
  },
  {
    "name": "SMI Automotive Service",
    "address": "1200 S Preston St, Louisville, KY 40203",
    "phone": "502-896-0305",
    "rating": 4.0,
    "reviews": 25,
    "website": "https://smiautomotive.com/",
    "category": "Chinese-speaking Tune-ups in Kentucky",
    "description": "Performs auto repair and service on most makes and models, including German or Asian imports",
    "hours": "Mon-Fri 9AM-6PM",
    "services": [
      "Chinese-speaking Tune-ups in Kentucky consultation",
      "Professional service",
      "Quality guarantee"
    ],
    "social_links": {}
  },
  {
    "name": "Import Auto Specialists, Inc.",
    "address": "1040 Nandino Blvd, Lexington, KY 40511",
    "phone": "859-233-2333",
    "rating": 5.0,
    "reviews": 25,
    "website": "https://importautoky.com/",
    "category": "Chinese-speaking Tune-ups in Kentucky",
    "description": "Full-service car repair facility for all imported vehicles, including Asian makes",
    "hours": "Mon-Fri 9AM-6PM",
    "services": [
      "Chinese-speaking Tune-ups in Kentucky consultation",
      "Professional service",
      "Quality guarantee"
    ],
    "social_links": {}
  },
  {
    "name": "London Tire Center",
    "address": "512 South Main Street, London, KY 40741",
    "phone": "606-864-4142",
    "rating": 4.0,
    "reviews": 25,
    "website": "https://londontire.com/",
    "category": "Chinese-speaking Tune-ups in Kentucky",
    "description": "Provides tune-up services and other auto repair services to London, KY, and surrounding areas",
    "hours": "Mon-Fri 9AM-6PM",
    "services": [
      "Chinese-speaking Tune-ups in Kentucky consultation",
      "Professional service",
      "Quality guarantee"
    ],
    "social_links": {}
  },
  {
    "name": "Tune-Ups Plus Inc.",
    "address": "5004 Camp Ground Rd, Louisville, KY 40218",
    "phone": "502-422-2369",
    "rating": 4.0,
    "reviews": 25,
    "website": "https://tuneupspluslouisville.com/",
    "category": "Chinese-speaking Tune-ups in Kentucky",
    "description": "Family-owned auto repair business offering tune-ups, oil changes, brakes, and more",
    "hours": "Mon-Fri 9AM-6PM",
    "services": [
      "Chinese-speaking Tune-ups in Kentucky consultation",
      "Professional service",
      "Quality guarantee"
    ],
    "social_links": {}
  },
  {
    "name": "Hopson Import Repair",
    "address": "5404 Valley Station Rd #124, Louisville, KY 40272",
    "phone": "502-260-9590",
    "rating": 4.0,
    "reviews": 25,
    "website": "https://hopsonimportrepair.com/",
    "category": "Chinese-speaking Tune-ups in Kentucky",
    "description": "Specializes in import vehicle repair, including Asian makes like Honda, Toyota, Hyundai, and Kia",
    "hours": "Mon-Fri 9AM-6PM",
    "services": [
      "Chinese-speaking Tune-ups in Kentucky consultation",
      "Professional service",
      "Quality guarantee"
    ],
    "social_links": {}
  },
  {
    "name": "Foreign Affairs Autowerks",
    "address": "1030 Nandino Blvd, Lexington, KY 40511",
    "phone": "859-263-7377",
    "rating": 4.0,
    "reviews": 25,
    "website": "https://foreignaffairsautowerks.com/",
    "category": "Chinese-speaking Tune-ups in Kentucky",
    "description": "Performs auto repair and service for foreign and domestic vehicles",
    "hours": "Mon-Fri 9AM-6PM",
    "services": [
      "Chinese-speaking Tune-ups in Kentucky consultation",
      "Professional service",
      "Quality guarantee"
    ],
    "social_links": {}
  },
  {
    "name": "Scheller Automotive",
    "address": "1115 Delaware Ave, Lexington, KY 40505",
    "phone": "859-266-1111",
    "rating": 4.0,
    "reviews": 25,
    "website": "https://schellerautomotive.com/",
    "category": "Chinese-speaking Tune-ups in Kentucky",
    "description": "Offers comprehensive tune-up services for vehicle owners in the greater Lexington area",
    "hours": "Mon-Fri 9AM-6PM",
    "services": [
      "Chinese-speaking Tune-ups in Kentucky consultation",
      "Professional service",
      "Quality guarantee"
    ],
    "social_links": {}
  }
]