[
  {
    "name": "Mingwei Yan PLLC",
    "address": "455 E Eisenhower Pkwy Suite 300, Ann Arbor, MI 48108",
    "phone": "(734) 202-7277",
    "rating": 4.0,
    "reviews": 25,
    "website": "http://www.mingweiyan.com/",
    "category": "Asian-owned Privacy policy creation in Michigan",
    "description": "This law firm, led by attorney Mingwei Yan, offers services in business law, contracts, and other civil matters, which may include privacy policy drafting",
    "hours": "Mon-Fri 9AM-6PM",
    "services": [
      "Asian-owned Privacy policy creation in Michigan consultation",
      "Professional service",
      "Quality guarantee"
    ],
    "social_links": {}
  },
  {
    "name": "Principled Consulting",
    "address": "3526 Springbrook Lane, Lansing MI 48917",
    "phone": "(517) 282-3307",
    "rating": 4.0,
    "reviews": 25,
    "website": "https://www.principledconsulting.com/",
    "category": "Asian-owned Privacy policy creation in Michigan",
    "description": "This consulting business specializes in compliance across various sectors, which could encompass privacy regulations",
    "hours": "Mon-Fri 9AM-6PM",
    "services": [
      "Asian-owned Privacy policy creation in Michigan consultation",
      "Professional service",
      "Quality guarantee"
    ],
    "social_links": {}
  },
  {
    "name": "Synergy Computer Solutions, Inc.",
    "address": "30700 Telegraph Road Suite 2615, Bingham Farms MI 48025",
    "phone": "(248) 723-5100",
    "rating": 4.0,
    "reviews": 25,
    "website": "https://www.synergycs.com/",
    "category": "Asian-owned Privacy policy creation in Michigan",
    "description": "As an IT services provider, they may offer compliance solutions that include privacy policy development",
    "hours": "Mon-Fri 9AM-6PM",
    "services": [
      "Asian-owned Privacy policy creation in Michigan consultation",
      "Professional service",
      "Quality guarantee"
    ],
    "social_links": {}
  },
  {
    "name": "Logic Solutions, Inc.",
    "address": "2350 Green Rd, Ste 180, Ann Arbor MI 48105",
    "phone": "(734) 930-0009",
    "rating": 4.0,
    "reviews": 25,
    "website": "https://www.logicsolutions.com/",
    "category": "Asian-owned Privacy policy creation in Michigan",
    "description": "This company provides IT services and solutions, which could extend to compliance and policy creation",
    "hours": "Mon-Fri 9AM-6PM",
    "services": [
      "Asian-owned Privacy policy creation in Michigan consultation",
      "Professional service",
      "Quality guarantee"
    ],
    "social_links": {}
  },
  {
    "name": "Computek Solutions, Inc.",
    "address": "38345 W 10 Mile Road, Suite 145, Farmington Hills MI 48335",
    "phone": "(732) 993-4668",
    "rating": 4.0,
    "reviews": 25,
    "website": "https://computeksolutions.com/",
    "category": "Asian-owned Privacy policy creation in Michigan",
    "description": "This IT solutions provider may offer services related to data security and compliance",
    "hours": "Mon-Fri 9AM-6PM",
    "services": [
      "Asian-owned Privacy policy creation in Michigan consultation",
      "Professional service",
      "Quality guarantee"
    ],
    "social_links": {}
  },
  {
    "name": "The ReVamp",
    "address": "32332 Hawthorne Drive, Warren MI 48092",
    "phone": "(313) 447-9676",
    "rating": 4.0,
    "reviews": 25,
    "website": "https://www.therevamp.co/",
    "category": "Asian-owned Privacy policy creation in Michigan",
    "description": "While their focus is on branding and design, they may offer services that include website policy creation as part of a comprehensive package",
    "hours": "Mon-Fri 9AM-6PM",
    "services": [
      "Asian-owned Privacy policy creation in Michigan consultation",
      "Professional service",
      "Quality guarantee"
    ],
    "social_links": {}
  },
  {
    "name": "LYH CPA and Associates",
    "address": "321 N Center St, Suite 200, Northville MI 48167",
    "phone": "(734) 637-6094",
    "rating": 4.0,
    "reviews": 25,
    "website": "https://www.lyhcpa.com/",
    "category": "Asian-owned Privacy policy creation in Michigan",
    "description": "As a CPA firm, they may offer business consulting services that include compliance and policy review",
    "hours": "Mon-Fri 9AM-6PM",
    "services": [
      "Asian-owned Privacy policy creation in Michigan consultation",
      "Professional service",
      "Quality guarantee"
    ],
    "social_links": {}
  },
  {
    "name": "SAI ANN International Inc.",
    "address": "34119 W Twelve Mile Road, Suite 200, Farmington Hills, MI 48331",
    "phone": "(248) 324-1604",
    "rating": 4.0,
    "reviews": 25,
    "website": "https://sai-ann.com/",
    "category": "Asian-owned Privacy policy creation in Michigan",
    "description": "This IT professional services company offers business solutions and project management, which could include policy development related to IT compliance",
    "hours": "Mon-Fri 9AM-6PM",
    "services": [
      "Asian-owned Privacy policy creation in Michigan consultation",
      "Professional service",
      "Quality guarantee"
    ],
    "social_links": {}
  },
  {
    "name": "Dexian",
    "address": "34119 W Twelve Mile Road, Suite 200, Farmington Hills, MI 48331",
    "phone": "(248) 324-1604",
    "rating": 4.0,
    "reviews": 25,
    "website": "https://www.dexian.com/",
    "category": "Asian-owned Privacy policy creation in Michigan",
    "description": "Dexian is a minority-owned business enterprise offering IT staffing, recruitment, and consulting solutions, which may encompass compliance services",
    "hours": "Mon-Fri 9AM-6PM",
    "services": [
      "Asian-owned Privacy policy creation in Michigan consultation",
      "Professional service",
      "Quality guarantee"
    ],
    "social_links": {}
  },
  {
    "name": "Convergence Networks",
    "address": "1305 S Washington Ave #102, Lansing, MI 48910",
    "phone": "(517) 676-6633",
    "rating": 4.0,
    "reviews": 25,
    "website": "https://www.convergencenetworks.com/",
    "category": "Asian-owned Privacy policy creation in Michigan",
    "description": "This company provides IT compliance services, including support for various frameworks, which could include privacy policy development",
    "hours": "Mon-Fri 9AM-6PM",
    "services": [
      "Asian-owned Privacy policy creation in Michigan consultation",
      "Professional service",
      "Quality guarantee"
    ],
    "social_links": {}
  }
]