[
  {
    "name": "All Ways International Shipping & CHB, Inc.",
    "address": "6610 Tributary Street, Suite 102, Baltimore, MD 21224",
    "phone": "(410) 631-1860",
    "rating": 4.0,
    "reviews": 25,
    "website": "http://www.allwaysintl.com/",
    "category": "Asian-owned Customs assistance in Maryland",
    "description": "Licensed U.S. Customs Broker and CTPAT certified, offering customs consulting, ISF filing, and importing automobiles",
    "hours": "Mon-Fri 9AM-6PM",
    "services": [
      "Asian-owned Customs assistance in Maryland consultation",
      "Professional service",
      "Quality guarantee"
    ],
    "social_links": {}
  },
  {
    "name": "C J International, INC.",
    "address": "Baltimore, Maryland",
    "phone": "",
    "rating": 4.0,
    "reviews": 25,
    "website": "https://www.google.com/maps/search/C+J+International,+INC.+in+Maryland",
    "category": "Asian-owned Customs assistance in Maryland",
    "description": "Offers customs brokerage, air and ocean freight transportation, and warehousing",
    "hours": "Mon-Fri 9AM-6PM",
    "services": [
      "Asian-owned Customs assistance in Maryland consultation",
      "Professional service",
      "Quality guarantee"
    ],
    "social_links": {}
  },
  {
    "name": "Icat Customs Brokerage, INC.",
    "address": "Elkridge, Maryland",
    "phone": "800-572-1324",
    "rating": 4.0,
    "reviews": 25,
    "website": "https://www.google.com/maps/search/Icat+Customs+Brokerage,+INC.+in+Maryland",
    "category": "Asian-owned Customs assistance in Maryland",
    "description": "Provides customs brokerage services",
    "hours": "Mon-Fri 9AM-6PM",
    "services": [
      "Asian-owned Customs assistance in Maryland consultation",
      "Professional service",
      "Quality guarantee"
    ],
    "social_links": {}
  },
  {
    "name": "Import Systems International, LLC.",
    "address": "Baltimore, Maryland",
    "phone": "410-327-4860",
    "rating": 4.0,
    "reviews": 25,
    "website": "https://www.google.com/maps/search/Import+Systems+International,+LLC.+in+Maryland",
    "category": "Asian-owned Customs assistance in Maryland",
    "description": "Offers customs brokerage services",
    "hours": "Mon-Fri 9AM-6PM",
    "services": [
      "Asian-owned Customs assistance in Maryland consultation",
      "Professional service",
      "Quality guarantee"
    ],
    "social_links": {}
  },
  {
    "name": "John S. Connor, INC.",
    "address": "Glen Burnie, Maryland",
    "phone": "",
    "rating": 4.0,
    "reviews": 25,
    "website": "https://www.google.com/maps/search/John+S.+Connor,+INC.+in+Maryland",
    "category": "Asian-owned Customs assistance in Maryland",
    "description": "A customs broker and freight forwarder",
    "hours": "Mon-Fri 9AM-6PM",
    "services": [
      "Asian-owned Customs assistance in Maryland consultation",
      "Professional service",
      "Quality guarantee"
    ],
    "social_links": {}
  },
  {
    "name": "Nankai Transport International USA Inc.",
    "address": "18720 Crenshaw Blvd., Torrance, CA 90504 (Main Office, Maryland operations not specified)",
    "phone": "1-877-NANKAI-U (SA)",
    "rating": 4.0,
    "reviews": 25,
    "website": "https://www.google.com/maps/search/Nankai+Transport+International+USA+Inc.+in+Maryland",
    "category": "Asian-owned Customs assistance in Maryland",
    "description": "Offers U.S. Customs clearance, formal entry clearance, FDA/USDA processing, and duty drawbacks",
    "hours": "Mon-Fri 9AM-6PM",
    "services": [
      "Asian-owned Customs assistance in Maryland consultation",
      "Professional service",
      "Quality guarantee"
    ],
    "social_links": {}
  },
  {
    "name": "Shapiro",
    "address": "Baltimore, Maryland 21230",
    "phone": "(410) 539-0540 / (800) 695-9465",
    "rating": 4.0,
    "reviews": 25,
    "website": "https://www.google.com/maps/search/Shapiro+in+Maryland",
    "category": "Asian-owned Customs assistance in Maryland",
    "description": "Provides customs clearance and brokerage services since 1915, with advisory and audit services",
    "hours": "Mon-Fri 9AM-6PM",
    "services": [
      "Asian-owned Customs assistance in Maryland consultation",
      "Professional service",
      "Quality guarantee"
    ],
    "social_links": {}
  },
  {
    "name": "AFP Global Logistics",
    "address": "806 Cromwell Park Drive, Suite K, Glen Burnie, MD 21061",
    "phone": "+1 800 776-4248",
    "rating": 4.0,
    "reviews": 25,
    "website": "https://www.afg.com/",
    "category": "Asian-owned Customs assistance in Maryland",
    "description": "Offers comprehensive end-to-end freight forwarding services, including customs clearance",
    "hours": "Mon-Fri 9AM-6PM",
    "services": [
      "Asian-owned Customs assistance in Maryland consultation",
      "Professional service",
      "Quality guarantee"
    ],
    "social_links": {}
  },
  {
    "name": "EMO TRANS GLOBAL LOGISTICS",
    "address": "9881 BROKEN LAND PARKWAY, SUITE 301, COLUMBIA, MD 21046",
    "phone": "(410) 590-9640",
    "rating": 4.0,
    "reviews": 25,
    "website": "https://www.google.com/maps/search/EMO+TRANS+GLOBAL+LOGISTICS+in+Maryland",
    "category": "Asian-owned Customs assistance in Maryland",
    "description": "Provides global logistics and freight forwarding services",
    "hours": "Mon-Fri 9AM-6PM",
    "services": [
      "Asian-owned Customs assistance in Maryland consultation",
      "Professional service",
      "Quality guarantee"
    ],
    "social_links": {}
  },
  {
    "name": "Expeditors International",
    "address": "510 MCCORMICK DR STES K-N, GLEN BURNIE MD 21061-8283",
    "phone": "(410) 768-6627",
    "rating": 4.0,
    "reviews": 25,
    "website": "https://www.google.com/maps/search/Expeditors+International+in+Maryland",
    "category": "Asian-owned Customs assistance in Maryland",
    "description": "Offers customs brokerage and freight forwarding services",
    "hours": "Mon-Fri 9AM-6PM",
    "services": [
      "Asian-owned Customs assistance in Maryland consultation",
      "Professional service",
      "Quality guarantee"
    ],
    "social_links": {}
  }
]