[
  {
    "name": "ipHouse",
    "address": "100 N. Washington Ave., Suite 200, Minneapolis, MN 55401",
    "phone": "(612) 355-2000",
    "rating": 4.0,
    "reviews": 25,
    "website": "https://iphouse.com/",
    "category": "Chinese-speaking Website hosting in Minnesota",
    "description": "Provides internet services and solutions, including website hosting, cloud services, and network connectivity",
    "hours": "Mon-Fri 9AM-6PM",
    "services": [
      "Chinese-speaking Website hosting in Minnesota consultation",
      "Professional service",
      "Quality guarantee"
    ],
    "social_links": {}
  },
  {
    "name": "SEO what.com Inc.",
    "address": "1000 3rd Ave SE, Mankato, MN 56001",
    "phone": "(507) 387-2000",
    "rating": 4.0,
    "reviews": 25,
    "website": "https://www.seowhat.com/",
    "category": "Chinese-speaking Website hosting in Minnesota",
    "description": "Offers domain registration, website hosting, email services, and website security solutions",
    "hours": "Mon-Fri 9AM-6PM",
    "services": [
      "Chinese-speaking Website hosting in Minnesota consultation",
      "Professional service",
      "Quality guarantee"
    ],
    "social_links": {}
  },
  {
    "name": "CloudExis LLC",
    "address": "1685 N. Rice Street, Maplewood, MN 55117",
    "phone": "(651) 354-1111",
    "rating": 4.0,
    "reviews": 25,
    "website": "https://cloudexis.net/",
    "category": "Chinese-speaking Website hosting in Minnesota",
    "description": "A Minnesota-based hosting company providing high-quality hosting services with features like easy-to-use web page editors and NVMe SSD drives",
    "hours": "Mon-Fri 9AM-6PM",
    "services": [
      "Chinese-speaking Website hosting in Minnesota consultation",
      "Professional service",
      "Quality guarantee"
    ],
    "social_links": {}
  },
  {
    "name": "Hosting Minnesota Web (Skinny Hosting\u2122)",
    "address": "Information not available",
    "phone": "",
    "rating": 4.0,
    "reviews": 25,
    "website": "https://www.hostingminnesotaweb.com/",
    "category": "Chinese-speaking Website hosting in Minnesota",
    "description": "A provider of web hosting for small and medium businesses, offering e-commerce, dedicated servers, and managed application hosting",
    "hours": "Mon-Fri 9AM-6PM",
    "services": [
      "Chinese-speaking Website hosting in Minnesota consultation",
      "Professional service",
      "Quality guarantee"
    ],
    "social_links": {}
  },
  {
    "name": "ProWeb365",
    "address": "1010 W. 7th St., St. Paul, MN 55102",
    "phone": "(612) 590-8080",
    "rating": 4.0,
    "reviews": 25,
    "website": "https://www.proweb365.com/",
    "category": "Chinese-speaking Website hosting in Minnesota",
    "description": "Offers reliable and secure web hosting services with fast IT support, utilizing premium cloud servers for high performance",
    "hours": "Mon-Fri 9AM-6PM",
    "services": [
      "Chinese-speaking Website hosting in Minnesota consultation",
      "Professional service",
      "Quality guarantee"
    ],
    "social_links": {}
  },
  {
    "name": "Sectorlink",
    "address": "Information not available. (Headquarters in Flint, Michigan, but serves Minnesota businesses)",
    "phone": "",
    "rating": 4.0,
    "reviews": 25,
    "website": "https://sectorlink.com/",
    "category": "Chinese-speaking Website hosting in Minnesota",
    "description": "A privately owned hosting company offering cloud web hosting, dedicated servers, VPS, domain registration, and SSL certificates with 24/7 support",
    "hours": "Mon-Fri 9AM-6PM",
    "services": [
      "Chinese-speaking Website hosting in Minnesota consultation",
      "Professional service",
      "Quality guarantee"
    ],
    "social_links": {}
  },
  {
    "name": "Watermark Design (Minnesota Web Hosting)",
    "address": "Information not available",
    "phone": "",
    "rating": 4.0,
    "reviews": 25,
    "website": "https://www.watermarkdesign.com/minnesota-web-hosting/",
    "category": "Chinese-speaking Website hosting in Minnesota",
    "description": "Provides local Minnesota web hosting with cPanel, WordPress, FTP access, and customer support, focusing on local businesses",
    "hours": "Mon-Fri 9AM-6PM",
    "services": [
      "Chinese-speaking Website hosting in Minnesota consultation",
      "Professional service",
      "Quality guarantee"
    ],
    "social_links": {}
  },
  {
    "name": "MN Host (Minnesota Web Hosting)",
    "address": "Information not available",
    "phone": "",
    "rating": 4.0,
    "reviews": 25,
    "website": "https://www.mnhost.com/",
    "category": "Chinese-speaking Website hosting in Minnesota",
    "description": "Offers professional web services and reliable support for shared, VPS, and dedicated servers, with 24/7 support",
    "hours": "Mon-Fri 9AM-6PM",
    "services": [
      "Chinese-speaking Website hosting in Minnesota consultation",
      "Professional service",
      "Quality guarantee"
    ],
    "social_links": {}
  },
  {
    "name": "Idiosys USA",
    "address": "1915 Broadway St NE STE 100, Minneapolis, MN 55413",
    "phone": "(952) 465-4515",
    "rating": 4.0,
    "reviews": 25,
    "website": "https://idiosys.us/",
    "category": "Chinese-speaking Website hosting in Minnesota",
    "description": "A web development agency that also offers web hosting services, focusing on creating custom websites and providing reliable, high-quality services",
    "hours": "Mon-Fri 9AM-6PM",
    "services": [
      "Chinese-speaking Website hosting in Minnesota consultation",
      "Professional service",
      "Quality guarantee"
    ],
    "social_links": {}
  },
  {
    "name": "Point North Networks",
    "address": "Information not available. (Facilities in Eagan, MN and Aurora, CO)",
    "phone": "(651) 234-0895",
    "rating": 4.0,
    "reviews": 25,
    "website": "https://pointnorthnetworks.com/",
    "category": "Chinese-speaking Website hosting in Minnesota",
    "description": "Provides managed cloud hosting services with a focus on security and compliance, offering private cloud hosting solutions",
    "hours": "Mon-Fri 9AM-6PM",
    "services": [
      "Chinese-speaking Website hosting in Minnesota consultation",
      "Professional service",
      "Quality guarantee"
    ],
    "social_links": {}
  }
]