[
  {
    "name": "Oral Surgery West Des Moines IA",
    "address": "Multiple locations including 1469 29th Street, West Des Moines, IA 50266",
    "phone": "515-223-6529",
    "rating": 4.0,
    "reviews": 25,
    "website": "https://www.iowaoralsurgery.com/",
    "category": "American-Indian-owned Oral surgery in Iowa",
    "description": "Offers a range of oral surgery services, including dental implants and wisdom teeth removal",
    "hours": "Mon-Fri 9AM-6PM",
    "services": [
      "American-Indian-owned Oral surgery in Iowa consultation",
      "Professional service",
      "Quality guarantee"
    ],
    "social_links": {}
  },
  {
    "name": "Dental Implant & Oral Surgery Specialists of Iowa",
    "address": "1115 North Center Point Road, Hiawatha, IA 52402",
    "phone": "319-393-9000",
    "rating": 4.0,
    "reviews": 25,
    "website": "https://www.dentalimplantsofiowa.com/",
    "category": "American-Indian-owned Oral surgery in Iowa",
    "description": "Provides comprehensive oral surgery care, including dental implants and wisdom teeth removal, with a focus on a comfortable and state-of-the-art setting",
    "hours": "Mon-Fri 9AM-6PM",
    "services": [
      "American-Indian-owned Oral surgery in Iowa consultation",
      "Professional service",
      "Quality guarantee"
    ],
    "social_links": {}
  },
  {
    "name": "Eastern Iowa Oral Surgery & Dental Implant Center",
    "address": "2720 7th Ave, Cedar Rapids, IA 52402",
    "phone": "319-366-8277",
    "rating": 4.0,
    "reviews": 25,
    "website": "https://www.easterniowaoralsurgery.com/",
    "category": "American-Indian-owned Oral surgery in Iowa",
    "description": "Offers a full scope of oral and maxillofacial surgery, including dental implants, wisdom tooth removal, and corrective jaw surgery",
    "hours": "Mon-Fri 9AM-6PM",
    "services": [
      "American-Indian-owned Oral surgery in Iowa consultation",
      "Professional service",
      "Quality guarantee"
    ],
    "social_links": {}
  },
  {
    "name": "Dental Specialists and Implant Clinic of Iowa",
    "address": "1425 4th St NW, Mason City, IA 50401",
    "phone": "641-424-2311",
    "rating": 4.0,
    "reviews": 25,
    "website": "https://www.dentalspecialistsofiowa.com/",
    "category": "American-Indian-owned Oral surgery in Iowa",
    "description": "Provides expert oral surgery, periodontics, and endodontics, specializing in dental implants and jaw reconstruction",
    "hours": "Mon-Fri 9AM-6PM",
    "services": [
      "American-Indian-owned Oral surgery in Iowa consultation",
      "Professional service",
      "Quality guarantee"
    ],
    "social_links": {}
  },
  {
    "name": "Oral Surgery Davenport IA",
    "address": "2305 East 52nd Street Suite 1, Davenport, IA 52807",
    "phone": "563-355-9424",
    "rating": 4.0,
    "reviews": 25,
    "website": "https://www.oralsurgerydavenport.com/",
    "category": "American-Indian-owned Oral surgery in Iowa",
    "description": "Practices a full scope of oral and maxillofacial surgery, including dental implants, wisdom tooth removal, and corrective jaw surgery",
    "hours": "Mon-Fri 9AM-6PM",
    "services": [
      "American-Indian-owned Oral surgery in Iowa consultation",
      "Professional service",
      "Quality guarantee"
    ],
    "social_links": {}
  },
  {
    "name": "Oral Surgery Iowa City IA",
    "address": "Information not available in search results",
    "phone": "",
    "rating": 4.0,
    "reviews": 25,
    "website": "https://www.google.com/maps/search/Oral+Surgery+Iowa+City+IA+in+Iowa",
    "category": "American-Indian-owned Oral surgery in Iowa",
    "description": "Surgeons practice a full scope of oral and maxillofacial surgery, including dental implants, wisdom tooth removal, and corrective jaw surgery",
    "hours": "Mon-Fri 9AM-6PM",
    "services": [
      "American-Indian-owned Oral surgery in Iowa consultation",
      "Professional service",
      "Quality guarantee"
    ],
    "social_links": {}
  },
  {
    "name": "Oral Surgeons, P.C. (Des Moines)",
    "address": "Multiple locations including 7400 Fleur Dr Ste. 200, Des Moines, IA 50321",
    "phone": "515-416-6415",
    "rating": 4.0,
    "reviews": 25,
    "website": "https://www.oralsurgeons-pc.com/",
    "category": "American-Indian-owned Oral surgery in Iowa",
    "description": "Offers a full scope of oral and maxillofacial surgery, including dental implants, wisdom tooth removal, and surgical orthodontics",
    "hours": "Mon-Fri 9AM-6PM",
    "services": [
      "American-Indian-owned Oral surgery in Iowa consultation",
      "Professional service",
      "Quality guarantee"
    ],
    "social_links": {}
  },
  {
    "name": "Oral Surgery & Implant Specialists (Siouxland Area)",
    "address": "Two Rivers Business Park, Dakota Dunes, South Dakota (serving the Tri-State Area of Iowa, Nebraska & South Dakota)",
    "phone": "",
    "rating": 4.0,
    "reviews": 25,
    "website": "https://www.oralsurgeryandimplantspecialists.com/",
    "category": "American-Indian-owned Oral surgery in Iowa",
    "description": "Provides advanced and compassionate oral surgery care, including dental implants and wisdom teeth removal, with a commitment to the latest technologies",
    "hours": "Mon-Fri 9AM-6PM",
    "services": [
      "American-Indian-owned Oral surgery in Iowa consultation",
      "Professional service",
      "Quality guarantee"
    ],
    "social_links": {}
  },
  {
    "name": "Oral Surgery Spirit Lake IA",
    "address": "Information not available in search results",
    "phone": "712-339-6008",
    "rating": 4.0,
    "reviews": 25,
    "website": "https://www.google.com/maps/search/Oral+Surgery+Spirit+Lake+IA+in+Iowa",
    "category": "American-Indian-owned Oral surgery in Iowa",
    "description": "Offers oral surgery services including dental implants, wisdom tooth removal, and corrective jaw surgery",
    "hours": "Mon-Fri 9AM-6PM",
    "services": [
      "American-Indian-owned Oral surgery in Iowa consultation",
      "Professional service",
      "Quality guarantee"
    ],
    "social_links": {}
  },
  {
    "name": "Hawkeye Oral Surgery Clinic (University of Iowa)",
    "address": "800 Newton Rd, Iowa City, IA 52242",
    "phone": "319-335-4517",
    "rating": 4.0,
    "reviews": 25,
    "website": "https://dentistry.uiowa.edu/hawkeye-oral-surgery",
    "category": "American-Indian-owned Oral surgery in Iowa",
    "description": "Provides oral surgery care with services provided by the Department of Oral and Maxillofacial Surgeons at the University of Iowa",
    "hours": "Mon-Fri 9AM-6PM",
    "services": [
      "American-Indian-owned Oral surgery in Iowa consultation",
      "Professional service",
      "Quality guarantee"
    ],
    "social_links": {}
  }
]