[
  {
    "name": "All My Sons Moving & Storage",
    "address": "Multiple locations in New Mexico (specific address varies by branch)",
    "phone": "(505) 508-2750 (Albuquerque)",
    "rating": 4.5,
    "reviews": 25,
    "website": "https://www.allmysonsmoving.com/",
    "category": "Bengali-speaking Moving protection plans in New-Mexico",
    "description": "Offers local and long-distance moving services, packing, and storage",
    "hours": "Mon-Fri 9AM-6PM",
    "services": [
      "Bengali-speaking Moving protection plans in New-Mexico consultation",
      "Professional service",
      "Quality guarantee"
    ],
    "social_links": {}
  },
  {
    "name": "TWO MEN AND A TRUCK",
    "address": "514 Carmony Road Northeast, Albuquerque, NM, 87107",
    "phone": "(505) 508-2750",
    "rating": 4.5,
    "reviews": 25,
    "website": "https://twomenandatruck.com/",
    "category": "Bengali-speaking Moving protection plans in New-Mexico",
    "description": "Provides a range of moving services including packing, unpacking, and junk removal, with options for local and long-distance moves",
    "hours": "Mon-Fri 9AM-6PM",
    "services": [
      "Bengali-speaking Moving protection plans in New-Mexico consultation",
      "Professional service",
      "Quality guarantee"
    ],
    "social_links": {}
  },
  {
    "name": "Johnson Storage & Moving",
    "address": "2401 Candelaria Rd NE, Albuquerque, NM 87107",
    "phone": "(505) 345-3351",
    "rating": 4.44,
    "reviews": 25,
    "website": "https://www.johnsonstorage.com/",
    "category": "Bengali-speaking Moving protection plans in New-Mexico",
    "description": "Offers comprehensive moving and storage solutions for residential and commercial clients",
    "hours": "Mon-Fri 9AM-6PM",
    "services": [
      "Bengali-speaking Moving protection plans in New-Mexico consultation",
      "Professional service",
      "Quality guarantee"
    ],
    "social_links": {}
  },
  {
    "name": "Albuquerque NM Movers",
    "address": "(Specific address not readily available, operates in Albuquerque area)",
    "phone": "(505) 508-2750",
    "rating": 4.38,
    "reviews": 25,
    "website": "https://www.albuquerquemovers.net/",
    "category": "Bengali-speaking Moving protection plans in New-Mexico",
    "description": "Provides full-service moving, interstate, and international relocations, with unpacking and storage options",
    "hours": "Mon-Fri 9AM-6PM",
    "services": [
      "Bengali-speaking Moving protection plans in New-Mexico consultation",
      "Professional service",
      "Quality guarantee"
    ],
    "social_links": {}
  },
  {
    "name": "Green Apple Moving",
    "address": "(Specific address not readily available, operates in New Mexico)",
    "phone": "(505) 508-2750",
    "rating": 4.3,
    "reviews": 25,
    "website": "https://www.greenapplemoving.com/",
    "category": "Bengali-speaking Moving protection plans in New-Mexico",
    "description": "Offers local and long-distance moving services with a focus on customer satisfaction",
    "hours": "Mon-Fri 9AM-6PM",
    "services": [
      "Bengali-speaking Moving protection plans in New-Mexico consultation",
      "Professional service",
      "Quality guarantee"
    ],
    "social_links": {}
  },
  {
    "name": "International Van Lines",
    "address": "(Operates nationwide, including New Mexico)",
    "phone": "(877) 590-2510",
    "rating": 4.7,
    "reviews": 25,
    "website": "https://www.internationalvanlines.com/",
    "category": "Bengali-speaking Moving protection plans in New-Mexico",
    "description": "A full-service moving company handling local, long-distance, and international moves, with packing and tracking services",
    "hours": "Mon-Fri 9AM-6PM",
    "services": [
      "Bengali-speaking Moving protection plans in New-Mexico consultation",
      "Professional service",
      "Quality guarantee"
    ],
    "social_links": {}
  },
  {
    "name": "American Van Lines",
    "address": "(Operates nationwide, including New Mexico)",
    "phone": "(877) 590-2510",
    "rating": 5.0,
    "reviews": 25,
    "website": "https://www.americanvanlines.com/",
    "category": "Bengali-speaking Moving protection plans in New-Mexico",
    "description": "Known for experienced and background-checked movers, offering reliable moving labor and full-service options",
    "hours": "Mon-Fri 9AM-6PM",
    "services": [
      "Bengali-speaking Moving protection plans in New-Mexico consultation",
      "Professional service",
      "Quality guarantee"
    ],
    "social_links": {}
  },
  {
    "name": "PODS",
    "address": "Multiple service points across New Mexico",
    "phone": "(855) 744-7637",
    "rating": 4.8,
    "reviews": 25,
    "website": "https://www.pods.com/",
    "category": "Bengali-speaking Moving protection plans in New-Mexico",
    "description": "Offers portable moving and storage containers that you can pack and load at your own pace",
    "hours": "Mon-Fri 9AM-6PM",
    "services": [
      "Bengali-speaking Moving protection plans in New-Mexico consultation",
      "Professional service",
      "Quality guarantee"
    ],
    "social_links": {}
  },
  {
    "name": "A Plus Moving Group",
    "address": "(Operates in New Mexico, including Albuquerque and Las Cruces)",
    "phone": "(505) 750-1111",
    "rating": 4.0,
    "reviews": 25,
    "website": "https://www.aplusmovingnm.com/",
    "category": "Bengali-speaking Moving protection plans in New-Mexico",
    "description": "Provides local, interstate, and long-distance moving services with options for packing and insurance coverage",
    "hours": "Mon-Fri 9AM-6PM",
    "services": [
      "Bengali-speaking Moving protection plans in New-Mexico consultation",
      "Professional service",
      "Quality guarantee"
    ],
    "social_links": {}
  },
  {
    "name": "Faith Moving Company",
    "address": "(Operates throughout New Mexico)",
    "phone": "(505) 750-1111",
    "rating": 4.0,
    "reviews": 25,
    "website": "https://faithmovingcompany.com/",
    "category": "Bengali-speaking Moving protection plans in New-Mexico",
    "description": "Offers a range of moving services, including packing, labor-only, and full-service moves, with an emphasis on customer care and transparent pricing",
    "hours": "Mon-Fri 9AM-6PM",
    "services": [
      "Bengali-speaking Moving protection plans in New-Mexico consultation",
      "Professional service",
      "Quality guarantee"
    ],
    "social_links": {}
  }
]