[
  {
    "name": "Zakian Rugs",
    "address": "3300 Spring Garden St, Philadelphia, PA 19104",
    "phone": "(215) 877-9000",
    "rating": 4.8,
    "reviews": 25,
    "website": "https://www.zakianrugs.com/",
    "category": "Chinese-speaking Carpet cleaning in Pennsylvania",
    "description": "Zakian Rugs has been cleaning Oriental rugs in Philadelphia since 1923, specializing in safe and effective cleaning methods to restore the beauty of valuable rugs",
    "hours": "Mon-Fri 9AM-6PM",
    "services": [
      "Chinese-speaking Carpet cleaning in Pennsylvania consultation",
      "Professional service",
      "Quality guarantee"
    ],
    "social_links": {}
  },
  {
    "name": "Doug's Rug Care",
    "address": "110 Pleasant Gap Ave, Pleasant Gap, PA 16823",
    "phone": "(814) 808-5071",
    "rating": 4.9,
    "reviews": 25,
    "website": "https://dougsrugcare.com/",
    "category": "Chinese-speaking Carpet cleaning in Pennsylvania",
    "description": "Doug's Rug Care offers specialized hand-washing and repair for Oriental and fine rugs, with pick-up and delivery services throughout Central Pennsylvania. They also provide in-home carpet, upholstery, and tile and grout cleaning",
    "hours": "Mon-Fri 9AM-6PM",
    "services": [
      "Chinese-speaking Carpet cleaning in Pennsylvania consultation",
      "Professional service",
      "Quality guarantee"
    ],
    "social_links": {}
  },
  {
    "name": "Heaven's Best Carpet Cleaning of Central PA",
    "address": "1017 Nittany Valley Dr, Bellefonte, PA 16823",
    "phone": "(570) 246-3732",
    "rating": 4.9,
    "reviews": 25,
    "website": "https://heavensbestcarpetcleaning.com/central-pa/",
    "category": "Chinese-speaking Carpet cleaning in Pennsylvania",
    "description": "This company offers carpet, rug, upholstery, and floor cleaning services with a unique method that allows carpets to dry within an hour. They use organic cleaning methods and offer a satisfaction guarantee",
    "hours": "Mon-Fri 9AM-6PM",
    "services": [
      "Chinese-speaking Carpet cleaning in Pennsylvania consultation",
      "Professional service",
      "Quality guarantee"
    ],
    "social_links": {}
  },
  {
    "name": "The #1 Philadelphia Carpet Cleaning Company",
    "address": "4701 Wissahickon Ave, Philadelphia, PA 19144",
    "phone": "(215) 874-7076",
    "rating": 4.8,
    "reviews": 25,
    "website": "https://www.the1phillycarpetcleaning.com/",
    "category": "Chinese-speaking Carpet cleaning in Pennsylvania",
    "description": "They offer a wide range of cleaning services including carpet, rug, upholstery, hardwood floor, and tile and grout cleaning, using safe, organic products. They also provide carpet repair and stretching services",
    "hours": "Mon-Fri 9AM-6PM",
    "services": [
      "Chinese-speaking Carpet cleaning in Pennsylvania consultation",
      "Professional service",
      "Quality guarantee"
    ],
    "social_links": {}
  },
  {
    "name": "Thomas Carpet Cleaners",
    "address": "1000 W Chester Pike, Havertown, PA 19083",
    "phone": "(610) 446-1111",
    "rating": 4.9,
    "reviews": 25,
    "website": "https://www.thomascarpetcleaners.com/",
    "category": "Chinese-speaking Carpet cleaning in Pennsylvania",
    "description": "Serving Philadelphia and surrounding counties, Thomas Carpet Cleaners offers residential and commercial cleaning for carpets, upholstery, tile, and hardwood floors. They have received multiple awards for their service",
    "hours": "Mon-Fri 9AM-6PM",
    "services": [
      "Chinese-speaking Carpet cleaning in Pennsylvania consultation",
      "Professional service",
      "Quality guarantee"
    ],
    "social_links": {}
  },
  {
    "name": "Hains Dry Carpet Cleaning",
    "address": "1110 Quentin Rd, Lebanon, PA 17042",
    "phone": "(717) 866-7777",
    "rating": 4.9,
    "reviews": 25,
    "website": "https://hainsdrycarpetcleaning.com/",
    "category": "Chinese-speaking Carpet cleaning in Pennsylvania",
    "description": "This company specializes in dry organic carpet cleaning, using non-toxic, detergent-free, and hypoallergenic products. Their method ensures carpets are dry quickly and offers a 100% satisfaction guarantee",
    "hours": "Mon-Fri 9AM-6PM",
    "services": [
      "Chinese-speaking Carpet cleaning in Pennsylvania consultation",
      "Professional service",
      "Quality guarantee"
    ],
    "social_links": {}
  },
  {
    "name": "Allwein's Carpet Cleaning Services",
    "address": "1130 Quentin Rd, Lebanon, PA 17042",
    "phone": "(717) 273-3400",
    "rating": 4.8,
    "reviews": 25,
    "website": "https://allweinscleaning.com/",
    "category": "Chinese-speaking Carpet cleaning in Pennsylvania",
    "description": "In business since 1983, Allwein's offers residential and commercial carpet, upholstery, rug, and tile cleaning, as well as carpet repair. They are an IICRC certified firm",
    "hours": "Mon-Fri 9AM-6PM",
    "services": [
      "Chinese-speaking Carpet cleaning in Pennsylvania consultation",
      "Professional service",
      "Quality guarantee"
    ],
    "social_links": {}
  },
  {
    "name": "Stanley Steemer",
    "address": "Multiple locations, including 1000 W Chester Pike, Havertown, PA 19083",
    "phone": "(800) 783-3637",
    "rating": 4.7,
    "reviews": 25,
    "website": "https://www.stanleysteemer.com/",
    "category": "Chinese-speaking Carpet cleaning in Pennsylvania",
    "description": "Stanley Steemer provides professional cleaning services for carpets, upholstery, tile, and more for both homes and businesses. They are known for their thoroughness and quality service",
    "hours": "Mon-Fri 9AM-6PM",
    "services": [
      "Chinese-speaking Carpet cleaning in Pennsylvania consultation",
      "Professional service",
      "Quality guarantee"
    ],
    "social_links": {}
  },
  {
    "name": "We Clean Carpet",
    "address": "4337 N 5th St, Philadelphia, PA 19140",
    "phone": "(215) 925-0400",
    "rating": 4.7,
    "reviews": 25,
    "website": "https://wecleancarpet.com/",
    "category": "Chinese-speaking Carpet cleaning in Pennsylvania",
    "description": "This company offers superior, residue-free cleaning for carpets, upholstery, and area rugs at affordable prices, using patented steam cleaning methods",
    "hours": "Mon-Fri 9AM-6PM",
    "services": [
      "Chinese-speaking Carpet cleaning in Pennsylvania consultation",
      "Professional service",
      "Quality guarantee"
    ],
    "social_links": {}
  },
  {
    "name": "The Master's Touch Floor Solutions",
    "address": "301 E Broad St, Nazareth, PA 18064",
    "phone": "(610) 360-0100",
    "rating": 4.9,
    "reviews": 25,
    "website": "https://www.themasterstouchfloors.com/",
    "category": "Chinese-speaking Carpet cleaning in Pennsylvania",
    "description": "This company focuses on carpet care, tile and grout services, and floor restoration, using industry-leading cleaning methods to ensure a high-quality clean",
    "hours": "Mon-Fri 9AM-6PM",
    "services": [
      "Chinese-speaking Carpet cleaning in Pennsylvania consultation",
      "Professional service",
      "Quality guarantee"
    ],
    "social_links": {}
  }
]