[
  {
    "name": "Ahmed CPA Firm, PLLC",
    "address": "Texas, USA (Specific address not provided in search results)",
    "phone": "817-689-0486",
    "rating": 4.0,
    "reviews": 25,
    "website": "http://www.ahmedcpafirm.com/",
    "category": "Bengali-speaking Management accounting in Texas",
    "description": "A Bangladeshi tax and accounting service in Irving, Texas, offering a wide range of financial services",
    "hours": "Mon-Fri 9AM-6PM",
    "services": [
      "Bengali-speaking Management accounting in Texas consultation",
      "Professional service",
      "Quality guarantee"
    ],
    "social_links": {}
  },
  {
    "name": "Devesh Pathak CPA",
    "address": "3883 Westmart Drive, Suite 100, Houston, Texas 77042",
    "phone": "617-299-8445",
    "rating": 5.0,
    "reviews": 25,
    "website": "https://www.google.com/maps/search/Devesh+Pathak+CPA+in+Texas",
    "category": "Bengali-speaking Management accounting in Texas",
    "description": "Specializes in financial and taxation services, tax consultants, and tax preparation, serving businesses and individuals",
    "hours": "Mon-Fri 9AM-6PM",
    "services": [
      "Bengali-speaking Management accounting in Texas consultation",
      "Professional service",
      "Quality guarantee"
    ],
    "social_links": {}
  },
  {
    "name": "SG Inc CPA",
    "address": "Various locations including Houston and Austin, TX (Specific addresses not provided for all branches)",
    "phone": "Contact information varies by location (e.g., Houston: 713-860-1400, Austin: 213-444-5613)",
    "rating": 4.0,
    "reviews": 25,
    "website": "https://www.google.com/maps/search/SG+Inc+CPA+in+Texas",
    "category": "Bengali-speaking Management accounting in Texas",
    "description": "Offers a comprehensive range of tax, valuation, financial advisory, and consulting services",
    "hours": "Mon-Fri 9AM-6PM",
    "services": [
      "Bengali-speaking Management accounting in Texas consultation",
      "Professional service",
      "Quality guarantee"
    ],
    "social_links": {}
  },
  {
    "name": "Northeast Solution CPA",
    "address": "Dallas, TX (Specific address not provided)",
    "phone": "512-515-9579",
    "rating": 4.0,
    "reviews": 25,
    "website": "https://www.google.com/maps/search/Northeast+Solution+CPA+in+Texas",
    "category": "Bengali-speaking Management accounting in Texas",
    "description": "Offers accounting services",
    "hours": "Mon-Fri 9AM-6PM",
    "services": [
      "Bengali-speaking Management accounting in Texas consultation",
      "Professional service",
      "Quality guarantee"
    ],
    "social_links": {}
  },
  {
    "name": "Alam One Stop Tax And Accounting Services INC",
    "address": "Dallas, TX (Specific address not provided)",
    "phone": "424-400-2358",
    "rating": 4.0,
    "reviews": 25,
    "website": "https://www.google.com/maps/search/Alam+One+Stop+Tax+And+Accounting+Services+INC+in+Texas",
    "category": "Bengali-speaking Management accounting in Texas",
    "description": "Offers accounting services",
    "hours": "Mon-Fri 9AM-6PM",
    "services": [
      "Bengali-speaking Management accounting in Texas consultation",
      "Professional service",
      "Quality guarantee"
    ],
    "social_links": {}
  },
  {
    "name": "Neelkanth Accountants",
    "address": "Houston, TX and Austin, TX (Specific addresses not provided)",
    "phone": "Houston: 424-400-2358, Austin: 424-400-2358",
    "rating": 5.0,
    "reviews": 25,
    "website": "https://www.google.com/maps/search/Neelkanth+Accountants+in+Texas",
    "category": "Bengali-speaking Management accounting in Texas",
    "description": "Offers accounting services",
    "hours": "Mon-Fri 9AM-6PM",
    "services": [
      "Bengali-speaking Management accounting in Texas consultation",
      "Professional service",
      "Quality guarantee"
    ],
    "social_links": {}
  },
  {
    "name": "Jain Consulting - Vinita Chaudhary CPA",
    "address": "Dallas, TX; Sugar Land, TX; Austin, TX (Specific addresses not provided)",
    "phone": "973-850-4353",
    "rating": 4.0,
    "reviews": 25,
    "website": "https://www.google.com/maps/search/Jain+Consulting+-+Vinita+Chaudhary+CPA+in+Texas",
    "category": "Bengali-speaking Management accounting in Texas",
    "description": "Offers accounting and financial services",
    "hours": "Mon-Fri 9AM-6PM",
    "services": [
      "Bengali-speaking Management accounting in Texas consultation",
      "Professional service",
      "Quality guarantee"
    ],
    "social_links": {}
  },
  {
    "name": "VVS Financial Services",
    "address": "Dallas, TX (Specific address not provided)",
    "phone": "775-277-7752",
    "rating": 4.0,
    "reviews": 25,
    "website": "https://www.google.com/maps/search/VVS+Financial+Services+in+Texas",
    "category": "Bengali-speaking Management accounting in Texas",
    "description": "Offers investment management and other financial services",
    "hours": "Mon-Fri 9AM-6PM",
    "services": [
      "Bengali-speaking Management accounting in Texas consultation",
      "Professional service",
      "Quality guarantee"
    ],
    "social_links": {}
  },
  {
    "name": "Rethink Wealth Guidance",
    "address": "Houston, TX (3040 Post Oak Blvd, Suite 1150, Houston, TX 77056) and Fort Worth, TX (6000 Western Pl, Suite 120, Fort Worth, TX 76107)",
    "phone": "",
    "rating": 4.0,
    "reviews": 25,
    "website": "https://www.rethinkwealth.com/",
    "category": "Bengali-speaking Management accounting in Texas",
    "description": "A full-service financial planning firm with clients across the nation, catering to professionals, individuals, and small business owners",
    "hours": "Mon-Fri 9AM-6PM",
    "services": [
      "Bengali-speaking Management accounting in Texas consultation",
      "Professional service",
      "Quality guarantee"
    ],
    "social_links": {}
  },
  {
    "name": "Manjula P. Modi, CPA PLLC",
    "address": "Fort Worth, TX (Specific address not provided)",
    "phone": "817-741-2383",
    "rating": 4.0,
    "reviews": 25,
    "website": "https://www.google.com/maps/search/Manjula+P.+Modi,+CPA+PLLC+in+Texas",
    "category": "Bengali-speaking Management accounting in Texas",
    "description": "A local Fort Worth CPA firm offering accounting services, bookkeeping, and tax advisory for small businesses",
    "hours": "Mon-Fri 9AM-6PM",
    "services": [
      "Bengali-speaking Management accounting in Texas consultation",
      "Professional service",
      "Quality guarantee"
    ],
    "social_links": {}
  }
]