[
  {
    "name": "Proper Pie Company",
    "address": "2505 E Broad St Ste 100, Richmond, VA 23223",
    "phone": "(804) 343-7437",
    "rating": 4.6,
    "reviews": 25,
    "website": "https://www.google.com/maps/search/Proper+Pie+Company+in+Virginia",
    "category": "Black-owned Bistros in Virginia",
    "description": "This charming bakery is known for its delectable sweet and savory pies, with a diverse menu featuring options like Steak & Cheese, Pork Chili Verde, and Banoffee",
    "hours": "Mon-Fri 9AM-6PM",
    "services": [
      "Black-owned Bistros in Virginia consultation",
      "Professional service",
      "Quality guarantee"
    ],
    "social_links": {}
  },
  {
    "name": "L'Opossum",
    "address": "626 China Street, Richmond, VA 23220",
    "phone": "(804) 918-6028",
    "rating": 4.4,
    "reviews": 25,
    "website": "https://www.google.com/maps/search/L'Opossum+in+Virginia",
    "category": "Black-owned Bistros in Virginia",
    "description": "L'Opossum offers a unique Southern-French-New American dining experience in an intimate and classy setting, with dishes like Curried Butternut & Ginger Bisque and Hollywood Bone Yard BQ Lamb Chop",
    "hours": "Mon-Fri 9AM-6PM",
    "services": [
      "Black-owned Bistros in Virginia consultation",
      "Professional service",
      "Quality guarantee"
    ],
    "social_links": {}
  },
  {
    "name": "The Hill Cafe",
    "address": "2800 E Broad St, Richmond, VA 23223",
    "phone": "(804) 648-0360",
    "rating": 4.0,
    "reviews": 25,
    "website": "https://www.google.com/maps/search/The+Hill+Cafe+in+Virginia",
    "category": "Black-owned Bistros in Virginia",
    "description": "This New American eatery is celebrated for its vibrant and diverse menu that artfully blends classic flavors with contemporary twists, offering comfort foods in a cozy setting",
    "hours": "Mon-Fri 9AM-6PM",
    "services": [
      "Black-owned Bistros in Virginia consultation",
      "Professional service",
      "Quality guarantee"
    ],
    "social_links": {}
  },
  {
    "name": "The Black Sheep Restaurant",
    "address": "9935 Discovery Blvd, Manassas, VA 20109",
    "phone": "(703) 420-2028",
    "rating": 4.0,
    "reviews": 25,
    "website": "https://www.google.com/maps/search/The+Black+Sheep+Restaurant+in+Virginia",
    "category": "Black-owned Bistros in Virginia",
    "description": "This trendy and intimate spot offers a wide range of tapas and small plates, perfect for sharing, with options like the Bacon Tower and Crispy Chicken Wings",
    "hours": "Mon-Fri 9AM-6PM",
    "services": [
      "Black-owned Bistros in Virginia consultation",
      "Professional service",
      "Quality guarantee"
    ],
    "social_links": {}
  },
  {
    "name": "Lola's Farmhouse Bistro",
    "address": "1840 Manakin Rd, Manakin-Sabot, VA 23103",
    "phone": "(804) 784-2000",
    "rating": 4.9,
    "reviews": 25,
    "website": "https://www.google.com/maps/search/Lola's+Farmhouse+Bistro+in+Virginia",
    "category": "Black-owned Bistros in Virginia",
    "description": "A charming dining destination with a warm, inviting atmosphere, focusing on flavorful, well-crafted dishes made from fresh ingredients, with patrons raving about favorites like the poached pear salad",
    "hours": "Mon-Fri 9AM-6PM",
    "services": [
      "Black-owned Bistros in Virginia consultation",
      "Professional service",
      "Quality guarantee"
    ],
    "social_links": {}
  },
  {
    "name": "The Daily Kitchen & Bar",
    "address": "2934 W. Cary St, Richmond, VA 23221 (Carytown location)",
    "phone": "(804) 342-8990",
    "rating": 4.0,
    "reviews": 25,
    "website": "https://www.google.com/maps/search/The+Daily+Kitchen+&+Bar+in+Virginia",
    "category": "Black-owned Bistros in Virginia",
    "description": "This establishment strives to serve foods that are not only delicious but also health-conscious, environmentally friendly, and socially responsible, using organic, all-natural, local, and sustainable ingredients",
    "hours": "Mon-Fri 9AM-6PM",
    "services": [
      "Black-owned Bistros in Virginia consultation",
      "Professional service",
      "Quality guarantee"
    ],
    "social_links": {}
  },
  {
    "name": "The Pigeon Hole",
    "address": "(Not explicitly found, but located in Charlottesville, VA)",
    "phone": "",
    "rating": 4.0,
    "reviews": 25,
    "website": "https://www.google.com/maps/search/The+Pigeon+Hole+in+Virginia",
    "category": "Black-owned Bistros in Virginia",
    "description": "Designed to be a place to feel warm and at home, offering classic and comfortable food with a focus on building relationships with people",
    "hours": "Mon-Fri 9AM-6PM",
    "services": [
      "Black-owned Bistros in Virginia consultation",
      "Professional service",
      "Quality guarantee"
    ],
    "social_links": {}
  },
  {
    "name": "The Blue Plate Diner",
    "address": "(Multiple locations, one in Dothan, AL, and one in RI)",
    "phone": "(860) 906-1419 (for West Hartford, CT location)",
    "rating": 4.0,
    "reviews": 25,
    "website": "https://www.google.com/maps/search/The+Blue+Plate+Diner+in+Virginia",
    "category": "Black-owned Bistros in Virginia",
    "description": "Offers outrageously good home-cooked meals at very affordable prices, with a spirited atmosphere and prompt service",
    "hours": "Mon-Fri 9AM-6PM",
    "services": [
      "Black-owned Bistros in Virginia consultation",
      "Professional service",
      "Quality guarantee"
    ],
    "social_links": {}
  },
  {
    "name": "Bistro Bohem",
    "address": "600 Florida Avenue NW, Washington DC 20001 (This is a DC location, not Virginia)",
    "phone": "202.735.5895",
    "rating": 4.0,
    "reviews": 25,
    "website": "https://www.google.com/maps/search/Bistro+Bohem+in+Virginia",
    "category": "Black-owned Bistros in Virginia",
    "description": "Specializes in Modern European cuisine, specifically Czech food, with a modern bar atmosphere. *Note: This establishment has closed.*",
    "hours": "Mon-Fri 9AM-6PM",
    "services": [
      "Black-owned Bistros in Virginia consultation",
      "Professional service",
      "Quality guarantee"
    ],
    "social_links": {}
  },
  {
    "name": "Boheme Bistro",
    "address": "1118 E. Atlantic Avenue, Delray Beach, Florida 33483 (This is a Florida location, not Virginia)",
    "phone": "561-278-4899",
    "rating": 4.0,
    "reviews": 25,
    "website": "https://www.google.com/maps/search/Boheme+Bistro+in+Virginia",
    "category": "Black-owned Bistros in Virginia",
    "description": "Offers an elegant selection of authentic Mediterranean Italian dishes and quality boutique wines in a charming dining room and outdoor courtyard",
    "hours": "Mon-Fri 9AM-6PM",
    "services": [
      "Black-owned Bistros in Virginia consultation",
      "Professional service",
      "Quality guarantee"
    ],
    "social_links": {}
  }
]