[
  {
    "name": "Ridgeline Media Marketing",
    "address": "121 W. Idaho St. Boise, ID 83702",
    "phone": "(208) 401-8444",
    "rating": 5.0,
    "reviews": 25,
    "website": "https://ridgelinemedia.com/",
    "category": "Catholic-owned Video production in Idaho",
    "description": "A video production company specializing in video marketing, offering concept-to-completion services for businesses",
    "hours": "Mon-Fri 9AM-6PM",
    "services": [
      "Catholic-owned Video production in Idaho consultation",
      "Professional service",
      "Quality guarantee"
    ],
    "social_links": {}
  },
  {
    "name": "Wide Eye Productions",
    "address": "1216 W. Myrtle St. Boise, ID 83702",
    "phone": "(208) 331-2400",
    "rating": 5.0,
    "reviews": 25,
    "website": "https://wideeyeproductions.com/",
    "category": "Catholic-owned Video production in Idaho",
    "description": "A full-service HD & 4K production company with offices in Boise and Seattle, offering concept-to-completion services for corporate, non-profit, and social media productions",
    "hours": "Mon-Fri 9AM-6PM",
    "services": [
      "Catholic-owned Video production in Idaho consultation",
      "Professional service",
      "Quality guarantee"
    ],
    "social_links": {}
  },
  {
    "name": "Idaho Video Production",
    "address": "10700 W. Franklin Rd. Boise, ID 83709 (This is a general service area, specific office not listed)",
    "phone": "(888) 477-5376",
    "rating": 5.0,
    "reviews": 25,
    "website": "https://idahovideoproduction.com/",
    "category": "Catholic-owned Video production in Idaho",
    "description": "Provides video production services for businesses and medical providers throughout Idaho, specializing in commercials, social media content, and overview videos",
    "hours": "Mon-Fri 9AM-6PM",
    "services": [
      "Catholic-owned Video production in Idaho consultation",
      "Professional service",
      "Quality guarantee"
    ],
    "social_links": {}
  },
  {
    "name": "Gravity Pictures",
    "address": "3451 W. Bridle Creek Dr. Idaho Falls, ID 83402",
    "phone": "(208) 521-8000",
    "rating": 5.0,
    "reviews": 25,
    "website": "https://www.gravitypictures.com/",
    "category": "Catholic-owned Video production in Idaho",
    "description": "A video production agency founded in 2015, offering video production and corporate photography services",
    "hours": "Mon-Fri 9AM-6PM",
    "services": [
      "Catholic-owned Video production in Idaho consultation",
      "Professional service",
      "Quality guarantee"
    ],
    "social_links": {}
  },
  {
    "name": "Front Runner Films",
    "address": "110 S. 1st St. Boise, ID 83702",
    "phone": "(208) 331-3777",
    "rating": 5.0,
    "reviews": 25,
    "website": "https://www.frontrunnerfilms.com/",
    "category": "Catholic-owned Video production in Idaho",
    "description": "A video production agency specializing in video production, founded in 2016",
    "hours": "Mon-Fri 9AM-6PM",
    "services": [
      "Catholic-owned Video production in Idaho consultation",
      "Professional service",
      "Quality guarantee"
    ],
    "social_links": {}
  },
  {
    "name": "Sidewayz Films",
    "address": "1021 W. Grove St. Boise, ID 83702",
    "phone": "(208) 331-3777",
    "rating": 5.0,
    "reviews": 25,
    "website": "https://sidewayzfilms.com/",
    "category": "Catholic-owned Video production in Idaho",
    "description": "A video production agency with a small team focusing on video production",
    "hours": "Mon-Fri 9AM-6PM",
    "services": [
      "Catholic-owned Video production in Idaho consultation",
      "Professional service",
      "Quality guarantee"
    ],
    "social_links": {}
  },
  {
    "name": "FishDawg Productions",
    "address": "10700 W. Franklin Rd. Boise, ID 83709 (This is a general service area, specific office not listed)",
    "phone": "(515) 523-3294",
    "rating": 5.0,
    "reviews": 25,
    "website": "https://fishdawg.com/",
    "category": "Catholic-owned Video production in Idaho",
    "description": "A video production company with over 15 years of experience, creating engaging and effective marketing videos, including testimonials, product videos, and social media content",
    "hours": "Mon-Fri 9AM-6PM",
    "services": [
      "Catholic-owned Video production in Idaho consultation",
      "Professional service",
      "Quality guarantee"
    ],
    "social_links": {}
  },
  {
    "name": "Porter Pro Media",
    "address": "360 W. Broadway St. Idaho Falls, ID 83402",
    "phone": "(208) 521-8000",
    "rating": 5.0,
    "reviews": 25,
    "website": "https://porterpro.media/",
    "category": "Catholic-owned Video production in Idaho",
    "description": "An award-winning video production company based in Idaho Falls, offering services to create compelling video content for businesses",
    "hours": "Mon-Fri 9AM-6PM",
    "services": [
      "Catholic-owned Video production in Idaho consultation",
      "Professional service",
      "Quality guarantee"
    ],
    "social_links": {}
  },
  {
    "name": "IE Productions",
    "address": "360 W. Broadway St. Idaho Falls, ID 83402",
    "phone": "(208) 521-8000",
    "rating": 5.0,
    "reviews": 25,
    "website": "https://www.ieproductions.com/",
    "category": "Catholic-owned Video production in Idaho",
    "description": "A strategic marketing firm specializing in audio/video, graphic & web design, digital media, and event promotion, with a 4K video production shop",
    "hours": "Mon-Fri 9AM-6PM",
    "services": [
      "Catholic-owned Video production in Idaho consultation",
      "Professional service",
      "Quality guarantee"
    ],
    "social_links": {}
  },
  {
    "name": "John Connor Media",
    "address": "10700 W. Franklin Rd. Boise, ID 83709 (This is a general service area, specific office not listed)",
    "phone": "(208) 908-0177",
    "rating": 5.0,
    "reviews": 25,
    "website": "https://www.johnconnormedia.com/",
    "category": "Catholic-owned Video production in Idaho",
    "description": "A video production studio in Boise focused on helping business owners, creatives, and entrepreneurs create videos that drive results",
    "hours": "Mon-Fri 9AM-6PM",
    "services": [
      "Catholic-owned Video production in Idaho consultation",
      "Professional service",
      "Quality guarantee"
    ],
    "social_links": {}
  }
]