[
  {
    "name": "Take 2 Dental Implant Studio",
    "address": "2409 E 68th Ave, Anchorage, AK 99507",
    "phone": "(907) 344-4000",
    "rating": 5.0,
    "reviews": 25,
    "website": "https://www.take2dental.com/",
    "category": "Baby-Boomer-owned Dental implants in Alaska",
    "description": "Specializes in full-mouth immediate-load dental implant procedures in one day, offering \"Teeth in a Day\" services",
    "hours": "Mon-Fri 9AM-6PM",
    "services": [
      "Baby-Boomer-owned Dental implants in Alaska consultation",
      "Professional service",
      "Quality guarantee"
    ],
    "social_links": {}
  },
  {
    "name": "Midnight Sun Dental",
    "address": "Multiple locations including Anchorage, Eagle River, and Wasilla. (Specific Anchorage address not provided in search results, but a general service area is mentioned)",
    "phone": "(907) 345-8444 (for Anchorage)",
    "rating": 4.0,
    "reviews": 25,
    "website": "https://www.midnightsundental.com/",
    "category": "Baby-Boomer-owned Dental implants in Alaska",
    "description": "Offers dental implants as a long-lasting solution for missing teeth, including options for mini dental implants",
    "hours": "Mon-Fri 9AM-6PM",
    "services": [
      "Baby-Boomer-owned Dental implants in Alaska consultation",
      "Professional service",
      "Quality guarantee"
    ],
    "social_links": {}
  },
  {
    "name": "Woodside Dental Group",
    "address": "3101 C St #200, Anchorage, AK 99503",
    "phone": "(907) 333-1211",
    "rating": 4.0,
    "reviews": 25,
    "website": "https://www.woodsidedentalanchorage.com/",
    "category": "Baby-Boomer-owned Dental implants in Alaska",
    "description": "Provides dental implants with an on-site dental lab and modern technology, offering \"All On 4 \u2013 'Teeth in a Day'\" procedures",
    "hours": "Mon-Fri 9AM-6PM",
    "services": [
      "Baby-Boomer-owned Dental implants in Alaska consultation",
      "Professional service",
      "Quality guarantee"
    ],
    "social_links": {}
  },
  {
    "name": "Turnagain Dental",
    "address": "4201 Prometheus St, Anchorage, AK 99503",
    "phone": "(907) 276-1414",
    "rating": 4.0,
    "reviews": 25,
    "website": "https://www.turnagaindental.com/",
    "category": "Baby-Boomer-owned Dental implants in Alaska",
    "description": "Offers dental implants as a tooth replacement option, emphasizing a high success rate and support for normal chewing function",
    "hours": "Mon-Fri 9AM-6PM",
    "services": [
      "Baby-Boomer-owned Dental implants in Alaska consultation",
      "Professional service",
      "Quality guarantee"
    ],
    "social_links": {}
  },
  {
    "name": "btyDENTAL Alaska",
    "address": "Multiple locations in Anchorage including Abbott Road, 9th Avenue, Arctic Boulevard, Dimond, and Tikahtnu. (Specific addresses for each location not provided in search results)",
    "phone": "(907) 562-2111",
    "rating": 4.0,
    "reviews": 25,
    "website": "https://www.btydental.com/",
    "category": "Baby-Boomer-owned Dental implants in Alaska",
    "description": "Offers affordable dental implants, including single tooth implants, implant bridges, and full arch dental implants (like All-on-4)",
    "hours": "Mon-Fri 9AM-6PM",
    "services": [
      "Baby-Boomer-owned Dental implants in Alaska consultation",
      "Professional service",
      "Quality guarantee"
    ],
    "social_links": {}
  },
  {
    "name": "Alaska Premier Dental Group",
    "address": "DeBarr Rd, Anchorage, AK (Specific address not provided in search results)",
    "phone": "(907) 249-9000",
    "rating": 4.0,
    "reviews": 25,
    "website": "https://www.alaskapremierdental.com/",
    "category": "Baby-Boomer-owned Dental implants in Alaska",
    "description": "A large group practice focusing on restoring single implants and full-arch cases with an emphasis on comfort and patient education",
    "hours": "Mon-Fri 9AM-6PM",
    "services": [
      "Baby-Boomer-owned Dental implants in Alaska consultation",
      "Professional service",
      "Quality guarantee"
    ],
    "social_links": {}
  },
  {
    "name": "Alaska Advanced Dentistry",
    "address": "2701 DeBarr Rd, Anchorage, AK 99508",
    "phone": "(907) 562-2111",
    "rating": 4.0,
    "reviews": 25,
    "website": "https://www.alaskadvanceddentistry.com/",
    "category": "Baby-Boomer-owned Dental implants in Alaska",
    "description": "Offers single implants, implant crowns, and full-mouth rehabilitation, including the All-on-4\u00ae procedure for \"Teeth in a Day.\"",
    "hours": "Mon-Fri 9AM-6PM",
    "services": [
      "Baby-Boomer-owned Dental implants in Alaska consultation",
      "Professional service",
      "Quality guarantee"
    ],
    "social_links": {}
  },
  {
    "name": "Anchorage Oral and Implant Surgery",
    "address": "4201 Prometheus St, Anchorage, AK 99503",
    "phone": "(907) 278-1234",
    "rating": 4.0,
    "reviews": 25,
    "website": "https://www.anchorageoralandimplantsurgery.com/",
    "category": "Baby-Boomer-owned Dental implants in Alaska",
    "description": "Provides oral surgery services including dental implants, tooth extractions, and bone grafting",
    "hours": "Mon-Fri 9AM-6PM",
    "services": [
      "Baby-Boomer-owned Dental implants in Alaska consultation",
      "Professional service",
      "Quality guarantee"
    ],
    "social_links": {}
  },
  {
    "name": "Oral Surgery Associates of Alaska",
    "address": "Multiple locations including Anchorage, Homer, and Kenai. (Specific Anchorage address not provided in search results)",
    "phone": "(907) 278-1234 (for Anchorage)",
    "rating": 4.0,
    "reviews": 25,
    "website": "https://www.oralsurgeryak.com/",
    "category": "Baby-Boomer-owned Dental implants in Alaska",
    "description": "Offers dental implants as a solution for tooth loss, emphasizing their versatility for single or multiple implants and advantages over traditional dentures or bridges",
    "hours": "Mon-Fri 9AM-6PM",
    "services": [
      "Baby-Boomer-owned Dental implants in Alaska consultation",
      "Professional service",
      "Quality guarantee"
    ],
    "social_links": {}
  },
  {
    "name": "Dr. Richard Crosby at Midtown Anchorage Clinic",
    "address": "Midtown Anchorage (Specific address not provided in search results)",
    "phone": "(907) 277-1098",
    "rating": 4.0,
    "reviews": 25,
    "website": "https://www.anchorageimplantdentistry.com/",
    "category": "Baby-Boomer-owned Dental implants in Alaska",
    "description": "Offers dental implant services aimed at restoring smiles, self-confidence, and oral health, with a focus on natural appearance and longevity",
    "hours": "Mon-Fri 9AM-6PM",
    "services": [
      "Baby-Boomer-owned Dental implants in Alaska consultation",
      "Professional service",
      "Quality guarantee"
    ],
    "social_links": {}
  }
]