[
  {
    "name": "Delaware Tire Centers",
    "address": "616 S College Ave, Newark, DE 19713",
    "phone": "(302) 368-2531",
    "rating": 4.0,
    "reviews": 25,
    "website": "https://www.delawaretire.com/",
    "category": "Alaska-Native-owned TPMS service in Delaware",
    "description": "Provides TPMS repair services and other automotive repair and tire needs",
    "hours": "Mon-Fri 9AM-6PM",
    "services": [
      "Alaska-Native-owned TPMS service in Delaware consultation",
      "Professional service",
      "Quality guarantee"
    ],
    "social_links": {}
  },
  {
    "name": "Delaware Tire Centers",
    "address": "207 S Governors Ave, Dover, DE 19904",
    "phone": "(302) 674-0234",
    "rating": 4.0,
    "reviews": 25,
    "website": "https://www.delawaretire.com/",
    "category": "Alaska-Native-owned TPMS service in Delaware",
    "description": "Offers TPMS repair services and a range of other automotive services",
    "hours": "Mon-Fri 9AM-6PM",
    "services": [
      "Alaska-Native-owned TPMS service in Delaware consultation",
      "Professional service",
      "Quality guarantee"
    ],
    "social_links": {}
  },
  {
    "name": "Diamond State Tire & Auto",
    "address": "3482 Wrangle Hill Road #72, Bear, DE 19701",
    "phone": "302-836-1919",
    "rating": 4.0,
    "reviews": 25,
    "website": "https://www.diamondstatetire.com/",
    "category": "Alaska-Native-owned TPMS service in Delaware",
    "description": "Provides tire services, auto repairs, and TPMS services",
    "hours": "Mon-Fri 9AM-6PM",
    "services": [
      "Alaska-Native-owned TPMS service in Delaware consultation",
      "Professional service",
      "Quality guarantee"
    ],
    "social_links": {}
  },
  {
    "name": "Gilbert's Tires & Wheels",
    "address": "254 N. Dupont Blvd, Milford, DE 19963",
    "phone": "(302) 422-6500",
    "rating": 4.0,
    "reviews": 25,
    "website": "https://www.gilbertstiresandwheels.com/",
    "category": "Alaska-Native-owned TPMS service in Delaware",
    "description": "Offers auto repair, tire services, and wheel services, including TPMS",
    "hours": "Mon-Fri 9AM-6PM",
    "services": [
      "Alaska-Native-owned TPMS service in Delaware consultation",
      "Professional service",
      "Quality guarantee"
    ],
    "social_links": {}
  },
  {
    "name": "Tire King Automotive",
    "address": "502 South Governors Avenue, Dover, DE 19901",
    "phone": "(302) 674-1942",
    "rating": 4.0,
    "reviews": 25,
    "website": "https://www.tirekingautomotive.com/",
    "category": "Alaska-Native-owned TPMS service in Delaware",
    "description": "A tire dealer and auto repair shop that provides TPMS services",
    "hours": "Mon-Fri 9AM-6PM",
    "services": [
      "Alaska-Native-owned TPMS service in Delaware consultation",
      "Professional service",
      "Quality guarantee"
    ],
    "social_links": {}
  },
  {
    "name": "TIRE24X7 Inc.",
    "address": "Service is mobile and comes to your location",
    "phone": "(833) 847-3247",
    "rating": 4.0,
    "reviews": 25,
    "website": "https://www.tire24x7.com/",
    "category": "Alaska-Native-owned TPMS service in Delaware",
    "description": "A mobile tire service that offers TPMS services at your home or work",
    "hours": "Mon-Fri 9AM-6PM",
    "services": [
      "Alaska-Native-owned TPMS service in Delaware consultation",
      "Professional service",
      "Quality guarantee"
    ],
    "social_links": {}
  },
  {
    "name": "Integrity Auto Repair",
    "address": "463 County Road, Bear, DE 19701",
    "phone": "(302) 317-2444",
    "rating": 4.0,
    "reviews": 25,
    "website": "https://www.integrityautorepairde.com/",
    "category": "Alaska-Native-owned TPMS service in Delaware",
    "description": "Offers TPMS service, general auto repair, and other automotive services",
    "hours": "Mon-Fri 9AM-6PM",
    "services": [
      "Alaska-Native-owned TPMS service in Delaware consultation",
      "Professional service",
      "Quality guarantee"
    ],
    "social_links": {}
  },
  {
    "name": "JV Auto Service",
    "address": "1500 West Newport Pike, Wilmington, DE 19804",
    "phone": "(302) 999-0786",
    "rating": 4.0,
    "reviews": 25,
    "website": "https://www.jvautoservice.com/",
    "category": "Alaska-Native-owned TPMS service in Delaware",
    "description": "Provides TPMS services, including repairs, maintenance, and installation",
    "hours": "Mon-Fri 9AM-6PM",
    "services": [
      "Alaska-Native-owned TPMS service in Delaware consultation",
      "Professional service",
      "Quality guarantee"
    ],
    "social_links": {}
  },
  {
    "name": "Scotti Muffler & Tire Center",
    "address": "1465 Governors Ave S, Dover, DE 19904",
    "phone": "(302) 674-8280",
    "rating": 4.0,
    "reviews": 25,
    "website": "https://www.scottimufflerandtire.com/",
    "category": "Alaska-Native-owned TPMS service in Delaware",
    "description": "Offers TPMS repair and other automotive repair and tire services",
    "hours": "Mon-Fri 9AM-6PM",
    "services": [
      "Alaska-Native-owned TPMS service in Delaware consultation",
      "Professional service",
      "Quality guarantee"
    ],
    "social_links": {}
  },
  {
    "name": "Zee's New & Used Tire Shop",
    "address": "380 Pulaski Highway, New Castle, DE 19720",
    "phone": "(302) 322-0451",
    "rating": 4.0,
    "reviews": 25,
    "website": "https://www.zeestires.com/",
    "category": "Alaska-Native-owned TPMS service in Delaware",
    "description": "Provides TPMS services, including repair, replacement, troubleshooting, and sensor resets",
    "hours": "Mon-Fri 9AM-6PM",
    "services": [
      "Alaska-Native-owned TPMS service in Delaware consultation",
      "Professional service",
      "Quality guarantee"
    ],
    "social_links": {}
  }
]