[
  {
    "name": "American Indian Trading Company",
    "address": "20 Fry St, Bryson City, NC 28713",
    "phone": "(828) 488-4689",
    "rating": 4.0,
    "reviews": 25,
    "website": "https://www.google.com/maps/search/American+Indian+Trading+Company+North+Carolina",
    "category": "American-Indian-owned Shopping ads in North-Carolina",
    "description": "Offers handcrafted Native American treasures from various tribes, including pottery, jewelry, dolls, books, and natural soaps",
    "hours": "Mon-Fri 9AM-6PM",
    "services": [
      "American-Indian-owned Shopping ads in North-Carolina consultation",
      "Professional service",
      "Quality guarantee"
    ],
    "social_links": {}
  },
  {
    "name": "Bearmeat's Indian Den",
    "address": "4210 Wolfetown Rd, Cherokee, NC 28719",
    "phone": "828-497-4052",
    "rating": 4.0,
    "reviews": 25,
    "website": "https://www.google.com/maps/search/Bearmeat's+Indian+Den+North+Carolina",
    "category": "American-Indian-owned Shopping ads in North-Carolina",
    "description": "Sells handcrafted, authentic Native American arts and crafts, including baskets, pottery, and jewelry",
    "hours": "Mon-Fri 9AM-6PM",
    "services": [
      "American-Indian-owned Shopping ads in North-Carolina consultation",
      "Professional service",
      "Quality guarantee"
    ],
    "social_links": {}
  },
  {
    "name": "Uniques",
    "address": "43 Tennessee Street, Murphy, NC, USA",
    "phone": "828-557-7993",
    "rating": 4.0,
    "reviews": 25,
    "website": "https://uniquesofmurphy.com/",
    "category": "American-Indian-owned Shopping ads in North-Carolina",
    "description": "Features Native American artworks, crafts, jewelry, and clothing made by local artists, with a focus on Cherokee heritage",
    "hours": "Mon-Fri 9AM-6PM",
    "services": [
      "American-Indian-owned Shopping ads in North-Carolina consultation",
      "Professional service",
      "Quality guarantee"
    ],
    "social_links": {}
  },
  {
    "name": "Native American Craft Shop",
    "address": "1847 Tsali Blvd, Cherokee, NC 28719",
    "phone": "828-497-6790",
    "rating": 4.0,
    "reviews": 25,
    "website": "https://www.google.com/maps/search/Native+American+Craft+Shop+North+Carolina",
    "category": "American-Indian-owned Shopping ads in North-Carolina",
    "description": "Offers Native American crafts",
    "hours": "Mon-Fri 9AM-6PM",
    "services": [
      "American-Indian-owned Shopping ads in North-Carolina consultation",
      "Professional service",
      "Quality guarantee"
    ],
    "social_links": {}
  },
  {
    "name": "Qualla Arts & Crafts",
    "address": "645 Tsali Blvd, Cherokee, NC 28719",
    "phone": "828-497-3103",
    "rating": 4.0,
    "reviews": 25,
    "website": "https://www.google.com/maps/search/Qualla+Arts+&+Crafts+North+Carolina",
    "category": "American-Indian-owned Shopping ads in North-Carolina",
    "description": "A cooperative for authentic arts and crafts handmade by local Cherokee artists",
    "hours": "Mon-Fri 9AM-6PM",
    "services": [
      "American-Indian-owned Shopping ads in North-Carolina consultation",
      "Professional service",
      "Quality guarantee"
    ],
    "social_links": {}
  },
  {
    "name": "Traditional Hands Native American Jewelry",
    "address": "1045 Tsalagi Rd, Cherokee, NC 28719",
    "phone": "828-554-5884",
    "rating": 4.0,
    "reviews": 25,
    "website": "https://www.google.com/maps/search/Traditional+Hands+Native+American+Jewelry+North+Carolina",
    "category": "American-Indian-owned Shopping ads in North-Carolina",
    "description": "Specializes in Native American jewelry",
    "hours": "Mon-Fri 9AM-6PM",
    "services": [
      "American-Indian-owned Shopping ads in North-Carolina consultation",
      "Professional service",
      "Quality guarantee"
    ],
    "social_links": {}
  },
  {
    "name": "All Nations Trading",
    "address": "514 North Main Street, Hendersonville, NC 28792",
    "phone": "",
    "rating": 4.0,
    "reviews": 25,
    "website": "https://www.google.com/maps/search/All+Nations+Trading+North+Carolina",
    "category": "American-Indian-owned Shopping ads in North-Carolina",
    "description": "Carries authentic Native American Sterling Silver Jewelry, Art, Pottery, Dream Catchers, and Crafts from various indigenous artists",
    "hours": "Mon-Fri 9AM-6PM",
    "services": [
      "American-Indian-owned Shopping ads in North-Carolina consultation",
      "Professional service",
      "Quality guarantee"
    ],
    "social_links": {}
  },
  {
    "name": "Lumbee Outfitters",
    "address": "809 University Rd, Pembroke, NC 28372",
    "phone": "",
    "rating": 4.0,
    "reviews": 25,
    "website": "https://www.google.com/maps/search/Lumbee+Outfitters+North+Carolina",
    "category": "American-Indian-owned Shopping ads in North-Carolina",
    "description": "Offers outdoor gear and apparel, with merchandise reflecting Lumbee heritage",
    "hours": "Mon-Fri 9AM-6PM",
    "services": [
      "American-Indian-owned Shopping ads in North-Carolina consultation",
      "Professional service",
      "Quality guarantee"
    ],
    "social_links": {}
  },
  {
    "name": "Lumbee Tribe of NC Store",
    "address": "6984 NC Hwy 711 W, Pembroke, NC 28372",
    "phone": "910-521-7861",
    "rating": 4.0,
    "reviews": 25,
    "website": "https://lumbee-tribe-of-nc.square.site/s/shop",
    "category": "American-Indian-owned Shopping ads in North-Carolina",
    "description": "Offers official Lumbee Tribe of N.C. merchandise, with proceeds supporting tribal events",
    "hours": "Mon-Fri 9AM-6PM",
    "services": [
      "American-Indian-owned Shopping ads in North-Carolina consultation",
      "Professional service",
      "Quality guarantee"
    ],
    "social_links": {}
  },
  {
    "name": "Museum of the Cherokee People Store",
    "address": "589 Tsali Blvd, Cherokee, NC 28719",
    "phone": "",
    "rating": 4.0,
    "reviews": 25,
    "website": "https://www.cherokeemuseum.org/shop",
    "category": "American-Indian-owned Shopping ads in North-Carolina",
    "description": "Sells merchandise related to Cherokee history and culture, including clothing, books, and artwork",
    "hours": "Mon-Fri 9AM-6PM",
    "services": [
      "American-Indian-owned Shopping ads in North-Carolina consultation",
      "Professional service",
      "Quality guarantee"
    ],
    "social_links": {}
  }
]