[
  {
    "name": "Accent Flooring",
    "address": "Salt Lake City, UT (Specific address not publicly available, but serves the entire state)",
    "phone": "(801) 484-8836",
    "rating": 5.0,
    "reviews": 25,
    "website": "https://accentflooring.com/",
    "category": "American-Indian-owned Carpet installation in Utah",
    "description": "Specializes in premium carpet installation for luxury commercial and high-end residential projects, with over 30 years of multi-generational expertise. They offer a 1-year workmanship warranty",
    "hours": "Mon-Fri 9AM-6PM",
    "services": [
      "American-Indian-owned Carpet installation in Utah consultation",
      "Professional service",
      "Quality guarantee"
    ],
    "social_links": {}
  },
  {
    "name": "Cotton & Timber",
    "address": "Pleasant View, UT (Showroom address available upon request)",
    "phone": "(801) 717-5499",
    "rating": 5.0,
    "reviews": 25,
    "website": "https://cottonandtimber.com/",
    "category": "American-Indian-owned Carpet installation in Utah",
    "description": "Offers a wide range of carpet installation services, along with tile and LVP flooring. They have been in business since 2018 and have over 30 five-star reviews on Google",
    "hours": "Mon-Fri 9AM-6PM",
    "services": [
      "American-Indian-owned Carpet installation in Utah consultation",
      "Professional service",
      "Quality guarantee"
    ],
    "social_links": {}
  },
  {
    "name": "Medina Carpet Installation",
    "address": "Cedar City, UT",
    "phone": "(435) 691-0048",
    "rating": 4.0,
    "reviews": 25,
    "website": "https://www.medinacarpetinstallation.com/",
    "category": "American-Indian-owned Carpet installation in Utah",
    "description": "Provides expert carpet installation services in the Cedar City area, covering a 70-mile radius. They are open Monday-Friday, 8 AM - 5 PM",
    "hours": "Mon-Fri 9AM-6PM",
    "services": [
      "American-Indian-owned Carpet installation in Utah consultation",
      "Professional service",
      "Quality guarantee"
    ],
    "social_links": {}
  },
  {
    "name": "Ogden's Flooring and Design",
    "address": "Multiple locations across Utah, including Lehi, UT (Specific addresses vary by location)",
    "phone": "(801) 394-5000 (General Inquiries)",
    "rating": 4.5,
    "reviews": 25,
    "website": "https://ogdensflooring.com/",
    "category": "American-Indian-owned Carpet installation in Utah",
    "description": "A family-owned business since 1974, offering a wide selection of carpet, laminate, luxury vinyl, and wood products with a lifetime labor warranty. They have numerous store locations throughout Utah",
    "hours": "Mon-Fri 9AM-6PM",
    "services": [
      "American-Indian-owned Carpet installation in Utah consultation",
      "Professional service",
      "Quality guarantee"
    ],
    "social_links": {}
  },
  {
    "name": "Shepherd's Carpet & Flooring",
    "address": "(Location not specified, but serves the Utah area)",
    "phone": "(801) 572-5000",
    "rating": 4.0,
    "reviews": 25,
    "website": "https://shepherdscarpet.com/",
    "category": "American-Indian-owned Carpet installation in Utah",
    "description": "Offers a large selection of carpet for residential and commercial needs, with over 30 years of experience. They also provide rug binding services",
    "hours": "Mon-Fri 9AM-6PM",
    "services": [
      "American-Indian-owned Carpet installation in Utah consultation",
      "Professional service",
      "Quality guarantee"
    ],
    "social_links": {}
  },
  {
    "name": "Specialty Carpet Showroom",
    "address": "1400 S State St, Salt Lake City, UT 84115",
    "phone": "(801) 484-8836",
    "rating": 4.5,
    "reviews": 25,
    "website": "https://specialtycarpetsaltlake.com/",
    "category": "American-Indian-owned Carpet installation in Utah",
    "description": "A flooring store in Salt Lake City with over 25 years of experience, offering a full range of custom flooring options including carpets, area rugs, hardwood, and more",
    "hours": "Mon-Fri 9AM-6PM",
    "services": [
      "American-Indian-owned Carpet installation in Utah consultation",
      "Professional service",
      "Quality guarantee"
    ],
    "social_links": {}
  },
  {
    "name": "Empire Today",
    "address": "(Service area includes Utah, with in-home estimates)",
    "phone": "(800) 588-2300",
    "rating": 4.0,
    "reviews": 25,
    "website": "https://www.empiretoday.com/",
    "category": "American-Indian-owned Carpet installation in Utah",
    "description": "Provides a shop-at-home experience with free in-home estimates, a wide selection of samples, and professional installation, often available as soon as the next day",
    "hours": "Mon-Fri 9AM-6PM",
    "services": [
      "American-Indian-owned Carpet installation in Utah consultation",
      "Professional service",
      "Quality guarantee"
    ],
    "social_links": {}
  },
  {
    "name": "Americarpets",
    "address": "1045 N Main St, Layton, UT 84041",
    "phone": "(801) 544-1400",
    "rating": 4.5,
    "reviews": 25,
    "website": "https://www.americarpets.com/",
    "category": "American-Indian-owned Carpet installation in Utah",
    "description": "A family-owned flooring retailer in Layton, UT, with over 50 years of experience, offering professional installation and a wide selection of flooring options",
    "hours": "Mon-Fri 9AM-6PM",
    "services": [
      "American-Indian-owned Carpet installation in Utah consultation",
      "Professional service",
      "Quality guarantee"
    ],
    "social_links": {}
  },
  {
    "name": "Carpets of America",
    "address": "1070 S 1000 E, North Logan, UT 84341",
    "phone": "(435) 753-4444",
    "rating": 4.5,
    "reviews": 25,
    "website": "https://carpetsofamerica.com/",
    "category": "American-Indian-owned Carpet installation in Utah",
    "description": "Serving the Cache Valley area since 1995, they offer residential and commercial flooring, including carpet and hardwood, at competitive prices",
    "hours": "Mon-Fri 9AM-6PM",
    "services": [
      "American-Indian-owned Carpet installation in Utah consultation",
      "Professional service",
      "Quality guarantee"
    ],
    "social_links": {}
  },
  {
    "name": "Halifax Flooring",
    "address": "(Service area includes Orem, UT)",
    "phone": "(801) 765-0240",
    "rating": 5.0,
    "reviews": 25,
    "website": "https://halifaxflooring.com/",
    "category": "American-Indian-owned Carpet installation in Utah",
    "description": "Offers premium flooring solutions including hardwood, laminate, and carpet, with a focus on outstanding service and craftsmanship",
    "hours": "Mon-Fri 9AM-6PM",
    "services": [
      "American-Indian-owned Carpet installation in Utah consultation",
      "Professional service",
      "Quality guarantee"
    ],
    "social_links": {}
  }
]