[
  {
    "name": "Ahmed CPA Firm - Bangladesh Circle",
    "address": "Texas, USA (Specific address not provided in search results, but serves the D/FW metroplex)",
    "phone": "817-689-0486, 214-396-1180",
    "rating": 4.0,
    "reviews": 25,
    "website": "https://www.google.com/maps/search/Ahmed+CPA+Firm+-+Bangladesh+Circle+in+Texas",
    "category": "Bengali-speaking Part-time controller in Texas",
    "description": "Offers tax services, accounting, and consulting for individuals and businesses",
    "hours": "Mon-Fri 9AM-6PM",
    "services": [
      "Bengali-speaking Part-time controller in Texas consultation",
      "Professional service",
      "Quality guarantee"
    ],
    "social_links": {}
  },
  {
    "name": "Devesh Pathak CPA",
    "address": "3883 Westmart Drive, Suite 100, Houston, Texas 77042",
    "phone": "617-299-8445, 617-299-8445",
    "rating": 5.0,
    "reviews": 25,
    "website": "https://www.google.com/maps/search/Devesh+Pathak+CPA+in+Texas",
    "category": "Bengali-speaking Part-time controller in Texas",
    "description": "Offers bookkeeping and other financial services, and lists Bengali as a language spoken",
    "hours": "Mon-Fri 9AM-6PM",
    "services": [
      "Bengali-speaking Part-time controller in Texas consultation",
      "Professional service",
      "Quality guarantee"
    ],
    "social_links": {}
  },
  {
    "name": "Sanjay Taxpro",
    "address": "Locations across Dallas, Frisco, Coppell, Plano, Austin, Round Rock, Leander, Cedar Park, Houston, Katy, and Sugar Land, Texas",
    "phone": "(408) 462-5829",
    "rating": 4.0,
    "reviews": 25,
    "website": "https://www.google.com/maps/search/Sanjay+Taxpro+in+Texas",
    "category": "Bengali-speaking Part-time controller in Texas",
    "description": "Offers tax preparation, tax consultation, and accounting services, specializing in solutions for Indian families, professionals, and businesses in Texas",
    "hours": "Mon-Fri 9AM-6PM",
    "services": [
      "Bengali-speaking Part-time controller in Texas consultation",
      "Professional service",
      "Quality guarantee"
    ],
    "social_links": {}
  },
  {
    "name": "Bengal Tax Services",
    "address": "Not specified, but services all 50 states",
    "phone": "601-622-6203",
    "rating": 4.0,
    "reviews": 25,
    "website": "https://www.google.com/maps/search/Bengal+Tax+Services+in+Texas",
    "category": "Bengali-speaking Part-time controller in Texas",
    "description": "Provides individual and small business tax preparation, quarterly tax estimates, bookkeeping, estate & trust taxes, and consulting services",
    "hours": "Mon-Fri 9AM-6PM",
    "services": [
      "Bengali-speaking Part-time controller in Texas consultation",
      "Professional service",
      "Quality guarantee"
    ],
    "social_links": {}
  },
  {
    "name": "VVS Financial Services",
    "address": "Dallas, TX, Serving in Irving, TX",
    "phone": "775-277-7752",
    "rating": 4.0,
    "reviews": 25,
    "website": "https://www.google.com/maps/search/VVS+Financial+Services+in+Texas",
    "category": "Bengali-speaking Part-time controller in Texas",
    "description": "Offers services including Investment Management, Accountant Services, and more",
    "hours": "Mon-Fri 9AM-6PM",
    "services": [
      "Bengali-speaking Part-time controller in Texas consultation",
      "Professional service",
      "Quality guarantee"
    ],
    "social_links": {}
  },
  {
    "name": "KV Financial Solutions & Services LLC",
    "address": "Houston, TX, Dallas, TX, Sugar Land, TX",
    "phone": "323-800-4939",
    "rating": 4.0,
    "reviews": 25,
    "website": "https://www.google.com/maps/search/KV+Financial+Solutions+&+Services+LLC+in+Texas",
    "category": "Bengali-speaking Part-time controller in Texas",
    "description": "Offers a wide range of financial and accounting services",
    "hours": "Mon-Fri 9AM-6PM",
    "services": [
      "Bengali-speaking Part-time controller in Texas consultation",
      "Professional service",
      "Quality guarantee"
    ],
    "social_links": {}
  },
  {
    "name": "NEELKANTH ACCOUNTANTS",
    "address": "Dallas, TX, Sugar Land, TX",
    "phone": "424-400-2358",
    "rating": 5.0,
    "reviews": 25,
    "website": "https://www.google.com/maps/search/NEELKANTH+ACCOUNTANTS+in+Texas",
    "category": "Bengali-speaking Part-time controller in Texas",
    "description": "Offers accounting and tax services",
    "hours": "Mon-Fri 9AM-6PM",
    "services": [
      "Bengali-speaking Part-time controller in Texas consultation",
      "Professional service",
      "Quality guarantee"
    ],
    "social_links": {}
  },
  {
    "name": "Ramdas Accounting",
    "address": "The Woodlands, TX (serving Greater Houston Area)",
    "phone": "",
    "rating": 4.0,
    "reviews": 25,
    "website": "https://www.google.com/maps/search/Ramdas+Accounting+in+Texas",
    "category": "Bengali-speaking Part-time controller in Texas",
    "description": "Specializes in tax preparation, audit, and advisory services for individuals and businesses, including international and expatriate tax needs",
    "hours": "Mon-Fri 9AM-6PM",
    "services": [
      "Bengali-speaking Part-time controller in Texas consultation",
      "Professional service",
      "Quality guarantee"
    ],
    "social_links": {}
  },
  {
    "name": "Agog Financials, Inc.",
    "address": "Serving in Houston, TX",
    "phone": "301-686-5058",
    "rating": 4.0,
    "reviews": 25,
    "website": "https://www.google.com/maps/search/Agog+Financials,+Inc.+in+Texas",
    "category": "Bengali-speaking Part-time controller in Texas",
    "description": "Offers financial and taxation services",
    "hours": "Mon-Fri 9AM-6PM",
    "services": [
      "Bengali-speaking Part-time controller in Texas consultation",
      "Professional service",
      "Quality guarantee"
    ],
    "social_links": {}
  },
  {
    "name": "Sure Financial And Tax Services",
    "address": "Serving in Houston, TX, Serving in Irving, TX",
    "phone": "862-350-0123",
    "rating": 4.0,
    "reviews": 25,
    "website": "https://www.google.com/maps/search/Sure+Financial+And+Tax+Services+in+Texas",
    "category": "Bengali-speaking Part-time controller in Texas",
    "description": "Offers accountant services",
    "hours": "Mon-Fri 9AM-6PM",
    "services": [
      "Bengali-speaking Part-time controller in Texas consultation",
      "Professional service",
      "Quality guarantee"
    ],
    "social_links": {}
  }
]