[
  {
    "name": "Tacos El Pariente",
    "address": "683 W Center St, Midvale, UT 84047",
    "phone": "(801) 566-2400",
    "rating": 4.0,
    "reviews": 25,
    "website": "https://www.tacoselpariente.com/",
    "category": "Central-American-owned Specialty cuisine catering in Utah",
    "description": "Offers catering for weddings, corporate events, and social events, focusing on fresh ingredients and traditional cuisine with a modern twist",
    "hours": "Mon-Fri 9AM-6PM",
    "services": [
      "Central-American-owned Specialty cuisine catering in Utah consultation",
      "Professional service",
      "Quality guarantee"
    ],
    "social_links": {}
  },
  {
    "name": "Catrachos Restaurant Utah",
    "address": "3731 W 4100 S, West Valley City, UT 84120",
    "phone": "(801) 968-0007",
    "rating": 4.0,
    "reviews": 25,
    "website": "https://catrachosrestaurant.utah.com/",
    "category": "Central-American-owned Specialty cuisine catering in Utah",
    "description": "Specializes in authentic cuisine from Honduras and El Salvador, offering a gathering place for those who appreciate great food and warm hospitality",
    "hours": "Mon-Fri 9AM-6PM",
    "services": [
      "Central-American-owned Specialty cuisine catering in Utah consultation",
      "Professional service",
      "Quality guarantee"
    ],
    "social_links": {}
  },
  {
    "name": "La Carreta Peruvian Restaurant",
    "address": "175 W 1600 N, Orem, UT 84057",
    "phone": "(801) 225-1111",
    "rating": 4.0,
    "reviews": 25,
    "website": "https://lacarretaperuvianrestaurant.com/",
    "category": "Central-American-owned Specialty cuisine catering in Utah",
    "description": "Provides catering services with bold and vibrant flavors of Peru, suitable for corporate events, family celebrations, and weddings",
    "hours": "Mon-Fri 9AM-6PM",
    "services": [
      "Central-American-owned Specialty cuisine catering in Utah consultation",
      "Professional service",
      "Quality guarantee"
    ],
    "social_links": {}
  },
  {
    "name": "Sol-Agave Catering",
    "address": "749 W 100 N, American Fork, UT 84003",
    "phone": "(801) 756-7000",
    "rating": 4.9,
    "reviews": 25,
    "website": "https://www.solagavecatering.com/",
    "category": "Central-American-owned Specialty cuisine catering in Utah",
    "description": "Offers Mexican catering with a variety of options for events, including tacos, fajitas, and enchiladas",
    "hours": "Mon-Fri 9AM-6PM",
    "services": [
      "Central-American-owned Specialty cuisine catering in Utah consultation",
      "Professional service",
      "Quality guarantee"
    ],
    "social_links": {}
  },
  {
    "name": "Red Iguana Catering",
    "address": "871 N 250 W, Salt Lake City, UT 84116",
    "phone": "(801) 746-9000",
    "rating": 4.0,
    "reviews": 25,
    "website": "https://www.rediguana.com/catering",
    "category": "Central-American-owned Specialty cuisine catering in Utah",
    "description": "Provides authentic Mexican food catering for parties, weddings, and corporate events, known for its award-winning flavors",
    "hours": "Mon-Fri 9AM-6PM",
    "services": [
      "Central-American-owned Specialty cuisine catering in Utah consultation",
      "Professional service",
      "Quality guarantee"
    ],
    "social_links": {}
  },
  {
    "name": "Sobe Eats Culinary Concepts",
    "address": "Murray, UT (Specific address not provided in search results)",
    "phone": "",
    "rating": 4.0,
    "reviews": 25,
    "website": "https://www.google.com/maps/search/Sobe+Eats+Culinary+Concepts+in+Utah",
    "category": "Central-American-owned Specialty cuisine catering in Utah",
    "description": "Specializes in authentic Mexican cuisine catering, bringing vibrant flavors and fresh ingredients to events",
    "hours": "Mon-Fri 9AM-6PM",
    "services": [
      "Central-American-owned Specialty cuisine catering in Utah consultation",
      "Professional service",
      "Quality guarantee"
    ],
    "social_links": {}
  },
  {
    "name": "Mi Ranchito Mexican Grill (Catering)",
    "address": "396 E State St, American Fork, UT 84003",
    "phone": "(801) 756-6138",
    "rating": 4.0,
    "reviews": 25,
    "website": "https://miranchitoutah.com/catering",
    "category": "Central-American-owned Specialty cuisine catering in Utah",
    "description": "Offers a variety of traditional authentic Mexican food for small or large events",
    "hours": "Mon-Fri 9AM-6PM",
    "services": [
      "Central-American-owned Specialty cuisine catering in Utah consultation",
      "Professional service",
      "Quality guarantee"
    ],
    "social_links": {}
  },
  {
    "name": "Cafe Rio Mexican Grill (Catering)",
    "address": "Multiple locations in Utah, including Provo, UT (specific catering address not provided)",
    "phone": "(801) 375-5000 (Provo location)",
    "rating": 4.9,
    "reviews": 25,
    "website": "https://www.caferio.com/catering",
    "category": "Central-American-owned Specialty cuisine catering in Utah",
    "description": "Known for fresh Mexican food made to order, with catering services available for various events",
    "hours": "Mon-Fri 9AM-6PM",
    "services": [
      "Central-American-owned Specialty cuisine catering in Utah consultation",
      "Professional service",
      "Quality guarantee"
    ],
    "social_links": {}
  },
  {
    "name": "Costa Vida",
    "address": "Multiple locations in Utah",
    "phone": "",
    "rating": 4.0,
    "reviews": 25,
    "website": "https://www.costavida.com/",
    "category": "Central-American-owned Specialty cuisine catering in Utah",
    "description": "Offers Mexican-inspired cuisine with catering options, focusing on fresh ingredients and customizable meals",
    "hours": "Mon-Fri 9AM-6PM",
    "services": [
      "Central-American-owned Specialty cuisine catering in Utah consultation",
      "Professional service",
      "Quality guarantee"
    ],
    "social_links": {}
  },
  {
    "name": "Village Baker",
    "address": "Multiple locations in Utah",
    "phone": "",
    "rating": 4.0,
    "reviews": 25,
    "website": "https://villagebaker.com/",
    "category": "Central-American-owned Specialty cuisine catering in Utah",
    "description": "While not exclusively Central American, they offer catering with a variety of options including sandwiches, salads, and desserts, and have received positive reviews for their food quality",
    "hours": "Mon-Fri 9AM-6PM",
    "services": [
      "Central-American-owned Specialty cuisine catering in Utah consultation",
      "Professional service",
      "Quality guarantee"
    ],
    "social_links": {}
  }
]