[
  {
    "name": "Natural History Museum of Utah",
    "address": "301 Wakara Way, Salt Lake City, UT 84108",
    "phone": "(801) 581-4300",
    "rating": 4.0,
    "reviews": 25,
    "website": "https://nhmu.utah.edu/",
    "category": "Alaska-Native-owned Childrens activities in Utah",
    "description": "Hosts the Indigenous Art Market & Festival, which celebrates Native American art and culture",
    "hours": "Mon-Fri 9AM-6PM",
    "services": [
      "Alaska-Native-owned Childrens activities in Utah consultation",
      "Professional service",
      "Quality guarantee"
    ],
    "social_links": {}
  },
  {
    "name": "American West Heritage Center",
    "address": "435 S Hwy 89/91, Wellsville, UT 84339",
    "phone": "(435) 245-6050",
    "rating": 4.0,
    "reviews": 25,
    "website": "https://www.awhc.org/",
    "category": "Alaska-Native-owned Childrens activities in Utah",
    "description": "A working farm with activities for children, including a pioneer area with Native American sites, a tepee, and tomahawk throwing",
    "hours": "Mon-Fri 9AM-6PM",
    "services": [
      "Alaska-Native-owned Childrens activities in Utah consultation",
      "Professional service",
      "Quality guarantee"
    ],
    "social_links": {}
  },
  {
    "name": "Paiute Indian Tribe of Utah - Native Youth Program",
    "address": "(Contact information provided below)",
    "phone": "435-586-1112",
    "rating": 4.0,
    "reviews": 25,
    "website": "https://pitu.gov/youth-program/",
    "category": "Alaska-Native-owned Childrens activities in Utah",
    "description": "Offers opportunities for youth to build friendships, learn traditions, and participate in community events",
    "hours": "Mon-Fri 9AM-6PM",
    "services": [
      "Alaska-Native-owned Childrens activities in Utah consultation",
      "Professional service",
      "Quality guarantee"
    ],
    "social_links": {}
  },
  {
    "name": "Christian Center of Park City - Native American Outreach",
    "address": "(Contact information not directly available, but serves Park City area)",
    "phone": "",
    "rating": 4.0,
    "reviews": 25,
    "website": "https://www.ccofpc.org/native-american-outreach",
    "category": "Alaska-Native-owned Childrens activities in Utah",
    "description": "Provides educational classes, health clinics, and organizes ski trips for Native American children and families",
    "hours": "Mon-Fri 9AM-6PM",
    "services": [
      "Alaska-Native-owned Childrens activities in Utah consultation",
      "Professional service",
      "Quality guarantee"
    ],
    "social_links": {}
  },
  {
    "name": "This Is The Place Heritage State Park - Native American Village",
    "address": "2601 E.inosaur Dr., Salt Lake City, UT 84108",
    "phone": "(801) 582-1847",
    "rating": 4.0,
    "reviews": 25,
    "website": "https://www.thisistheplace.org/",
    "category": "Alaska-Native-owned Childrens activities in Utah",
    "description": "Features a Native American Village with cultural demonstrations and activities",
    "hours": "Mon-Fri 9AM-6PM",
    "services": [
      "Alaska-Native-owned Childrens activities in Utah consultation",
      "Professional service",
      "Quality guarantee"
    ],
    "social_links": {}
  },
  {
    "name": "Urban Indian Center of Salt Lake City",
    "address": "120 W. 300 S., Salt Lake City, UT 84101",
    "phone": "(801) 486-4877",
    "rating": 4.0,
    "reviews": 25,
    "website": "https://uicsl.org/",
    "category": "Alaska-Native-owned Childrens activities in Utah",
    "description": "Offers various programs and services for the Native American community, which may include children's activities",
    "hours": "Mon-Fri 9AM-6PM",
    "services": [
      "Alaska-Native-owned Childrens activities in Utah consultation",
      "Professional service",
      "Quality guarantee"
    ],
    "social_links": {}
  },
  {
    "name": "Treehouse Museum",
    "address": "327 E. Broadway, Salt Lake City, UT 84111",
    "phone": "(801) 382-3115",
    "rating": 4.0,
    "reviews": 25,
    "website": "https://www.treehousemuseum.org/",
    "category": "Alaska-Native-owned Childrens activities in Utah",
    "description": "A children's museum focused on stories, imaginative play, literacy, and the arts",
    "hours": "Mon-Fri 9AM-6PM",
    "services": [
      "Alaska-Native-owned Childrens activities in Utah consultation",
      "Professional service",
      "Quality guarantee"
    ],
    "social_links": {}
  },
  {
    "name": "Coconut Cove",
    "address": "550 E. 1600 N., Orem, UT 84057",
    "phone": "(801) 787-1111",
    "rating": 4.0,
    "reviews": 25,
    "website": "https://www.coconutcove.com/",
    "category": "Alaska-Native-owned Childrens activities in Utah",
    "description": "An indoor playground with various activities for children, including slides, ball cannons, and party facilities",
    "hours": "Mon-Fri 9AM-6PM",
    "services": [
      "Alaska-Native-owned Childrens activities in Utah consultation",
      "Professional service",
      "Quality guarantee"
    ],
    "social_links": {}
  },
  {
    "name": "Museum of Natural Curiosity (Thanksgiving Point)",
    "address": "3605 Garden Drive, Lehi, UT 84048",
    "phone": "(801) 768-2300",
    "rating": 4.0,
    "reviews": 25,
    "website": "https://www.thanksgivingpoint.org/museum-of-natural-curiosity/",
    "category": "Alaska-Native-owned Childrens activities in Utah",
    "description": "A children's museum with over 400 hands-on exhibits focused on science, nature, and imaginative play",
    "hours": "Mon-Fri 9AM-6PM",
    "services": [
      "Alaska-Native-owned Childrens activities in Utah consultation",
      "Professional service",
      "Quality guarantee"
    ],
    "social_links": {}
  },
  {
    "name": "Willow Park Zoo",
    "address": "419 W. 700 South, Logan, UT 84321",
    "phone": "(435) 752-3060",
    "rating": 4.0,
    "reviews": 25,
    "website": "https://www.google.com/maps/search/Willow+Park+Zoo+in+Utah",
    "category": "Alaska-Native-owned Childrens activities in Utah",
    "description": "Features a small zoo with over 600 animals, offering a family-friendly outing",
    "hours": "Mon-Fri 9AM-6PM",
    "services": [
      "Alaska-Native-owned Childrens activities in Utah consultation",
      "Professional service",
      "Quality guarantee"
    ],
    "social_links": {}
  }
]