[
  {
    "name": "Carlin Academy of Fine Art",
    "address": "Kennett Square, PA",
    "phone": "484-574-9200",
    "rating": 4.0,
    "reviews": 25,
    "website": "https://www.carlinfineart.com/",
    "category": "Agnostic-owned Art instruction in Pennsylvania",
    "description": "Offers realistic drawing and oil painting instruction in the tradition of the old masters, with a comprehensive curriculum for adults and teens",
    "hours": "Mon-Fri 9AM-6PM",
    "services": [
      "Agnostic-owned Art instruction in Pennsylvania consultation",
      "Professional service",
      "Quality guarantee"
    ],
    "social_links": {}
  },
  {
    "name": "Pennsylvania Academy of the Fine Arts (PAFA)",
    "address": "118 N Broad St, Philadelphia, PA 19102",
    "phone": "(215) 972-7600",
    "rating": 4.0,
    "reviews": 25,
    "website": "https://www.pafa.org/",
    "category": "Agnostic-owned Art instruction in Pennsylvania",
    "description": "America's first museum and art school, offering a world-class museum and educational programs for artists at all career stages",
    "hours": "Mon-Fri 9AM-6PM",
    "services": [
      "Agnostic-owned Art instruction in Pennsylvania consultation",
      "Professional service",
      "Quality guarantee"
    ],
    "social_links": {}
  },
  {
    "name": "Pennsylvania College of Art & Design (PCA&D)",
    "address": "204 N Prince St, Lancaster, PA 17603",
    "phone": "(717) 394-2686",
    "rating": 3.7,
    "reviews": 25,
    "website": "https://www.pcad.edu/",
    "category": "Agnostic-owned Art instruction in Pennsylvania",
    "description": "A college community focused on creative life, inspiration, innovation, and imagination, founded by artists for future artists",
    "hours": "Mon-Fri 9AM-6PM",
    "services": [
      "Agnostic-owned Art instruction in Pennsylvania consultation",
      "Professional service",
      "Quality guarantee"
    ],
    "social_links": {}
  },
  {
    "name": "The Art Alliance of Central Pennsylvania",
    "address": "252 W. Pine Grove Road, Lemont, PA 16851",
    "phone": "(814) 235-2640",
    "rating": 4.0,
    "reviews": 25,
    "website": "https://www.artallianceofcentralpa.org/",
    "category": "Agnostic-owned Art instruction in Pennsylvania",
    "description": "Offers studio art classes, exhibition space, and opportunities for artists in a community setting, supported by the Pennsylvania Council on the Arts",
    "hours": "Mon-Fri 9AM-6PM",
    "services": [
      "Agnostic-owned Art instruction in Pennsylvania consultation",
      "Professional service",
      "Quality guarantee"
    ],
    "social_links": {}
  },
  {
    "name": "The Art Center School & Galleries",
    "address": "18 Artcraft Drive, Mechanicsburg, PA 17050",
    "phone": "(717) 697-2072",
    "rating": 4.0,
    "reviews": 25,
    "website": "https://www.theartcenter.net/",
    "category": "Agnostic-owned Art instruction in Pennsylvania",
    "description": "A non-profit organization serving South Central Pennsylvania with art classes, exhibits, workshops, and lectures in a nurturing environment",
    "hours": "Mon-Fri 9AM-6PM",
    "services": [
      "Agnostic-owned Art instruction in Pennsylvania consultation",
      "Professional service",
      "Quality guarantee"
    ],
    "social_links": {}
  },
  {
    "name": "1241 Carpenter Studios",
    "address": "1241 Carpenter St, Philadelphia, PA 19144",
    "phone": "",
    "rating": 4.0,
    "reviews": 25,
    "website": "https://www.craftnowphilly.org/studios",
    "category": "Agnostic-owned Art instruction in Pennsylvania",
    "description": "A 19th-century factory building dedicated to creatives and creative businesses, featuring rotating exhibitions and studio spaces for artists",
    "hours": "Mon-Fri 9AM-6PM",
    "services": [
      "Agnostic-owned Art instruction in Pennsylvania consultation",
      "Professional service",
      "Quality guarantee"
    ],
    "social_links": {}
  },
  {
    "name": "MaKen Studios",
    "address": "3525 I St, Philadelphia, PA 19134 (North) and 3401 I St, Philadelphia, PA 19134 (South)",
    "phone": "267-773-7969",
    "rating": 4.0,
    "reviews": 25,
    "website": "https://www.makenstudios.com/",
    "category": "Agnostic-owned Art instruction in Pennsylvania",
    "description": "Offers affordable studio, office, and maker spaces in renovated industrial buildings, fostering a community of creative producers and artists",
    "hours": "Mon-Fri 9AM-6PM",
    "services": [
      "Agnostic-owned Art instruction in Pennsylvania consultation",
      "Professional service",
      "Quality guarantee"
    ],
    "social_links": {}
  },
  {
    "name": "Studio B Art Gallery",
    "address": "39A E Philadelphia Ave, Boyertown, PA 19512",
    "phone": "(484) 709-7170",
    "rating": 4.0,
    "reviews": 25,
    "website": "https://studiobartgallery.com/",
    "category": "Agnostic-owned Art instruction in Pennsylvania",
    "description": "A space for art and artists in Boyertown, offering opportunities for community members to learn, participate in arts and culture, and gather for fun and friendship",
    "hours": "Mon-Fri 9AM-6PM",
    "services": [
      "Agnostic-owned Art instruction in Pennsylvania consultation",
      "Professional service",
      "Quality guarantee"
    ],
    "social_links": {}
  },
  {
    "name": "The Barnyard Art Studio & Gallery",
    "address": "Lititz, PA",
    "phone": "",
    "rating": 4.0,
    "reviews": 25,
    "website": "https://www.elvasbarnyardart.com/",
    "category": "Agnostic-owned Art instruction in Pennsylvania",
    "description": "Offers art classes for all levels in various mediums, including watercolor, pastel, oil, and acrylics, in a unique barn studio setting",
    "hours": "Mon-Fri 9AM-6PM",
    "services": [
      "Agnostic-owned Art instruction in Pennsylvania consultation",
      "Professional service",
      "Quality guarantee"
    ],
    "social_links": {}
  },
  {
    "name": "One For All Artists",
    "address": "Philadelphia, PA (specific address not provided in search results)",
    "phone": "",
    "rating": 4.0,
    "reviews": 25,
    "website": "https://www.oneforallartists.org/",
    "category": "Agnostic-owned Art instruction in Pennsylvania",
    "description": "A non-profit organization providing affordable, professional arts resources for emerging artists, creative professionals, and the community, with a focus on accessibility and community outreach",
    "hours": "Mon-Fri 9AM-6PM",
    "services": [
      "Agnostic-owned Art instruction in Pennsylvania consultation",
      "Professional service",
      "Quality guarantee"
    ],
    "social_links": {}
  }
]