[
  {
    "name": "ABC Home & Commercial Services",
    "address": "Multiple locations, including Houston, TX",
    "phone": "(281) 730-9500",
    "rating": 4.7,
    "reviews": 25,
    "website": "https://www.abchomeandcommercial.com/",
    "category": "Gen-X-owned Wasp control in Texas",
    "description": "Offers expert wasp extermination and bee removal services, with a focus on safety and humane relocation when possible. They provide inspections, treatments, and preventative measures",
    "hours": "Mon-Fri 9AM-6PM",
    "services": [
      "Gen-X-owned Wasp control in Texas consultation",
      "Professional service",
      "Quality guarantee"
    ],
    "social_links": {}
  },
  {
    "name": "Stampede Pest Control",
    "address": "Multiple locations, including Dallas, TX, Cypress, TX, and Austin, TX",
    "phone": "(713) 714-6970 (Cypress) / (512) 368-8850 (Austin)",
    "rating": 4.0,
    "reviews": 25,
    "website": "https://stampede-pest-control.com/",
    "category": "Gen-X-owned Wasp control in Texas",
    "description": "Provides affordable and guaranteed wasp control services in Dallas and surrounding areas, including nest removal and prevention",
    "hours": "Mon-Fri 9AM-6PM",
    "services": [
      "Gen-X-owned Wasp control in Texas consultation",
      "Professional service",
      "Quality guarantee"
    ],
    "social_links": {}
  },
  {
    "name": "A-Tex Pest Management",
    "address": "Austin, TX",
    "phone": "(512) 714-3383",
    "rating": 4.0,
    "reviews": 25,
    "website": "https://www.atexpest.com/",
    "category": "Gen-X-owned Wasp control in Texas",
    "description": "Offers effective wasp removal solutions for homes and businesses in the greater Austin area, including humane bee relocation and preventative guidance",
    "hours": "Mon-Fri 9AM-6PM",
    "services": [
      "Gen-X-owned Wasp control in Texas consultation",
      "Professional service",
      "Quality guarantee"
    ],
    "social_links": {}
  },
  {
    "name": "Reliant Pest Management",
    "address": "Houston, TX",
    "phone": "",
    "rating": 4.7,
    "reviews": 25,
    "website": "https://reliantpestmanagement.com/",
    "category": "Gen-X-owned Wasp control in Texas",
    "description": "Provides wasp control services in Houston, including safe nest removal, long-term prevention, and a re-treatment guarantee",
    "hours": "Mon-Fri 9AM-6PM",
    "services": [
      "Gen-X-owned Wasp control in Texas consultation",
      "Professional service",
      "Quality guarantee"
    ],
    "social_links": {}
  },
  {
    "name": "HomeTeam Pest Defense",
    "address": "Headquarters in Dallas, TX, with numerous locations across the US",
    "phone": "(855) 855-5525",
    "rating": 4.0,
    "reviews": 25,
    "website": "https://www.pestdefense.com/",
    "category": "Gen-X-owned Wasp control in Texas",
    "description": "A large pest control company specializing in various pest management solutions, including wasp control, with a proprietary built-in pest control system",
    "hours": "Mon-Fri 9AM-6PM",
    "services": [
      "Gen-X-owned Wasp control in Texas consultation",
      "Professional service",
      "Quality guarantee"
    ],
    "social_links": {}
  },
  {
    "name": "All-Safe Pest & Termite",
    "address": "Multiple locations, including Dallas-Fort Worth and Houston, TX",
    "phone": "(972) 945-9226",
    "rating": 4.0,
    "reviews": 25,
    "website": "https://www.allsafepest.com/",
    "category": "Gen-X-owned Wasp control in Texas",
    "description": "Offers stinging insect control for wasps and hornets in the DFW Metro and Houston areas, using safe and effective treatments with a three-step process: inspection, treatment, and follow-up",
    "hours": "Mon-Fri 9AM-6PM",
    "services": [
      "Gen-X-owned Wasp control in Texas consultation",
      "Professional service",
      "Quality guarantee"
    ],
    "social_links": {}
  },
  {
    "name": "Forterra Pest Control",
    "address": "Dallas, TX",
    "phone": "(817) 665-6527",
    "rating": 4.0,
    "reviews": 25,
    "website": "https://forterrapest.com/",
    "category": "Gen-X-owned Wasp control in Texas",
    "description": "Provides wasp nest removal and exterminator services in Dallas, with a focus on quick and efficient treatments, clear pricing, and a satisfaction guarantee",
    "hours": "Mon-Fri 9AM-6PM",
    "services": [
      "Gen-X-owned Wasp control in Texas consultation",
      "Professional service",
      "Quality guarantee"
    ],
    "social_links": {}
  },
  {
    "name": "Home and Hive Pest Control",
    "address": "North Texas",
    "phone": "",
    "rating": 4.0,
    "reviews": 25,
    "website": "https://homeandhivepestcontrol.com/",
    "category": "Gen-X-owned Wasp control in Texas",
    "description": "Offers expert wasp control services in North Texas, specializing in managing over 100 types of wasp species with safe, effective, and eco-conscious solutions, including pollinator-friendly methods",
    "hours": "Mon-Fri 9AM-6PM",
    "services": [
      "Gen-X-owned Wasp control in Texas consultation",
      "Professional service",
      "Quality guarantee"
    ],
    "social_links": {}
  },
  {
    "name": "Alamo Termite & Pest Control",
    "address": "Fort Worth, TX",
    "phone": "",
    "rating": 4.0,
    "reviews": 25,
    "website": "https://alamotermite.com/",
    "category": "Gen-X-owned Wasp control in Texas",
    "description": "Specializes in professional wasp removal in Fort Worth, offering thorough inspections, effective treatments, complete nest removal, and options for one-time or recurring services",
    "hours": "Mon-Fri 9AM-6PM",
    "services": [
      "Gen-X-owned Wasp control in Texas consultation",
      "Professional service",
      "Quality guarantee"
    ],
    "social_links": {}
  },
  {
    "name": "EcoForce Pest Management",
    "address": "Not explicitly listed, but they serve Texas",
    "phone": "830-507-2847",
    "rating": 4.0,
    "reviews": 25,
    "website": "https://ecoforcepest.com/",
    "category": "Gen-X-owned Wasp control in Texas",
    "description": "Provides guaranteed wasp control in Texas with a focus on minimal environmental impact and eco-friendly solutions, including customized removal strategies and wasp traps",
    "hours": "Mon-Fri 9AM-6PM",
    "services": [
      "Gen-X-owned Wasp control in Texas consultation",
      "Professional service",
      "Quality guarantee"
    ],
    "social_links": {}
  }
]