[
  {
    "name": "Kabob & Curry",
    "address": "1707 Whitehead Rd, Linthicum Heights, MD 21090",
    "phone": "(410) 636-1000",
    "rating": 4.5,
    "reviews": 25,
    "website": "http://www.kabobandcurry.com/",
    "category": "Bengali-speaking Caf\u00e9s in Maryland",
    "description": "Offers a variety of Indian food, including beef shish kabob, lamb dahi goshat, tandoori chicken, and salmon fish curry",
    "hours": "Mon-Fri 9AM-6PM",
    "services": [
      "Bengali-speaking Caf\u00e9s in Maryland consultation",
      "Professional service",
      "Quality guarantee"
    ],
    "social_links": {}
  },
  {
    "name": "Commonwealth Indian Restaurant",
    "address": "109 Pleasant St NW, North Bethesda, MD 20852",
    "phone": "(301) 770-2400",
    "rating": 4.6,
    "reviews": 25,
    "website": "http://www.commonwealthindian.com/",
    "category": "Bengali-speaking Caf\u00e9s in Maryland",
    "description": "An upscale Indian restaurant offering authentic Indian cuisine in an elegant dining atmosphere, with a full-service bar",
    "hours": "Mon-Fri 9AM-6PM",
    "services": [
      "Bengali-speaking Caf\u00e9s in Maryland consultation",
      "Professional service",
      "Quality guarantee"
    ],
    "social_links": {}
  },
  {
    "name": "Maryland Tandoor",
    "address": "8150 Baltimore Ave, Suite E, College Park, MD 20740",
    "phone": "(240) 790-8966",
    "rating": 4.7,
    "reviews": 25,
    "website": "https://www.marylandtandoor.com/",
    "category": "Bengali-speaking Caf\u00e9s in Maryland",
    "description": "Premier Indian dining restaurant serving authentic dishes crafted with passion and care, known for its biryani",
    "hours": "Mon-Fri 9AM-6PM",
    "services": [
      "Bengali-speaking Caf\u00e9s in Maryland consultation",
      "Professional service",
      "Quality guarantee"
    ],
    "social_links": {}
  },
  {
    "name": "Punjab Cafe Indian Cuisine",
    "address": "10325 Westlake Dr, Bethesda, MD 20817",
    "phone": "(301) 881-1112",
    "rating": 4.4,
    "reviews": 25,
    "website": "http://www.punjabcafe.com/",
    "category": "Bengali-speaking Caf\u00e9s in Maryland",
    "description": "Provides authentic Indian food made with fresh ingredients in a welcoming atmosphere",
    "hours": "Mon-Fri 9AM-6PM",
    "services": [
      "Bengali-speaking Caf\u00e9s in Maryland consultation",
      "Professional service",
      "Quality guarantee"
    ],
    "social_links": {}
  },
  {
    "name": "Cafe Spice Indian Cuisine",
    "address": "10540 York Rd, Cockeysville, MD 21030",
    "phone": "(410) 666-5500",
    "rating": 4.5,
    "reviews": 25,
    "website": "http://www.cafespiceindiancuisine.com/",
    "category": "Bengali-speaking Caf\u00e9s in Maryland",
    "description": "Known for authentic Indian flavors and a diverse menu, offering vegan, vegetarian, and meat dishes in a casual atmosphere",
    "hours": "Mon-Fri 9AM-6PM",
    "services": [
      "Bengali-speaking Caf\u00e9s in Maryland consultation",
      "Professional service",
      "Quality guarantee"
    ],
    "social_links": {}
  },
  {
    "name": "Basmati Indian Restaurant",
    "address": "1975 West St, Annapolis, MD 21401",
    "phone": "(410) 263-4500",
    "rating": 4.5,
    "reviews": 25,
    "website": "http://www.basmatiannapolis.com/",
    "category": "Bengali-speaking Caf\u00e9s in Maryland",
    "description": "Offers an exquisite selection of North Indian delicacies with fine dining, catering, and carryout services",
    "hours": "Mon-Fri 9AM-6PM",
    "services": [
      "Bengali-speaking Caf\u00e9s in Maryland consultation",
      "Professional service",
      "Quality guarantee"
    ],
    "social_links": {}
  },
  {
    "name": "Curry Place Germantown",
    "address": "12035-A Wisteria Dr, Germantown, MD 20874",
    "phone": "(301) 515-3300",
    "rating": 4.5,
    "reviews": 25,
    "website": "http://www.curryplace.com/",
    "category": "Bengali-speaking Caf\u00e9s in Maryland",
    "description": "Serves vibrant Indian, Indo-Chinese, and Nepalese dishes made with fresh, high-quality ingredients in a warm, cozy atmosphere",
    "hours": "Mon-Fri 9AM-6PM",
    "services": [
      "Bengali-speaking Caf\u00e9s in Maryland consultation",
      "Professional service",
      "Quality guarantee"
    ],
    "social_links": {}
  },
  {
    "name": "Clove n Cardamom",
    "address": "6025 Meadowridge Rd, Columbia, MD 21045",
    "phone": "(410) 992-0000",
    "rating": 4.6,
    "reviews": 25,
    "website": "http://www.cloveandcardamom.com/",
    "category": "Bengali-speaking Caf\u00e9s in Maryland",
    "description": "Offers a variety of globally inspired cuisines enriched with subtle Indian spices, focusing on fresh and healthy food",
    "hours": "Mon-Fri 9AM-6PM",
    "services": [
      "Bengali-speaking Caf\u00e9s in Maryland consultation",
      "Professional service",
      "Quality guarantee"
    ],
    "social_links": {}
  },
  {
    "name": "Little India Cafe",
    "address": "7072 Ritchie Hwy, Glen Burnie, MD 21061",
    "phone": "(410) 760-1111",
    "rating": 4.3,
    "reviews": 25,
    "website": "http://www.littleindiacafe.com/",
    "category": "Bengali-speaking Caf\u00e9s in Maryland",
    "description": "Offers authentic Indian cuisine with a rich and diverse menu, available for pickup or delivery",
    "hours": "Mon-Fri 9AM-6PM",
    "services": [
      "Bengali-speaking Caf\u00e9s in Maryland consultation",
      "Professional service",
      "Quality guarantee"
    ],
    "social_links": {}
  },
  {
    "name": "SpiceGrill Restaurant",
    "address": "12611 Wisteria Dr, Germantown, MD 20874",
    "phone": "(301) 515-3300",
    "rating": 4.5,
    "reviews": 25,
    "website": "http://www.spicegrillmd.com/",
    "category": "Bengali-speaking Caf\u00e9s in Maryland",
    "description": "Features Bangladeshi, Indian, and Pakistani cuisine, known for its biryani and \"Desi-Style\" Chinese options",
    "hours": "Mon-Fri 9AM-6PM",
    "services": [
      "Bengali-speaking Caf\u00e9s in Maryland consultation",
      "Professional service",
      "Quality guarantee"
    ],
    "social_links": {}
  }
]