[
  {
    "name": "SWCA Environmental Consultants",
    "address": "3401 Pan American Fwy NE, Albuquerque, NM 87107",
    "phone": "(505) 344-7071",
    "rating": 4.0,
    "reviews": 25,
    "website": "https://www.swca.com/",
    "category": "Asian-owned Environmental compliance consulting in New-Mexico",
    "description": "SWCA is an employee-owned environmental consulting firm providing scientific expertise and industry knowledge to guide clients through compliance",
    "hours": "Mon-Fri 9AM-6PM",
    "services": [
      "Asian-owned Environmental compliance consulting in New-Mexico consultation",
      "Professional service",
      "Quality guarantee"
    ],
    "social_links": {}
  },
  {
    "name": "Marron and Associates (now NV5)",
    "address": "10000 Copper Ave NE, Albuquerque, NM 87123",
    "phone": "(505) 821-4400",
    "rating": 4.0,
    "reviews": 25,
    "website": "https://www.nv5.com/",
    "category": "Asian-owned Environmental compliance consulting in New-Mexico",
    "description": "NV5 offers a full range of environmental and geotechnical engineering services, specializing in environmental documentation, biological and cultural resource investigations, and regulatory permitting and compliance",
    "hours": "Mon-Fri 9AM-6PM",
    "services": [
      "Asian-owned Environmental compliance consulting in New-Mexico consultation",
      "Professional service",
      "Quality guarantee"
    ],
    "social_links": {}
  },
  {
    "name": "Barr Engineering Co.",
    "address": "320 Osuna Rd NE, Suite G-4, Albuquerque, NM 87107",
    "phone": "(505) 344-7071",
    "rating": 4.0,
    "reviews": 25,
    "website": "https://www.barr.com/",
    "category": "Asian-owned Environmental compliance consulting in New-Mexico",
    "description": "Barr's integrated environmental and engineering services serve various clients across New Mexico and the Four Corners region, focusing on environmental compliance and permitting",
    "hours": "Mon-Fri 9AM-6PM",
    "services": [
      "Asian-owned Environmental compliance consulting in New-Mexico consultation",
      "Professional service",
      "Quality guarantee"
    ],
    "social_links": {}
  },
  {
    "name": "Rocky Mountain Ecology, LLC",
    "address": "7601 Jefferson St NE, Albuquerque, NM 87109",
    "phone": "(505) 227-9045",
    "rating": 4.0,
    "reviews": 25,
    "website": "https://www.rockymountainecology.com/",
    "category": "Asian-owned Environmental compliance consulting in New-Mexico",
    "description": "Rocky Mountain Ecology is an environmental consulting firm with experience in project management, environmental review, and NEPA compliance for various projects",
    "hours": "Mon-Fri 9AM-6PM",
    "services": [
      "Asian-owned Environmental compliance consulting in New-Mexico consultation",
      "Professional service",
      "Quality guarantee"
    ],
    "social_links": {}
  },
  {
    "name": "Grouse Mountain",
    "address": "Not specified in search results",
    "phone": "(307) 684-2112",
    "rating": 4.0,
    "reviews": 25,
    "website": "https://grousemountain.com/",
    "category": "Asian-owned Environmental compliance consulting in New-Mexico",
    "description": "Grouse Mountain provides environmental consulting services in New Mexico, assisting clients from planning stages through project completion to minimize environmental effects and meet permit requirements",
    "hours": "Mon-Fri 9AM-6PM",
    "services": [
      "Asian-owned Environmental compliance consulting in New-Mexico consultation",
      "Professional service",
      "Quality guarantee"
    ],
    "social_links": {}
  },
  {
    "name": "Animas Environmental Services, LLC",
    "address": "505 N. Butler Ave, Farmington, NM 87401",
    "phone": "(505) 564-2281",
    "rating": 4.0,
    "reviews": 25,
    "website": "https://animasenv.com/",
    "category": "Asian-owned Environmental compliance consulting in New-Mexico",
    "description": "Animas Environmental Services offers comprehensive environmental engineering and consulting services throughout the Four Corners region, including environmental permitting and planning",
    "hours": "Mon-Fri 9AM-6PM",
    "services": [
      "Asian-owned Environmental compliance consulting in New-Mexico consultation",
      "Professional service",
      "Quality guarantee"
    ],
    "social_links": {}
  },
  {
    "name": "Resource Management Associates (RMA)",
    "address": "Not specified in search results",
    "phone": "",
    "rating": 4.0,
    "reviews": 25,
    "website": "https://www.rmacg.com/new-mexico-environmental-solutions/",
    "category": "Asian-owned Environmental compliance consulting in New-Mexico",
    "description": "RMA offers expert environmental consulting services in New Mexico, assisting businesses with regulatory compliance and sustainability practices",
    "hours": "Mon-Fri 9AM-6PM",
    "services": [
      "Asian-owned Environmental compliance consulting in New-Mexico consultation",
      "Professional service",
      "Quality guarantee"
    ],
    "social_links": {}
  },
  {
    "name": "Walsh Engineering & Production",
    "address": "500 N. Butler Ave, Aztec, NM 87410",
    "phone": "(505) 334-3101",
    "rating": 4.0,
    "reviews": 25,
    "website": "https://www.walshgroup.com/services/engineering-production/",
    "category": "Asian-owned Environmental compliance consulting in New-Mexico",
    "description": "Walsh Engineering & Production provides regulatory and environmental compliance services, including site remediation, environmental permitting, and regulatory reporting",
    "hours": "Mon-Fri 9AM-6PM",
    "services": [
      "Asian-owned Environmental compliance consulting in New-Mexico consultation",
      "Professional service",
      "Quality guarantee"
    ],
    "social_links": {}
  },
  {
    "name": "ETS New Mexico",
    "address": "4501 Bogan Ave NE, Suite B3, Albuquerque, NM 87109",
    "phone": "(505) 881-0243",
    "rating": 4.0,
    "reviews": 25,
    "website": "https://etsnm.com/",
    "category": "Asian-owned Environmental compliance consulting in New-Mexico",
    "description": "ETS New Mexico offers environmental testing services, including water quality testing, radon testing, and well inspections",
    "hours": "Mon-Fri 9AM-6PM",
    "services": [
      "Asian-owned Environmental compliance consulting in New-Mexico consultation",
      "Professional service",
      "Quality guarantee"
    ],
    "social_links": {}
  },
  {
    "name": "Crystal Clean",
    "address": "10000 Copper Ave NE, Albuquerque, NM 87123",
    "phone": "(505) 821-4400",
    "rating": 4.0,
    "reviews": 25,
    "website": "https://www.crystal-clean.com/locations/albuquerque-nm/",
    "category": "Asian-owned Environmental compliance consulting in New-Mexico",
    "description": "Crystal Clean's Albuquerque branch offers environmental services to help businesses with sustainable waste management",
    "hours": "Mon-Fri 9AM-6PM",
    "services": [
      "Asian-owned Environmental compliance consulting in New-Mexico consultation",
      "Professional service",
      "Quality guarantee"
    ],
    "social_links": {}
  }
]