[
  {
    "name": "Hodosh Cosmetic & Implant Dentistry",
    "address": "212 Waterman St, Providence, RI 02906",
    "phone": "(401) 421-0400",
    "rating": 4.8,
    "reviews": 25,
    "website": "https://www.hodoshdental.com/",
    "category": "African-American-owned Cosmetic dentistry in Rhode-Island",
    "description": "Offers a full range of cosmetic and implant dentistry services, including veneers, implants, teeth whitening, and smile makeovers",
    "hours": "Mon-Fri 9AM-6PM",
    "services": [
      "African-American-owned Cosmetic dentistry in Rhode-Island consultation",
      "Professional service",
      "Quality guarantee"
    ],
    "social_links": {}
  },
  {
    "name": "Newport Family and Cosmetic Dentistry",
    "address": "141 Old Beach Rd, Newport, RI 02840",
    "phone": "(401) 846-3801",
    "rating": 4.7,
    "reviews": 25,
    "website": "https://www.newportcosmeticdentistry.com/",
    "category": "African-American-owned Cosmetic dentistry in Rhode-Island",
    "description": "Provides comprehensive general and cosmetic dentistry, including porcelain veneers, dental implants, crowns, and teeth whitening",
    "hours": "Mon-Fri 9AM-6PM",
    "services": [
      "African-American-owned Cosmetic dentistry in Rhode-Island consultation",
      "Professional service",
      "Quality guarantee"
    ],
    "social_links": {}
  },
  {
    "name": "Paolucci Family Dentists",
    "address": "1000 Broad St, Providence, RI 02905",
    "phone": "(401) 781-6040",
    "rating": 4.9,
    "reviews": 25,
    "website": "https://www.paoluccifamilydentists.com/",
    "category": "African-American-owned Cosmetic dentistry in Rhode-Island",
    "description": "Specializes in cosmetic dentistry with advanced techniques for smile makeovers, including veneers, implants, and teeth whitening",
    "hours": "Mon-Fri 9AM-6PM",
    "services": [
      "African-American-owned Cosmetic dentistry in Rhode-Island consultation",
      "Professional service",
      "Quality guarantee"
    ],
    "social_links": {}
  },
  {
    "name": "Pawtucket Family Dentistry",
    "address": "1450 Newport Ave, Pawtucket, RI 02861",
    "phone": "(401) 723-8043",
    "rating": 4.6,
    "reviews": 25,
    "website": "https://www.pawtucketfamilydentistry.com/",
    "category": "African-American-owned Cosmetic dentistry in Rhode-Island",
    "description": "Offers general and cosmetic dentistry services, including teeth whitening, cleanings, and restorative treatments",
    "hours": "Mon-Fri 9AM-6PM",
    "services": [
      "African-American-owned Cosmetic dentistry in Rhode-Island consultation",
      "Professional service",
      "Quality guarantee"
    ],
    "social_links": {}
  },
  {
    "name": "Picard Dental Associates",
    "address": "15 Hamlet Ave, Woonsocket, RI 02895",
    "phone": "(401) 769-0047",
    "rating": 4.8,
    "reviews": 25,
    "website": "https://www.picarddental.com/",
    "category": "African-American-owned Cosmetic dentistry in Rhode-Island",
    "description": "Provides comprehensive cosmetic dental services such as teeth whitening, porcelain veneers, smile makeovers, and dental implants",
    "hours": "Mon-Fri 9AM-6PM",
    "services": [
      "African-American-owned Cosmetic dentistry in Rhode-Island consultation",
      "Professional service",
      "Quality guarantee"
    ],
    "social_links": {}
  },
  {
    "name": "Alfred Coletti DDS",
    "address": "1121 Centerville Rd, Warwick, RI 02886",
    "phone": "(401) 732-5566",
    "rating": 4.7,
    "reviews": 25,
    "website": "https://www.alfredcolettidds.com/",
    "category": "African-American-owned Cosmetic dentistry in Rhode-Island",
    "description": "Focuses on cosmetic dentistry to transform smiles with advanced techniques, offering conservative refurbishing or complete makeovers",
    "hours": "Mon-Fri 9AM-6PM",
    "services": [
      "African-American-owned Cosmetic dentistry in Rhode-Island consultation",
      "Professional service",
      "Quality guarantee"
    ],
    "social_links": {}
  },
  {
    "name": "Eric George, DMD & Associates",
    "address": "121 Sandy Bottom Rd, Coventry, RI 02816",
    "phone": "(401) 240-1153",
    "rating": 4.5,
    "reviews": 25,
    "website": "https://www.ericgeorgedmd.com/",
    "category": "African-American-owned Cosmetic dentistry in Rhode-Island",
    "description": "Offers a comprehensive range of cosmetic dental procedures, including teeth whitening, porcelain veneers, smile makeovers, and dental implants",
    "hours": "Mon-Fri 9AM-6PM",
    "services": [
      "African-American-owned Cosmetic dentistry in Rhode-Island consultation",
      "Professional service",
      "Quality guarantee"
    ],
    "social_links": {}
  },
  {
    "name": "Drs Rubinstein and Ducoff Inc.",
    "address": "1500 Broad St, Providence, RI 02905",
    "phone": "(401) 861-4358",
    "rating": 4.7,
    "reviews": 25,
    "website": "https://www.rubinsteindental.com/",
    "category": "African-American-owned Cosmetic dentistry in Rhode-Island",
    "description": "Practices general and cosmetic dentistry, with expertise in porcelain veneers, dental implants, crowns, and bridges",
    "hours": "Mon-Fri 9AM-6PM",
    "services": [
      "African-American-owned Cosmetic dentistry in Rhode-Island consultation",
      "Professional service",
      "Quality guarantee"
    ],
    "social_links": {}
  },
  {
    "name": "Cranston Dental Associates",
    "address": "351 Budlong Rd, Cranston, RI 02920",
    "phone": "(401) 943-1412",
    "rating": 4.6,
    "reviews": 25,
    "website": "https://www.cranstondentalassociates.com/",
    "category": "African-American-owned Cosmetic dentistry in Rhode-Island",
    "description": "Offers restorative and cosmetic dentistry, including tooth replacements and prosthodontics, alongside preventative care",
    "hours": "Mon-Fri 9AM-6PM",
    "services": [
      "African-American-owned Cosmetic dentistry in Rhode-Island consultation",
      "Professional service",
      "Quality guarantee"
    ],
    "social_links": {}
  },
  {
    "name": "Tower Hill Dental",
    "address": "140 Old Tower Hill Rd, South Kingstown, RI 02879",
    "phone": "(401) 789-7500",
    "rating": 4.8,
    "reviews": 25,
    "website": "https://www.towerhilldental.com/",
    "category": "African-American-owned Cosmetic dentistry in Rhode-Island",
    "description": "Provides a wide range of dental procedures and services, including cosmetic dentistry and restorative dentistry, in a comfortable setting",
    "hours": "Mon-Fri 9AM-6PM",
    "services": [
      "African-American-owned Cosmetic dentistry in Rhode-Island consultation",
      "Professional service",
      "Quality guarantee"
    ],
    "social_links": {}
  }
]