[
  {
    "name": "Deliberate Directions",
    "address": "Boise, ID",
    "phone": "(208) 391-4000",
    "rating": 5.0,
    "reviews": 25,
    "website": "https://www.deliberatedirections.com/",
    "category": "Baby-Boomer-owned Executive coaching in Idaho",
    "description": "Offers executive coaching and business coaching services focused on empowering leaders to achieve clarity, build high-performing teams, and create lasting impact",
    "hours": "Mon-Fri 9AM-6PM",
    "services": [
      "Baby-Boomer-owned Executive coaching in Idaho consultation",
      "Professional service",
      "Quality guarantee"
    ],
    "social_links": {}
  },
  {
    "name": "Excellence Executive Coaching",
    "address": "408 South Eagle Road STE 205, Eagle, ID 83616",
    "phone": "(719) 502-1034",
    "rating": 4.0,
    "reviews": 25,
    "website": "https://www.excellenceexecutivcoaching.com/",
    "category": "Baby-Boomer-owned Executive coaching in Idaho",
    "description": "Provides executive coaching, leadership development, and team productivity improvement services for businesses and individuals",
    "hours": "Mon-Fri 9AM-6PM",
    "services": [
      "Baby-Boomer-owned Executive coaching in Idaho consultation",
      "Professional service",
      "Quality guarantee"
    ],
    "social_links": {}
  },
  {
    "name": "Leadership Coach Group",
    "address": "Boise, ID",
    "phone": "",
    "rating": 4.0,
    "reviews": 25,
    "website": "https://www.leadershipcoachgroup.com/",
    "category": "Baby-Boomer-owned Executive coaching in Idaho",
    "description": "Offers executive coaching, team coaching, and leadership assessments with a personalized approach grounded in science-backed methods",
    "hours": "Mon-Fri 9AM-6PM",
    "services": [
      "Baby-Boomer-owned Executive coaching in Idaho consultation",
      "Professional service",
      "Quality guarantee"
    ],
    "social_links": {}
  },
  {
    "name": "Mark Daly Executive Coach",
    "address": "Boise, ID",
    "phone": "(986) 888-0111",
    "rating": 4.0,
    "reviews": 25,
    "website": "https://www.markdaly.com/",
    "category": "Baby-Boomer-owned Executive coaching in Idaho",
    "description": "Provides expert coaching services to professionals across industries, focusing on leadership clarity, confidence, and personal growth",
    "hours": "Mon-Fri 9AM-6PM",
    "services": [
      "Baby-Boomer-owned Executive coaching in Idaho consultation",
      "Professional service",
      "Quality guarantee"
    ],
    "social_links": {}
  },
  {
    "name": "Black River Performance Management",
    "address": "Idaho & Serving The Greater Northwest & Beyond",
    "phone": "+1-208-450-5957",
    "rating": 4.0,
    "reviews": 25,
    "website": "https://www.blackriverpm.com/",
    "category": "Baby-Boomer-owned Executive coaching in Idaho",
    "description": "Offers executive coaching, leadership development, and team building services, combining individualized action plans with strategic corporate planning",
    "hours": "Mon-Fri 9AM-6PM",
    "services": [
      "Baby-Boomer-owned Executive coaching in Idaho consultation",
      "Professional service",
      "Quality guarantee"
    ],
    "social_links": {}
  },
  {
    "name": "FocalPoint Business Coaching of Idaho Falls",
    "address": "Idaho Falls, ID",
    "phone": "(360) 621-2512",
    "rating": 4.0,
    "reviews": 25,
    "website": "https://www.focalpointcoaching.com/idaho-falls/",
    "category": "Baby-Boomer-owned Executive coaching in Idaho",
    "description": "Provides business coaching and consulting services aimed at streamlining operations, improving efficiency, and driving sustainable growth for businesses",
    "hours": "Mon-Fri 9AM-6PM",
    "services": [
      "Baby-Boomer-owned Executive coaching in Idaho consultation",
      "Professional service",
      "Quality guarantee"
    ],
    "social_links": {}
  },
  {
    "name": "Coaching 391\u00b0",
    "address": "Coeur d'Alene, ID",
    "phone": "coach391@proton.me (email provided for contact)",
    "rating": 4.0,
    "reviews": 25,
    "website": "https://www.coaching391.com/",
    "category": "Baby-Boomer-owned Executive coaching in Idaho",
    "description": "Specializes in professional coaching and consulting, offering tailored strategies for leadership development, change management, and work-life balance",
    "hours": "Mon-Fri 9AM-6PM",
    "services": [
      "Baby-Boomer-owned Executive coaching in Idaho consultation",
      "Professional service",
      "Quality guarantee"
    ],
    "social_links": {}
  },
  {
    "name": "Robertson Leadership",
    "address": "1240 W. Deer Crest Dr., Meridian, ID 83646",
    "phone": "Steve Robertson: 208.484.1069; Andrew Stevenson: 208.440.3259",
    "rating": 4.0,
    "reviews": 25,
    "website": "https://www.robertsonleadership.com/",
    "category": "Baby-Boomer-owned Executive coaching in Idaho",
    "description": "Provides leadership coaching and development programs for individuals and organizations, focusing on enhancing leadership skills and driving business transformation",
    "hours": "Mon-Fri 9AM-6PM",
    "services": [
      "Baby-Boomer-owned Executive coaching in Idaho consultation",
      "Professional service",
      "Quality guarantee"
    ],
    "social_links": {}
  },
  {
    "name": "MEI Coaching",
    "address": "1664 S Woodsage Ave ste 100, Meridian, ID 83642",
    "phone": "208-546-9758",
    "rating": 4.0,
    "reviews": 25,
    "website": "https://www.mei-coaching.com/",
    "category": "Baby-Boomer-owned Executive coaching in Idaho",
    "description": "Offers coaching programs aimed at building a strong veteran-business ecosystem in Idaho, empowering transitioning service members and business leaders",
    "hours": "Mon-Fri 9AM-6PM",
    "services": [
      "Baby-Boomer-owned Executive coaching in Idaho consultation",
      "Professional service",
      "Quality guarantee"
    ],
    "social_links": {}
  },
  {
    "name": "WorkSmart Coaching",
    "address": "Virtual Coaching",
    "phone": "",
    "rating": 4.0,
    "reviews": 25,
    "website": "https://www.worksmartcoaching.com/",
    "category": "Baby-Boomer-owned Executive coaching in Idaho",
    "description": "Provides Executive Function support through one-on-one virtual coaching and group accountability programs for adults seeking to improve their lives and achieve goals",
    "hours": "Mon-Fri 9AM-6PM",
    "services": [
      "Baby-Boomer-owned Executive coaching in Idaho consultation",
      "Professional service",
      "Quality guarantee"
    ],
    "social_links": {}
  }
]