[
  {
    "name": "Hunton Andrews Kurth LLP",
    "address": "Multiple locations, including Richmond, VA",
    "phone": "(804) 788-8200",
    "rating": 4.0,
    "reviews": 25,
    "website": "https://www.huntonak.com/en/",
    "category": "Chinese-American-owned Environmental law in Virginia",
    "description": "A global law firm with a strong environmental practice, handling litigation, regulatory compliance, and enforcement proceedings",
    "hours": "Mon-Fri 9AM-6PM",
    "services": [
      "Chinese-American-owned Environmental law in Virginia consultation",
      "Professional service",
      "Quality guarantee"
    ],
    "social_links": {}
  },
  {
    "name": "Troutman Pepper Locke LLP",
    "address": "Multiple locations, including Richmond, VA",
    "phone": "(804) 697-1200",
    "rating": 4.0,
    "reviews": 25,
    "website": "https://www.troutman.com/",
    "category": "Chinese-American-owned Environmental law in Virginia",
    "description": "Known for its strength in water matters, this firm handles site development, environmental litigation, and due diligence for business transactions",
    "hours": "Mon-Fri 9AM-6PM",
    "services": [
      "Chinese-American-owned Environmental law in Virginia consultation",
      "Professional service",
      "Quality guarantee"
    ],
    "social_links": {}
  },
  {
    "name": "Williams Mullen",
    "address": "Multiple locations, including Richmond, VA",
    "phone": "(804) 648-2100",
    "rating": 4.0,
    "reviews": 25,
    "website": "https://www.williamsmullen.com/",
    "category": "Chinese-American-owned Environmental law in Virginia",
    "description": "Offers a broad range of environmental services, including defense of environmental liability litigation, permitting, and advising on environmental aspects of corporate acquisitions",
    "hours": "Mon-Fri 9AM-6PM",
    "services": [
      "Chinese-American-owned Environmental law in Virginia consultation",
      "Professional service",
      "Quality guarantee"
    ],
    "social_links": {}
  },
  {
    "name": "Gentry Locke",
    "address": "Multiple locations, including Roanoke, VA",
    "phone": "(540) 983-9300",
    "rating": 4.0,
    "reviews": 25,
    "website": "https://www.gentrylocke.com/",
    "category": "Chinese-American-owned Environmental law in Virginia",
    "description": "Provides specialized experience in environmental issues, assisting with risk assessment, compliance audits, and crisis management",
    "hours": "Mon-Fri 9AM-6PM",
    "services": [
      "Chinese-American-owned Environmental law in Virginia consultation",
      "Professional service",
      "Quality guarantee"
    ],
    "social_links": {}
  },
  {
    "name": "McGuireWoods LLP",
    "address": "Multiple locations, including Richmond, VA",
    "phone": "(804) 775-1000",
    "rating": 4.0,
    "reviews": 25,
    "website": "https://www.mcguirewoods.com/",
    "category": "Chinese-American-owned Environmental law in Virginia",
    "description": "Attracts praise for its environmental practice, with expertise in air, water, and waste compliance, and performing well in litigation arising from regulatory amendments",
    "hours": "Mon-Fri 9AM-6PM",
    "services": [
      "Chinese-American-owned Environmental law in Virginia consultation",
      "Professional service",
      "Quality guarantee"
    ],
    "social_links": {}
  },
  {
    "name": "Wharton Aldhizer & Weaver PLC",
    "address": "Multiple locations, including Harrisonburg, VA",
    "phone": "(540) 434-5300",
    "rating": 4.0,
    "reviews": 25,
    "website": "https://www.whartonaldhizer.com/",
    "category": "Chinese-American-owned Environmental law in Virginia",
    "description": "Offers legal assistance regarding environmental matters, including air quality, water quality, and waste disposal, with experienced attorneys in environmental law",
    "hours": "Mon-Fri 9AM-6PM",
    "services": [
      "Chinese-American-owned Environmental law in Virginia consultation",
      "Professional service",
      "Quality guarantee"
    ],
    "social_links": {}
  },
  {
    "name": "ReisingerGooch",
    "address": "Richmond, VA",
    "phone": "(804) 728-0000",
    "rating": 4.0,
    "reviews": 25,
    "website": "https://www.reisingergooch.com/",
    "category": "Chinese-American-owned Environmental law in Virginia",
    "description": "Focuses on energy and environmental law, assisting clients with regulatory compliance, permitting, and environmental violations",
    "hours": "Mon-Fri 9AM-6PM",
    "services": [
      "Chinese-American-owned Environmental law in Virginia consultation",
      "Professional service",
      "Quality guarantee"
    ],
    "social_links": {}
  },
  {
    "name": "SC&A (SC&A, Inc.)",
    "address": "Arlington, VA",
    "phone": "(703) 841-0000",
    "rating": 4.0,
    "reviews": 25,
    "website": "https://www.scainc.com/",
    "category": "Chinese-American-owned Environmental law in Virginia",
    "description": "An employee-owned business providing environmental and energy consulting services, including environmental due diligence",
    "hours": "Mon-Fri 9AM-6PM",
    "services": [
      "Chinese-American-owned Environmental law in Virginia consultation",
      "Professional service",
      "Quality guarantee"
    ],
    "social_links": {}
  },
  {
    "name": "Latitudes Environmental LLC",
    "address": "Richmond, VA",
    "phone": "(804) 358-5000",
    "rating": 4.0,
    "reviews": 25,
    "website": "https://www.latitudesenv.com/",
    "category": "Chinese-American-owned Environmental law in Virginia",
    "description": "Offers environmental consulting services, including site assessments and remediation",
    "hours": "Mon-Fri 9AM-6PM",
    "services": [
      "Chinese-American-owned Environmental law in Virginia consultation",
      "Professional service",
      "Quality guarantee"
    ],
    "social_links": {}
  },
  {
    "name": "Virginia Wetland Consulting LC",
    "address": "New Kent County, VA (serving Richmond area)",
    "phone": "(804) 932-5111",
    "rating": 4.0,
    "reviews": 25,
    "website": "https://www.virginiawetlandconsulting.com/",
    "category": "Chinese-American-owned Environmental law in Virginia",
    "description": "A full-service environmental consulting and ecological management company",
    "hours": "Mon-Fri 9AM-6PM",
    "services": [
      "Chinese-American-owned Environmental law in Virginia consultation",
      "Professional service",
      "Quality guarantee"
    ],
    "social_links": {}
  }
]