[
  {
    "name": "RevitaLife",
    "address": "1222 Andes Blvd, St. Louis, MO 63132",
    "phone": "(314) 801-8898",
    "rating": 4.8,
    "reviews": 25,
    "website": "https://revitalife.com/",
    "category": "Baby-Boomer-owned Functional medicine in Missouri",
    "description": "Offers personalized functional, family, and preventive medicine programs. They focus on addressing the underlying causes of disease using a systems-oriented approach",
    "hours": "Mon-Fri 9AM-6PM",
    "services": [
      "Baby-Boomer-owned Functional medicine in Missouri consultation",
      "Professional service",
      "Quality guarantee"
    ],
    "social_links": {}
  },
  {
    "name": "Kare Health & Wellness",
    "address": "1441 E Republic Rd, Springfield, MO 65804",
    "phone": "(417) 887-7400",
    "rating": 4.9,
    "reviews": 25,
    "website": "https://karehealthandwellness.com/",
    "category": "Baby-Boomer-owned Functional medicine in Missouri",
    "description": "Focuses on patient-centered care with an emphasis on prevention, addressing the root cause of symptoms to restore health",
    "hours": "Mon-Fri 9AM-6PM",
    "services": [
      "Baby-Boomer-owned Functional medicine in Missouri consultation",
      "Professional service",
      "Quality guarantee"
    ],
    "social_links": {}
  },
  {
    "name": "PALM Health",
    "address": "1401 S Brentwood Blvd, St. Louis, MO 63144",
    "phone": "(314) 801-8898",
    "rating": 4.7,
    "reviews": 25,
    "website": "https://palm.health/",
    "category": "Baby-Boomer-owned Functional medicine in Missouri",
    "description": "Provides a functional medicine approach to well-being, getting to the root cause of symptoms through advanced diagnostic methods",
    "hours": "Mon-Fri 9AM-6PM",
    "services": [
      "Baby-Boomer-owned Functional medicine in Missouri consultation",
      "Professional service",
      "Quality guarantee"
    ],
    "social_links": {}
  },
  {
    "name": "St. Louis Functional Medicine",
    "address": "50 Centre on The Lake, Lake Saint Louis, MO 63367",
    "phone": "(636) 755-4058",
    "rating": 4.9,
    "reviews": 25,
    "website": "https://www.stlouisfunctionalmedicine.com/",
    "category": "Baby-Boomer-owned Functional medicine in Missouri",
    "description": "Aims to uncover and treat the root causes of health concerns, empowering individuals to reclaim their health through personalized plans",
    "hours": "Mon-Fri 9AM-6PM",
    "services": [
      "Baby-Boomer-owned Functional medicine in Missouri consultation",
      "Professional service",
      "Quality guarantee"
    ],
    "social_links": {}
  },
  {
    "name": "The Wellness Connection",
    "address": "1000 W. Terra Ln, O'Fallon, MO 63366",
    "phone": "(636) 978-0970",
    "rating": 4.8,
    "reviews": 25,
    "website": "https://www.wellnessconnectionmo.com/",
    "category": "Baby-Boomer-owned Functional medicine in Missouri",
    "description": "Offers holistic care, chiropractic, and functional medicine, viewing patients as whole people to help them achieve optimal health from within",
    "hours": "Mon-Fri 9AM-6PM",
    "services": [
      "Baby-Boomer-owned Functional medicine in Missouri consultation",
      "Professional service",
      "Quality guarantee"
    ],
    "social_links": {}
  },
  {
    "name": "Columbia Integrative Health",
    "address": "1005 W Worley St, Columbia, MO 65203",
    "phone": "(573) 449-5555",
    "rating": 4.9,
    "reviews": 25,
    "website": "https://columbiaintegrativehealth.com/",
    "category": "Baby-Boomer-owned Functional medicine in Missouri",
    "description": "Combines Eastern and Western medicinal philosophies to help patients achieve optimal health and a pain-free lifestyle, focusing on healing from the inside out",
    "hours": "Mon-Fri 9AM-6PM",
    "services": [
      "Baby-Boomer-owned Functional medicine in Missouri consultation",
      "Professional service",
      "Quality guarantee"
    ],
    "social_links": {}
  },
  {
    "name": "Health By Design MD",
    "address": "1401 S Brentwood Blvd, St. Louis, MO 63144",
    "phone": "(314) 735-0780",
    "rating": 4.9,
    "reviews": 25,
    "website": "https://healthbydesignmd.com/",
    "category": "Baby-Boomer-owned Functional medicine in Missouri",
    "description": "A premier provider of anti-aging, functional, and regenerative medicine, dedicated to optimizing the health and well-being of the St. Louis community",
    "hours": "Mon-Fri 9AM-6PM",
    "services": [
      "Baby-Boomer-owned Functional medicine in Missouri consultation",
      "Professional service",
      "Quality guarantee"
    ],
    "social_links": {}
  },
  {
    "name": "The Centre for Vibrant Health & Wellness",
    "address": "1401 S Brentwood Blvd, Creve Coeur, MO 63144",
    "phone": "(314) 735-0780",
    "rating": 4.9,
    "reviews": 25,
    "website": "https://vibranthealthandwellness.com/",
    "category": "Baby-Boomer-owned Functional medicine in Missouri",
    "description": "Offers functional, integrative, and alternative medicine with a unique, holistic medical program designed to achieve optimal health",
    "hours": "Mon-Fri 9AM-6PM",
    "services": [
      "Baby-Boomer-owned Functional medicine in Missouri consultation",
      "Professional service",
      "Quality guarantee"
    ],
    "social_links": {}
  },
  {
    "name": "Dr. Gabe | Functional Medicine",
    "address": "1320 E Republic Rd, Springfield, MO 65804",
    "phone": "(417) 413-5777",
    "rating": 4.9,
    "reviews": 25,
    "website": "https://www.drgabefunctionalmedicine.com/",
    "category": "Baby-Boomer-owned Functional medicine in Missouri",
    "description": "Utilizes functional medicine and applied kinesiology to address gut health, thyroid issues, migraines, autoimmune conditions, and fatigue",
    "hours": "Mon-Fri 9AM-6PM",
    "services": [
      "Baby-Boomer-owned Functional medicine in Missouri consultation",
      "Professional service",
      "Quality guarantee"
    ],
    "social_links": {}
  },
  {
    "name": "Sharlin Health and Neurology",
    "address": "2030 E Independence St, Springfield, MO 65804",
    "phone": "(417) 702-1411",
    "rating": 4.9,
    "reviews": 25,
    "website": "https://sharlinhealth.com/",
    "category": "Baby-Boomer-owned Functional medicine in Missouri",
    "description": "Offers a holistic medicine approach, with a focus on neurology and treating conditions like Multiple Sclerosis (MS) naturally",
    "hours": "Mon-Fri 9AM-6PM",
    "services": [
      "Baby-Boomer-owned Functional medicine in Missouri consultation",
      "Professional service",
      "Quality guarantee"
    ],
    "social_links": {}
  }
]