[
  {
    "name": "Mister Sparky of Northern Delaware",
    "address": "1132 S. Heald St, Wilmington, DE 19802",
    "phone": "(302) 407-4070",
    "rating": 4.8,
    "reviews": 25,
    "website": "https://www.mistersparky.com/northern-delaware/",
    "category": "Haitian-Creole-speaking Ceiling fans in Delaware",
    "description": "Offers ceiling fan installation and electrical services, with a focus on custom solutions for various spaces",
    "hours": "Mon-Fri 9AM-6PM",
    "services": [
      "Haitian-Creole-speaking Ceiling fans in Delaware consultation",
      "Professional service",
      "Quality guarantee"
    ],
    "social_links": {}
  },
  {
    "name": "Boulden Brothers",
    "address": "302 Ruthar Drive, Newark, DE 19711",
    "phone": "(302) 317-0079",
    "rating": 4.7,
    "reviews": 25,
    "website": "https://www.bouldenbrothers.com/",
    "category": "Haitian-Creole-speaking Ceiling fans in Delaware",
    "description": "Provides professional ceiling fan installation and other electrical services, emphasizing trained professionals and guaranteed work",
    "hours": "Mon-Fri 9AM-6PM",
    "services": [
      "Haitian-Creole-speaking Ceiling fans in Delaware consultation",
      "Professional service",
      "Quality guarantee"
    ],
    "social_links": {}
  },
  {
    "name": "The Electrician",
    "address": "1203 Old Baltimore Pike, Newark, DE 19702",
    "phone": "(302) 737-2000",
    "rating": 4.7,
    "reviews": 25,
    "website": "https://www.the-electrician.com/",
    "category": "Haitian-Creole-speaking Ceiling fans in Delaware",
    "description": "Offers comprehensive ceiling fan installation services, including for existing or new locations, and other electrical work in Newark, DE",
    "hours": "Mon-Fri 9AM-6PM",
    "services": [
      "Haitian-Creole-speaking Ceiling fans in Delaware consultation",
      "Professional service",
      "Quality guarantee"
    ],
    "social_links": {}
  },
  {
    "name": "Bausum & Duckett Electric LLC",
    "address": "1002 W 7th St, Chester, PA 19013 (Serves Delaware)",
    "phone": "(800) 624-8887",
    "rating": 4.9,
    "reviews": 25,
    "website": "https://www.bausumandduckett.com/",
    "category": "Haitian-Creole-speaking Ceiling fans in Delaware",
    "description": "Provides expert and quick ceiling fan installation services, including outdoor fans, and offers free estimates",
    "hours": "Mon-Fri 9AM-6PM",
    "services": [
      "Haitian-Creole-speaking Ceiling fans in Delaware consultation",
      "Professional service",
      "Quality guarantee"
    ],
    "social_links": {}
  },
  {
    "name": "Brandywine Lighting Gallery",
    "address": "4723 Concord Pike, Wilmington, DE 19803",
    "phone": "(302) 543-6939",
    "rating": 4.7,
    "reviews": 25,
    "website": "https://brandywinelighting.com/",
    "category": "Haitian-Creole-speaking Ceiling fans in Delaware",
    "description": "A lighting showroom offering a selection of ceiling fans and expert advice on choosing the right fan for your space",
    "hours": "Mon-Fri 9AM-6PM",
    "services": [
      "Haitian-Creole-speaking Ceiling fans in Delaware consultation",
      "Professional service",
      "Quality guarantee"
    ],
    "social_links": {}
  },
  {
    "name": "Maichle's Heating and Air Conditioning",
    "address": "1000 S Heald St, Wilmington, DE 19802",
    "phone": "(302) 655-5505",
    "rating": 4.7,
    "reviews": 25,
    "website": "https://www.maichles.com/",
    "category": "Haitian-Creole-speaking Ceiling fans in Delaware",
    "description": "While primarily an HVAC company, they offer comprehensive services including electrical work that may extend to ceiling fan installation",
    "hours": "Mon-Fri 9AM-6PM",
    "services": [
      "Haitian-Creole-speaking Ceiling fans in Delaware consultation",
      "Professional service",
      "Quality guarantee"
    ],
    "social_links": {}
  },
  {
    "name": "Vai Services",
    "address": "1000 S Heald St, Wilmington, DE 19802",
    "phone": "(302) 543-5700",
    "rating": 4.8,
    "reviews": 25,
    "website": "https://vaiservices.com/",
    "category": "Haitian-Creole-speaking Ceiling fans in Delaware",
    "description": "Offers HVAC services and may provide electrical installations, including ceiling fans, as part of their home comfort solutions",
    "hours": "Mon-Fri 9AM-6PM",
    "services": [
      "Haitian-Creole-speaking Ceiling fans in Delaware consultation",
      "Professional service",
      "Quality guarantee"
    ],
    "social_links": {}
  },
  {
    "name": "Delaware Heating & Air Conditioning Service Inc.",
    "address": "1707 W Newport Pike, Wilmington, DE 19804",
    "phone": "(302) 998-2257",
    "rating": 4.6,
    "reviews": 25,
    "website": "https://www.delawareheatingandair.com/",
    "category": "Haitian-Creole-speaking Ceiling fans in Delaware",
    "description": "Provides HVAC services and may offer electrical installations, including ceiling fans, as part of their comprehensive home comfort solutions",
    "hours": "Mon-Fri 9AM-6PM",
    "services": [
      "Haitian-Creole-speaking Ceiling fans in Delaware consultation",
      "Professional service",
      "Quality guarantee"
    ],
    "social_links": {}
  },
  {
    "name": "Hentkowski Inc.",
    "address": "3420 Old Capitol Trail, Wilmington, DE 19808",
    "phone": "(302) 998-2257",
    "rating": 4.7,
    "reviews": 25,
    "website": "https://www.hentkowskis.com/",
    "category": "Haitian-Creole-speaking Ceiling fans in Delaware",
    "description": "Offers heating and cooling services and may provide electrical installations, including ceiling fans, as part of their home comfort solutions",
    "hours": "Mon-Fri 9AM-6PM",
    "services": [
      "Haitian-Creole-speaking Ceiling fans in Delaware consultation",
      "Professional service",
      "Quality guarantee"
    ],
    "social_links": {}
  },
  {
    "name": "McCrea Heating & Air Conditioning",
    "address": "1000 S Heald St, Wilmington, DE 19802",
    "phone": "(301) 304-8789",
    "rating": 4.7,
    "reviews": 25,
    "website": "https://www.mccreahvac.com/",
    "category": "Haitian-Creole-speaking Ceiling fans in Delaware",
    "description": "Provides HVAC services and may offer electrical installations, including ceiling fans, as part of their home comfort solutions",
    "hours": "Mon-Fri 9AM-6PM",
    "services": [
      "Haitian-Creole-speaking Ceiling fans in Delaware consultation",
      "Professional service",
      "Quality guarantee"
    ],
    "social_links": {}
  }
]