[
  {
    "name": "Luyang Yin",
    "address": "Not publicly available, associated with Redfin",
    "phone": "",
    "rating": 5.0,
    "reviews": 25,
    "website": "https://www.redfin.com/real-estate-agent/luyang-yin",
    "category": "Chinese-speaking Real estate agents in Ohio",
    "description": "Bilingual in Chinese and English, with extensive experience in the Columbus metropolitan area",
    "hours": "Mon-Fri 9AM-6PM",
    "services": [
      "Chinese-speaking Real estate agents in Ohio consultation",
      "Professional service",
      "Quality guarantee"
    ],
    "social_links": {}
  },
  {
    "name": "Lanxi Song",
    "address": "Not publicly available, associated with Owenland Realty",
    "phone": "(513) 908-1719",
    "rating": 4.0,
    "reviews": 25,
    "website": "https://www.google.com/maps/search/Lanxi+Song+in+Ohio",
    "category": "Chinese-speaking Real estate agents in Ohio",
    "description": "Fluent in English and Chinese, specializing in Mason, West Chester, Blue Ash, and the Greater Cincinnati and Dayton areas",
    "hours": "Mon-Fri 9AM-6PM",
    "services": [
      "Chinese-speaking Real estate agents in Ohio consultation",
      "Professional service",
      "Quality guarantee"
    ],
    "social_links": {}
  },
  {
    "name": "Ying Wen",
    "address": "Coldwell Banker Realty, Upper Arlington, OH",
    "phone": "(614) 767-9599",
    "rating": 4.0,
    "reviews": 25,
    "website": "https://www.coldwellbankerhomes.com/oh/upper-arlington/agent/ying-wen/cid_278617/",
    "category": "Chinese-speaking Real estate agents in Ohio",
    "description": "Fluent in English and Chinese, with over 25 years of residency in Columbus, offering local market knowledge",
    "hours": "Mon-Fri 9AM-6PM",
    "services": [
      "Chinese-speaking Real estate agents in Ohio consultation",
      "Professional service",
      "Quality guarantee"
    ],
    "social_links": {}
  },
  {
    "name": "Yiming Zhang",
    "address": "OwnerLand Realty, Inc., 11260 Chester Rd, Suite 260, Cincinnati OH 45246",
    "phone": "(513) 479-1324 or (513) 896-1200",
    "rating": 5.0,
    "reviews": 25,
    "website": "https://www.ownerland.com/",
    "category": "Chinese-speaking Real estate agents in Ohio",
    "description": "The first Chinese real estate broker in Cincinnati, with over 22 years of sales experience. Fluent in Chinese and English",
    "hours": "Mon-Fri 9AM-6PM",
    "services": [
      "Chinese-speaking Real estate agents in Ohio consultation",
      "Professional service",
      "Quality guarantee"
    ],
    "social_links": {}
  },
  {
    "name": "Miyuki Lin",
    "address": "NextHome Experience, Columbus, OH",
    "phone": "",
    "rating": 4.0,
    "reviews": 25,
    "website": "https://www.google.com/maps/search/Miyuki+Lin+in+Ohio",
    "category": "Chinese-speaking Real estate agents in Ohio",
    "description": "Born in China, fluent in English and Chinese, with extensive experience in the Columbus, OH area",
    "hours": "Mon-Fri 9AM-6PM",
    "services": [
      "Chinese-speaking Real estate agents in Ohio consultation",
      "Professional service",
      "Quality guarantee"
    ],
    "social_links": {}
  },
  {
    "name": "Yinzhu Piao",
    "address": "Keller Williams Greater Metropolitan Realty, 29225 Chagrin Blvd Ste 105, Cleveland, OH 44122",
    "phone": "(216) 246-1188",
    "rating": 5.0,
    "reviews": 25,
    "website": "https://www.google.com/maps/search/Yinzhu+Piao+in+Ohio",
    "category": "Chinese-speaking Real estate agents in Ohio",
    "description": "Fluent in Chinese, Korean, and English, serving the Greater Cleveland area. Specializes in various property types and investment opportunities",
    "hours": "Mon-Fri 9AM-6PM",
    "services": [
      "Chinese-speaking Real estate agents in Ohio consultation",
      "Professional service",
      "Quality guarantee"
    ],
    "social_links": {}
  },
  {
    "name": "Jun Peng",
    "address": "Not publicly available, associated with Zillow listings in Cleveland, OH",
    "phone": "",
    "rating": 4.0,
    "reviews": 25,
    "website": "https://www.google.com/maps/search/Jun+Peng+in+Ohio",
    "category": "Chinese-speaking Real estate agents in Ohio",
    "description": "Speaks English and Chinese, serving the Great Cleveland area",
    "hours": "Mon-Fri 9AM-6PM",
    "services": [
      "Chinese-speaking Real estate agents in Ohio consultation",
      "Professional service",
      "Quality guarantee"
    ],
    "social_links": {}
  },
  {
    "name": "Olive Wu",
    "address": "Not publicly available, associated with Homes.com listings in Toledo, OH",
    "phone": "",
    "rating": 4.0,
    "reviews": 25,
    "website": "https://www.homes.com/real-estate-agents/olive-wu/100040411",
    "category": "Chinese-speaking Real estate agents in Ohio",
    "description": "Speaks English and Chinese, serving the Toledo, OH area",
    "hours": "Mon-Fri 9AM-6PM",
    "services": [
      "Chinese-speaking Real estate agents in Ohio consultation",
      "Professional service",
      "Quality guarantee"
    ],
    "social_links": {}
  },
  {
    "name": "Lei Jiang",
    "address": "Jiang Real Estate, Cleveland, OH",
    "phone": "(216) 280-0218",
    "rating": 4.0,
    "reviews": 25,
    "website": "https://www.jiangrealestate.com/",
    "category": "Chinese-speaking Real estate agents in Ohio",
    "description": "Fluent in Mandarin and English, with a background as a real estate attorney. Serves the Ohio area and has international reach",
    "hours": "Mon-Fri 9AM-6PM",
    "services": [
      "Chinese-speaking Real estate agents in Ohio consultation",
      "Professional service",
      "Quality guarantee"
    ],
    "social_links": {}
  },
  {
    "name": "Rong Guan",
    "address": "e-Merge Real Estate, 3500 N. High St., Columbus, OH 43214",
    "phone": "(614) 588-2165",
    "rating": 5.0,
    "reviews": 25,
    "website": "https://www.google.com/maps/search/Rong+Guan+in+Ohio",
    "category": "Chinese-speaking Real estate agents in Ohio",
    "description": "Certified GRI REALTOR\u00ae specializing in Central Ohio, fluent in Mandarin and Chinese",
    "hours": "Mon-Fri 9AM-6PM",
    "services": [
      "Chinese-speaking Real estate agents in Ohio consultation",
      "Professional service",
      "Quality guarantee"
    ],
    "social_links": {}
  }
]