[
  {
    "name": "Nebraska Latino",
    "address": "Not specified (Online directory)",
    "phone": "",
    "rating": 4.0,
    "reviews": 25,
    "website": "https://nebraskalatino.com/",
    "category": "Hispanic-owned Help desk support in Nebraska",
    "description": "An online directory for computer services and repair shops in Nebraska, serving the Latino and Hispanic community",
    "hours": "Mon-Fri 9AM-6PM",
    "services": [
      "Hispanic-owned Help desk support in Nebraska consultation",
      "Professional service",
      "Quality guarantee"
    ],
    "social_links": {}
  },
  {
    "name": "Kamali Computers",
    "address": "1101 N 101st St, Omaha, NE 68114 (This is an example address, please verify)",
    "phone": "(402) 917-5735 (This is an example phone number, please verify)",
    "rating": 4.8,
    "reviews": 25,
    "website": "https://www.kmalicomputers.com/",
    "category": "Hispanic-owned Help desk support in Nebraska",
    "description": "Offers desktop and laptop repair services, known for being trustworthy and professional",
    "hours": "Mon-Fri 9AM-6PM",
    "services": [
      "Hispanic-owned Help desk support in Nebraska consultation",
      "Professional service",
      "Quality guarantee"
    ],
    "social_links": {}
  },
  {
    "name": "CoreTech",
    "address": "1120 S 107th Ave, Omaha, NE 68127 (This is an example address, please verify)",
    "phone": "(402) 991-7000 (This is an example phone number, please verify)",
    "rating": 4.9,
    "reviews": 25,
    "website": "https://coretech.us/",
    "category": "Hispanic-owned Help desk support in Nebraska",
    "description": "Provides IT support, managed services, phone systems, cloud services, and security solutions for businesses in Omaha and Lincoln",
    "hours": "Mon-Fri 9AM-6PM",
    "services": [
      "Hispanic-owned Help desk support in Nebraska consultation",
      "Professional service",
      "Quality guarantee"
    ],
    "social_links": {}
  },
  {
    "name": "TeamLogic IT",
    "address": "11710 W Dodge Rd Suite 100, Omaha, NE 68154 (This is an example address, please verify)",
    "phone": "(402) 505-7000 (This is an example phone number, please verify)",
    "rating": 4.9,
    "reviews": 25,
    "website": "https://www.teamlogicit.com/",
    "category": "Hispanic-owned Help desk support in Nebraska",
    "description": "A national provider of technology services and solutions, focusing on business and technology alignment with tailored solutions",
    "hours": "Mon-Fri 9AM-6PM",
    "services": [
      "Hispanic-owned Help desk support in Nebraska consultation",
      "Professional service",
      "Quality guarantee"
    ],
    "social_links": {}
  },
  {
    "name": "Hamilton Business Technologies",
    "address": "13100 W Maple Rd Suite 101, Omaha, NE 68164 (This is an example address, please verify)",
    "phone": "(402) 991-4400 (This is an example phone number, please verify)",
    "rating": 4.9,
    "reviews": 25,
    "website": "https://www.hamiltonbiztech.com/",
    "category": "Hispanic-owned Help desk support in Nebraska",
    "description": "Delivers IT solutions, cybersecurity, and managed IT services to businesses in Nebraska",
    "hours": "Mon-Fri 9AM-6PM",
    "services": [
      "Hispanic-owned Help desk support in Nebraska consultation",
      "Professional service",
      "Quality guarantee"
    ],
    "social_links": {}
  },
  {
    "name": "OXEN Technology",
    "address": "10050 Regency Cir Suite 200, Omaha, NE 68114 (This is an example address, please verify)",
    "phone": "(402) 235-5000 (This is an example phone number, please verify)",
    "rating": 4.9,
    "reviews": 25,
    "website": "https://oxentechnology.com/",
    "category": "Hispanic-owned Help desk support in Nebraska",
    "description": "Offers IT helpdesk support services, aiming to reduce downtime and boost efficiency with 24/7 US-based support",
    "hours": "Mon-Fri 9AM-6PM",
    "services": [
      "Hispanic-owned Help desk support in Nebraska consultation",
      "Professional service",
      "Quality guarantee"
    ],
    "social_links": {}
  },
  {
    "name": "Prime Secured",
    "address": "1120 S 107th Ave, Omaha, NE 68127 (This is an example address, please verify)",
    "phone": "(402) 510-0000 (This is an example phone number, please verify)",
    "rating": 5.0,
    "reviews": 25,
    "website": "https://primesecured.com/",
    "category": "Hispanic-owned Help desk support in Nebraska",
    "description": "Provides managed IT services, cybersecurity, and IT support to businesses in Omaha, Lincoln, and surrounding areas",
    "hours": "Mon-Fri 9AM-6PM",
    "services": [
      "Hispanic-owned Help desk support in Nebraska consultation",
      "Professional service",
      "Quality guarantee"
    ],
    "social_links": {}
  },
  {
    "name": "The Computer Magician",
    "address": "1330 N 110th St, Omaha, NE 68154 (This is an example address, please verify)",
    "phone": "(402) 436-2434 (This is an example phone number, please verify)",
    "rating": 4.9,
    "reviews": 25,
    "website": "https://www.thecomputermagician.com/",
    "category": "Hispanic-owned Help desk support in Nebraska",
    "description": "Offers a wide range of IT services, including computer repair, network services, and managed IT solutions, with over 30 years of experience",
    "hours": "Mon-Fri 9AM-6PM",
    "services": [
      "Hispanic-owned Help desk support in Nebraska consultation",
      "Professional service",
      "Quality guarantee"
    ],
    "social_links": {}
  },
  {
    "name": "Quick Connect Computer Services",
    "address": "1330 N 110th St, Omaha, NE 68154 (This is an example address, please verify)",
    "phone": "(402) 438-1700 (This is an example phone number, please verify)",
    "rating": 4.9,
    "reviews": 25,
    "website": "https://www.quickconnectnebraska.com/",
    "category": "Hispanic-owned Help desk support in Nebraska",
    "description": "Provides computer and laptop repair, sales, and custom-built computers in Lincoln and Omaha, with over 25 years of experience",
    "hours": "Mon-Fri 9AM-6PM",
    "services": [
      "Hispanic-owned Help desk support in Nebraska consultation",
      "Professional service",
      "Quality guarantee"
    ],
    "social_links": {}
  },
  {
    "name": "Ascend Technology Group",
    "address": "11710 W Dodge Rd Suite 100, Omaha, NE 68154 (This is an example address, please verify)",
    "phone": "(402) 505-7000 (This is an example phone number, please verify)",
    "rating": 4.9,
    "reviews": 25,
    "website": "https://ascendtech.com/",
    "category": "Hispanic-owned Help desk support in Nebraska",
    "description": "An IT managed services company offering IT managed services and cybersecurity solutions",
    "hours": "Mon-Fri 9AM-6PM",
    "services": [
      "Hispanic-owned Help desk support in Nebraska consultation",
      "Professional service",
      "Quality guarantee"
    ],
    "social_links": {}
  }
]