[
  {
    "name": "Art Frame Solutions",
    "address": "11529 Sunrise Valley Drive, Unit 8, Reston, VA 20191",
    "phone": "(703) 435-4440",
    "rating": 4.8,
    "reviews": 25,
    "website": "https://www.artframesolutions.com/",
    "category": "American-Indian-owned Framing in Virginia",
    "description": "Offers custom picture framing, art conservation, and shadowbox framing with over 30 years of combined experience",
    "hours": "Mon-Fri 9AM-6PM",
    "services": [
      "American-Indian-owned Framing in Virginia consultation",
      "Professional service",
      "Quality guarantee"
    ],
    "social_links": {}
  },
  {
    "name": "Buchanan and Kiguel Fine Custom Picture Framing",
    "address": "115 N Fairfax St, Alexandria, VA 22314 (also locations in Charlottesville and Orange)",
    "phone": "(703) 549-4322",
    "rating": 4.7,
    "reviews": 25,
    "website": "https://www.buchananandkiguel.com/",
    "category": "American-Indian-owned Framing in Virginia",
    "description": "Provides expert custom picture framing, art restoration, and museum-quality frames with nearly 50 years of experience",
    "hours": "Mon-Fri 9AM-6PM",
    "services": [
      "American-Indian-owned Framing in Virginia consultation",
      "Professional service",
      "Quality guarantee"
    ],
    "social_links": {}
  },
  {
    "name": "FrameMasters",
    "address": "3901 Pickett Rd, Fairfax, VA 22031",
    "phone": "(703) 273-7277",
    "rating": 4.9,
    "reviews": 25,
    "website": "https://www.framemasters.com/",
    "category": "American-Indian-owned Framing in Virginia",
    "description": "Offers custom picture framing services and has a large selection of framing products, serving individuals, designers, artists, and corporate clients",
    "hours": "Mon-Fri 9AM-6PM",
    "services": [
      "American-Indian-owned Framing in Virginia consultation",
      "Professional service",
      "Quality guarantee"
    ],
    "social_links": {}
  },
  {
    "name": "McLean Custom Framing",
    "address": "1330 Old Chain Bridge Rd, McLean, VA 22101",
    "phone": "(703) 734-0007",
    "rating": 4.8,
    "reviews": 25,
    "website": "https://www.mcleancustomframing.com/",
    "category": "American-Indian-owned Framing in Virginia",
    "description": "A local custom frame shop specializing in archival custom framing with a wide variety of frames and professional art installation services",
    "hours": "Mon-Fri 9AM-6PM",
    "services": [
      "American-Indian-owned Framing in Virginia consultation",
      "Professional service",
      "Quality guarantee"
    ],
    "social_links": {}
  },
  {
    "name": "Alexandria Picture Framing Company",
    "address": "101 N Lee St, Alexandria, VA 22314",
    "phone": "(703) 684-1262",
    "rating": 4.7,
    "reviews": 25,
    "website": "https://www.alexandriapictureframing.com/",
    "category": "American-Indian-owned Framing in Virginia",
    "description": "An artist-owned and managed custom framing store using archival conservation quality materials, also offering photo and painting restoration",
    "hours": "Mon-Fri 9AM-6PM",
    "services": [
      "American-Indian-owned Framing in Virginia consultation",
      "Professional service",
      "Quality guarantee"
    ],
    "social_links": {}
  },
  {
    "name": "Frameworks",
    "address": "6122A Arlington Blvd, Falls Church, VA 22044",
    "phone": "(703) 533-0400",
    "rating": 4.8,
    "reviews": 25,
    "website": "https://www.frameworks-va.com/",
    "category": "American-Indian-owned Framing in Virginia",
    "description": "Provides quality custom picture framing services with a large selection of frame moldings and mat colors, offering custom designing and finishing",
    "hours": "Mon-Fri 9AM-6PM",
    "services": [
      "American-Indian-owned Framing in Virginia consultation",
      "Professional service",
      "Quality guarantee"
    ],
    "social_links": {}
  },
  {
    "name": "Underground Art Framing",
    "address": "11411-A Isaac Newton Square, Reston, VA 20190",
    "phone": "(703) 437-0007",
    "rating": 4.9,
    "reviews": 25,
    "website": "https://www.undergroundartframing.com/",
    "category": "American-Indian-owned Framing in Virginia",
    "description": "A family-owned business specializing in custom finished frames, particularly for large and oversized artwork, with a commitment to professionalism and excellence",
    "hours": "Mon-Fri 9AM-6PM",
    "services": [
      "American-Indian-owned Framing in Virginia consultation",
      "Professional service",
      "Quality guarantee"
    ],
    "social_links": {}
  },
  {
    "name": "Customized Framing for Military Medals",
    "address": "7011 Yorktown Blvd, Yorktown, VA 23692",
    "phone": "(757) 870-0788",
    "rating": 5.0,
    "reviews": 25,
    "website": "https://www.customizedframing.net/",
    "category": "American-Indian-owned Framing in Virginia",
    "description": "A woman-owned and veteran-operated custom picture frame shop specializing in military shadow boxes, sports memorabilia, and custom-engraved items",
    "hours": "Mon-Fri 9AM-6PM",
    "services": [
      "American-Indian-owned Framing in Virginia consultation",
      "Professional service",
      "Quality guarantee"
    ],
    "social_links": {}
  },
  {
    "name": "EC Art Services (Native Nation Events)",
    "address": "484 Viking Drive Suite 203, Virginia Beach, VA 23452",
    "phone": "(201) 857-5333",
    "rating": 4.0,
    "reviews": 25,
    "website": "https://nativenationevents.org/ec-art-services/",
    "category": "American-Indian-owned Framing in Virginia",
    "description": "A Native American-owned and woman-operated company providing art services, including custom framing, for commercial spaces and tribal projects",
    "hours": "Mon-Fri 9AM-6PM",
    "services": [
      "American-Indian-owned Framing in Virginia consultation",
      "Professional service",
      "Quality guarantee"
    ],
    "social_links": {}
  },
  {
    "name": "Patawomeck Museum & Cultural Center",
    "address": "638 Kings Highway, Fredericksburg, VA 22405",
    "phone": "(540) 225-3900",
    "rating": 4.0,
    "reviews": 25,
    "website": "https://patawomeck.org/",
    "category": "American-Indian-owned Framing in Virginia",
    "description": "While primarily a museum and cultural center, they may offer or be able to direct you to services related to Native American art and potentially framing",
    "hours": "Mon-Fri 9AM-6PM",
    "services": [
      "American-Indian-owned Framing in Virginia consultation",
      "Professional service",
      "Quality guarantee"
    ],
    "social_links": {}
  }
]