[
  {
    "name": "American School of Karate and Judo on Industrial",
    "address": "13803 Industrial Rd, Omaha, NE 68137",
    "phone": "(402) 968-6778",
    "rating": 4.0,
    "reviews": 25,
    "website": "http://www.americanschoolofkarateandjudo.com/",
    "category": "Black-owned Judo classes in Nebraska",
    "description": "Offers traditional martial arts classes for children and adults in a family atmosphere",
    "hours": "Mon-Fri 9AM-6PM",
    "services": [
      "Black-owned Judo classes in Nebraska consultation",
      "Professional service",
      "Quality guarantee"
    ],
    "social_links": {}
  },
  {
    "name": "Championship Martial Arts - Omaha",
    "address": "2012 N 117th Ave #105, Omaha, Nebraska 68164",
    "phone": "",
    "rating": 4.0,
    "reviews": 25,
    "website": "https://www.championshipmartialarts.com/omaha",
    "category": "Black-owned Judo classes in Nebraska",
    "description": "Provides martial arts programs for kids and adults, including self-defense and discipline",
    "hours": "Mon-Fri 9AM-6PM",
    "services": [
      "Black-owned Judo classes in Nebraska consultation",
      "Professional service",
      "Quality guarantee"
    ],
    "social_links": {}
  },
  {
    "name": "Zanshin Martial Arts of Omaha",
    "address": "Information not available",
    "phone": "",
    "rating": 5.0,
    "reviews": 25,
    "website": "https://www.zanshinomaha.com/",
    "category": "Black-owned Judo classes in Nebraska",
    "description": "Offers martial arts classes for kids and adults, focusing on respect, self-esteem, and physical fitness",
    "hours": "Mon-Fri 9AM-6PM",
    "services": [
      "Black-owned Judo classes in Nebraska consultation",
      "Professional service",
      "Quality guarantee"
    ],
    "social_links": {}
  },
  {
    "name": "Premier Martial Arts",
    "address": "Multiple locations across Nebraska",
    "phone": "",
    "rating": 4.0,
    "reviews": 25,
    "website": "https://www.premiermartialarts.com/nebraska/",
    "category": "Black-owned Judo classes in Nebraska",
    "description": "Offers a variety of martial arts training, including kids' karate, self-defense, and kickboxing",
    "hours": "Mon-Fri 9AM-6PM",
    "services": [
      "Black-owned Judo classes in Nebraska consultation",
      "Professional service",
      "Quality guarantee"
    ],
    "social_links": {}
  },
  {
    "name": "Master Lee's Taekwondo (Lincoln/Omaha)",
    "address": "Lincoln and Omaha, Nebraska",
    "phone": "",
    "rating": 4.0,
    "reviews": 25,
    "website": "https://masterleestkd.com/",
    "category": "Black-owned Judo classes in Nebraska",
    "description": "Provides martial arts classes for children, adults, and families, from beginner to black belt levels",
    "hours": "Mon-Fri 9AM-6PM",
    "services": [
      "Black-owned Judo classes in Nebraska consultation",
      "Professional service",
      "Quality guarantee"
    ],
    "social_links": {}
  },
  {
    "name": "Family Judo of Omaha",
    "address": "11724 S 28th St, Bellevue, NE 68123 (Mail Address)",
    "phone": "402-293-9513",
    "rating": 4.0,
    "reviews": 25,
    "website": "https://www.google.com/maps/search/Family+Judo+of+Omaha+in+Nebraska",
    "category": "Black-owned Judo classes in Nebraska",
    "description": "A Judo club located in Omaha, Nebraska",
    "hours": "Mon-Fri 9AM-6PM",
    "services": [
      "Black-owned Judo classes in Nebraska consultation",
      "Professional service",
      "Quality guarantee"
    ],
    "social_links": {}
  },
  {
    "name": "Grand Island YMCA",
    "address": "Grand Island, NE 68801",
    "phone": "",
    "rating": 4.0,
    "reviews": 25,
    "website": "https://ymcaofgrandisland.org/programs/judo/",
    "category": "Black-owned Judo classes in Nebraska",
    "description": "Offers Kids and Adult Judo classes, teaching basic Kodokan Judo and self-defense",
    "hours": "Mon-Fri 9AM-6PM",
    "services": [
      "Black-owned Judo classes in Nebraska consultation",
      "Professional service",
      "Quality guarantee"
    ],
    "social_links": {}
  },
  {
    "name": "Sansu Martial Arts",
    "address": "503 E 3rd St, Alliance, Nebraska 69301",
    "phone": "(605) 517-1372",
    "rating": 4.0,
    "reviews": 25,
    "website": "https://www.sansumartialarts.com/",
    "category": "Black-owned Judo classes in Nebraska",
    "description": "Offers various martial arts programs, including a system that adapts to individual learning abilities",
    "hours": "Mon-Fri 9AM-6PM",
    "services": [
      "Black-owned Judo classes in Nebraska consultation",
      "Professional service",
      "Quality guarantee"
    ],
    "social_links": {}
  },
  {
    "name": "Black Dragon Martial Arts",
    "address": "Bellevue, NE 68005",
    "phone": "(402) 570-3580",
    "rating": 4.0,
    "reviews": 25,
    "website": "https://www.blackdragon.us/",
    "category": "Black-owned Judo classes in Nebraska",
    "description": "Dedicated to teaching real-world self-defense skills in a fun and friendly environment",
    "hours": "Mon-Fri 9AM-6PM",
    "services": [
      "Black-owned Judo classes in Nebraska consultation",
      "Professional service",
      "Quality guarantee"
    ],
    "social_links": {}
  },
  {
    "name": "Agoge Martial Arts",
    "address": "823 Tara Plaza, Papillion, NE 68046",
    "phone": "402-671-7591",
    "rating": 4.0,
    "reviews": 25,
    "website": "https://www.agogeomaha.com/",
    "category": "Black-owned Judo classes in Nebraska",
    "description": "Offers a Judo program focusing on throws and grappling, along with other martial arts disciplines",
    "hours": "Mon-Fri 9AM-6PM",
    "services": [
      "Black-owned Judo classes in Nebraska consultation",
      "Professional service",
      "Quality guarantee"
    ],
    "social_links": {}
  }
]