[
  {
    "name": "GAIA NAIL LOUNGE & SPA",
    "address": "1870 W 25TH ST, Cleveland, OH, 44113",
    "phone": "",
    "rating": 4.0,
    "reviews": 25,
    "website": "https://www.google.com/maps/search/GAIA+NAIL+LOUNGE+&+SPA+in+Ohio",
    "category": "Asian-owned Manicures in Ohio",
    "description": "Offers professional nail and spa services in a serene atmosphere",
    "hours": "Mon-Fri 9AM-6PM",
    "services": [
      "Asian-owned Manicures in Ohio consultation",
      "Professional service",
      "Quality guarantee"
    ],
    "social_links": {}
  },
  {
    "name": "Lily Nails & Spa",
    "address": "Columbus, Ohio 43201",
    "phone": "",
    "rating": 4.0,
    "reviews": 25,
    "website": "https://www.google.com/maps/search/Lily+Nails+&+Spa+in+Ohio",
    "category": "Asian-owned Manicures in Ohio",
    "description": "Provides a wide range of nail services, from manicures to artificial nails, in a beautiful setting",
    "hours": "Mon-Fri 9AM-6PM",
    "services": [
      "Asian-owned Manicures in Ohio consultation",
      "Professional service",
      "Quality guarantee"
    ],
    "social_links": {}
  },
  {
    "name": "Michael's Nails & Tanning",
    "address": "8377 N Main St, Dayton, OH 45415",
    "phone": "937-898-8258",
    "rating": 4.0,
    "reviews": 25,
    "website": "https://www.google.com/maps/search/Michael's+Nails+&+Tanning+in+Ohio",
    "category": "Asian-owned Manicures in Ohio",
    "description": "A professional salon for men and women offering high-end nail services since 1997",
    "hours": "Mon-Fri 9AM-6PM",
    "services": [
      "Asian-owned Manicures in Ohio consultation",
      "Professional service",
      "Quality guarantee"
    ],
    "social_links": {}
  },
  {
    "name": "Classy Nail & Spa",
    "address": "3324 SECOR RD STE 6/7, TOLEDO, OH 43606",
    "phone": "(567) 315-8172",
    "rating": 4.0,
    "reviews": 25,
    "website": "https://www.google.com/maps/search/Classy+Nail+&+Spa+in+Ohio",
    "category": "Asian-owned Manicures in Ohio",
    "description": "Offers a wide range of nail services, including manicures, pedicures, and dipping powder, at affordable prices",
    "hours": "Mon-Fri 9AM-6PM",
    "services": [
      "Asian-owned Manicures in Ohio consultation",
      "Professional service",
      "Quality guarantee"
    ],
    "social_links": {}
  },
  {
    "name": "Blossom Nail Lounge",
    "address": "Centerville, Dayton, OH 45459",
    "phone": "",
    "rating": 4.0,
    "reviews": 25,
    "website": "https://www.google.com/maps/search/Blossom+Nail+Lounge+in+Ohio",
    "category": "Asian-owned Manicures in Ohio",
    "description": "A top-notch nail salon and spa offering professional nail care for ladies and gents, with a focus on new trends",
    "hours": "Mon-Fri 9AM-6PM",
    "services": [
      "Asian-owned Manicures in Ohio consultation",
      "Professional service",
      "Quality guarantee"
    ],
    "social_links": {}
  },
  {
    "name": "Paradise Nail Spa",
    "address": "3606W SYLVANIA AVE, SUITES 1, TOLEDO, OH 43623",
    "phone": "(419) 386-1251",
    "rating": 4.0,
    "reviews": 25,
    "website": "https://www.google.com/maps/search/Paradise+Nail+Spa+in+Ohio",
    "category": "Asian-owned Manicures in Ohio",
    "description": "A premier nail salon offering a comfortable and relaxing environment for various nail services",
    "hours": "Mon-Fri 9AM-6PM",
    "services": [
      "Asian-owned Manicures in Ohio consultation",
      "Professional service",
      "Quality guarantee"
    ],
    "social_links": {}
  },
  {
    "name": "VIVINAIL & SPA",
    "address": "CINCINNATI OH 45238",
    "phone": "",
    "rating": 4.0,
    "reviews": 25,
    "website": "https://www.google.com/maps/search/VIVINAIL+&+SPA+in+Ohio",
    "category": "Asian-owned Manicures in Ohio",
    "description": "An ideal destination for nail services, dedicated to providing top-quality products and expert techniques",
    "hours": "Mon-Fri 9AM-6PM",
    "services": [
      "Asian-owned Manicures in Ohio consultation",
      "Professional service",
      "Quality guarantee"
    ],
    "social_links": {}
  },
  {
    "name": "Luxury Nail Spa 1",
    "address": "Dayton, OH",
    "phone": "",
    "rating": 4.0,
    "reviews": 25,
    "website": "https://www.google.com/maps/search/Luxury+Nail+Spa+1+in+Ohio",
    "category": "Asian-owned Manicures in Ohio",
    "description": "A nail salon and spa specializing in manicures, pedicures, waxing, and eyelash extensions, committed to a comfortable environment",
    "hours": "Mon-Fri 9AM-6PM",
    "services": [
      "Asian-owned Manicures in Ohio consultation",
      "Professional service",
      "Quality guarantee"
    ],
    "social_links": {}
  },
  {
    "name": "Attractive Nails & Spa",
    "address": "9919 Montgomery Rd, Cincinnati, Ohio 45242",
    "phone": "513-985-9919",
    "rating": 4.0,
    "reviews": 25,
    "website": "https://www.google.com/maps/search/Attractive+Nails+&+Spa+in+Ohio",
    "category": "Asian-owned Manicures in Ohio",
    "description": "Offers a relaxing nail spa environment with a passion for doing nails and making clients feel beautiful",
    "hours": "Mon-Fri 9AM-6PM",
    "services": [
      "Asian-owned Manicures in Ohio consultation",
      "Professional service",
      "Quality guarantee"
    ],
    "social_links": {}
  },
  {
    "name": "Cutie Nail Spa",
    "address": "2007 N. HOLLAND SYLVANIA RD #104, TOLEDO, OHIO 43615",
    "phone": "(419) 720-8706",
    "rating": 4.0,
    "reviews": 25,
    "website": "https://www.google.com/maps/search/Cutie+Nail+Spa+in+Ohio",
    "category": "Asian-owned Manicures in Ohio",
    "description": "An ideal destination for nail services, offering top-quality products and expert techniques at affordable prices",
    "hours": "Mon-Fri 9AM-6PM",
    "services": [
      "Asian-owned Manicures in Ohio consultation",
      "Professional service",
      "Quality guarantee"
    ],
    "social_links": {}
  }
]