[
  {
    "name": "Booth Udall, PLC",
    "address": "10643 N. Frank Lloyd Wright Blvd., Scottsdale, AZ 85259",
    "phone": "(480) 422-2100",
    "rating": 4.0,
    "reviews": 25,
    "website": "https://boothudall.com/",
    "category": "Baby-Boomer-owned Trademark law in Arizona",
    "description": "A boutique law firm dedicated exclusively to handling patents, trademarks, copyrights, trade secrets, and licensing",
    "hours": "Mon-Fri 9AM-6PM",
    "services": [
      "Baby-Boomer-owned Trademark law in Arizona consultation",
      "Professional service",
      "Quality guarantee"
    ],
    "social_links": {}
  },
  {
    "name": "Denton Peterson Dunn, PLLC",
    "address": "1920 E. University Dr., Mesa, AZ 85203",
    "phone": "(480) 327-9100",
    "rating": 5.0,
    "reviews": 25,
    "website": "https://dentonpeterson.com/",
    "category": "Baby-Boomer-owned Trademark law in Arizona",
    "description": "Trusted trademark registration attorneys and business lawyers providing services for trademark infringement litigation, defense, and registration",
    "hours": "Mon-Fri 9AM-6PM",
    "services": [
      "Baby-Boomer-owned Trademark law in Arizona consultation",
      "Professional service",
      "Quality guarantee"
    ],
    "social_links": {}
  },
  {
    "name": "Thomas W. Galvani, P.C.",
    "address": "4640 E. Skyline Dr., Phoenix, AZ 85044",
    "phone": "(602) 281-6481",
    "rating": 4.0,
    "reviews": 25,
    "website": "https://galvanilaw.com/",
    "category": "Baby-Boomer-owned Trademark law in Arizona",
    "description": "A patent and trademark law firm serving intellectual property needs, counseling inventors and companies on protecting their ideas, inventions, and brands",
    "hours": "Mon-Fri 9AM-6PM",
    "services": [
      "Baby-Boomer-owned Trademark law in Arizona consultation",
      "Professional service",
      "Quality guarantee"
    ],
    "social_links": {}
  },
  {
    "name": "Galbut Beabeau, P.C.",
    "address": "7333 E. Doubletree Ranch Rd., Suite 100, Scottsdale, AZ 85258",
    "phone": "(480) 427-2400",
    "rating": 4.0,
    "reviews": 25,
    "website": "https://www.galbutbeabeau.com/",
    "category": "Baby-Boomer-owned Trademark law in Arizona",
    "description": "An intellectual property law and real estate law firm offering services in trademark law, patent law, and copyright law",
    "hours": "Mon-Fri 9AM-6PM",
    "services": [
      "Baby-Boomer-owned Trademark law in Arizona consultation",
      "Professional service",
      "Quality guarantee"
    ],
    "social_links": {}
  },
  {
    "name": "Burch & Cracchiolo, P.A.",
    "address": "4040 E. Camelback Rd., Suite 100, Phoenix, AZ 85018",
    "phone": "(602) 274-7000",
    "rating": 4.0,
    "reviews": 25,
    "website": "https://www.bcattorneys.com/",
    "category": "Baby-Boomer-owned Trademark law in Arizona",
    "description": "A law firm with expertise in intellectual property law, labor & employment law, and real estate law, including trademark law",
    "hours": "Mon-Fri 9AM-6PM",
    "services": [
      "Baby-Boomer-owned Trademark law in Arizona consultation",
      "Professional service",
      "Quality guarantee"
    ],
    "social_links": {}
  },
  {
    "name": "Sherman & Howard L.L.C.",
    "address": "201 E. Washington St., Suite 1500, Phoenix, AZ 85004",
    "phone": "(602) 257-7000",
    "rating": 4.0,
    "reviews": 25,
    "website": "https://www.shermanhoward.com/",
    "category": "Baby-Boomer-owned Trademark law in Arizona",
    "description": "A law firm providing corporate law and intellectual property law services, including trademark law",
    "hours": "Mon-Fri 9AM-6PM",
    "services": [
      "Baby-Boomer-owned Trademark law in Arizona consultation",
      "Professional service",
      "Quality guarantee"
    ],
    "social_links": {}
  },
  {
    "name": "Munger Chadwick & Stark-Heisler",
    "address": "201 N. Central Ave., Suite 2200, Phoenix, AZ 85004",
    "phone": "(602) 274-7000",
    "rating": 4.0,
    "reviews": 25,
    "website": "https://www.munger.com/",
    "category": "Baby-Boomer-owned Trademark law in Arizona",
    "description": "A law firm offering bankruptcy law and intellectual property law services",
    "hours": "Mon-Fri 9AM-6PM",
    "services": [
      "Baby-Boomer-owned Trademark law in Arizona consultation",
      "Professional service",
      "Quality guarantee"
    ],
    "social_links": {}
  },
  {
    "name": "Jaburg Wilk Law Firm",
    "address": "3200 N. Central Ave., Suite 2000, Phoenix, AZ 85012",
    "phone": "(602) 240-1400",
    "rating": 4.0,
    "reviews": 25,
    "website": "https://www.jaburgwilk.com/",
    "category": "Baby-Boomer-owned Trademark law in Arizona",
    "description": "A law firm with a strong reputation in various practice areas, including intellectual property law and trademark matters",
    "hours": "Mon-Fri 9AM-6PM",
    "services": [
      "Baby-Boomer-owned Trademark law in Arizona consultation",
      "Professional service",
      "Quality guarantee"
    ],
    "social_links": {}
  },
  {
    "name": "Law Office of Charles 'Chuck' Runyan",
    "address": "14362 N. Frank Lloyd Wright Blvd., Scottsdale, AZ 85260",
    "phone": "(480) 502-1100",
    "rating": 4.0,
    "reviews": 25,
    "website": "https://www.google.com/maps/search/Law+Office+of+Charles+'Chuck'+Runyan+in+Arizona",
    "category": "Baby-Boomer-owned Trademark law in Arizona",
    "description": "A law practice focusing on intellectual property, including patents and trademarks, with over 20 years of experience",
    "hours": "Mon-Fri 9AM-6PM",
    "services": [
      "Baby-Boomer-owned Trademark law in Arizona consultation",
      "Professional service",
      "Quality guarantee"
    ],
    "social_links": {}
  },
  {
    "name": "Law Office of Tom Galvani",
    "address": "10643 N. Frank Lloyd Wright Blvd., Scottsdale, AZ 85259",
    "phone": "(602) 281-6481",
    "rating": 4.0,
    "reviews": 25,
    "website": "https://galvanilaw.com/",
    "category": "Baby-Boomer-owned Trademark law in Arizona",
    "description": "A patent and trademark attorney providing intellectual property law services to clients locally, nationally, and internationally",
    "hours": "Mon-Fri 9AM-6PM",
    "services": [
      "Baby-Boomer-owned Trademark law in Arizona consultation",
      "Professional service",
      "Quality guarantee"
    ],
    "social_links": {}
  }
]