[
  {
    "name": "Vermont Chinese School",
    "address": "PO Box 9209, South Burlington, VT 05407",
    "phone": "(802) 307-6332",
    "rating": 4.0,
    "reviews": 25,
    "website": "https://www.vermontchineseschool.org/",
    "category": "Chinese-speaking Composition in Vermont",
    "description": "Offers Chinese language courses and cultural activities for various age groups",
    "hours": "Mon-Fri 9AM-6PM",
    "services": [
      "Chinese-speaking Composition in Vermont consultation",
      "Professional service",
      "Quality guarantee"
    ],
    "social_links": {}
  },
  {
    "name": "AALV (Association of Africans Living in Vermont)",
    "address": "279 North Winooski Ave, Burlington, VT 05401",
    "phone": "(802) 655-8100",
    "rating": 4.0,
    "reviews": 25,
    "website": "https://www.aalv-vt.org/",
    "category": "Chinese-speaking Composition in Vermont",
    "description": "Provides language translation and interpretation services in multiple languages, including Chinese",
    "hours": "Mon-Fri 9AM-6PM",
    "services": [
      "Chinese-speaking Composition in Vermont consultation",
      "Professional service",
      "Quality guarantee"
    ],
    "social_links": {}
  },
  {
    "name": "Asian Mart",
    "address": "60D Pearl Street, Essex Junction, VT 05452",
    "phone": "(802) 878-8802",
    "rating": 4.0,
    "reviews": 25,
    "website": "https://www.asianmartvt.com/",
    "category": "Chinese-speaking Composition in Vermont",
    "description": "A family-run grocery store offering a wide variety of Pan-Asian products",
    "hours": "Mon-Fri 9AM-6PM",
    "services": [
      "Chinese-speaking Composition in Vermont consultation",
      "Professional service",
      "Quality guarantee"
    ],
    "social_links": {}
  },
  {
    "name": "China Garden",
    "address": "81 Pearl St, Essex Junction, VT 05452",
    "phone": "(802) 878-1888",
    "rating": 4.0,
    "reviews": 25,
    "website": "https://www.chinagardenessex.com/",
    "category": "Chinese-speaking Composition in Vermont",
    "description": "Offers authentic Chinese cuisine for dining and takeout",
    "hours": "Mon-Fri 9AM-6PM",
    "services": [
      "Chinese-speaking Composition in Vermont consultation",
      "Professional service",
      "Quality guarantee"
    ],
    "social_links": {}
  },
  {
    "name": "Lee's Chinese Restaurant",
    "address": "169 Dorset St, South Burlington, VT 05403",
    "phone": "(802) 658-0288",
    "rating": 4.0,
    "reviews": 25,
    "website": "https://lees-chinese-restaurant.edan.io/",
    "category": "Chinese-speaking Composition in Vermont",
    "description": "Provides authentic and delicious Chinese cuisine for dine-in and takeout",
    "hours": "Mon-Fri 9AM-6PM",
    "services": [
      "Chinese-speaking Composition in Vermont consultation",
      "Professional service",
      "Quality guarantee"
    ],
    "social_links": {}
  },
  {
    "name": "Shuen Lee Chinese Restaurant",
    "address": "169 Dorset St, South Burlington, VT 05403",
    "phone": "(802) 658-0288",
    "rating": 4.0,
    "reviews": 25,
    "website": "https://www.shuenlee.com/",
    "category": "Chinese-speaking Composition in Vermont",
    "description": "Known for its Chinese food in Vermont since 1997",
    "hours": "Mon-Fri 9AM-6PM",
    "services": [
      "Chinese-speaking Composition in Vermont consultation",
      "Professional service",
      "Quality guarantee"
    ],
    "social_links": {}
  },
  {
    "name": "Vermont Translation Services",
    "address": "Not specified (serves Vermont)",
    "phone": "",
    "rating": 4.0,
    "reviews": 25,
    "website": "https://www.vermonttranslationservices.com/",
    "category": "Chinese-speaking Composition in Vermont",
    "description": "Offers professional translation services in 35 languages, including Chinese",
    "hours": "Mon-Fri 9AM-6PM",
    "services": [
      "Chinese-speaking Composition in Vermont consultation",
      "Professional service",
      "Quality guarantee"
    ],
    "social_links": {}
  },
  {
    "name": "Official Translations.com",
    "address": "South Burlington, VT",
    "phone": "(949) 667-1775",
    "rating": 4.0,
    "reviews": 25,
    "website": "https://www.officialtranslations.com/",
    "category": "Chinese-speaking Composition in Vermont",
    "description": "Provides certified, notarized, and apostilled translations in over 100 languages, including Chinese",
    "hours": "Mon-Fri 9AM-6PM",
    "services": [
      "Chinese-speaking Composition in Vermont consultation",
      "Professional service",
      "Quality guarantee"
    ],
    "social_links": {}
  },
  {
    "name": "Phoebe - Mandarin Tutor",
    "address": "Vermont (online and in-person options may be available)",
    "phone": "",
    "rating": 5.0,
    "reviews": 25,
    "website": "https://www.superprof.com/ Phoebe-mandarin-tutor-in-vermont.html",
    "category": "Chinese-speaking Composition in Vermont",
    "description": "A Mandarin tutor with expertise in Chinese language and calligraphy, also offering tailored Chinese cultural events",
    "hours": "Mon-Fri 9AM-6PM",
    "services": [
      "Chinese-speaking Composition in Vermont consultation",
      "Professional service",
      "Quality guarantee"
    ],
    "social_links": {}
  },
  {
    "name": "Middlebury Language Schools (Chinese School)",
    "address": "Middlebury, VT",
    "phone": "",
    "rating": 4.0,
    "reviews": 25,
    "website": "https://www.middlebury.edu/language-schools/chinese",
    "category": "Chinese-speaking Composition in Vermont",
    "description": "Offers an intensive immersion program for learning the Chinese language",
    "hours": "Mon-Fri 9AM-6PM",
    "services": [
      "Chinese-speaking Composition in Vermont consultation",
      "Professional service",
      "Quality guarantee"
    ],
    "social_links": {}
  }
]