[
  {
    "name": "Xtreme Autoglass Pros",
    "address": "14025 Proton Rd, Dallas, TX 75244",
    "phone": "(972) 742-0000",
    "rating": 4.8,
    "reviews": 25,
    "website": "https://xtremeautoglasspros.com/",
    "category": "Baby-Boomer-owned Auto glass repair in Texas",
    "description": "Offers windshield repair and replacement, auto glass repair, and window tinting services. They emphasize professional and reliable service with experienced technicians",
    "hours": "Mon-Fri 9AM-6PM",
    "services": [
      "Baby-Boomer-owned Auto glass repair in Texas consultation",
      "Professional service",
      "Quality guarantee"
    ],
    "social_links": {}
  },
  {
    "name": "Auto Glass Solutions Inc.",
    "address": "9001 Research Blvd, Austin, TX 78758",
    "phone": "(512) 407-7000",
    "rating": 4.7,
    "reviews": 25,
    "website": "https://www.autoglasssolutions.net/",
    "category": "Baby-Boomer-owned Auto glass repair in Texas",
    "description": "Provides fast, quality, and affordable windshield repair and replacement services, including mobile options. They aim to treat customers like family",
    "hours": "Mon-Fri 9AM-6PM",
    "services": [
      "Baby-Boomer-owned Auto glass repair in Texas consultation",
      "Professional service",
      "Quality guarantee"
    ],
    "social_links": {}
  },
  {
    "name": "Mister Glass",
    "address": "11615 Harry Hines Blvd, Dallas, TX 75229",
    "phone": "(972) 503-7000",
    "rating": 4.8,
    "reviews": 25,
    "website": "https://www.misterglass.com/",
    "category": "Baby-Boomer-owned Auto glass repair in Texas",
    "description": "A highly-rated glass repair company offering auto, residential, and commercial services. They have been providing on-location auto glass repair and replacement since 1962",
    "hours": "Mon-Fri 9AM-6PM",
    "services": [
      "Baby-Boomer-owned Auto glass repair in Texas consultation",
      "Professional service",
      "Quality guarantee"
    ],
    "social_links": {}
  },
  {
    "name": "Auto Glass Xperts",
    "address": "4000 W Vickery Blvd, Fort Worth, TX 76107",
    "phone": "(817) 831-0700",
    "rating": 4.9,
    "reviews": 25,
    "website": "https://autoglassxperts.com/",
    "category": "Baby-Boomer-owned Auto glass repair in Texas",
    "description": "A locally owned and family-run company with over 40 years of experience in windshield replacement, calibration, and repair. They are a preferred vendor for many dealerships",
    "hours": "Mon-Fri 9AM-6PM",
    "services": [
      "Baby-Boomer-owned Auto glass repair in Texas consultation",
      "Professional service",
      "Quality guarantee"
    ],
    "social_links": {}
  },
  {
    "name": "Super Low Price Auto Glass",
    "address": "6701 Long Point Rd, Houston, TX 77055",
    "phone": "(713) 678-7311",
    "rating": 4.5,
    "reviews": 25,
    "website": "https://superlowpriceautoglass.com/",
    "category": "Baby-Boomer-owned Auto glass repair in Texas",
    "description": "Offers a wide range of auto glass services including domestic and foreign glass installation, power window repair, and custom window work, all at competitive prices with guaranteed workmanship",
    "hours": "Mon-Fri 9AM-6PM",
    "services": [
      "Baby-Boomer-owned Auto glass repair in Texas consultation",
      "Professional service",
      "Quality guarantee"
    ],
    "social_links": {}
  },
  {
    "name": "Safelite AutoGlass",
    "address": "1900 E Plano Pkwy, Plano, TX 75074",
    "phone": "(972) 578-6100",
    "rating": 4.7,
    "reviews": 25,
    "website": "https://www.safelite.com/",
    "category": "Baby-Boomer-owned Auto glass repair in Texas",
    "description": "Provides auto glass repair and replacement services, including windshield repair and recalibration of advanced safety features. They offer both in-shop and mobile services",
    "hours": "Mon-Fri 9AM-6PM",
    "services": [
      "Baby-Boomer-owned Auto glass repair in Texas consultation",
      "Professional service",
      "Quality guarantee"
    ],
    "social_links": {}
  },
  {
    "name": "San Antonio Auto Glass",
    "address": "4023 Blanco Rd, San Antonio, TX 78212",
    "phone": "(210) 732-1111",
    "rating": 4.6,
    "reviews": 25,
    "website": "https://sanantonioautoglass.net/",
    "category": "Baby-Boomer-owned Auto glass repair in Texas",
    "description": "Offers complete car and truck auto glass replacement, specializing in windshields, side glass, and back glass. They provide expert services and lifetime warranties",
    "hours": "Mon-Fri 9AM-6PM",
    "services": [
      "Baby-Boomer-owned Auto glass repair in Texas consultation",
      "Professional service",
      "Quality guarantee"
    ],
    "social_links": {}
  },
  {
    "name": "Auto Glass Now of Arlington",
    "address": "107 N Collins St, Arlington, TX 76011",
    "phone": "(682) 267-6949",
    "rating": 4.7,
    "reviews": 25,
    "website": "https://www.autoglassnow.com/locations/arlington/",
    "category": "Baby-Boomer-owned Auto glass repair in Texas",
    "description": "Provides windshield repair and replacement, rear windshield and car side window replacement, and ADAS camera calibration at affordable prices with a nationwide lifetime warranty",
    "hours": "Mon-Fri 9AM-6PM",
    "services": [
      "Baby-Boomer-owned Auto glass repair in Texas consultation",
      "Professional service",
      "Quality guarantee"
    ],
    "social_links": {}
  },
  {
    "name": "Scott Glass Professional Auto Glass Replacement & Repair",
    "address": "5717 S Padre Island Dr, Corpus Christi, TX 78411",
    "phone": "(361) 854-8000",
    "rating": 4.7,
    "reviews": 25,
    "website": "https://www.scottglasscorpuschristi.com/",
    "category": "Baby-Boomer-owned Auto glass repair in Texas",
    "description": "Offers professional windshield and auto glass repair and replacement services since 1979, using patented technology for repairs and quality glass from reputable manufacturers",
    "hours": "Mon-Fri 9AM-6PM",
    "services": [
      "Baby-Boomer-owned Auto glass repair in Texas consultation",
      "Professional service",
      "Quality guarantee"
    ],
    "social_links": {}
  },
  {
    "name": "Ramirez Auto Glass",
    "address": "1023 S Zarzamora St, San Antonio, TX 78207",
    "phone": "(210) 433-1111",
    "rating": 4.9,
    "reviews": 25,
    "website": "https://ramirezag.com/",
    "category": "Baby-Boomer-owned Auto glass repair in Texas",
    "description": "Specializes in auto glass repair and replacement, including ADAS windshield camera recalibration. They have been in business since 1998 and offer mobile repairs and free estimates",
    "hours": "Mon-Fri 9AM-6PM",
    "services": [
      "Baby-Boomer-owned Auto glass repair in Texas consultation",
      "Professional service",
      "Quality guarantee"
    ],
    "social_links": {}
  }
]