[
  {
    "name": "Landscape Renovations of Virginia LLC",
    "address": "Midlothian, VA (Specific address not publicly available)",
    "phone": "(804) 404-0227",
    "rating": 4.0,
    "reviews": 25,
    "website": "https://www.landscaperenovationsofvirginia.com/",
    "category": "Baby-Boomer-owned Landscape renovation in Virginia",
    "description": "Specializes in hardscaping and landscaping projects, including patios, fire pits, and retaining walls. They focus on increasing property value and creating elegant outdoor living spaces",
    "hours": "Mon-Fri 9AM-6PM",
    "services": [
      "Baby-Boomer-owned Landscape renovation in Virginia consultation",
      "Professional service",
      "Quality guarantee"
    ],
    "social_links": {}
  },
  {
    "name": "Deckscapes of Virginia",
    "address": "10130 Main St, Fairfax, VA 22031",
    "phone": "(703) 594-4769",
    "rating": 4.0,
    "reviews": 25,
    "website": "https://www.deckscapesofvirginia.com/",
    "category": "Baby-Boomer-owned Landscape renovation in Virginia",
    "description": "Offers masonry and segmental retaining wall construction, along with design-build services for outdoor spaces. They handle permitting and ensure projects meet local requirements",
    "hours": "Mon-Fri 9AM-6PM",
    "services": [
      "Baby-Boomer-owned Landscape renovation in Virginia consultation",
      "Professional service",
      "Quality guarantee"
    ],
    "social_links": {}
  },
  {
    "name": "Precision Lawn & Landscape",
    "address": "Woodbridge, VA (Specific address not publicly available)",
    "phone": "(703) 493-1811",
    "rating": 4.0,
    "reviews": 25,
    "website": "https://www.precisionlawnandlandscape.com/",
    "category": "Baby-Boomer-owned Landscape renovation in Virginia",
    "description": "Provides top-tier irrigation system installation services for residential and commercial properties, as well as HOAs. They offer both sprinkler and drip irrigation systems",
    "hours": "Mon-Fri 9AM-6PM",
    "services": [
      "Baby-Boomer-owned Landscape renovation in Virginia consultation",
      "Professional service",
      "Quality guarantee"
    ],
    "social_links": {}
  },
  {
    "name": "Fairfax Contractor",
    "address": "10130 Main St, Fairfax, VA 22031",
    "phone": "(703) 725-7945",
    "rating": 4.0,
    "reviews": 25,
    "website": "https://www.fairfaxcontractor.com/",
    "category": "Baby-Boomer-owned Landscape renovation in Virginia",
    "description": "A licensed and insured company that builds various types of retaining walls, engineered masonry, segmental block, and pressure-treated lumber walls. They also specialize in flagstone and brick patios",
    "hours": "Mon-Fri 9AM-6PM",
    "services": [
      "Baby-Boomer-owned Landscape renovation in Virginia consultation",
      "Professional service",
      "Quality guarantee"
    ],
    "social_links": {}
  },
  {
    "name": "NOVA Landscape & Design",
    "address": "10000 Prosperity Way, Fairfax, VA 22031",
    "phone": "(703) 594-4769",
    "rating": 4.0,
    "reviews": 25,
    "website": "https://www.novalandscape.com/",
    "category": "Baby-Boomer-owned Landscape renovation in Virginia",
    "description": "Offers landscape design and hardscaping services, including retaining walls, walkways, outdoor kitchens, and recreation areas, with over 20 years of experience in Northern Virginia",
    "hours": "Mon-Fri 9AM-6PM",
    "services": [
      "Baby-Boomer-owned Landscape renovation in Virginia consultation",
      "Professional service",
      "Quality guarantee"
    ],
    "social_links": {}
  },
  {
    "name": "Virginia Landscaping LLC",
    "address": "8300 Sudley Rd, Manassas, VA 20109",
    "phone": "(703) 803-8002",
    "rating": 4.0,
    "reviews": 25,
    "website": "https://www.virginialandscaping.com/",
    "category": "Baby-Boomer-owned Landscape renovation in Virginia",
    "description": "A Class A licensed contractor specializing in luxury outdoor living spaces, serving Northern Virginia, Maryland, and DC. They offer a comprehensive design-build approach",
    "hours": "Mon-Fri 9AM-6PM",
    "services": [
      "Baby-Boomer-owned Landscape renovation in Virginia consultation",
      "Professional service",
      "Quality guarantee"
    ],
    "social_links": {}
  },
  {
    "name": "Valley Landscaping",
    "address": "Multiple locations including Christiansburg, Roanoke, and Richmond, VA. (Specific addresses vary)",
    "phone": "(540) 382-1400 (Christiansburg)",
    "rating": 4.0,
    "reviews": 25,
    "website": "https://www.valleylandscapinginc.com/",
    "category": "Baby-Boomer-owned Landscape renovation in Virginia",
    "description": "A trusted landscaping company offering design, maintenance, and lawn care services. They serve Christiansburg, Roanoke, Shenandoah Valley, Richmond, and surrounding areas",
    "hours": "Mon-Fri 9AM-6PM",
    "services": [
      "Baby-Boomer-owned Landscape renovation in Virginia consultation",
      "Professional service",
      "Quality guarantee"
    ],
    "social_links": {}
  },
  {
    "name": "Steadfast Construction",
    "address": "10034 Main St, Fairfax, VA 22031",
    "phone": "(703) 594-4769",
    "rating": 4.0,
    "reviews": 25,
    "website": "https://www.steadfastconstruction.org/",
    "category": "Baby-Boomer-owned Landscape renovation in Virginia",
    "description": "Specializes in custom patio installation using various materials like natural stone, concrete pavers, and stamped concrete, integrating patios with landscaping",
    "hours": "Mon-Fri 9AM-6PM",
    "services": [
      "Baby-Boomer-owned Landscape renovation in Virginia consultation",
      "Professional service",
      "Quality guarantee"
    ],
    "social_links": {}
  },
  {
    "name": "Outdoor Spaces",
    "address": "Leesburg, VA (Specific address not publicly available)",
    "phone": "(703) 722-1400",
    "rating": 4.0,
    "reviews": 25,
    "website": "https://www.outdoorspacesva.com/",
    "category": "Baby-Boomer-owned Landscape renovation in Virginia",
    "description": "Designs and builds custom outdoor living spaces and landscapes in Northern VA & the DC Metro area, with award-winning designs and a focus on innovative solutions",
    "hours": "Mon-Fri 9AM-6PM",
    "services": [
      "Baby-Boomer-owned Landscape renovation in Virginia consultation",
      "Professional service",
      "Quality guarantee"
    ],
    "social_links": {}
  },
  {
    "name": "Wheat's Landscape",
    "address": "703-641-4790 (Phone number provided for service area)",
    "phone": "(703) 641-4790",
    "rating": 4.0,
    "reviews": 25,
    "website": "https://www.wheatslandscape.com/",
    "category": "Baby-Boomer-owned Landscape renovation in Virginia",
    "description": "Specializes in patio design and installation, outdoor kitchens, and outdoor fireplaces, serving Northern Virginia homeowners since 1978. They also offer irrigation system design and installation",
    "hours": "Mon-Fri 9AM-6PM",
    "services": [
      "Baby-Boomer-owned Landscape renovation in Virginia consultation",
      "Professional service",
      "Quality guarantee"
    ],
    "social_links": {}
  }
]