[
  {
    "name": "Birch Family Dentistry",
    "address": "174 Rte 101 C-1, Bedford, NH 03110",
    "phone": "603-471-6000",
    "rating": 4.0,
    "reviews": 25,
    "website": "https://www.birchfamilydentistrynh.com/",
    "category": "American-Indian-owned General dentistry in New-Hampshire",
    "description": "Offers a full spectrum of general, restorative, and cosmetic dental services for patients of all ages, with a focus on prevention and comfort",
    "hours": "Mon-Fri 9AM-6PM",
    "services": [
      "American-Indian-owned General dentistry in New-Hampshire consultation",
      "Professional service",
      "Quality guarantee"
    ],
    "social_links": {}
  },
  {
    "name": "Towne Square Dental",
    "address": "14 Londonderry Rd, Londonderry, NH 03053",
    "phone": "603-432-7771",
    "rating": 4.0,
    "reviews": 25,
    "website": "https://www.townesquaredental.com/",
    "category": "American-Indian-owned General dentistry in New-Hampshire",
    "description": "Provides comprehensive family dental services, including pediatric care, crowns, bridges, and cosmetic treatments",
    "hours": "Mon-Fri 9AM-6PM",
    "services": [
      "American-Indian-owned General dentistry in New-Hampshire consultation",
      "Professional service",
      "Quality guarantee"
    ],
    "social_links": {}
  },
  {
    "name": "New Hampshire Family Dentistry",
    "address": "1065 Elm St, Manchester, NH 03101",
    "phone": "603-625-1877",
    "rating": 4.0,
    "reviews": 25,
    "website": "https://www.nhfamilydentistry.com/",
    "category": "American-Indian-owned General dentistry in New-Hampshire",
    "description": "Offers a wide range of dental services for families, utilizing modern technology for treatments like digital X-rays and same-day crowns",
    "hours": "Mon-Fri 9AM-6PM",
    "services": [
      "American-Indian-owned General dentistry in New-Hampshire consultation",
      "Professional service",
      "Quality guarantee"
    ],
    "social_links": {}
  },
  {
    "name": "Plymouth General Dentistry",
    "address": "103 Highland St, Plymouth, NH 03264",
    "phone": "603-536-2000",
    "rating": 4.0,
    "reviews": 25,
    "website": "https://www.plymouthgeneral.com/",
    "category": "American-Indian-owned General dentistry in New-Hampshire",
    "description": "A patient-focused, privately owned practice offering a relaxing and friendly dental experience for families",
    "hours": "Mon-Fri 9AM-6PM",
    "services": [
      "American-Indian-owned General dentistry in New-Hampshire consultation",
      "Professional service",
      "Quality guarantee"
    ],
    "social_links": {}
  },
  {
    "name": "Tilton Family Dental",
    "address": "143 Main St, Tilton, NH 03276",
    "phone": "603-286-8618",
    "rating": 4.0,
    "reviews": 25,
    "website": "https://www.tiltonfamilydental.com/",
    "category": "American-Indian-owned General dentistry in New-Hampshire",
    "description": "Provides general dentistry services to maintain healthy teeth and gums, serving patients from Tilton and surrounding communities",
    "hours": "Mon-Fri 9AM-6PM",
    "services": [
      "American-Indian-owned General dentistry in New-Hampshire consultation",
      "Professional service",
      "Quality guarantee"
    ],
    "social_links": {}
  },
  {
    "name": "Landmark Dental Care",
    "address": "283 Broad St, Nashua, NH 03063",
    "phone": "603-882-7312",
    "rating": 4.0,
    "reviews": 25,
    "website": "https://www.landmarkdentalcare.com/",
    "category": "American-Indian-owned General dentistry in New-Hampshire",
    "description": "Offers quality dental care with a comprehensive approach to oral health for patients of all ages, focusing on building relationships",
    "hours": "Mon-Fri 9AM-6PM",
    "services": [
      "American-Indian-owned General dentistry in New-Hampshire consultation",
      "Professional service",
      "Quality guarantee"
    ],
    "social_links": {}
  },
  {
    "name": "Stiles Family Dentistry",
    "address": "10 Stiles Rd, Salem, NH 03079",
    "phone": "603-893-3222",
    "rating": 4.0,
    "reviews": 25,
    "website": "https://www.stilesfamilydentistry.com/",
    "category": "American-Indian-owned General dentistry in New-Hampshire",
    "description": "Committed to providing individualized oral health care plans and a stress-free dental experience",
    "hours": "Mon-Fri 9AM-6PM",
    "services": [
      "American-Indian-owned General dentistry in New-Hampshire consultation",
      "Professional service",
      "Quality guarantee"
    ],
    "social_links": {}
  },
  {
    "name": "New Hampshire Center for Comprehensive Dentistry",
    "address": "143 Route 101, Amherst, NH 03031",
    "phone": "603-673-3000",
    "rating": 4.0,
    "reviews": 25,
    "website": "https://www.nhccd.com/",
    "category": "American-Indian-owned General dentistry in New-Hampshire",
    "description": "Provides personalized, high-quality dental care in a comfortable setting for all patients",
    "hours": "Mon-Fri 9AM-6PM",
    "services": [
      "American-Indian-owned General dentistry in New-Hampshire consultation",
      "Professional service",
      "Quality guarantee"
    ],
    "social_links": {}
  },
  {
    "name": "Dr. Hugh's Dental PC",
    "address": "162 Main St, Littleton, NH 03561",
    "phone": "603-444-2273",
    "rating": 4.0,
    "reviews": 25,
    "website": "https://www.drhughsdental.com/",
    "category": "American-Indian-owned General dentistry in New-Hampshire",
    "description": "Offers high-quality, state-of-the-art dental care, including restorative procedures, implants, and surgery",
    "hours": "Mon-Fri 9AM-6PM",
    "services": [
      "American-Indian-owned General dentistry in New-Hampshire consultation",
      "Professional service",
      "Quality guarantee"
    ],
    "social_links": {}
  },
  {
    "name": "Londonderry Dentistry and Implants",
    "address": "25 Nashua Rd, Unit D1, Londonderry, NH 03053",
    "phone": "603-432-6430",
    "rating": 4.0,
    "reviews": 25,
    "website": "https://www.londonderrydentistryandimplants.com/",
    "category": "American-Indian-owned General dentistry in New-Hampshire",
    "description": "Committed to helping patients achieve healthy and beautiful smiles with a range of general, restorative, and cosmetic dental services",
    "hours": "Mon-Fri 9AM-6PM",
    "services": [
      "American-Indian-owned General dentistry in New-Hampshire consultation",
      "Professional service",
      "Quality guarantee"
    ],
    "social_links": {}
  }
]