[
  {
    "name": "Michigan Quality Electric",
    "address": "Multiple locations, contact for details",
    "phone": "(248) 449-4200",
    "rating": 4.0,
    "reviews": 25,
    "website": "https://www.michiganqualityelectric.com/",
    "category": "Arabic-speaking Supercharger installation in Michigan",
    "description": "Offers residential, commercial, and industrial EV charger installation services, including Tesla Certified installations",
    "hours": "Mon-Fri 9AM-6PM",
    "services": [
      "Arabic-speaking Supercharger installation in Michigan consultation",
      "Professional service",
      "Quality guarantee"
    ],
    "social_links": {}
  },
  {
    "name": "State Electric Company of Michigan",
    "address": "Multiple locations, contact for details",
    "phone": "",
    "rating": 4.0,
    "reviews": 25,
    "website": "https://stateelectricco.com/",
    "category": "Arabic-speaking Supercharger installation in Michigan",
    "description": "Provides Level 2 EV charger installation for single-family homes, multi-unit housing, and commercial properties",
    "hours": "Mon-Fri 9AM-6PM",
    "services": [
      "Arabic-speaking Supercharger installation in Michigan consultation",
      "Professional service",
      "Quality guarantee"
    ],
    "social_links": {}
  },
  {
    "name": "Robin Aire Service Company",
    "address": "Southeast Michigan (specific address not provided, contact for details)",
    "phone": "(800) 361-0888",
    "rating": 4.0,
    "reviews": 25,
    "website": "https://www.robin-aire.com/",
    "category": "Arabic-speaking Supercharger installation in Michigan",
    "description": "Offers residential EV charger installation services in Southeast Michigan",
    "hours": "Mon-Fri 9AM-6PM",
    "services": [
      "Arabic-speaking Supercharger installation in Michigan consultation",
      "Professional service",
      "Quality guarantee"
    ],
    "social_links": {}
  },
  {
    "name": "Tri Star Electrical, LLC",
    "address": "Brighton, Michigan (specific address not provided, contact for details)",
    "phone": "(810) 225-9605",
    "rating": 4.0,
    "reviews": 25,
    "website": "https://tristarelectrical.com/",
    "category": "Arabic-speaking Supercharger installation in Michigan",
    "description": "Installs any make or model of EV charger for residential and commercial applications",
    "hours": "Mon-Fri 9AM-6PM",
    "services": [
      "Arabic-speaking Supercharger installation in Michigan consultation",
      "Professional service",
      "Quality guarantee"
    ],
    "social_links": {}
  },
  {
    "name": "Hartland Electric LLC",
    "address": "Hartland, Michigan (specific address not provided, contact for details)",
    "phone": "",
    "rating": 4.0,
    "reviews": 25,
    "website": "https://hartlandelectric.com/",
    "category": "Arabic-speaking Supercharger installation in Michigan",
    "description": "Specializes in professional EV charger installation services for homes and businesses",
    "hours": "Mon-Fri 9AM-6PM",
    "services": [
      "Arabic-speaking Supercharger installation in Michigan consultation",
      "Professional service",
      "Quality guarantee"
    ],
    "social_links": {}
  },
  {
    "name": "Aladdin - Jackson, MI",
    "address": "Mid-Michigan area (specific address not provided, contact for details)",
    "phone": "",
    "rating": 4.0,
    "reviews": 25,
    "website": "https://aladdin-mi.com/",
    "category": "Arabic-speaking Supercharger installation in Michigan",
    "description": "Provides electric vehicle charging station installation and service for commercial customers in the mid-Michigan area",
    "hours": "Mon-Fri 9AM-6PM",
    "services": [
      "Arabic-speaking Supercharger installation in Michigan consultation",
      "Professional service",
      "Quality guarantee"
    ],
    "social_links": {}
  },
  {
    "name": "OWL Services",
    "address": "10100 Dixie Highway, Clarkston, MI 48348",
    "phone": "(800) 482-1200",
    "rating": 4.0,
    "reviews": 25,
    "website": "http://www.owlservices.com/",
    "category": "Arabic-speaking Supercharger installation in Michigan",
    "description": "Offers installation services for petroleum, industrial, commercial fleet, and electric vehicle charging companies",
    "hours": "Mon-Fri 9AM-6PM",
    "services": [
      "Arabic-speaking Supercharger installation in Michigan consultation",
      "Professional service",
      "Quality guarantee"
    ],
    "social_links": {}
  },
  {
    "name": "Randazzo Heating, Cooling, and Electrical",
    "address": "Metro Detroit and surrounding areas (specific address not provided, contact for details)",
    "phone": "586-336-1111",
    "rating": 4.0,
    "reviews": 25,
    "website": "https://www.randazzoheating.com/",
    "category": "Arabic-speaking Supercharger installation in Michigan",
    "description": "Provides EV charger installation services for residential customers in Metro Detroit",
    "hours": "Mon-Fri 9AM-6PM",
    "services": [
      "Arabic-speaking Supercharger installation in Michigan consultation",
      "Professional service",
      "Quality guarantee"
    ],
    "social_links": {}
  },
  {
    "name": "Wolverine Electrical Contracting",
    "address": "Niles, MI (specific address not provided, contact for details)",
    "phone": "",
    "rating": 4.0,
    "reviews": 25,
    "website": "https://wolverine-electric.com/",
    "category": "Arabic-speaking Supercharger installation in Michigan",
    "description": "Offers residential and commercial electric car charger installation services",
    "hours": "Mon-Fri 9AM-6PM",
    "services": [
      "Arabic-speaking Supercharger installation in Michigan consultation",
      "Professional service",
      "Quality guarantee"
    ],
    "social_links": {}
  },
  {
    "name": "Executive Electric",
    "address": "Sterling Heights, MI (specific address not provided, contact for details)",
    "phone": "586-786-7334",
    "rating": 4.0,
    "reviews": 25,
    "website": "https://www.executiveelectricusa.com/",
    "category": "Arabic-speaking Supercharger installation in Michigan",
    "description": "Provides expert EV charger installation services for homes and businesses, including Tesla charger installations",
    "hours": "Mon-Fri 9AM-6PM",
    "services": [
      "Arabic-speaking Supercharger installation in Michigan consultation",
      "Professional service",
      "Quality guarantee"
    ],
    "social_links": {}
  }
]