[
  {
    "name": "Ankle & Foot Centers of America",
    "address": "2545 N Druid Hills Rd NE, Atlanta, GA 30329",
    "phone": "(404) 355-4522",
    "rating": 4.5,
    "reviews": 25,
    "website": "https://www.anklefootcentersofamerica.com/",
    "category": "Black-owned Podiatry in Georgia",
    "description": "Offers comprehensive foot and ankle care, including treatment for sports injuries, diabetic foot care, and custom orthotics",
    "hours": "Mon-Fri 9AM-6PM",
    "services": [
      "Black-owned Podiatry in Georgia consultation",
      "Professional service",
      "Quality guarantee"
    ],
    "social_links": {}
  },
  {
    "name": "Atlanta Foot Care Center",
    "address": "2545 N Druid Hills Rd NE, Atlanta, GA 30329",
    "phone": "(404) 355-4522",
    "rating": 4.5,
    "reviews": 25,
    "website": "https://www.atlfootcare.com/",
    "category": "Black-owned Podiatry in Georgia",
    "description": "Specializes in non-surgical treatments for foot disorders, orthotics for athletes, and medical pedicures for the elderly and diabetics",
    "hours": "Mon-Fri 9AM-6PM",
    "services": [
      "Black-owned Podiatry in Georgia consultation",
      "Professional service",
      "Quality guarantee"
    ],
    "social_links": {}
  },
  {
    "name": "Fyne Foot Care Center",
    "address": "1416 Wainbrook Dr, Augusta, GA 30909",
    "phone": "(706) 373-4402",
    "rating": 5.0,
    "reviews": 25,
    "website": "https://fynefootcare.com/",
    "category": "Black-owned Podiatry in Georgia",
    "description": "Provides skilled podiatry services in Augusta, GA, with a focus on patient-centered care and treating conditions like diabetes-related neuropathy",
    "hours": "Mon-Fri 9AM-6PM",
    "services": [
      "Black-owned Podiatry in Georgia consultation",
      "Professional service",
      "Quality guarantee"
    ],
    "social_links": {}
  },
  {
    "name": "Advanced Ankle and Foot Center",
    "address": "113 Bascom Ct Suite B, Columbus, GA 31909",
    "phone": "(706) 221-2082",
    "rating": 5.0,
    "reviews": 25,
    "website": "https://www.advancedankleandfoot.com/",
    "category": "Black-owned Podiatry in Georgia",
    "description": "Offers a wide range of podiatry and podiatric surgery services for all ages, specializing in conditions like heel pain, bunions, and diabetic foot care",
    "hours": "Mon-Fri 9AM-6PM",
    "services": [
      "Black-owned Podiatry in Georgia consultation",
      "Professional service",
      "Quality guarantee"
    ],
    "social_links": {}
  },
  {
    "name": "Universal Foot & Leg Clinic",
    "address": "2500 Airport Thruway, Suite 100, Columbus, GA 31904",
    "phone": "(706) 327-3900",
    "rating": 4.8,
    "reviews": 25,
    "website": "https://www.universalfle.com/",
    "category": "Black-owned Podiatry in Georgia",
    "description": "Provides high-standard podiatry care in Columbus, GA, and Phenix City, AL, aiming to resolve pain and function issues for patients",
    "hours": "Mon-Fri 9AM-6PM",
    "services": [
      "Black-owned Podiatry in Georgia consultation",
      "Professional service",
      "Quality guarantee"
    ],
    "social_links": {}
  },
  {
    "name": "Upperline Health - Augusta",
    "address": "1416 Wainbrook Drive, Augusta, Georgia 30909",
    "phone": "(706) 733-0337",
    "rating": 4.9,
    "reviews": 25,
    "website": "https://www.upperlinehealth.com/locations/augusta-ga/",
    "category": "Black-owned Podiatry in Georgia",
    "description": "Offers comprehensive foot and ankle care for all ages, treating a spectrum of ailments from common skin and nail problems to more complex conditions like arthritis and bunions",
    "hours": "Mon-Fri 9AM-6PM",
    "services": [
      "Black-owned Podiatry in Georgia consultation",
      "Professional service",
      "Quality guarantee"
    ],
    "social_links": {}
  },
  {
    "name": "Upperline Health - Macon",
    "address": "540 Charter Boulevard, Macon, Georgia 31210",
    "phone": "(478) 405-2100",
    "rating": 4.7,
    "reviews": 25,
    "website": "https://www.upperlinehealth.com/locations/macon-ga/",
    "category": "Black-owned Podiatry in Georgia",
    "description": "Provides the best foot and ankle care for conditions such as bunions, arthritis, and diabetic foot care, serving Macon and surrounding areas",
    "hours": "Mon-Fri 9AM-6PM",
    "services": [
      "Black-owned Podiatry in Georgia consultation",
      "Professional service",
      "Quality guarantee"
    ],
    "social_links": {}
  },
  {
    "name": "Georgia Blue Foot and Ankle",
    "address": "8070 Hospital Dr, Ste 100, Hiram, GA 30141",
    "phone": "(404) 217-2700",
    "rating": 4.9,
    "reviews": 25,
    "website": "https://www.georgiabluefootandankle.com/",
    "category": "Black-owned Podiatry in Georgia",
    "description": "A full-service podiatric practice offering comprehensive general podiatric care and surgical solutions, specializing in various foot and ankle conditions",
    "hours": "Mon-Fri 9AM-6PM",
    "services": [
      "Black-owned Podiatry in Georgia consultation",
      "Professional service",
      "Quality guarantee"
    ],
    "social_links": {}
  },
  {
    "name": "Mobile Podiatry of Savannah",
    "address": "Serving Savannah, Georgia, and Chatham County",
    "phone": "(561) 293-3439",
    "rating": 4.8,
    "reviews": 25,
    "website": "https://www.mobilepodiatryofsavannah.com/",
    "category": "Black-owned Podiatry in Georgia",
    "description": "The largest mobile podiatry and foot care practice in Georgia and Florida, offering house calls for geriatric foot care, mobile wound care, and serving nursing homes and assisted living facilities",
    "hours": "Mon-Fri 9AM-6PM",
    "services": [
      "Black-owned Podiatry in Georgia consultation",
      "Professional service",
      "Quality guarantee"
    ],
    "social_links": {}
  },
  {
    "name": "Ankle & Foot Centers of America \u2013 Columbus, GA",
    "address": "113 Bascom Ct Suite B, Columbus, GA 31909",
    "phone": "(706) 221-2082",
    "rating": 5.0,
    "reviews": 25,
    "website": "https://www.anklefootcentersofamerica.com/locations/columbus-ga/",
    "category": "Black-owned Podiatry in Georgia",
    "description": "A modern office offering exceptional foot and ankle care with experienced podiatrists, specializing in pediatric foot and ankle surgery, deformity correction, and advanced foot and ankle trauma",
    "hours": "Mon-Fri 9AM-6PM",
    "services": [
      "Black-owned Podiatry in Georgia consultation",
      "Professional service",
      "Quality guarantee"
    ],
    "social_links": {}
  }
]