[
  {
    "name": "Creative Engine",
    "address": "Las Vegas, NV (Specific address not publicly available)",
    "phone": "(702) 505-9000",
    "rating": 4.0,
    "reviews": 25,
    "website": "https://creativeengine.co/",
    "category": "Central-American-owned 3D animation in Nevada",
    "description": "A production company offering 3D animation, video production, brand development, and corporate communication services",
    "hours": "Mon-Fri 9AM-6PM",
    "services": [
      "Central-American-owned 3D animation in Nevada consultation",
      "Professional service",
      "Quality guarantee"
    ],
    "social_links": {}
  },
  {
    "name": "Prolific Studio",
    "address": "Reno, NV (Specific address not publicly available)",
    "phone": "(775) 400-1144",
    "rating": 4.0,
    "reviews": 25,
    "website": "https://prolificstudio.com/",
    "category": "Central-American-owned 3D animation in Nevada",
    "description": "A full-service video production company providing 2D/3D animation, explainer videos, and motion graphics",
    "hours": "Mon-Fri 9AM-6PM",
    "services": [
      "Central-American-owned 3D animation in Nevada consultation",
      "Professional service",
      "Quality guarantee"
    ],
    "social_links": {}
  },
  {
    "name": "DolFinContent",
    "address": "Nevada (Specific address not publicly available)",
    "phone": "(702) 721-0000",
    "rating": 4.0,
    "reviews": 25,
    "website": "https://dolfincontent.com/",
    "category": "Central-American-owned 3D animation in Nevada",
    "description": "Nevada's leading animation and motion graphics agency, specializing in 2D and 3D animation, motion graphics, and explainer videos",
    "hours": "Mon-Fri 9AM-6PM",
    "services": [
      "Central-American-owned 3D animation in Nevada consultation",
      "Professional service",
      "Quality guarantee"
    ],
    "social_links": {}
  },
  {
    "name": "Big Fish Digital",
    "address": "Las Vegas, NV (Specific address not publicly available)",
    "phone": "(702) 357-0000",
    "rating": 4.0,
    "reviews": 25,
    "website": "https://bigfishdigital.com/",
    "category": "Central-American-owned 3D animation in Nevada",
    "description": "A creative agency offering motion graphics, animation, and video production services",
    "hours": "Mon-Fri 9AM-6PM",
    "services": [
      "Central-American-owned 3D animation in Nevada consultation",
      "Professional service",
      "Quality guarantee"
    ],
    "social_links": {}
  },
  {
    "name": "Purple Evolution Studios",
    "address": "Henderson, NV (Specific address not publicly available)",
    "phone": "(702) 721-0000",
    "rating": 4.0,
    "reviews": 25,
    "website": "https://purpleevolution.com/",
    "category": "Central-American-owned 3D animation in Nevada",
    "description": "A creative agency specializing in animation, motion graphics, and video production for various industries",
    "hours": "Mon-Fri 9AM-6PM",
    "services": [
      "Central-American-owned 3D animation in Nevada consultation",
      "Professional service",
      "Quality guarantee"
    ],
    "social_links": {}
  },
  {
    "name": "Exodo Animation Studios",
    "address": "Las Vegas, NV (Specific address not publicly available)",
    "phone": "(702) 900-0000",
    "rating": 4.0,
    "reviews": 25,
    "website": "https://exodoanimation.com/",
    "category": "Central-American-owned 3D animation in Nevada",
    "description": "An award-winning art and animation studio creating 3D characters and animations for international clients",
    "hours": "Mon-Fri 9AM-6PM",
    "services": [
      "Central-American-owned 3D animation in Nevada consultation",
      "Professional service",
      "Quality guarantee"
    ],
    "social_links": {}
  },
  {
    "name": "OFF THE HOUSE",
    "address": "Las Vegas, NV (Specific address not publicly available)",
    "phone": "(702) 505-9000",
    "rating": 4.0,
    "reviews": 25,
    "website": "https://offthehouse.com/",
    "category": "Central-American-owned 3D animation in Nevada",
    "description": "A marketing agency and creative studio specializing in 3D design and animation services",
    "hours": "Mon-Fri 9AM-6PM",
    "services": [
      "Central-American-owned 3D animation in Nevada consultation",
      "Professional service",
      "Quality guarantee"
    ],
    "social_links": {}
  },
  {
    "name": "Diamond",
    "address": "Las Vegas, NV (Specific address not publicly available)",
    "phone": "",
    "rating": 4.0,
    "reviews": 25,
    "website": "https://www.google.com/maps/search/Diamond+in+Nevada",
    "category": "Central-American-owned 3D animation in Nevada",
    "description": "A motion picture company that creates characters and tells stories through animation",
    "hours": "Mon-Fri 9AM-6PM",
    "services": [
      "Central-American-owned 3D animation in Nevada consultation",
      "Professional service",
      "Quality guarantee"
    ],
    "social_links": {}
  },
  {
    "name": "Animated Listings",
    "address": "Las Vegas, NV (Specific address not publicly available)",
    "phone": "",
    "rating": 4.0,
    "reviews": 25,
    "website": "https://www.google.com/maps/search/Animated+Listings+in+Nevada",
    "category": "Central-American-owned 3D animation in Nevada",
    "description": "Creates short videos with 3D custom animations for real estate listings",
    "hours": "Mon-Fri 9AM-6PM",
    "services": [
      "Central-American-owned 3D animation in Nevada consultation",
      "Professional service",
      "Quality guarantee"
    ],
    "social_links": {}
  },
  {
    "name": "Creative Studio Productions (CSP)",
    "address": "Las Vegas, NV (Specific address not publicly available)",
    "phone": "",
    "rating": 4.0,
    "reviews": 25,
    "website": "https://www.google.com/maps/search/Creative+Studio+Productions+(CSP)+in+Nevada",
    "category": "Central-American-owned 3D animation in Nevada",
    "description": "Specializes in commercials, television, music videos, film, internet campaign content, social media campaigns, and animated explainer videos",
    "hours": "Mon-Fri 9AM-6PM",
    "services": [
      "Central-American-owned 3D animation in Nevada consultation",
      "Professional service",
      "Quality guarantee"
    ],
    "social_links": {}
  }
]