[
  {
    "name": "Pro-Foam Insulation",
    "address": "Bismarck, ND",
    "phone": "(701) 223-4663",
    "rating": 4.0,
    "reviews": 25,
    "website": "http://www.profoamin.com/",
    "category": "Hindu-owned Insulation in North-Dakota",
    "description": "Offers residential, commercial, and agricultural insulation projects, specializing in open cell and closed cell spray foam insulation, and waterproofing concrete",
    "hours": "Mon-Fri 9AM-6PM",
    "services": [
      "Hindu-owned Insulation in North-Dakota consultation",
      "Professional service",
      "Quality guarantee"
    ],
    "social_links": {}
  },
  {
    "name": "iFOAM Insulation of Fargo",
    "address": "Fargo, ND",
    "phone": "(701) 712-6272",
    "rating": 4.0,
    "reviews": 25,
    "website": "https://www.ifoam.com/fargo/",
    "category": "Hindu-owned Insulation in North-Dakota",
    "description": "Provides comprehensive residential and commercial insulation services including spray foam, air sealing, BATT insulation, and blow-in insulation",
    "hours": "Mon-Fri 9AM-6PM",
    "services": [
      "Hindu-owned Insulation in North-Dakota consultation",
      "Professional service",
      "Quality guarantee"
    ],
    "social_links": {}
  },
  {
    "name": "Grand Forks Spray Foam Insulation",
    "address": "Grand Forks, ND",
    "phone": "",
    "rating": 4.0,
    "reviews": 25,
    "website": "https://www.grandforkssprayfoaminsulation.com/",
    "category": "Hindu-owned Insulation in North-Dakota",
    "description": "Offers top-notch spray foam insulation services for homes and offices, including attic, crawl space, and wall insulation",
    "hours": "Mon-Fri 9AM-6PM",
    "services": [
      "Hindu-owned Insulation in North-Dakota consultation",
      "Professional service",
      "Quality guarantee"
    ],
    "social_links": {}
  },
  {
    "name": "Interstate Insulation",
    "address": "Grand Forks, ND",
    "phone": "",
    "rating": 4.0,
    "reviews": 25,
    "website": "https://www.interstateinsulation.com/",
    "category": "Hindu-owned Insulation in North-Dakota",
    "description": "Provides reliable insulation products and services for residential and commercial properties, focusing on thermal protection and energy efficiency",
    "hours": "Mon-Fri 9AM-6PM",
    "services": [
      "Hindu-owned Insulation in North-Dakota consultation",
      "Professional service",
      "Quality guarantee"
    ],
    "social_links": {}
  },
  {
    "name": "Kolly Insulation Contractor",
    "address": "Minot, ND",
    "phone": "(870) 212-4699",
    "rating": 4.0,
    "reviews": 25,
    "website": "https://www.kollyinsulation.com/",
    "category": "Hindu-owned Insulation in North-Dakota",
    "description": "Offers insulation services in Minot, ND, including spray foam and fiberglass insulation, and air sealing services to enhance comfort and energy efficiency",
    "hours": "Mon-Fri 9AM-6PM",
    "services": [
      "Hindu-owned Insulation in North-Dakota consultation",
      "Professional service",
      "Quality guarantee"
    ],
    "social_links": {}
  },
  {
    "name": "Valley Home Improvements",
    "address": "Fargo, ND",
    "phone": "",
    "rating": 4.0,
    "reviews": 25,
    "website": "https://www.valleyhomeimprovements.com/",
    "category": "Hindu-owned Insulation in North-Dakota",
    "description": "Provides reliable home insulation services using spray foam and blow-in methods, with over 20 years of experience in the Fargo area",
    "hours": "Mon-Fri 9AM-6PM",
    "services": [
      "Hindu-owned Insulation in North-Dakota consultation",
      "Professional service",
      "Quality guarantee"
    ],
    "social_links": {}
  },
  {
    "name": "RetroFoam of Fargo",
    "address": "Fargo, ND",
    "phone": "(701) 721-3205",
    "rating": 4.0,
    "reviews": 25,
    "website": "https://www.retrofoamfargo.com/",
    "category": "Hindu-owned Insulation in North-Dakota",
    "description": "An injection foam insulation contractor focused on helping homeowners achieve comfortable and energy-efficient homes by insulating existing walls",
    "hours": "Mon-Fri 9AM-6PM",
    "services": [
      "Hindu-owned Insulation in North-Dakota consultation",
      "Professional service",
      "Quality guarantee"
    ],
    "social_links": {}
  },
  {
    "name": "Fargo Spray Foam Insulation Company",
    "address": "Fargo, ND",
    "phone": "",
    "rating": 4.0,
    "reviews": 25,
    "website": "https://www.fargosprayfoaminsulation.com/",
    "category": "Hindu-owned Insulation in North-Dakota",
    "description": "A licensed and certified spray foam insulation company committed to providing top-quality insulation services with the latest technology",
    "hours": "Mon-Fri 9AM-6PM",
    "services": [
      "Hindu-owned Insulation in North-Dakota consultation",
      "Professional service",
      "Quality guarantee"
    ],
    "social_links": {}
  },
  {
    "name": "The Foam Depot LLC",
    "address": "Minot, ND",
    "phone": "(701) 833-2267",
    "rating": 4.0,
    "reviews": 25,
    "website": "https://www.thefoamdepotllc.com/",
    "category": "Hindu-owned Insulation in North-Dakota",
    "description": "Offers residential and commercial spray foam insulation services in Minot, North Dakota, focusing on enhancing home comfort and energy efficiency",
    "hours": "Mon-Fri 9AM-6PM",
    "services": [
      "Hindu-owned Insulation in North-Dakota consultation",
      "Professional service",
      "Quality guarantee"
    ],
    "social_links": {}
  },
  {
    "name": "Superior Insulation ND",
    "address": "Bismarck and Mandan, ND",
    "phone": "(701) 590-1412",
    "rating": 4.0,
    "reviews": 25,
    "website": "https://www.superiorinsulationnd.com/",
    "category": "Hindu-owned Insulation in North-Dakota",
    "description": "Provides closed-cell spray foam insulation solutions for residential and commercial properties, focusing on moisture control and high strength",
    "hours": "Mon-Fri 9AM-6PM",
    "services": [
      "Hindu-owned Insulation in North-Dakota consultation",
      "Professional service",
      "Quality guarantee"
    ],
    "social_links": {}
  }
]