[
  {
    "name": "Precision Machine",
    "address": "1500 Industrial Dr, Jefferson City, MO 65109",
    "phone": "(573) 635-7474",
    "rating": 4.0,
    "reviews": 25,
    "website": "http://www.precisionmachineinc.com/",
    "category": "Arabic-speaking Engine rebuilding in Missouri",
    "description": "Specializes in engine rebuilding for a wide variety of gasoline and diesel engines, offering services like crankshaft grinding, cylinder head repair, and engine balancing",
    "hours": "Mon-Fri 9AM-6PM",
    "services": [
      "Arabic-speaking Engine rebuilding in Missouri consultation",
      "Professional service",
      "Quality guarantee"
    ],
    "social_links": {}
  },
  {
    "name": "Impressive Auto Service",
    "address": "1249 East Karsch Blvd, Farmington, MO 63640",
    "phone": "(573) 756-0011",
    "rating": 4.0,
    "reviews": 25,
    "website": "https://www.impressiveautoservice.com/",
    "category": "Arabic-speaking Engine rebuilding in Missouri",
    "description": "A full-service auto repair shop that handles engine repair for foreign and domestic vehicles",
    "hours": "Mon-Fri 9AM-6PM",
    "services": [
      "Arabic-speaking Engine rebuilding in Missouri consultation",
      "Professional service",
      "Quality guarantee"
    ],
    "social_links": {}
  },
  {
    "name": "The Auto Shop",
    "address": "612 Missouri Boulevard Court, Jefferson City, MO 65109",
    "phone": "(573) 635-7171",
    "rating": 4.0,
    "reviews": 25,
    "website": "https://www.theautoshopjc.com/",
    "category": "Arabic-speaking Engine rebuilding in Missouri",
    "description": "Offers comprehensive auto repair services, including engine diagnostics and repairs, with a focus on advanced technology and customer service",
    "hours": "Mon-Fri 9AM-6PM",
    "services": [
      "Arabic-speaking Engine rebuilding in Missouri consultation",
      "Professional service",
      "Quality guarantee"
    ],
    "social_links": {}
  },
  {
    "name": "Henry's Auto and Tire",
    "address": "11100 Page Ave, Overland, MO 63114",
    "phone": "(314) 429-4756",
    "rating": 4.0,
    "reviews": 25,
    "website": "https://www.henrysautoandtire.com/",
    "category": "Arabic-speaking Engine rebuilding in Missouri",
    "description": "Provides a wide range of auto repair services, including tune-ups and engine performance services, for domestic and import vehicles",
    "hours": "Mon-Fri 9AM-6PM",
    "services": [
      "Arabic-speaking Engine rebuilding in Missouri consultation",
      "Professional service",
      "Quality guarantee"
    ],
    "social_links": {}
  },
  {
    "name": "Duke & Bob's Automotive",
    "address": "1300 Emanuel Cleaver Blvd, Kansas City, MO 64110",
    "phone": "(816) 931-7808",
    "rating": 4.0,
    "reviews": 25,
    "website": "https://www.dukebobsauto.com/",
    "category": "Arabic-speaking Engine rebuilding in Missouri",
    "description": "Offers reliable and high-quality auto repair services, including engine overhaul and replacement, for cars and trucks",
    "hours": "Mon-Fri 9AM-6PM",
    "services": [
      "Arabic-speaking Engine rebuilding in Missouri consultation",
      "Professional service",
      "Quality guarantee"
    ],
    "social_links": {}
  },
  {
    "name": "Talley Tire, Inc.",
    "address": "702 W Spring St, Neosho, MO 64850",
    "phone": "(417) 451-1111",
    "rating": 4.0,
    "reviews": 25,
    "website": "https://www.talleytire.com/",
    "category": "Arabic-speaking Engine rebuilding in Missouri",
    "description": "A leading auto repair shop providing a variety of mechanic services, including engine repair, for various makes and models",
    "hours": "Mon-Fri 9AM-6PM",
    "services": [
      "Arabic-speaking Engine rebuilding in Missouri consultation",
      "Professional service",
      "Quality guarantee"
    ],
    "social_links": {}
  },
  {
    "name": "Gary's Auto Service",
    "address": "1300 S Florissant Rd, Florissant, MO 63031",
    "phone": "(314) 831-1700",
    "rating": 4.0,
    "reviews": 25,
    "website": "https://www.garysautoservice.com/",
    "category": "Arabic-speaking Engine rebuilding in Missouri",
    "description": "Specializes in engine rebuilds for a wide variety of vehicles, with experienced technicians dedicated to powertrain expertise",
    "hours": "Mon-Fri 9AM-6PM",
    "services": [
      "Arabic-speaking Engine rebuilding in Missouri consultation",
      "Professional service",
      "Quality guarantee"
    ],
    "social_links": {}
  },
  {
    "name": "Greg's Auto Service and Repair",
    "address": "11264 Midland Blvd, St. Louis, MO 63114",
    "phone": "(314) 428-4000",
    "rating": 4.0,
    "reviews": 25,
    "website": "https://www.gregsautoservice.com/",
    "category": "Arabic-speaking Engine rebuilding in Missouri",
    "description": "Offers comprehensive engine overhaul, replacement, and maintenance services, including cylinder block and cylinder head repair",
    "hours": "Mon-Fri 9AM-6PM",
    "services": [
      "Arabic-speaking Engine rebuilding in Missouri consultation",
      "Professional service",
      "Quality guarantee"
    ],
    "social_links": {}
  },
  {
    "name": "Walt's Service Inc.",
    "address": "1204 N College Ave, Columbia, MO 65201",
    "phone": "(573) 449-4171",
    "rating": 4.0,
    "reviews": 25,
    "website": "https://www.walts-service.com/",
    "category": "Arabic-speaking Engine rebuilding in Missouri",
    "description": "Provides full-service engine repair and rebuilds, as well as engine replacement and maintenance, for various vehicle types",
    "hours": "Mon-Fri 9AM-6PM",
    "services": [
      "Arabic-speaking Engine rebuilding in Missouri consultation",
      "Professional service",
      "Quality guarantee"
    ],
    "social_links": {}
  },
  {
    "name": "Lund's Engine & Machine Shop",
    "address": "206 Clearview Dr, St. Charles, MO 63301",
    "phone": "(636) 947-8419",
    "rating": 4.0,
    "reviews": 25,
    "website": "https://www.lundsengine.com/",
    "category": "Arabic-speaking Engine rebuilding in Missouri",
    "description": "A machine shop specializing in engine rebuilding for modern to vintage cars, trucks, and industrial engines, with services including complete machine shop work and engine balancing",
    "hours": "Mon-Fri 9AM-6PM",
    "services": [
      "Arabic-speaking Engine rebuilding in Missouri consultation",
      "Professional service",
      "Quality guarantee"
    ],
    "social_links": {}
  }
]