[
  {
    "name": "American Consumer Credit Counseling (ACCC)",
    "address": "While ACCC is a national organization, they offer services to New Hampshire residents. Their main office is located at 1600 South Federal Highway, Suite 200, Boca Raton, FL 33432",
    "phone": "1-800-769-3571",
    "rating": 4.0,
    "reviews": 25,
    "website": "https://www.consumercredit.com/",
    "category": "Central-American-owned Financial counseling in New-Hampshire",
    "description": "A non-profit credit counseling agency offering debt advice, debt consolidation programs, and consumer bankruptcy counseling",
    "hours": "Mon-Fri 9AM-6PM",
    "services": [
      "Central-American-owned Financial counseling in New-Hampshire consultation",
      "Professional service",
      "Quality guarantee"
    ],
    "social_links": {}
  },
  {
    "name": "GreenPath Financial Wellness (formerly Consumer Credit Counseling Service of New Hampshire and Vermont)",
    "address": "They have multiple locations, including one at 250 Commercial St, Suite 3016, Manchester, NH 03101",
    "phone": "1-844-492-9705",
    "rating": 4.0,
    "reviews": 25,
    "website": "https://www.greenpath.org/",
    "category": "Central-American-owned Financial counseling in New-Hampshire",
    "description": "Offers non-profit financial education and counseling services, including credit counseling, debt management, housing counseling, and bankruptcy counseling",
    "hours": "Mon-Fri 9AM-6PM",
    "services": [
      "Central-American-owned Financial counseling in New-Hampshire consultation",
      "Professional service",
      "Quality guarantee"
    ],
    "social_links": {}
  },
  {
    "name": "New Hampshire Housing Finance Authority (NHHFA) - Homebuyer & Financial Counseling",
    "address": "32 Cascade Drive, Concord, NH 03301",
    "phone": "(603) 472-8440",
    "rating": 4.0,
    "reviews": 25,
    "website": "https://www.nhhfa.org/",
    "category": "Central-American-owned Financial counseling in New-Hampshire",
    "description": "Provides resources and counseling for homebuyers, including understanding mortgage options and financial preparation. They partner with various counseling agencies",
    "hours": "Mon-Fri 9AM-6PM",
    "services": [
      "Central-American-owned Financial counseling in New-Hampshire consultation",
      "Professional service",
      "Quality guarantee"
    ],
    "social_links": {}
  },
  {
    "name": "AHEAD, Inc.",
    "address": "262 Cottage Street, Level 1, Littleton, NH 03561",
    "phone": "(603) 444-1377",
    "rating": 4.0,
    "reviews": 25,
    "website": "https://www.aheadnh.org/",
    "category": "Central-American-owned Financial counseling in New-Hampshire",
    "description": "Offers housing counseling, financial literacy, and other services to help individuals and families achieve financial stability",
    "hours": "Mon-Fri 9AM-6PM",
    "services": [
      "Central-American-owned Financial counseling in New-Hampshire consultation",
      "Professional service",
      "Quality guarantee"
    ],
    "social_links": {}
  },
  {
    "name": "HOMEteam",
    "address": "801 Elm Street, 2nd Floor, Manchester, NH 03105",
    "phone": "(866) 701-9097",
    "rating": 4.0,
    "reviews": 25,
    "website": "https://www.home-team.org/",
    "category": "Central-American-owned Financial counseling in New-Hampshire",
    "description": "A network of housing counselors providing education and assistance to prospective homebuyers",
    "hours": "Mon-Fri 9AM-6PM",
    "services": [
      "Central-American-owned Financial counseling in New-Hampshire consultation",
      "Professional service",
      "Quality guarantee"
    ],
    "social_links": {}
  },
  {
    "name": "The Housing Partnership",
    "address": "222 International Drive, Suite 165, Portsmouth, NH 03802",
    "phone": "(603) 431-3620",
    "rating": 4.0,
    "reviews": 25,
    "website": "https://www.housingpartnership.org/",
    "category": "Central-American-owned Financial counseling in New-Hampshire",
    "description": "Focuses on affordable housing and community development, offering counseling and resources to individuals and families",
    "hours": "Mon-Fri 9AM-6PM",
    "services": [
      "Central-American-owned Financial counseling in New-Hampshire consultation",
      "Professional service",
      "Quality guarantee"
    ],
    "social_links": {}
  },
  {
    "name": "InCharge Debt Solutions",
    "address": "While InCharge is a national organization, they provide services to New Hampshire residents. Their main office is in Florida",
    "phone": "1-866-347-2405",
    "rating": 4.0,
    "reviews": 25,
    "website": "https://www.incharge.org/",
    "category": "Central-American-owned Financial counseling in New-Hampshire",
    "description": "Offers free, non-profit credit counseling and debt management programs to help individuals manage and pay off their debts",
    "hours": "Mon-Fri 9AM-6PM",
    "services": [
      "Central-American-owned Financial counseling in New-Hampshire consultation",
      "Professional service",
      "Quality guarantee"
    ],
    "social_links": {}
  },
  {
    "name": "Money Fit",
    "address": "A national non-profit organization that serves New Hampshire residents",
    "phone": "1-877-455-5470",
    "rating": 4.0,
    "reviews": 25,
    "website": "https://www.moneyfit.org/",
    "category": "Central-American-owned Financial counseling in New-Hampshire",
    "description": "Provides debt consolidation and credit card debt help through non-profit counseling services, aiming to simplify payments and reduce interest",
    "hours": "Mon-Fri 9AM-6PM",
    "services": [
      "Central-American-owned Financial counseling in New-Hampshire consultation",
      "Professional service",
      "Quality guarantee"
    ],
    "social_links": {}
  },
  {
    "name": "Seacoast Financial Planning (Ameriprise Financial)",
    "address": "100 Arboretum Drive, Suite 205, Portsmouth, NH 03801",
    "phone": "(603) 431-3620 (This appears to be a duplicate number for The Housing Partnership, please verify directly with Seacoast Financial Planning)",
    "rating": 4.0,
    "reviews": 25,
    "website": "https://www.ameriprise.com/local-advisor/seacoast-financial-planning",
    "category": "Central-American-owned Financial counseling in New-Hampshire",
    "description": "Offers financial advisory services, including retirement planning, investment management, and insurance",
    "hours": "Mon-Fri 9AM-6PM",
    "services": [
      "Central-American-owned Financial counseling in New-Hampshire consultation",
      "Professional service",
      "Quality guarantee"
    ],
    "social_links": {}
  },
  {
    "name": "Monadnock Private Wealth",
    "address": "107 Main Street, Suite 201, Keene, NH 03431",
    "phone": "(603) 357-0001",
    "rating": 4.0,
    "reviews": 25,
    "website": "https://www.monadnockprivatewealth.com/",
    "category": "Central-American-owned Financial counseling in New-Hampshire",
    "description": "A wealth management firm offering personalized financial planning, retirement strategies, and tax-efficient support",
    "hours": "Mon-Fri 9AM-6PM",
    "services": [
      "Central-American-owned Financial counseling in New-Hampshire consultation",
      "Professional service",
      "Quality guarantee"
    ],
    "social_links": {}
  }
]