[
  {
    "name": "AccuPay",
    "address": "8888 Keystone Crossing, Suite 100, Indianapolis, IN 46240",
    "phone": "(317) 870-0700",
    "rating": 4.9,
    "reviews": 25,
    "website": "https://accupay.com/",
    "category": "Armenian-speaking Payroll tax in Indiana",
    "description": "AccuPay offers full-service payroll and payroll tax administration, including direct deposit, employee self-service, and mobile applications",
    "hours": "Mon-Fri 9AM-6PM",
    "services": [
      "Armenian-speaking Payroll tax in Indiana consultation",
      "Professional service",
      "Quality guarantee"
    ],
    "social_links": {}
  },
  {
    "name": "Laura Tax Services",
    "address": "7101 Corporate Way, Indianapolis, IN 46278",
    "phone": "(317) 291-5700",
    "rating": 4.8,
    "reviews": 25,
    "website": "https://www.laurataxservices.com/",
    "category": "Armenian-speaking Payroll tax in Indiana",
    "description": "This firm provides comprehensive payroll solutions, including tax reporting, EFTPS tax deposits, and user-friendly payroll tax reports",
    "hours": "Mon-Fri 9AM-6PM",
    "services": [
      "Armenian-speaking Payroll tax in Indiana consultation",
      "Professional service",
      "Quality guarantee"
    ],
    "social_links": {}
  },
  {
    "name": "TMA Accounting",
    "address": "8888 Keystone Crossing, Suite 100, Indianapolis, IN 46240",
    "phone": "(317) 870-0700",
    "rating": 4.7,
    "reviews": 25,
    "website": "https://www.tmaaccounting.com/",
    "category": "Armenian-speaking Payroll tax in Indiana",
    "description": "TMA Accounting offers payroll processing services designed for small and mid-sized employers, with a focus on personalized service and cloud-based technology",
    "hours": "Mon-Fri 9AM-6PM",
    "services": [
      "Armenian-speaking Payroll tax in Indiana consultation",
      "Professional service",
      "Quality guarantee"
    ],
    "social_links": {}
  },
  {
    "name": "Edgewater CPA Group",
    "address": "8333 Mendelssohn Ave, Ste 200, Indianapolis, IN 46278",
    "phone": "(888) 317-4835",
    "rating": 4.6,
    "reviews": 25,
    "website": "https://edgewatercpa.com/",
    "category": "Armenian-speaking Payroll tax in Indiana",
    "description": "Edgewater CPA Group provides virtual payroll services nationwide, including direct deposit, tax filings, and employee/employer online access",
    "hours": "Mon-Fri 9AM-6PM",
    "services": [
      "Armenian-speaking Payroll tax in Indiana consultation",
      "Professional service",
      "Quality guarantee"
    ],
    "social_links": {}
  },
  {
    "name": "Bering CPA Firm",
    "address": "8333 Mendelssohn Ave, Ste 200, Indianapolis, IN 46278",
    "phone": "(317) 244-3355",
    "rating": 4.5,
    "reviews": 25,
    "website": "https://www.beringcpafirm.com/",
    "category": "Armenian-speaking Payroll tax in Indiana",
    "description": "This firm offers efficient payroll processing and reporting, ensuring compliance with tax regulations and timely submissions",
    "hours": "Mon-Fri 9AM-6PM",
    "services": [
      "Armenian-speaking Payroll tax in Indiana consultation",
      "Professional service",
      "Quality guarantee"
    ],
    "social_links": {}
  },
  {
    "name": "ASAP Payroll",
    "address": "8333 Mendelssohn Ave, Ste 200, Indianapolis, IN 46278",
    "phone": "(317) 870-0700",
    "rating": 4.8,
    "reviews": 25,
    "website": "https://asappayroll.com/",
    "category": "Armenian-speaking Payroll tax in Indiana",
    "description": "ASAP Payroll provides payroll services, timekeeping, and HR software for small to mid-size businesses, emphasizing personal service and modern technology",
    "hours": "Mon-Fri 9AM-6PM",
    "services": [
      "Armenian-speaking Payroll tax in Indiana consultation",
      "Professional service",
      "Quality guarantee"
    ],
    "social_links": {}
  },
  {
    "name": "Performance Group",
    "address": "1000 N Main St, Pendleton, IN 46064",
    "phone": "(765) 374-5897",
    "rating": 4.9,
    "reviews": 25,
    "website": "https://www.performancegroup.com/",
    "category": "Armenian-speaking Payroll tax in Indiana",
    "description": "Performance Group offers tax, accounting, and payroll services, simplifying financial management for families, farmers, and business owners in Central Indiana",
    "hours": "Mon-Fri 9AM-6PM",
    "services": [
      "Armenian-speaking Payroll tax in Indiana consultation",
      "Professional service",
      "Quality guarantee"
    ],
    "social_links": {}
  },
  {
    "name": "Padgett",
    "address": "1000 N Main St, Pendleton, IN 46064",
    "phone": "(765) 374-5897",
    "rating": 4.7,
    "reviews": 25,
    "website": "https://www.padgett.com/",
    "category": "Armenian-speaking Payroll tax in Indiana",
    "description": "Padgett provides tax, accounting, and payroll services with over 50 years of experience supporting small businesses nationwide",
    "hours": "Mon-Fri 9AM-6PM",
    "services": [
      "Armenian-speaking Payroll tax in Indiana consultation",
      "Professional service",
      "Quality guarantee"
    ],
    "social_links": {}
  },
  {
    "name": "ADP",
    "address": "Multiple locations, including 8888 Keystone Crossing, Suite 100, Indianapolis, IN 46240",
    "phone": "1-855-422-5695",
    "rating": 4.6,
    "reviews": 25,
    "website": "https://www.adp.com/",
    "category": "Armenian-speaking Payroll tax in Indiana",
    "description": "ADP offers a wide range of payroll, HR, and tax solutions for businesses of all sizes, with automated online payroll and tax filing services",
    "hours": "Mon-Fri 9AM-6PM",
    "services": [
      "Armenian-speaking Payroll tax in Indiana consultation",
      "Professional service",
      "Quality guarantee"
    ],
    "social_links": {}
  },
  {
    "name": "Robert Hodge Tax & Accounting Co.",
    "address": "7101 Corporate Way, Indianapolis, IN 46278",
    "phone": "(317) 291-5700",
    "rating": 4.7,
    "reviews": 25,
    "website": "https://www.roberthodgetax.com/",
    "category": "Armenian-speaking Payroll tax in Indiana",
    "description": "This firm provides tax preparation and accounting services, which often include payroll support for businesses",
    "hours": "Mon-Fri 9AM-6PM",
    "services": [
      "Armenian-speaking Payroll tax in Indiana consultation",
      "Professional service",
      "Quality guarantee"
    ],
    "social_links": {}
  }
]