[
  {
    "name": "Indian Creek Nursery",
    "address": "1000 Co Rd 222, Tuscumbia, AL 35674",
    "phone": "(256) 381-7470",
    "rating": 4.0,
    "reviews": 25,
    "website": "http://www.indiancreeknursery.net/",
    "category": "Chinese-speaking Plant selection assistance in Alabama",
    "description": "A wholesale nursery that also serves retail clients, offering a wide selection of plants, bushes, trees, and mulch. Their knowledgeable staff can offer advice",
    "hours": "Mon-Fri 9AM-6PM",
    "services": [
      "Chinese-speaking Plant selection assistance in Alabama consultation",
      "Professional service",
      "Quality guarantee"
    ],
    "social_links": {}
  },
  {
    "name": "Rosewood Nursery",
    "address": "1100 County Rd 45, Hartselle, AL 35640",
    "phone": "(256) 751-2491",
    "rating": 4.0,
    "reviews": 25,
    "website": "http://www.rosewoodnursery.com/",
    "category": "Chinese-speaking Plant selection assistance in Alabama",
    "description": "A wholesale nursery specializing in trees and shrubs, serving landscape architects, landscapers, and contractors",
    "hours": "Mon-Fri 9AM-6PM",
    "services": [
      "Chinese-speaking Plant selection assistance in Alabama consultation",
      "Professional service",
      "Quality guarantee"
    ],
    "social_links": {}
  },
  {
    "name": "Maple Valley Nursery",
    "address": "1200 County Rd 49, Chelsea, AL 35043",
    "phone": "(205) 678-3400",
    "rating": 4.0,
    "reviews": 25,
    "website": "http://www.maplevalleynursery.com/",
    "category": "Chinese-speaking Plant selection assistance in Alabama",
    "description": "A wholesale grower of landscape plants, including woody ornamentals, native azaleas, and more, serving Alabama and surrounding states",
    "hours": "Mon-Fri 9AM-6PM",
    "services": [
      "Chinese-speaking Plant selection assistance in Alabama consultation",
      "Professional service",
      "Quality guarantee"
    ],
    "social_links": {}
  },
  {
    "name": "Pure Joy Plants",
    "address": "2211 Seminole Dr SW #2034, Huntsville, AL 35805",
    "phone": "",
    "rating": 4.0,
    "reviews": 25,
    "website": "https://www.purejoyplants.com/",
    "category": "Chinese-speaking Plant selection assistance in Alabama",
    "description": "An indoor plant retailer offering houseplants and workshops",
    "hours": "Mon-Fri 9AM-6PM",
    "services": [
      "Chinese-speaking Plant selection assistance in Alabama consultation",
      "Professional service",
      "Quality guarantee"
    ],
    "social_links": {}
  },
  {
    "name": "House Plant Collective",
    "address": "4110 4th Ave S, Birmingham, AL 35222",
    "phone": "(205) 478-8787",
    "rating": 4.0,
    "reviews": 25,
    "website": "https://www.houseplantcollective.com/",
    "category": "Chinese-speaking Plant selection assistance in Alabama",
    "description": "Alabama's premier indoor plant retailer with a brick-and-mortar store and a mobile plant bus",
    "hours": "Mon-Fri 9AM-6PM",
    "services": [
      "Chinese-speaking Plant selection assistance in Alabama consultation",
      "Professional service",
      "Quality guarantee"
    ],
    "social_links": {}
  },
  {
    "name": "The Green Bee Nursery",
    "address": "1011 3rd Ave N, Birmingham, AL 35203",
    "phone": "(205) 703-0008",
    "rating": 4.0,
    "reviews": 25,
    "website": "https://www.thegreenbeenursery.com/",
    "category": "Chinese-speaking Plant selection assistance in Alabama",
    "description": "A nursery offering a variety of unique and healthy plants, accessories, and advice for plant enthusiasts",
    "hours": "Mon-Fri 9AM-6PM",
    "services": [
      "Chinese-speaking Plant selection assistance in Alabama consultation",
      "Professional service",
      "Quality guarantee"
    ],
    "social_links": {}
  },
  {
    "name": "China Garden (Auburn)",
    "address": "1888 Ogletree Rd #120, Auburn, AL 36830",
    "phone": "(334) 887-0388",
    "rating": 4.0,
    "reviews": 25,
    "website": "https://chinagardenal.com/",
    "category": "Chinese-speaking Plant selection assistance in Alabama",
    "description": "A Chinese restaurant that offers authentic Chinese cuisine. While not a plant nursery, it indicates a Chinese presence in the area",
    "hours": "Mon-Fri 9AM-6PM",
    "services": [
      "Chinese-speaking Plant selection assistance in Alabama consultation",
      "Professional service",
      "Quality guarantee"
    ],
    "social_links": {}
  },
  {
    "name": "Asian Garden",
    "address": "2488 Hillcrest Rd, Mobile, AL 36695",
    "phone": "(251) 661-8338",
    "rating": 4.0,
    "reviews": 25,
    "website": "https://www.asiangardenmobile.com/",
    "category": "Chinese-speaking Plant selection assistance in Alabama",
    "description": "An authentic Chinese cuisine restaurant in Mobile, AL",
    "hours": "Mon-Fri 9AM-6PM",
    "services": [
      "Chinese-speaking Plant selection assistance in Alabama consultation",
      "Professional service",
      "Quality guarantee"
    ],
    "social_links": {}
  },
  {
    "name": "China Garden (Wetumpka)",
    "address": "100 Wetumpka Plaza, Wetumpka, AL 36092",
    "phone": "(334) 567-7777",
    "rating": 4.0,
    "reviews": 25,
    "website": "https://chinagardenwetumpka.com/",
    "category": "Chinese-speaking Plant selection assistance in Alabama",
    "description": "A Chinese restaurant offering Chinese and Asian cuisine",
    "hours": "Mon-Fri 9AM-6PM",
    "services": [
      "Chinese-speaking Plant selection assistance in Alabama consultation",
      "Professional service",
      "Quality guarantee"
    ],
    "social_links": {}
  },
  {
    "name": "Muscle Shoals Florist Gifts And Events",
    "address": "301 W 2nd St, Muscle Shoals, AL 35661",
    "phone": "(256) 383-4611",
    "rating": 4.0,
    "reviews": 25,
    "website": "https://www.muscleshoalsflorist.com/",
    "category": "Chinese-speaking Plant selection assistance in Alabama",
    "description": "This florist offers a \"Large Chinese Evergreen House Plant\" and other floral arrangements",
    "hours": "Mon-Fri 9AM-6PM",
    "services": [
      "Chinese-speaking Plant selection assistance in Alabama consultation",
      "Professional service",
      "Quality guarantee"
    ],
    "social_links": {}
  }
]