[
  {
    "name": "St. Mary Armenian Church",
    "address": "200 W Mt Pleasant Ave, Livingston, NJ 07039",
    "phone": "(973) 533-9794",
    "rating": 4.0,
    "reviews": 25,
    "website": "https://stmaryarmenianchurch.org/",
    "category": "Armenian-speaking Micro-weddings in New-Jersey",
    "description": "This church offers wedding services and has a hall (Toufayan Hall) available for receptions",
    "hours": "Mon-Fri 9AM-6PM",
    "services": [
      "Armenian-speaking Micro-weddings in New-Jersey consultation",
      "Professional service",
      "Quality guarantee"
    ],
    "social_links": {}
  },
  {
    "name": "Saint Sarkis Armenian Apostolic Church",
    "address": "140 West Saddle River Road, Saddle Brook, NJ 07663",
    "phone": "(201) 652-4250",
    "rating": 4.0,
    "reviews": 25,
    "website": "https://www.saintsarkis.org/",
    "category": "Armenian-speaking Micro-weddings in New-Jersey",
    "description": "Offers wedding ceremonies and has a fellowship hall that can accommodate up to 250 people",
    "hours": "Mon-Fri 9AM-6PM",
    "services": [
      "Armenian-speaking Micro-weddings in New-Jersey consultation",
      "Professional service",
      "Quality guarantee"
    ],
    "social_links": {}
  },
  {
    "name": "St. Leon Armenian Church",
    "address": "12-61 Saddle River Road, Fair Lawn, NJ 07410",
    "phone": "(201) 791-2862",
    "rating": 4.0,
    "reviews": 25,
    "website": "https://www.stleon.org/",
    "category": "Armenian-speaking Micro-weddings in New-Jersey",
    "description": "This church has facilities including a ballroom and gymnasium suitable for events",
    "hours": "Mon-Fri 9AM-6PM",
    "services": [
      "Armenian-speaking Micro-weddings in New-Jersey consultation",
      "Professional service",
      "Quality guarantee"
    ],
    "social_links": {}
  },
  {
    "name": "The Atrium of Tenafly at St. Thomas Armenian Church",
    "address": "Route 9W & East Clinton Ave, Tenafly, NJ 07670",
    "phone": "(201) 871-0272 (Church Office)",
    "rating": 4.0,
    "reviews": 25,
    "website": "http://www.stthomasarmenianchurch.com/rental/",
    "category": "Armenian-speaking Micro-weddings in New-Jersey",
    "description": "Offers two banquet halls perfect for special events, including wedding ceremonies and receptions",
    "hours": "Mon-Fri 9AM-6PM",
    "services": [
      "Armenian-speaking Micro-weddings in New-Jersey consultation",
      "Professional service",
      "Quality guarantee"
    ],
    "social_links": {}
  },
  {
    "name": "Inn at Glencairn",
    "address": "1405 Old Hollow Rd, Princeton, NJ 08540",
    "phone": "(609) 497-1737",
    "rating": 4.0,
    "reviews": 25,
    "website": "https://www.innatglencairn.com/",
    "category": "Armenian-speaking Micro-weddings in New-Jersey",
    "description": "Specializes in custom-designed elopements and micro-weddings of under 25 guests in a historic setting",
    "hours": "Mon-Fri 9AM-6PM",
    "services": [
      "Armenian-speaking Micro-weddings in New-Jersey consultation",
      "Professional service",
      "Quality guarantee"
    ],
    "social_links": {}
  },
  {
    "name": "Montclair Wedding Sanctuary",
    "address": "10 Highland Ave, Montclair, NJ 07042",
    "phone": "(973) 744-1111",
    "rating": 4.0,
    "reviews": 25,
    "website": "https://www.montclairweddingsanctuary.com/",
    "category": "Armenian-speaking Micro-weddings in New-Jersey",
    "description": "A neo-Gothic style sanctuary suitable for intimate celebrations, with a garden space for outdoor weddings",
    "hours": "Mon-Fri 9AM-6PM",
    "services": [
      "Armenian-speaking Micro-weddings in New-Jersey consultation",
      "Professional service",
      "Quality guarantee"
    ],
    "social_links": {}
  },
  {
    "name": "The Morris Museum",
    "address": "6 Normandy Heights Rd, Morristown, NJ 07960",
    "phone": "(973) 971-0600",
    "rating": 4.0,
    "reviews": 25,
    "website": "https://morrismuseum.org/",
    "category": "Armenian-speaking Micro-weddings in New-Jersey",
    "description": "Offers a historic-meets-modern venue with various spaces for ceremonies and receptions, suitable for elopements or family-only micro-weddings",
    "hours": "Mon-Fri 9AM-6PM",
    "services": [
      "Armenian-speaking Micro-weddings in New-Jersey consultation",
      "Professional service",
      "Quality guarantee"
    ],
    "social_links": {}
  },
  {
    "name": "Perona Farms (The Refinery)",
    "address": "34 Pescos Rd, Andover, NJ 07821",
    "phone": "(973) 786-6444",
    "rating": 4.0,
    "reviews": 25,
    "website": "https://www.peronafarms.com/",
    "category": "Armenian-speaking Micro-weddings in New-Jersey",
    "description": "The Refinery venue is an industrial-chic space designed for small weddings, accommodating 50 to 150 guests",
    "hours": "Mon-Fri 9AM-6PM",
    "services": [
      "Armenian-speaking Micro-weddings in New-Jersey consultation",
      "Professional service",
      "Quality guarantee"
    ],
    "social_links": {}
  },
  {
    "name": "Reveled Events & Design LLC",
    "address": "Pine Brook, NJ (Specific address not provided, serves Northern New Jersey)",
    "phone": "",
    "rating": 4.0,
    "reviews": 25,
    "website": "https://www.reveledevents.com/",
    "category": "Armenian-speaking Micro-weddings in New-Jersey",
    "description": "A wedding planning business that specializes in personalized planning services for various types of weddings",
    "hours": "Mon-Fri 9AM-6PM",
    "services": [
      "Armenian-speaking Micro-weddings in New-Jersey consultation",
      "Professional service",
      "Quality guarantee"
    ],
    "social_links": {}
  },
  {
    "name": "Celia Milton - Wedding Officiant",
    "address": "New Jersey (Specific address not provided)",
    "phone": "",
    "rating": 4.0,
    "reviews": 25,
    "website": "https://www.celiamilton.com/",
    "category": "Armenian-speaking Micro-weddings in New-Jersey",
    "description": "A pastor and wedding officiant serving New York and New Jersey, experienced with micro-weddings",
    "hours": "Mon-Fri 9AM-6PM",
    "services": [
      "Armenian-speaking Micro-weddings in New-Jersey consultation",
      "Professional service",
      "Quality guarantee"
    ],
    "social_links": {}
  }
]