[
  {
    "name": "The Cleaning Authority - Rogers",
    "address": "1000 W Walnut St, Rogers, AR 72756",
    "phone": "(479) 888-4133",
    "rating": 4.5,
    "reviews": 25,
    "website": "https://www.thecleaningauthority.com/ar/rogers/",
    "category": "Baby-Boomer-owned General house cleaning in Arkansas",
    "description": "Offers professional house cleaning services in Rogers, Springdale, Lowell, Fayetteville, and surrounding areas, using eco-friendly products",
    "hours": "Mon-Fri 9AM-6PM",
    "services": [
      "Baby-Boomer-owned General house cleaning in Arkansas consultation",
      "Professional service",
      "Quality guarantee"
    ],
    "social_links": {}
  },
  {
    "name": "Molly Maid of Springdale",
    "address": "2001 S 48th St, Springdale, AR 72762",
    "phone": "(479) 750-4500",
    "rating": 4.7,
    "reviews": 25,
    "website": "https://www.mollymaid.com/springdale/",
    "category": "Baby-Boomer-owned General house cleaning in Arkansas",
    "description": "Provides professional home cleaning services in Springdale, with customizable plans and a satisfaction guarantee",
    "hours": "Mon-Fri 9AM-6PM",
    "services": [
      "Baby-Boomer-owned General house cleaning in Arkansas consultation",
      "Professional service",
      "Quality guarantee"
    ],
    "social_links": {}
  },
  {
    "name": "Merry Maids of Little Rock",
    "address": "11120 N Rodney Parham Rd, Little Rock, AR 72212",
    "phone": "(501) 224-0000",
    "rating": 4.6,
    "reviews": 25,
    "website": "https://www.merrymaids.com/little-rock/",
    "category": "Baby-Boomer-owned General house cleaning in Arkansas",
    "description": "Offers professional home cleaning services in Little Rock, backed by 40 years of experience, with a focus on restoring balance to clients' lives",
    "hours": "Mon-Fri 9AM-6PM",
    "services": [
      "Baby-Boomer-owned General house cleaning in Arkansas consultation",
      "Professional service",
      "Quality guarantee"
    ],
    "social_links": {}
  },
  {
    "name": "FreshSpace Cleaning",
    "address": "11120 N Rodney Parham Rd, Little Rock, AR 72212",
    "phone": "(501) 400-7000",
    "rating": 4.9,
    "reviews": 25,
    "website": "https://freshspacecleaning.com/",
    "category": "Baby-Boomer-owned General house cleaning in Arkansas",
    "description": "A top-rated professional cleaning company in Little Rock, AR, known for ensuring every corner of the home is spotless",
    "hours": "Mon-Fri 9AM-6PM",
    "services": [
      "Baby-Boomer-owned General house cleaning in Arkansas consultation",
      "Professional service",
      "Quality guarantee"
    ],
    "social_links": {}
  },
  {
    "name": "Custom Maids Inc.",
    "address": "4700 Rogers Ave, Fort Smith, AR 72903",
    "phone": "(479) 806-4852",
    "rating": 4.9,
    "reviews": 25,
    "website": "https://custommaids.com/",
    "category": "Baby-Boomer-owned General house cleaning in Arkansas",
    "description": "A family-owned business providing professional house cleaning and housekeeping services in and around Fort Smith, AR, with over 25 years of experience",
    "hours": "Mon-Fri 9AM-6PM",
    "services": [
      "Baby-Boomer-owned General house cleaning in Arkansas consultation",
      "Professional service",
      "Quality guarantee"
    ],
    "social_links": {}
  },
  {
    "name": "Molly Maid of Conway",
    "address": "1000 S German St, Conway, AR 72034",
    "phone": "(501) 327-3333",
    "rating": 4.7,
    "reviews": 25,
    "website": "https://www.mollymaid.com/conway/",
    "category": "Baby-Boomer-owned General house cleaning in Arkansas",
    "description": "Offers quality home cleaning services in Conway, AR, delivered according to schedule, preferences, and budget, with a satisfaction guarantee",
    "hours": "Mon-Fri 9AM-6PM",
    "services": [
      "Baby-Boomer-owned General house cleaning in Arkansas consultation",
      "Professional service",
      "Quality guarantee"
    ],
    "social_links": {}
  },
  {
    "name": "All Clean By Anabelle",
    "address": "4900 Rogers Ave Ste 101j, Fort Smith, AR 72903",
    "phone": "(479) 484-9122",
    "rating": 4.8,
    "reviews": 25,
    "website": "https://allcleanbyanabelle.com/fort-smith/",
    "category": "Baby-Boomer-owned General house cleaning in Arkansas",
    "description": "Provides professional house cleaning services in Fort Smith, AR, including move-in/move-out cleaning, with a 100% satisfaction guarantee",
    "hours": "Mon-Fri 9AM-6PM",
    "services": [
      "Baby-Boomer-owned General house cleaning in Arkansas consultation",
      "Professional service",
      "Quality guarantee"
    ],
    "social_links": {}
  },
  {
    "name": "The Maids of Northwest Arkansas",
    "address": "1000 W Walnut St, Rogers, AR 72756",
    "phone": "(479) 502-9090",
    "rating": 4.7,
    "reviews": 25,
    "website": "https://www.themaids.com/locations/northwest-arkansas/",
    "category": "Baby-Boomer-owned General house cleaning in Arkansas",
    "description": "Offers customized and affordable maid services in Rogers, Bentonville, Fayetteville, and Springdale, AR, focusing on healthy cleaning",
    "hours": "Mon-Fri 9AM-6PM",
    "services": [
      "Baby-Boomer-owned General house cleaning in Arkansas consultation",
      "Professional service",
      "Quality guarantee"
    ],
    "social_links": {}
  },
  {
    "name": "Apple Cleaning Services",
    "address": "1508 S Caraway Rd, Jonesboro, AR 72401",
    "phone": "(870) 932-7000",
    "rating": 4.8,
    "reviews": 25,
    "website": "https://applecleaningservicesjonesboro.com/",
    "category": "Baby-Boomer-owned General house cleaning in Arkansas",
    "description": "A locally owned and operated business committed to delivering top house and office cleaning services in the Jonesboro, Arkansas area",
    "hours": "Mon-Fri 9AM-6PM",
    "services": [
      "Baby-Boomer-owned General house cleaning in Arkansas consultation",
      "Professional service",
      "Quality guarantee"
    ],
    "social_links": {}
  },
  {
    "name": "Lux Pro Cleaning Services",
    "address": "1000 S German St, Conway, AR 72034",
    "phone": "(501) 400-7000",
    "rating": 4.9,
    "reviews": 25,
    "website": "https://luxprocleaningservices.com/",
    "category": "Baby-Boomer-owned General house cleaning in Arkansas",
    "description": "A premier eco-cleaning company specializing in residential cleaning, including luxury homes and short-term rentals in Conway, AR",
    "hours": "Mon-Fri 9AM-6PM",
    "services": [
      "Baby-Boomer-owned General house cleaning in Arkansas consultation",
      "Professional service",
      "Quality guarantee"
    ],
    "social_links": {}
  }
]