[
  {
    "name": "Windshield Works of Vermont",
    "address": "384 Boyer Circle, Williston, VT 05495",
    "phone": "802-864-5277",
    "rating": 4.0,
    "reviews": 25,
    "website": "http://www.windshieldworksofvermont.com/",
    "category": "Cuban-American-owned Windshield repair in Vermont",
    "description": "Offers windshield repairs, replacements, stone chip repair, and custom cut flat glass. They emphasize being a Vermont-owned and operated auto glass shop",
    "hours": "Mon-Fri 9AM-6PM",
    "services": [
      "Cuban-American-owned Windshield repair in Vermont consultation",
      "Professional service",
      "Quality guarantee"
    ],
    "social_links": {}
  },
  {
    "name": "Safelite AutoGlass (Barre)",
    "address": "1120 US-302, Barre, VT 05641",
    "phone": "877-472-3354",
    "rating": 4.0,
    "reviews": 25,
    "website": "https://www.safelite.com/",
    "category": "Cuban-American-owned Windshield repair in Vermont",
    "description": "Provides quick and efficient windshield repairs (around 30 minutes) and replacements (around 90 minutes). They service nearly every make and model and offer a nationwide lifetime warranty",
    "hours": "Mon-Fri 9AM-6PM",
    "services": [
      "Cuban-American-owned Windshield repair in Vermont consultation",
      "Professional service",
      "Quality guarantee"
    ],
    "social_links": {}
  },
  {
    "name": "Auto Glass4Less LLC",
    "address": "South Burlington, VT (Mobile service available in Northern Vermont, Chittenden County, and the Greater Burlington area)",
    "phone": "802-341-2041",
    "rating": 4.0,
    "reviews": 25,
    "website": "https://autoglass4less.com/",
    "category": "Cuban-American-owned Windshield repair in Vermont",
    "description": "A mobile auto glass repair and replacement service with over 40 years of experience. They offer windshield rock chip repair, auto glass replacement, and services for commercial vehicles",
    "hours": "Mon-Fri 9AM-6PM",
    "services": [
      "Cuban-American-owned Windshield repair in Vermont consultation",
      "Professional service",
      "Quality guarantee"
    ],
    "social_links": {}
  },
  {
    "name": "Green Mountain Glass",
    "address": "(Serves Southwest Vermont, Western Massachusetts, and Northeast New York)",
    "phone": "802-780-0078",
    "rating": 4.0,
    "reviews": 25,
    "website": "https://www.greenmountainglassvt.com/",
    "category": "Cuban-American-owned Windshield repair in Vermont",
    "description": "Offers windshield repair, replacement, door glass, and auto glass services. They provide mobile service and a lifetime warranty on workmanship",
    "hours": "Mon-Fri 9AM-6PM",
    "services": [
      "Cuban-American-owned Windshield repair in Vermont consultation",
      "Professional service",
      "Quality guarantee"
    ],
    "social_links": {}
  },
  {
    "name": "A-1 Windshield & Vinyl Repair",
    "address": "(Serves Vermont, Upstate New York, and parts of New Hampshire)",
    "phone": "800-750-5475",
    "rating": 4.0,
    "reviews": 25,
    "website": "https://www.a1windshield.com/",
    "category": "Cuban-American-owned Windshield repair in Vermont",
    "description": "Vermont's only mobile windshield and vinyl repair company, with experience since 1984 for windshields and 1990 for vinyl repair. They offer a guarantee that the windshield will not crack further for as long as you own the vehicle",
    "hours": "Mon-Fri 9AM-6PM",
    "services": [
      "Cuban-American-owned Windshield repair in Vermont consultation",
      "Professional service",
      "Quality guarantee"
    ],
    "social_links": {}
  },
  {
    "name": "Safelite AutoGlass (Williston)",
    "address": "Adams Dr., Williston, VT 05495",
    "phone": "877-472-3354",
    "rating": 4.0,
    "reviews": 25,
    "website": "https://www.safelite.com/",
    "category": "Cuban-American-owned Windshield repair in Vermont",
    "description": "Offers windshield repair and replacement services with expert technicians. They provide a nationwide lifetime warranty and convenient amenities like free coffee and Wi-Fi",
    "hours": "Mon-Fri 9AM-6PM",
    "services": [
      "Cuban-American-owned Windshield repair in Vermont consultation",
      "Professional service",
      "Quality guarantee"
    ],
    "social_links": {}
  },
  {
    "name": "Champion Auto Glass",
    "address": "New Haven, VT (Serves 9 counties in Vermont)",
    "phone": "802-453-6159",
    "rating": 4.0,
    "reviews": 25,
    "website": "https://www.championautoglassvt.com/",
    "category": "Cuban-American-owned Windshield repair in Vermont",
    "description": "Provides auto, RV, boat, and big rig glass installation and repairs, both mobile and in-house. They offer competitive pricing, quality workmanship, and a warranty on workmanship",
    "hours": "Mon-Fri 9AM-6PM",
    "services": [
      "Cuban-American-owned Windshield repair in Vermont consultation",
      "Professional service",
      "Quality guarantee"
    ],
    "social_links": {}
  },
  {
    "name": "Portland Glass (Barre)",
    "address": "1041 US 302, Barre, VT 05641",
    "phone": "802-476-4100",
    "rating": 4.0,
    "reviews": 25,
    "website": "https://www.portlandglass.com/locations/barre-vt/",
    "category": "Cuban-American-owned Windshield repair in Vermont",
    "description": "Offers auto glass, residential glass, and commercial glass repair and replacement services. They have over 75 years of experience and offer a free repair if a replaced windshield cracks or chips within 12 months",
    "hours": "Mon-Fri 9AM-6PM",
    "services": [
      "Cuban-American-owned Windshield repair in Vermont consultation",
      "Professional service",
      "Quality guarantee"
    ],
    "social_links": {}
  },
  {
    "name": "Burlington Glass",
    "address": "(Serves the Burlington area)",
    "phone": "802-862-0777",
    "rating": 4.0,
    "reviews": 25,
    "website": "https://burlingtonglass.com/",
    "category": "Cuban-American-owned Windshield repair in Vermont",
    "description": "Provides automotive, residential, and commercial glass services, including windshield replacement, chip repair, and recalibration. They emphasize fast, guaranteed service",
    "hours": "Mon-Fri 9AM-6PM",
    "services": [
      "Cuban-American-owned Windshield repair in Vermont consultation",
      "Professional service",
      "Quality guarantee"
    ],
    "social_links": {}
  },
  {
    "name": "Windshield Repair & Replacement in Williston, VT (Safelite)",
    "address": "18 Boyer Circle, Williston, VT 05495",
    "phone": "877-472-3354",
    "rating": 4.0,
    "reviews": 25,
    "website": "https://www.safelite.com/locations/williston-vt",
    "category": "Cuban-American-owned Windshield repair in Vermont",
    "description": "This is another Safelite location offering auto glass repair and replacement services. They highlight their expert technicians and nationwide lifetime warranty",
    "hours": "Mon-Fri 9AM-6PM",
    "services": [
      "Cuban-American-owned Windshield repair in Vermont consultation",
      "Professional service",
      "Quality guarantee"
    ],
    "social_links": {}
  }
]