[
  {
    "name": "Marion Diversified Enterprises",
    "address": "2801 Bell Avenue, Des Moines, Iowa 50321",
    "phone": "515-245-4350",
    "rating": 4.0,
    "reviews": 25,
    "website": "https://www.mariondiversified.com/",
    "category": "Arabic-speaking Facility management in Iowa",
    "description": "Offers grounds keeping, vegetation management, snow removal, janitorial services, and overall facility maintenance",
    "hours": "Mon-Fri 9AM-6PM",
    "services": [
      "Arabic-speaking Facility management in Iowa consultation",
      "Professional service",
      "Quality guarantee"
    ],
    "social_links": {}
  },
  {
    "name": "Marsden",
    "address": "2801 Bell Avenue, Des Moines, Iowa 50321",
    "phone": "515-245-4350",
    "rating": 4.0,
    "reviews": 25,
    "website": "https://marsden.com/",
    "category": "Arabic-speaking Facility management in Iowa",
    "description": "Provides nationwide facility services including janitorial, security, mechanical, and emergency response",
    "hours": "Mon-Fri 9AM-6PM",
    "services": [
      "Arabic-speaking Facility management in Iowa consultation",
      "Professional service",
      "Quality guarantee"
    ],
    "social_links": {}
  },
  {
    "name": "ABM",
    "address": "1027 West 4th Street, Waterloo, IA 50701",
    "phone": "",
    "rating": 4.0,
    "reviews": 25,
    "website": "https://www.abm.com/locations/waterloo-ia/",
    "category": "Arabic-speaking Facility management in Iowa",
    "description": "Offers custom facility programs, cleaning services, engineering and infrastructure solutions, and facility maintenance",
    "hours": "Mon-Fri 9AM-6PM",
    "services": [
      "Arabic-speaking Facility management in Iowa consultation",
      "Professional service",
      "Quality guarantee"
    ],
    "social_links": {}
  },
  {
    "name": "City Wide Facility Solutions",
    "address": "Des Moines, Iowa",
    "phone": "",
    "rating": 4.0,
    "reviews": 25,
    "website": "https://www.gocitywide.com/des-moines/",
    "category": "Arabic-speaking Facility management in Iowa",
    "description": "Provides commercial cleaning and janitorial services, with customized solutions for various facility needs",
    "hours": "Mon-Fri 9AM-6PM",
    "services": [
      "Arabic-speaking Facility management in Iowa consultation",
      "Professional service",
      "Quality guarantee"
    ],
    "social_links": {}
  },
  {
    "name": "FBG Facility Services",
    "address": "1615 NE 58th Ave, Des Moines, IA 50313",
    "phone": "1-515-205-0885",
    "rating": 4.0,
    "reviews": 25,
    "website": "https://www.fbg.com/",
    "category": "Arabic-speaking Facility management in Iowa",
    "description": "A full-service commercial cleaning and facility services provider with national reach",
    "hours": "Mon-Fri 9AM-6PM",
    "services": [
      "Arabic-speaking Facility management in Iowa consultation",
      "Professional service",
      "Quality guarantee"
    ],
    "social_links": {}
  },
  {
    "name": "NAI United Management",
    "address": "Sioux City, Iowa",
    "phone": "",
    "rating": 4.0,
    "reviews": 25,
    "website": "https://www.naiunited.com/",
    "category": "Arabic-speaking Facility management in Iowa",
    "description": "Offers facilities management services including janitorial services, maintenance, and coordination for major projects",
    "hours": "Mon-Fri 9AM-6PM",
    "services": [
      "Arabic-speaking Facility management in Iowa consultation",
      "Professional service",
      "Quality guarantee"
    ],
    "social_links": {}
  },
  {
    "name": "Done Done Services",
    "address": "Cedar Rapids, North Liberty, and Iowa City, Iowa",
    "phone": "",
    "rating": 4.0,
    "reviews": 25,
    "website": "https://www.donedoneservices.com/",
    "category": "Arabic-speaking Facility management in Iowa",
    "description": "A trusted facilities maintenance company serving eastern Iowa, equipped for various repair and remodeling projects",
    "hours": "Mon-Fri 9AM-6PM",
    "services": [
      "Arabic-speaking Facility management in Iowa consultation",
      "Professional service",
      "Quality guarantee"
    ],
    "social_links": {}
  },
  {
    "name": "Environmental Management Services, Inc. (EMS, Inc.)",
    "address": "Davenport, Iowa",
    "phone": "(563) 322-9000 or (800) 457-1042",
    "rating": 4.0,
    "reviews": 25,
    "website": "https://ems-inc.com/",
    "category": "Arabic-speaking Facility management in Iowa",
    "description": "Provides comprehensive environmental and industrial cleaning services, including industrial maintenance and waste management",
    "hours": "Mon-Fri 9AM-6PM",
    "services": [
      "Arabic-speaking Facility management in Iowa consultation",
      "Professional service",
      "Quality guarantee"
    ],
    "social_links": {}
  },
  {
    "name": "Tri State Facility Solutions",
    "address": "Sioux City, IA (Headquartered in San Diego, CA)",
    "phone": "",
    "rating": 4.0,
    "reviews": 25,
    "website": "https://tristatefs.com/",
    "category": "Arabic-speaking Facility management in Iowa",
    "description": "Offers professional cleaning services for offices and facilities, with a focus on consistent quality",
    "hours": "Mon-Fri 9AM-6PM",
    "services": [
      "Arabic-speaking Facility management in Iowa consultation",
      "Professional service",
      "Quality guarantee"
    ],
    "social_links": {}
  },
  {
    "name": "Cedar Valley Industrial Solutions",
    "address": "2000 Falls Avenue, Suite 2, Waterloo, IA 50701",
    "phone": "319-420-1989",
    "rating": 4.0,
    "reviews": 25,
    "website": "https://www.cedarvalleyis.com/",
    "category": "Arabic-speaking Facility management in Iowa",
    "description": "Provides industrial cleaning, vacuuming, power washing, confined space cleaning, and facility maintenance services",
    "hours": "Mon-Fri 9AM-6PM",
    "services": [
      "Arabic-speaking Facility management in Iowa consultation",
      "Professional service",
      "Quality guarantee"
    ],
    "social_links": {}
  }
]