[
  {
    "name": "Virginia Gay Nursing & Rehab",
    "address": "502 N. 9th Ave, Vinton, IA 52349",
    "phone": "(319) 472-6200",
    "rating": 5.0,
    "reviews": 25,
    "website": "https://www.virginia-gay.org/",
    "category": "LGBT-owned Nursing homes in Iowa",
    "description": "This facility has received numerous awards for customer experience and quality of care, including a 5-star rating from Medicare.gov",
    "hours": "Mon-Fri 9AM-6PM",
    "services": [
      "LGBT-owned Nursing homes in Iowa consultation",
      "Professional service",
      "Quality guarantee"
    ],
    "social_links": {}
  },
  {
    "name": "Pioneer Park (Lone Tree Health Care Center)",
    "address": "117 3rd St, Hills, IA 52235",
    "phone": "319-679-2224",
    "rating": 4.0,
    "reviews": 25,
    "website": "https://www.pioneerpark.org/",
    "category": "LGBT-owned Nursing homes in Iowa",
    "description": "A family-oriented Continuing Care Retirement Community offering skilled nursing, memory care, and assisted living",
    "hours": "Mon-Fri 9AM-6PM",
    "services": [
      "LGBT-owned Nursing homes in Iowa consultation",
      "Professional service",
      "Quality guarantee"
    ],
    "social_links": {}
  },
  {
    "name": "UnityPoint Clinic LGBTQ \u2013 Prairie Parkway",
    "address": "5100 Prairie Pkwy Suite 300, Cedar Falls, Iowa 50613",
    "phone": "319-222-2710",
    "rating": 4.0,
    "reviews": 25,
    "website": "https://www.unitypoint.org/cedar-falls/lgbtq-clinic",
    "category": "LGBT-owned Nursing homes in Iowa",
    "description": "This clinic offers LGBTQ-specific and inclusive care, with staff trained through the Safe Zone Project to ensure a welcoming and affirming environment",
    "hours": "Mon-Fri 9AM-6PM",
    "services": [
      "LGBT-owned Nursing homes in Iowa consultation",
      "Professional service",
      "Quality guarantee"
    ],
    "social_links": {}
  },
  {
    "name": "University of Iowa LGBTQ Clinic",
    "address": "105 E. 9th Street, Coralville, IA 52241 (Iowa River Landing)",
    "phone": "319-467-2000 or 855-467-3700 (toll free)",
    "rating": 4.0,
    "reviews": 25,
    "website": "https://uihc.org/locations/lgbtq-clinic",
    "category": "LGBT-owned Nursing homes in Iowa",
    "description": "Provides full-service health care tailored to the needs of the LGBTQ+ community, including hormone therapy and gender-affirming voice services",
    "hours": "Mon-Fri 9AM-6PM",
    "services": [
      "LGBT-owned Nursing homes in Iowa consultation",
      "Professional service",
      "Quality guarantee"
    ],
    "social_links": {}
  },
  {
    "name": "Central Iowa VA",
    "address": "3600 30th St, Des Moines, IA 50310",
    "phone": "515-418-2440 (LGBTQ Veteran Care Coordinator)",
    "rating": 4.0,
    "reviews": 25,
    "website": "https://www.desmoines.va.gov/",
    "category": "LGBT-owned Nursing homes in Iowa",
    "description": "Provides medical care, mental health services, and support for LGBTQ veterans, including services like hormone replacement therapy and PreP",
    "hours": "Mon-Fri 9AM-6PM",
    "services": [
      "LGBT-owned Nursing homes in Iowa consultation",
      "Professional service",
      "Quality guarantee"
    ],
    "social_links": {}
  },
  {
    "name": "Cedar Ridge Village",
    "address": "1405 10th St, West Des Moines, IA 50265",
    "phone": "(515) 224-0400",
    "rating": 4.0,
    "reviews": 25,
    "website": "https://www.cedarridgevillage.com/",
    "category": "LGBT-owned Nursing homes in Iowa",
    "description": "A senior living community offering independent living, assisted living, short-term rehab, and long-term care",
    "hours": "Mon-Fri 9AM-6PM",
    "services": [
      "LGBT-owned Nursing homes in Iowa consultation",
      "Professional service",
      "Quality guarantee"
    ],
    "social_links": {}
  },
  {
    "name": "Spurgeon Senior Community",
    "address": "400 N Elm St, Dallas Center, IA 50063",
    "phone": "(515) 992-3735",
    "rating": 4.0,
    "reviews": 25,
    "website": "https://www.spurgeoncommunity.org/",
    "category": "LGBT-owned Nursing homes in Iowa",
    "description": "A continuum of care community offering independent living, assisted living, memory care, rehabilitation, and nursing care",
    "hours": "Mon-Fri 9AM-6PM",
    "services": [
      "LGBT-owned Nursing homes in Iowa consultation",
      "Professional service",
      "Quality guarantee"
    ],
    "social_links": {}
  },
  {
    "name": "Thomas Rest Haven & Park View Assisted Living",
    "address": "403 W 7th Ave, Coon Rapids, IA 50058",
    "phone": "(712) 999-2345",
    "rating": 4.0,
    "reviews": 25,
    "website": "https://www.thomasrest.org/",
    "category": "LGBT-owned Nursing homes in Iowa",
    "description": "A not-for-profit organization offering skilled nursing, assisted living, and independent living services",
    "hours": "Mon-Fri 9AM-6PM",
    "services": [
      "LGBT-owned Nursing homes in Iowa consultation",
      "Professional service",
      "Quality guarantee"
    ],
    "social_links": {}
  },
  {
    "name": "Care Initiatives (Network of Nursing Homes)",
    "address": "Headquarters: 1400 10th St, West Des Moines, IA 50265",
    "phone": "(515) 224-9000",
    "rating": 4.0,
    "reviews": 25,
    "website": "https://www.careinitiatives.org/",
    "category": "LGBT-owned Nursing homes in Iowa",
    "description": "Care Initiatives is a provider with 43 nursing homes across Iowa, committed to personalized and compassionate care",
    "hours": "Mon-Fri 9AM-6PM",
    "services": [
      "LGBT-owned Nursing homes in Iowa consultation",
      "Professional service",
      "Quality guarantee"
    ],
    "social_links": {}
  },
  {
    "name": "Iowa Department of Health and Human Services",
    "address": "321 E. 12th Street, Des Moines, IA 50319",
    "phone": "(515) 281-5774",
    "rating": 4.0,
    "reviews": 25,
    "website": "https://hhs.iowa.gov/",
    "category": "LGBT-owned Nursing homes in Iowa",
    "description": "This state agency provides resources and lists of facilities that accept Medicaid, which can be a starting point for finding nursing homes in Iowa",
    "hours": "Mon-Fri 9AM-6PM",
    "services": [
      "LGBT-owned Nursing homes in Iowa consultation",
      "Professional service",
      "Quality guarantee"
    ],
    "social_links": {}
  }
]