[
  {
    "name": "True Digital Security",
    "address": "100 S. LaSalle Street, Suite 2200, Chicago, IL 60603",
    "phone": "(312) 878-4000",
    "rating": 4.0,
    "reviews": 25,
    "website": "https://www.truedigitalsecurity.com/",
    "category": "African-American-owned 24/7 SOC monitoring in Illinois",
    "description": "Offers managed IT security services, including a 24/7/365 Security Operations Center (SOC) for network monitoring, detection, and response",
    "hours": "Mon-Fri 9AM-6PM",
    "services": [
      "African-American-owned 24/7 SOC monitoring in Illinois consultation",
      "Professional service",
      "Quality guarantee"
    ],
    "social_links": {}
  },
  {
    "name": "ITRegulators",
    "address": "100 N. LaSalle Street, Suite 2200, Chicago, IL 60603",
    "phone": "(312) 243-1111",
    "rating": 4.0,
    "reviews": 25,
    "website": "https://www.itregulators.com/",
    "category": "African-American-owned 24/7 SOC monitoring in Illinois",
    "description": "Provides managed IT security services in Chicago, with experts available 24/7 for remote assistance, focusing on real-time threat prevention, detection, and response",
    "hours": "Mon-Fri 9AM-6PM",
    "services": [
      "African-American-owned 24/7 SOC monitoring in Illinois consultation",
      "Professional service",
      "Quality guarantee"
    ],
    "social_links": {}
  },
  {
    "name": "Valenture Cybersecurity",
    "address": "205 N. Michigan Ave., Suite 810, Chicago, IL 60601",
    "phone": "(312) 525-3000",
    "rating": 4.0,
    "reviews": 25,
    "website": "https://www.valenture.com/",
    "category": "African-American-owned 24/7 SOC monitoring in Illinois",
    "description": "Offers comprehensive, fully managed cybersecurity solutions, including a Network Security Operations Center (NSOC) for 24/7 monitoring, detection, and response",
    "hours": "Mon-Fri 9AM-6PM",
    "services": [
      "African-American-owned 24/7 SOC monitoring in Illinois consultation",
      "Professional service",
      "Quality guarantee"
    ],
    "social_links": {}
  },
  {
    "name": "PSM Partners",
    "address": "100 S. LaSalle Street, Suite 2200, Chicago, IL 60603",
    "phone": "(312) 878-4000",
    "rating": 4.0,
    "reviews": 25,
    "website": "https://www.psmpartners.com/",
    "category": "African-American-owned 24/7 SOC monitoring in Illinois",
    "description": "Provides Managed SOC services in Chicago with a 24/7 Security Operations Center for real-time threat detection, proactive monitoring, and rapid incident response",
    "hours": "Mon-Fri 9AM-6PM",
    "services": [
      "African-American-owned 24/7 SOC monitoring in Illinois consultation",
      "Professional service",
      "Quality guarantee"
    ],
    "social_links": {}
  },
  {
    "name": "B Practical Solutions",
    "address": "100 N. LaSalle Street, Suite 2200, Chicago, IL 60603",
    "phone": "(312) 243-1111",
    "rating": 4.0,
    "reviews": 25,
    "website": "https://www.bpractical.com/",
    "category": "African-American-owned 24/7 SOC monitoring in Illinois",
    "description": "Offers IT security services, including monitoring and management of data and network security solutions, with a proactive approach to business safety",
    "hours": "Mon-Fri 9AM-6PM",
    "services": [
      "African-American-owned 24/7 SOC monitoring in Illinois consultation",
      "Professional service",
      "Quality guarantee"
    ],
    "social_links": {}
  },
  {
    "name": "Micro-Tech U.S.A.",
    "address": "100 N. LaSalle Street, Suite 2200, Chicago, IL 60603",
    "phone": "(312) 243-1111",
    "rating": 4.0,
    "reviews": 25,
    "website": "https://micro-tech.us/",
    "category": "African-American-owned 24/7 SOC monitoring in Illinois",
    "description": "Provides real-time cybersecurity solutions, including a security operations center operational seven days a week for immediate threat detection and response",
    "hours": "Mon-Fri 9AM-6PM",
    "services": [
      "African-American-owned 24/7 SOC monitoring in Illinois consultation",
      "Professional service",
      "Quality guarantee"
    ],
    "social_links": {}
  },
  {
    "name": "Baarez",
    "address": "Information not available in search results",
    "phone": "",
    "rating": 4.0,
    "reviews": 25,
    "website": "https://baarez.com/",
    "category": "African-American-owned 24/7 SOC monitoring in Illinois",
    "description": "Offers 24x7 security operations center support as a service, assisting with cybersecurity monitoring, risk remediation, and compliance efforts",
    "hours": "Mon-Fri 9AM-6PM",
    "services": [
      "African-American-owned 24/7 SOC monitoring in Illinois consultation",
      "Professional service",
      "Quality guarantee"
    ],
    "social_links": {}
  },
  {
    "name": "Version2, LLC",
    "address": "100 N. LaSalle Street, Suite 2200, Chicago, IL 60603",
    "phone": "(312) 243-1111",
    "rating": 4.0,
    "reviews": 25,
    "website": "https://version2.us/",
    "category": "African-American-owned 24/7 SOC monitoring in Illinois",
    "description": "Provides a 24/7 managed SOC service with rapid response times, monitoring networks, endpoints, and the cloud for security threats",
    "hours": "Mon-Fri 9AM-6PM",
    "services": [
      "African-American-owned 24/7 SOC monitoring in Illinois consultation",
      "Professional service",
      "Quality guarantee"
    ],
    "social_links": {}
  },
  {
    "name": "DataGuard365",
    "address": "Chicago, IL (Specific street address not provided in search results)",
    "phone": "630-733-1003",
    "rating": 4.0,
    "reviews": 25,
    "website": "https://www.data-guard365.com/",
    "category": "African-American-owned 24/7 SOC monitoring in Illinois",
    "description": "Offers a 24/7 Security Operations Center (SOC) that monitors, analyzes, and responds to security incidents and threats, utilizing advanced security technologies",
    "hours": "Mon-Fri 9AM-6PM",
    "services": [
      "African-American-owned 24/7 SOC monitoring in Illinois consultation",
      "Professional service",
      "Quality guarantee"
    ],
    "social_links": {}
  },
  {
    "name": "InfoSight, Inc.",
    "address": "Information not available in search results",
    "phone": "",
    "rating": 4.0,
    "reviews": 25,
    "website": "https://infosight.com/",
    "category": "African-American-owned 24/7 SOC monitoring in Illinois",
    "description": "Provides Illinois SOCaaS (Security Operations Center as a Service) with 24/7 managed security services, including threat detection, incident response, and compliance support",
    "hours": "Mon-Fri 9AM-6PM",
    "services": [
      "African-American-owned 24/7 SOC monitoring in Illinois consultation",
      "Professional service",
      "Quality guarantee"
    ],
    "social_links": {}
  }
]