[
  {
    "name": "Black's Tire Service",
    "address": "400 S Court St, Montgomery, AL 36104",
    "phone": "(334) 296-1061",
    "rating": 4.5,
    "reviews": 25,
    "website": "http://www.blackstireservice.com/",
    "category": "Black-owned Tire repair in Alabama",
    "description": "Black's Tire Service has been a staple in Montgomery, AL, offering tire sales and mobile tire repair for various vehicles, from sedans to semi-trucks. They emphasize customer service and satisfaction",
    "hours": "Mon-Fri 9AM-6PM",
    "services": [
      "Black-owned Tire repair in Alabama consultation",
      "Professional service",
      "Quality guarantee"
    ],
    "social_links": {}
  },
  {
    "name": "A & T Automotive Services",
    "address": "109 8th St NW, Huntsville, AL 35805",
    "phone": "(256) 539-0777",
    "rating": 4.8,
    "reviews": 25,
    "website": "https://www.atautomotivehsv.com/",
    "category": "Black-owned Tire repair in Alabama",
    "description": "This veteran-owned business provides a wide range of car repair and maintenance services, including brakes and tires. They have been serving the Huntsville area since 2018",
    "hours": "Mon-Fri 9AM-6PM",
    "services": [
      "Black-owned Tire repair in Alabama consultation",
      "Professional service",
      "Quality guarantee"
    ],
    "social_links": {}
  },
  {
    "name": "Black's Tire",
    "address": "91 Main St E, Rainsville, AL 35986",
    "phone": "(256) 638-2216",
    "rating": 4.5,
    "reviews": 25,
    "website": "https://www.blackstire.com/",
    "category": "Black-owned Tire repair in Alabama",
    "description": "Black's Tire has been serving Northeast Alabama since 1968, offering quality tires, wheels, and auto repairs. They provide services from brake repair to wheel alignments and oil changes",
    "hours": "Mon-Fri 9AM-6PM",
    "services": [
      "Black-owned Tire repair in Alabama consultation",
      "Professional service",
      "Quality guarantee"
    ],
    "social_links": {}
  },
  {
    "name": "Satterfield's Auto Tech",
    "address": "1946 Central Pkwy SW, Decatur, AL 35601",
    "phone": "(256) 353-3414",
    "rating": 4.7,
    "reviews": 25,
    "website": "https://satterfieldsautotech.com/",
    "category": "Black-owned Tire repair in Alabama",
    "description": "With over 34 years in business, Satterfield's Auto Tech offers a variety of services, including alignments, air conditioning service, brakes, computer diagnostics, electrical repairs, general repairs, and tires",
    "hours": "Mon-Fri 9AM-6PM",
    "services": [
      "Black-owned Tire repair in Alabama consultation",
      "Professional service",
      "Quality guarantee"
    ],
    "social_links": {}
  },
  {
    "name": "GEI Auto & Tire",
    "address": "810 Beltline Rd SW, Decatur, AL 35601",
    "phone": "(256) 686-0723",
    "rating": 4.3,
    "reviews": 25,
    "website": "https://www.geiauto.com/locations/decatur/",
    "category": "Black-owned Tire repair in Alabama",
    "description": "GEI Auto & Tire in Decatur offers a range of services including auto repair and tire sales from various brands",
    "hours": "Mon-Fri 9AM-6PM",
    "services": [
      "Black-owned Tire repair in Alabama consultation",
      "Professional service",
      "Quality guarantee"
    ],
    "social_links": {}
  },
  {
    "name": "University Tire and Auto",
    "address": "982 Opelika Rd, Auburn, AL 36830",
    "phone": "(334) 887-0800",
    "rating": 4.6,
    "reviews": 25,
    "website": "https://www.universitytireauburn.com/",
    "category": "Black-owned Tire repair in Alabama",
    "description": "University Tire and Auto provides services such as oil changes, steering and suspension repair, brake jobs, and transmission repair, along with tire sales",
    "hours": "Mon-Fri 9AM-6PM",
    "services": [
      "Black-owned Tire repair in Alabama consultation",
      "Professional service",
      "Quality guarantee"
    ],
    "social_links": {}
  },
  {
    "name": "Pro-Align Automotive",
    "address": "2610 Gordon Terry Pkwy, Decatur, AL 35601",
    "phone": "(256) 642-7720",
    "rating": 4.4,
    "reviews": 25,
    "website": "https://www.mainstreetauto.com/locations/decatur/pro-align-automotive/",
    "category": "Black-owned Tire repair in Alabama",
    "description": "Pro-Align Automotive offers a comprehensive list of services including alignments, battery services, brakes, oil changes, tire repair, and more",
    "hours": "Mon-Fri 9AM-6PM",
    "services": [
      "Black-owned Tire repair in Alabama consultation",
      "Professional service",
      "Quality guarantee"
    ],
    "social_links": {}
  },
  {
    "name": "Christian Brothers Automotive (Hoover)",
    "address": "1800 Southpark Dr, Hoover, AL 35244",
    "phone": "(205) 539-5409",
    "rating": 4.8,
    "reviews": 25,
    "website": "https://www.cbac.com/hoover-al/",
    "category": "Black-owned Tire repair in Alabama",
    "description": "While not exclusively Black-owned, Christian Brothers Automotive is known for its commitment to customer service and offers a full range of auto repair services, including tire maintenance",
    "hours": "Mon-Fri 9AM-6PM",
    "services": [
      "Black-owned Tire repair in Alabama consultation",
      "Professional service",
      "Quality guarantee"
    ],
    "social_links": {}
  },
  {
    "name": "Christian Brothers Automotive (Montgomery)",
    "address": "10885 Chantilly Dr, Montgomery, AL 36117",
    "phone": "(334) 539-0180",
    "rating": 4.9,
    "reviews": 25,
    "website": "https://www.cbac.com/montgomery-al/",
    "category": "Black-owned Tire repair in Alabama",
    "description": "Similar to the Hoover location, this Christian Brothers Automotive offers comprehensive auto repair and maintenance, including tire services, with a strong emphasis on customer satisfaction",
    "hours": "Mon-Fri 9AM-6PM",
    "services": [
      "Black-owned Tire repair in Alabama consultation",
      "Professional service",
      "Quality guarantee"
    ],
    "social_links": {}
  },
  {
    "name": "Resters Auto Inc.",
    "address": "7850 Zeigler Blvd, Mobile, AL 36608",
    "phone": "(251) 633-9514",
    "rating": 4.5,
    "reviews": 25,
    "website": "https://www.restersauto.com/",
    "category": "Black-owned Tire repair in Alabama",
    "description": "Resters Auto Inc. provides reliable and affordable auto repair services in Mobile, AL, and is a family-owned business committed to customer satisfaction. They offer a range of services that would include tire care",
    "hours": "Mon-Fri 9AM-6PM",
    "services": [
      "Black-owned Tire repair in Alabama consultation",
      "Professional service",
      "Quality guarantee"
    ],
    "social_links": {}
  }
]