[
  {
    "name": "Center for Natural Healing Hawaii",
    "address": "1288 Ala Moana Blvd Ste 204, Honolulu, HI 96814",
    "phone": "(808) 947-2424",
    "rating": 4.0,
    "reviews": 25,
    "website": "https://www.naturalhealinghawaii.com/",
    "category": "Asian-owned Health coaching in Hawaii",
    "description": "Offers Traditional Chinese Medicine, acupuncture, and herbal medicine. Dr. Diana Joy Ostroff is a licensed doctor of oriental medicine and licensed acupuncturist",
    "hours": "Mon-Fri 9AM-6PM",
    "services": [
      "Asian-owned Health coaching in Hawaii consultation",
      "Professional service",
      "Quality guarantee"
    ],
    "social_links": {}
  },
  {
    "name": "Oahu Holistic Medicine",
    "address": "354 Uluniu St. Suite 303, Kailua HI 96744",
    "phone": "(501) 8176",
    "rating": 4.0,
    "reviews": 25,
    "website": "https://www.oahuholisticmedicine.com/",
    "category": "Asian-owned Health coaching in Hawaii",
    "description": "Provides Traditional Chinese Medicine, acupuncture, and Qi Gong treatments",
    "hours": "Mon-Fri 9AM-6PM",
    "services": [
      "Asian-owned Health coaching in Hawaii consultation",
      "Professional service",
      "Quality guarantee"
    ],
    "social_links": {}
  },
  {
    "name": "Feel Better Kauai",
    "address": "Kapaa, HI (Specific address not provided in search results)",
    "phone": "(808) 212-4437",
    "rating": 4.0,
    "reviews": 25,
    "website": "https://www.feelbetterkauai.com/",
    "category": "Asian-owned Health coaching in Hawaii",
    "description": "Offers Chinese medicine and acupuncture services. Karu is the practitioner, with a background in herbal medicine and acupuncture",
    "hours": "Mon-Fri 9AM-6PM",
    "services": [
      "Asian-owned Health coaching in Hawaii consultation",
      "Professional service",
      "Quality guarantee"
    ],
    "social_links": {}
  },
  {
    "name": "Traditional Chinese Medical College of Hawaii",
    "address": "65-1206 Mamalahoa Hwy Bldg 3, Kamuela, Hawaii 96743",
    "phone": "(808) 885-9226",
    "rating": 4.0,
    "reviews": 25,
    "website": "https://www.tcmch.edu/",
    "category": "Asian-owned Health coaching in Hawaii",
    "description": "An educational institution that prepares practitioners of Oriental Medicine",
    "hours": "Mon-Fri 9AM-6PM",
    "services": [
      "Asian-owned Health coaching in Hawaii consultation",
      "Professional service",
      "Quality guarantee"
    ],
    "social_links": {}
  },
  {
    "name": "Northshore Acupuncture",
    "address": "Kilauea, Kaua'i (Specific address not provided in search results)",
    "phone": "",
    "rating": 4.0,
    "reviews": 25,
    "website": "https://www.northshoreacupuncturekauai.com/",
    "category": "Asian-owned Health coaching in Hawaii",
    "description": "Offers Traditional Chinese Medicine, acupuncture, and herbal medicine. Dr. Ashley Amas is a Doctor of Chinese Medicine and clinical herbalist",
    "hours": "Mon-Fri 9AM-6PM",
    "services": [
      "Asian-owned Health coaching in Hawaii consultation",
      "Professional service",
      "Quality guarantee"
    ],
    "social_links": {}
  },
  {
    "name": "Wellness All Ways",
    "address": "Hilo (Specific address not provided in search results)",
    "phone": "(808) 382-3226",
    "rating": 4.0,
    "reviews": 25,
    "website": "https://www.wellnessallways.com/",
    "category": "Asian-owned Health coaching in Hawaii",
    "description": "Provides acupuncture, functional medicine, and custom herbal formulas. Jessica Haligowski is an L.Ac., M.S.O.M., Dipl. O.M",
    "hours": "Mon-Fri 9AM-6PM",
    "services": [
      "Asian-owned Health coaching in Hawaii consultation",
      "Professional service",
      "Quality guarantee"
    ],
    "social_links": {}
  },
  {
    "name": "Natural Health Clinic, LLC",
    "address": "3093 Akahi St., Lihue HI 96766",
    "phone": "(808) 245-2277",
    "rating": 4.0,
    "reviews": 25,
    "website": "https://www.psmkauai.com/",
    "category": "Asian-owned Health coaching in Hawaii",
    "description": "Offers naturopathic healing modalities, acupuncture, and Traditional Chinese Medicine. Dr. Steve Dubey is a licensed naturopathic physician and licensed acupuncturist",
    "hours": "Mon-Fri 9AM-6PM",
    "services": [
      "Asian-owned Health coaching in Hawaii consultation",
      "Professional service",
      "Quality guarantee"
    ],
    "social_links": {}
  },
  {
    "name": "Hawaii Natural Medicine",
    "address": "Honolulu, Hawaii (Specific address not provided in search results)",
    "phone": "",
    "rating": 4.0,
    "reviews": 25,
    "website": "https://www.hawaiinaturalmedicine.com/",
    "category": "Asian-owned Health coaching in Hawaii",
    "description": "Offers naturopathic medicine, acupuncture, and oriental medicine. Dr. Jen\u00e9 Ferrante is the founder and a naturopathic doctor. Phi-Lan Nguyen is a licensed acupuncturist",
    "hours": "Mon-Fri 9AM-6PM",
    "services": [
      "Asian-owned Health coaching in Hawaii consultation",
      "Professional service",
      "Quality guarantee"
    ],
    "social_links": {}
  },
  {
    "name": "The Wellness Sanctuary Maui",
    "address": "Maui (Specific address not provided in search results)",
    "phone": "",
    "rating": 4.0,
    "reviews": 25,
    "website": "https://www.wellnesssanctuarymaui.com/",
    "category": "Asian-owned Health coaching in Hawaii",
    "description": "Offers acupuncture, Chinese medicine, and wellness coaching",
    "hours": "Mon-Fri 9AM-6PM",
    "services": [
      "Asian-owned Health coaching in Hawaii consultation",
      "Professional service",
      "Quality guarantee"
    ],
    "social_links": {}
  },
  {
    "name": "WELLNESS COLLECTIVE | Dr. Sesame Unlu, DAc.",
    "address": "8 Kiopa'a St. Suite 103, Kulamalu Center, Maui",
    "phone": "",
    "rating": 4.0,
    "reviews": 25,
    "website": "https://www.mauihealthandwellness.com/",
    "category": "Asian-owned Health coaching in Hawaii",
    "description": "Provides acupuncture and Traditional Chinese Medicine. Dr. Sesame Unlu, DAc. is a practitioner",
    "hours": "Mon-Fri 9AM-6PM",
    "services": [
      "Asian-owned Health coaching in Hawaii consultation",
      "Professional service",
      "Quality guarantee"
    ],
    "social_links": {}
  }
]