[
  {
    "name": "Terminix",
    "address": "Multiple locations, including Sioux Falls and Rapid City. (Specific addresses vary by branch.)",
    "phone": "1-866-211-5049",
    "rating": 4.0,
    "reviews": 25,
    "website": "https://www.terminix.com/",
    "category": "Catholic-owned Pest management in South-Dakota",
    "description": "A national company offering a wide range of pest control services for residential and commercial properties, with a focus on termites and general pest management",
    "hours": "Mon-Fri 9AM-6PM",
    "services": [
      "Catholic-owned Pest management in South-Dakota consultation",
      "Professional service",
      "Quality guarantee"
    ],
    "social_links": {}
  },
  {
    "name": "Presto-X",
    "address": "Multiple locations in South Dakota, including Sioux Falls. (Specific addresses vary by branch.)",
    "phone": "1-800-759-1942",
    "rating": 4.0,
    "reviews": 25,
    "website": "https://www.prestox.com/",
    "category": "Catholic-owned Pest management in South-Dakota",
    "description": "Offers tailored pest control solutions for businesses and residents, with extensive experience in the region",
    "hours": "Mon-Fri 9AM-6PM",
    "services": [
      "Catholic-owned Pest management in South-Dakota consultation",
      "Professional service",
      "Quality guarantee"
    ],
    "social_links": {}
  },
  {
    "name": "Anderson's Pest Control",
    "address": "707 E 41st St #200, Sioux Falls, SD 57105",
    "phone": "(605) 271-2269",
    "rating": 4.5,
    "reviews": 25,
    "website": "https://andersonpestsd.com/",
    "category": "Catholic-owned Pest management in South-Dakota",
    "description": "A local pest control service known for its effectiveness and customer service in the Sioux Falls area",
    "hours": "Mon-Fri 9AM-6PM",
    "services": [
      "Catholic-owned Pest management in South-Dakota consultation",
      "Professional service",
      "Quality guarantee"
    ],
    "social_links": {}
  },
  {
    "name": "P & K Pest Control",
    "address": "415 E 31st St, Sioux Falls, SD 57105",
    "phone": "(605) 275-0405",
    "rating": 4.0,
    "reviews": 25,
    "website": "https://www.google.com/maps/search/P+&+K+Pest+Control+South+Dakota",
    "category": "Catholic-owned Pest management in South-Dakota",
    "description": "Provides pest control services in Sioux Falls, addressing various pest issues for homes and businesses",
    "hours": "Mon-Fri 9AM-6PM",
    "services": [
      "Catholic-owned Pest management in South-Dakota consultation",
      "Professional service",
      "Quality guarantee"
    ],
    "social_links": {}
  },
  {
    "name": "Olson's Pest Technicians",
    "address": "124 Gorder Dr, Aberdeen, SD 57401",
    "phone": "(605) 225-0022",
    "rating": 4.0,
    "reviews": 25,
    "website": "https://www.google.com/maps/search/Olson's+Pest+Technicians+South+Dakota",
    "category": "Catholic-owned Pest management in South-Dakota",
    "description": "Offers pest control services in Aberdeen and surrounding areas",
    "hours": "Mon-Fri 9AM-6PM",
    "services": [
      "Catholic-owned Pest management in South-Dakota consultation",
      "Professional service",
      "Quality guarantee"
    ],
    "social_links": {}
  },
  {
    "name": "Karma Pest Solutions",
    "address": "Rapid City, SD (Specific address not detailed in search results, but serves Western South Dakota)",
    "phone": "(605) 430-2444",
    "rating": 5.0,
    "reviews": 25,
    "website": "https://karmapestsolutions.com/",
    "category": "Catholic-owned Pest management in South-Dakota",
    "description": "A locally owned and operated pest and wildlife solutions provider in Rapid City, emphasizing respect and effective service",
    "hours": "Mon-Fri 9AM-6PM",
    "services": [
      "Catholic-owned Pest management in South-Dakota consultation",
      "Professional service",
      "Quality guarantee"
    ],
    "social_links": {}
  },
  {
    "name": "JanTech Pest Control",
    "address": "Rapid City, SD (Serves Rapid City and the Black Hills area)",
    "phone": "(605) 348-0111",
    "rating": 4.5,
    "reviews": 25,
    "website": "https://jantechpestcontrol.com/",
    "category": "Catholic-owned Pest management in South-Dakota",
    "description": "Offers professional and reliable pest management services for residential and commercial properties in the Rapid City and Black Hills region",
    "hours": "Mon-Fri 9AM-6PM",
    "services": [
      "Catholic-owned Pest management in South-Dakota consultation",
      "Professional service",
      "Quality guarantee"
    ],
    "social_links": {}
  },
  {
    "name": "Black Hills Pest Control",
    "address": "Sturgis, SD 57785 (Serves the Black Hills and surrounding areas)",
    "phone": "(605) 347-2000",
    "rating": 4.0,
    "reviews": 25,
    "website": "https://blackhillspestcontrol.com/",
    "category": "Catholic-owned Pest management in South-Dakota",
    "description": "A family-owned company providing commercial, governmental, and residential pest control services",
    "hours": "Mon-Fri 9AM-6PM",
    "services": [
      "Catholic-owned Pest management in South-Dakota consultation",
      "Professional service",
      "Quality guarantee"
    ],
    "social_links": {}
  },
  {
    "name": "Ingram Pest Service",
    "address": "Fort Pierre, SD 57532",
    "phone": "(605) 224-1739",
    "rating": 4.5,
    "reviews": 25,
    "website": "https://ingrampestservice.com/",
    "category": "Catholic-owned Pest management in South-Dakota",
    "description": "A family-owned business with over 26 years of experience offering pest control for residential and commercial properties in central South Dakota",
    "hours": "Mon-Fri 9AM-6PM",
    "services": [
      "Catholic-owned Pest management in South-Dakota consultation",
      "Professional service",
      "Quality guarantee"
    ],
    "social_links": {}
  },
  {
    "name": "Pfitzer Pest Control",
    "address": "Serves South Dakota and Wyoming, including areas like Aberdeen, Huron, and Mitchell. (Specific branch addresses may vary.)",
    "phone": "888-995-4486",
    "rating": 4.0,
    "reviews": 25,
    "website": "https://pfitzerpestcontrol.com/",
    "category": "Catholic-owned Pest management in South-Dakota",
    "description": "Offers guaranteed pest control services for residential and commercial properties, with a focus on personalized treatment plans",
    "hours": "Mon-Fri 9AM-6PM",
    "services": [
      "Catholic-owned Pest management in South-Dakota consultation",
      "Professional service",
      "Quality guarantee"
    ],
    "social_links": {}
  }
]