[
  {
    "name": "uBreakiFix by Asurion - Meridian",
    "address": "3355 E Fairview Ave, Meridian, ID 83642",
    "phone": "(208) 917-7100",
    "rating": 4.5,
    "reviews": 25,
    "website": "https://www.ubreneq.com/meridian-id",
    "category": "Agnostic-owned Tablet repair in Idaho",
    "description": "Offers repairs for a wide range of devices, including tablets, with a focus on quality parts and quick service",
    "hours": "Mon-Fri 9AM-6PM",
    "services": [
      "Agnostic-owned Tablet repair in Idaho consultation",
      "Professional service",
      "Quality guarantee"
    ],
    "social_links": {}
  },
  {
    "name": "CPR Cell Phone Repair Meridian",
    "address": "1530 S Millennium Way Suite 110, Meridian, ID 83642",
    "phone": "(208) 621-2525",
    "rating": 4.5,
    "reviews": 25,
    "website": "https://www.cellphonerepair.com/meridian-id/",
    "category": "Agnostic-owned Tablet repair in Idaho",
    "description": "Provides repairs for tablets, smartphones, and computers, offering free estimates and a limited lifetime warranty on repairs",
    "hours": "Mon-Fri 9AM-6PM",
    "services": [
      "Agnostic-owned Tablet repair in Idaho consultation",
      "Professional service",
      "Quality guarantee"
    ],
    "social_links": {}
  },
  {
    "name": "uBreakiFix by Asurion - Nampa",
    "address": "16375 North Merchant Way, Nampa, ID 83687",
    "phone": "(208) 205-9550",
    "rating": 4.5,
    "reviews": 25,
    "website": "https://www.ubreneq.com/nampa-id",
    "category": "Agnostic-owned Tablet repair in Idaho",
    "description": "Specializes in fast and reliable repairs for various electronic devices, including tablets, with a focus on quality parts and service",
    "hours": "Mon-Fri 9AM-6PM",
    "services": [
      "Agnostic-owned Tablet repair in Idaho consultation",
      "Professional service",
      "Quality guarantee"
    ],
    "social_links": {}
  },
  {
    "name": "CPR Cell Phone Repair Nampa",
    "address": "16375 N Merchant Way, Nampa, ID 83687",
    "phone": "(986) 386-5120",
    "rating": 4.5,
    "reviews": 25,
    "website": "https://www.cellphonerepair.com/nampa-id/",
    "category": "Agnostic-owned Tablet repair in Idaho",
    "description": "Offers comprehensive repair services for tablets, smartphones, and computers, with a commitment to quality and customer satisfaction",
    "hours": "Mon-Fri 9AM-6PM",
    "services": [
      "Agnostic-owned Tablet repair in Idaho consultation",
      "Professional service",
      "Quality guarantee"
    ],
    "social_links": {}
  },
  {
    "name": "uBreakiFix by Asurion - Twin Falls",
    "address": "1246 Blue Lakes Blvd N Suite 400, Twin Falls, ID 83301",
    "phone": "(208) 497-9390",
    "rating": 4.5,
    "reviews": 25,
    "website": "https://www.ubreneq.com/twin-falls-id",
    "category": "Agnostic-owned Tablet repair in Idaho",
    "description": "Provides expert tablet and iPad repair services, known for quick turnaround times and quality parts",
    "hours": "Mon-Fri 9AM-6PM",
    "services": [
      "Agnostic-owned Tablet repair in Idaho consultation",
      "Professional service",
      "Quality guarantee"
    ],
    "social_links": {}
  },
  {
    "name": "PhoneFixation",
    "address": "1246 Blue Lakes Blvd N, Suite 400, Twin Falls, ID 83301",
    "phone": "(208) 497-9390",
    "rating": 4.8,
    "reviews": 25,
    "website": "https://www.phonefixation.com/",
    "category": "Agnostic-owned Tablet repair in Idaho",
    "description": "Offers fast and affordable tablet repair services with a focus on high-quality parts and certified technicians",
    "hours": "Mon-Fri 9AM-6PM",
    "services": [
      "Agnostic-owned Tablet repair in Idaho consultation",
      "Professional service",
      "Quality guarantee"
    ],
    "social_links": {}
  },
  {
    "name": "uBreakiFix by Asurion - Idaho Falls",
    "address": "2003 S 25th E, Suite D2, Idaho Falls, ID 83404",
    "phone": "(208) 529-0065",
    "rating": 4.5,
    "reviews": 25,
    "website": "https://www.ubreneq.com/idaho-falls-id",
    "category": "Agnostic-owned Tablet repair in Idaho",
    "description": "A trusted local shop for electronic repairs, including tablets, with a focus on quick service and quality parts",
    "hours": "Mon-Fri 9AM-6PM",
    "services": [
      "Agnostic-owned Tablet repair in Idaho consultation",
      "Professional service",
      "Quality guarantee"
    ],
    "social_links": {}
  },
  {
    "name": "CPR Cell Phone Repair Coeur d'Alene",
    "address": "100 E Neider Ave, #1, Coeur d'Alene, ID 83815",
    "phone": "(208) 667-0667",
    "rating": 4.5,
    "reviews": 25,
    "website": "https://www.cellphonerepair.com/coeur-dalene-id/",
    "category": "Agnostic-owned Tablet repair in Idaho",
    "description": "Offers a wide range of repair services for phones, tablets, and computers, with a limited lifetime warranty on parts and labor",
    "hours": "Mon-Fri 9AM-6PM",
    "services": [
      "Agnostic-owned Tablet repair in Idaho consultation",
      "Professional service",
      "Quality guarantee"
    ],
    "social_links": {}
  },
  {
    "name": "Batteries Plus - Pocatello",
    "address": "1021 Yellowstone Avenue, Pocatello, ID 83201",
    "phone": "(208) 233-2000",
    "rating": 4.3,
    "reviews": 25,
    "website": "https://www.batteriesplus.com/store/id/pocatello/1021-yellowstone-ave",
    "category": "Agnostic-owned Tablet repair in Idaho",
    "description": "Provides expert phone and tablet repair services, including screen replacements and battery swaps, using high-quality parts",
    "hours": "Mon-Fri 9AM-6PM",
    "services": [
      "Agnostic-owned Tablet repair in Idaho consultation",
      "Professional service",
      "Quality guarantee"
    ],
    "social_links": {}
  },
  {
    "name": "iFixandRepair - Meridian Walmart",
    "address": "3355 E Fairview Ave, Meridian, ID 83642",
    "phone": "(208) 917-7100",
    "rating": 4.5,
    "reviews": 25,
    "website": "https://www.ifixandrepair.com/locations/meridian-walmart/",
    "category": "Agnostic-owned Tablet repair in Idaho",
    "description": "Offers quick and reliable cell phone, tablet, and computer repair services, with many repairs done the same day",
    "hours": "Mon-Fri 9AM-6PM",
    "services": [
      "Agnostic-owned Tablet repair in Idaho consultation",
      "Professional service",
      "Quality guarantee"
    ],
    "social_links": {}
  }
]