[
  {
    "name": "Abacus Wealth Partners",
    "address": "Multiple locations, including California and Philadelphia. (No specific Georgia address found, but they are known for their Buddhist orientation.)",
    "phone": "",
    "rating": 4.0,
    "reviews": 25,
    "website": "https://www.abacuswealthpartners.com/",
    "category": "Buddhist-owned Financial advisors in Georgia",
    "description": "A financial planning and investment management firm that integrates Buddhist teachings like mindfulness and equanimity into their advice",
    "hours": "Mon-Fri 9AM-6PM",
    "services": [
      "Buddhist-owned Financial advisors in Georgia consultation",
      "Professional service",
      "Quality guarantee"
    ],
    "social_links": {}
  },
  {
    "name": "Servant Path Wealth Partners",
    "address": "1279 Broadway, Columbus, GA 31901",
    "phone": "(706) 478-1431",
    "rating": 4.0,
    "reviews": 25,
    "website": "https://www.servantpath.com/",
    "category": "Buddhist-owned Financial advisors in Georgia",
    "description": "A financial advisory team in Columbus, GA, built on integrity, stewardship, and faith, deeply influenced by their spiritual culture",
    "hours": "Mon-Fri 9AM-6PM",
    "services": [
      "Buddhist-owned Financial advisors in Georgia consultation",
      "Professional service",
      "Quality guarantee"
    ],
    "social_links": {}
  },
  {
    "name": "Donohoe Folds Wealth Group (Raymond James)",
    "address": "111 12th St Ste 100, Columbus, GA 31901-5245",
    "phone": "(706) 507-1557",
    "rating": 4.0,
    "reviews": 25,
    "website": "https://www.raymondjames.com/donohoefoldswg/",
    "category": "Buddhist-owned Financial advisors in Georgia",
    "description": "Financial advisors guided by sincerity, integrity, and faith, with a focus on serving clients' goals",
    "hours": "Mon-Fri 9AM-6PM",
    "services": [
      "Buddhist-owned Financial advisors in Georgia consultation",
      "Professional service",
      "Quality guarantee"
    ],
    "social_links": {}
  },
  {
    "name": "Optimal Wealth Strategies",
    "address": "3714 Wrightsboro Rd, Augusta, GA 30909",
    "phone": "(706) 733-7000",
    "rating": 4.0,
    "reviews": 25,
    "website": "https://www.optimalwealthstrategies.com/",
    "category": "Buddhist-owned Financial advisors in Georgia",
    "description": "Provides financial planning services including investment management, tax planning, retirement, and legacy planning with a client-focused, personalized approach",
    "hours": "Mon-Fri 9AM-6PM",
    "services": [
      "Buddhist-owned Financial advisors in Georgia consultation",
      "Professional service",
      "Quality guarantee"
    ],
    "social_links": {}
  },
  {
    "name": "AP Wealth Management",
    "address": "1048 Independence Dr, Augusta, GA 30907",
    "phone": "(706) 738-0000",
    "rating": 4.0,
    "reviews": 25,
    "website": "https://www.apwealthmanagement.com/",
    "category": "Buddhist-owned Financial advisors in Georgia",
    "description": "Offers personalized financial management solutions designed to help clients attain their financial goals, build wealth, and protect their legacy",
    "hours": "Mon-Fri 9AM-6PM",
    "services": [
      "Buddhist-owned Financial advisors in Georgia consultation",
      "Professional service",
      "Quality guarantee"
    ],
    "social_links": {}
  },
  {
    "name": "Stifel (Augusta Branch)",
    "address": "1335 Augusta West Parkway, Augusta, GA 30909",
    "phone": "(706) 868-4000",
    "rating": 4.0,
    "reviews": 25,
    "website": "https://www.stifel.com/locations/augusta-georgia",
    "category": "Buddhist-owned Financial advisors in Georgia",
    "description": "Financial advisors who believe in face-to-face business to understand unique financial objectives and develop personalized strategies",
    "hours": "Mon-Fri 9AM-6PM",
    "services": [
      "Buddhist-owned Financial advisors in Georgia consultation",
      "Professional service",
      "Quality guarantee"
    ],
    "social_links": {}
  },
  {
    "name": "Savannah Wealth Group",
    "address": "1375 Eisenhower Dr Ste 2, Savannah, GA 31406",
    "phone": "(912) 355-7717",
    "rating": 4.0,
    "reviews": 25,
    "website": "https://www.savannahwealthgroup.com/",
    "category": "Buddhist-owned Financial advisors in Georgia",
    "description": "Fiduciary advisors committed to putting clients' best interests first, building financial strategies to achieve objectives and leave a lasting legacy",
    "hours": "Mon-Fri 9AM-6PM",
    "services": [
      "Buddhist-owned Financial advisors in Georgia consultation",
      "Professional service",
      "Quality guarantee"
    ],
    "social_links": {}
  },
  {
    "name": "Tidewater Wealth Advisors, LLC",
    "address": "1000 Towne Lake Pkwy, Ste 100, Savannah, GA 31405",
    "phone": "(912) 269-7599",
    "rating": 4.0,
    "reviews": 25,
    "website": "https://www.tidewaterwealth.com/",
    "category": "Buddhist-owned Financial advisors in Georgia",
    "description": "Guides clients to true wealth management for capital legacy with a tailored approach to financial planning",
    "hours": "Mon-Fri 9AM-6PM",
    "services": [
      "Buddhist-owned Financial advisors in Georgia consultation",
      "Professional service",
      "Quality guarantee"
    ],
    "social_links": {}
  },
  {
    "name": "Moonan Wealth Management (Raymond James)",
    "address": "1875 Old Alabama Rd Ste 615, Roswell, GA 30076-2263",
    "phone": "(678) 252-6700",
    "rating": 4.0,
    "reviews": 25,
    "website": "https://www.raymondjames.com/moonanwealthmanagement/",
    "category": "Buddhist-owned Financial advisors in Georgia",
    "description": "Provides personalized financial and wealth planning for high-net-worth individuals, focusing on tax, estate, retirement, and investment planning",
    "hours": "Mon-Fri 9AM-6PM",
    "services": [
      "Buddhist-owned Financial advisors in Georgia consultation",
      "Professional service",
      "Quality guarantee"
    ],
    "social_links": {}
  },
  {
    "name": "Merit Financial Advisors (Alpharetta/Johns Creek Area)",
    "address": "11360 Lakefield Dr, Ste 100, Johns Creek, GA 30097",
    "phone": "(770) 685-7400",
    "rating": 4.0,
    "reviews": 25,
    "website": "https://www.meritfinancialadvisors.com/locations/johns-creek/",
    "category": "Buddhist-owned Financial advisors in Georgia",
    "description": "Enriches clients' lives with personalized financial planning and wealth management, with a team of CFPs and CFAs who excel in managing complex portfolios, optimizing taxes, and developing estate plans",
    "hours": "Mon-Fri 9AM-6PM",
    "services": [
      "Buddhist-owned Financial advisors in Georgia consultation",
      "Professional service",
      "Quality guarantee"
    ],
    "social_links": {}
  }
]