[
  {
    "name": "Idaho Capital Asian Market",
    "address": "3107 N Cole Rd, Boise, ID 83704",
    "phone": "(208) 377-0777",
    "rating": 4.0,
    "reviews": 25,
    "website": "https://www.idahocapitalasianmarket.com/",
    "category": "Chinese-American-owned Seller representation in Idaho",
    "description": "An Asian grocery store offering a wide selection of Asian foods and products, including fresh produce, authentic snacks, and specialty items",
    "hours": "Mon-Fri 9AM-6PM",
    "services": [
      "Chinese-American-owned Seller representation in Idaho consultation",
      "Professional service",
      "Quality guarantee"
    ],
    "social_links": {}
  },
  {
    "name": "Mala House",
    "address": "3027 N Cole Rd, Boise, ID 83704",
    "phone": "(208) 908-0100",
    "rating": 4.0,
    "reviews": 25,
    "website": "https://malahouseboise.com/",
    "category": "Chinese-American-owned Seller representation in Idaho",
    "description": "A Chinese restaurant specializing in traditional Sichuan hot pot and spicy Chinese cuisine",
    "hours": "Mon-Fri 9AM-6PM",
    "services": [
      "Chinese-American-owned Seller representation in Idaho consultation",
      "Professional service",
      "Quality guarantee"
    ],
    "social_links": {}
  },
  {
    "name": "Canton Restaurant",
    "address": "2173 E 17th St, Idaho Falls, ID 83404",
    "phone": "(208) 523-3448",
    "rating": 4.0,
    "reviews": 25,
    "website": "https://cantonrestaurantif.com/",
    "category": "Chinese-American-owned Seller representation in Idaho",
    "description": "An Asian and Chinese restaurant offering Cantonese specialties, noodles, and other dishes",
    "hours": "Mon-Fri 9AM-6PM",
    "services": [
      "Chinese-American-owned Seller representation in Idaho consultation",
      "Professional service",
      "Quality guarantee"
    ],
    "social_links": {}
  },
  {
    "name": "Chinese Garden Restaurant",
    "address": "1500 W Broadway St, Idaho Falls, ID 83402",
    "phone": "(208) 523-5550",
    "rating": 4.0,
    "reviews": 25,
    "website": "https://www.chinesegardenidaho.com/",
    "category": "Chinese-American-owned Seller representation in Idaho",
    "description": "Offers authentic Chinese cuisine with options for dine-in, takeout, and delivery",
    "hours": "Mon-Fri 9AM-6PM",
    "services": [
      "Chinese-American-owned Seller representation in Idaho consultation",
      "Professional service",
      "Quality guarantee"
    ],
    "social_links": {}
  },
  {
    "name": "Idaho Chinese Cultural and Business Center",
    "address": "(Specific address not readily available in search results, but located in Boise, ID)",
    "phone": "",
    "rating": 4.0,
    "reviews": 25,
    "website": "https://www.google.com/maps/search/Idaho+Chinese+Cultural+and+Business+Center+in+Idaho",
    "category": "Chinese-American-owned Seller representation in Idaho",
    "description": "A center for cultural exchange and business opportunities related to Chinese culture",
    "hours": "Mon-Fri 9AM-6PM",
    "services": [
      "Chinese-American-owned Seller representation in Idaho consultation",
      "Professional service",
      "Quality guarantee"
    ],
    "social_links": {}
  },
  {
    "name": "Weee! (Online Asian Grocery)",
    "address": "(Online retailer serving Idaho Falls, ID and Sun Valley, ID)",
    "phone": "",
    "rating": 4.0,
    "reviews": 25,
    "website": "https://www.sayweee.com/",
    "category": "Chinese-American-owned Seller representation in Idaho",
    "description": "An online supermarket offering a wide variety of Asian groceries, including Chinese, Japanese, Korean, and Vietnamese products, with delivery options",
    "hours": "Mon-Fri 9AM-6PM",
    "services": [
      "Chinese-American-owned Seller representation in Idaho consultation",
      "Professional service",
      "Quality guarantee"
    ],
    "social_links": {}
  },
  {
    "name": "Zhu C. Huang, CPA",
    "address": "Vantage Group Accounting, 1509 S Tyrell Ln, Boise, ID 83706",
    "phone": "(208) 345-5880",
    "rating": 4.0,
    "reviews": 25,
    "website": "https://www.google.com/maps/search/Zhu+C.+Huang,+CPA+in+Idaho",
    "category": "Chinese-American-owned Seller representation in Idaho",
    "description": "A Certified Public Accountant offering tax preparation and accounting services",
    "hours": "Mon-Fri 9AM-6PM",
    "services": [
      "Chinese-American-owned Seller representation in Idaho consultation",
      "Professional service",
      "Quality guarantee"
    ],
    "social_links": {}
  },
  {
    "name": "Armanino LLP (Xian Xu)",
    "address": "101 S Capitol Blvd Ste 200, Boise, ID 83702",
    "phone": "(208) 331-1400",
    "rating": 4.0,
    "reviews": 25,
    "website": "https://www.armarinollp.com/",
    "category": "Chinese-American-owned Seller representation in Idaho",
    "description": "A tax and accounting firm where Xian Xu offers tax preparation, planning, and other accounting services",
    "hours": "Mon-Fri 9AM-6PM",
    "services": [
      "Chinese-American-owned Seller representation in Idaho consultation",
      "Professional service",
      "Quality guarantee"
    ],
    "social_links": {}
  },
  {
    "name": "Huei-Cheng Lin (Real Estate Agent)",
    "address": "(Boise, ID - specific office address not provided in search results)",
    "phone": "",
    "rating": 4.0,
    "reviews": 25,
    "website": "https://www.homes.com/real-estate-agents/huei-cheng-lin/520152",
    "category": "Chinese-American-owned Seller representation in Idaho",
    "description": "A real estate agent fluent in English and Chinese, with experience in residential and investment properties",
    "hours": "Mon-Fri 9AM-6PM",
    "services": [
      "Chinese-American-owned Seller representation in Idaho consultation",
      "Professional service",
      "Quality guarantee"
    ],
    "social_links": {}
  },
  {
    "name": "Dinius and Associates (Law Firm)",
    "address": "5680 East Franklin Road, Suite 130, Nampa, Idaho 83687",
    "phone": "(208) 475-0100",
    "rating": 4.0,
    "reviews": 25,
    "website": "https://www.diniuslaw.com/",
    "category": "Chinese-American-owned Seller representation in Idaho",
    "description": "A law firm that handles various legal cases, including business law, and may have attorneys who speak Chinese, though not explicitly stated as Chinese-American owned",
    "hours": "Mon-Fri 9AM-6PM",
    "services": [
      "Chinese-American-owned Seller representation in Idaho consultation",
      "Professional service",
      "Quality guarantee"
    ],
    "social_links": {}
  }
]