[
  {
    "name": "Hionis Greenhouses & Garden Center",
    "address": "400 S White Horse Pike, Hammonton, NJ 08037",
    "phone": "(609) 561-1044",
    "rating": 4.6,
    "reviews": 25,
    "website": "https://www.hionisgreenhouses.com/",
    "category": "Baby-Boomer-owned Plant selection assistance in New-Jersey",
    "description": "Family-owned and operated for two generations, Hionis Greenhouses is one of New Jersey's largest growers of plants and flowers, offering a wide selection for wholesale and retail customers",
    "hours": "Mon-Fri 9AM-6PM",
    "services": [
      "Baby-Boomer-owned Plant selection assistance in New-Jersey consultation",
      "Professional service",
      "Quality guarantee"
    ],
    "social_links": {}
  },
  {
    "name": "Bloomers Home & Garden Center",
    "address": "1020 N Tuckahoe Rd, Williamstown, NJ 08094",
    "phone": "(856) 589-0200",
    "rating": 4.7,
    "reviews": 25,
    "website": "https://bloomersnj.com/",
    "category": "Baby-Boomer-owned Plant selection assistance in New-Jersey",
    "description": "Independently owned and operated since 1988, Bloomers offers a comprehensive range of home, patio, garden, and landscape needs, with a strong focus on customer service and a history rooted in horticulture",
    "hours": "Mon-Fri 9AM-6PM",
    "services": [
      "Baby-Boomer-owned Plant selection assistance in New-Jersey consultation",
      "Professional service",
      "Quality guarantee"
    ],
    "social_links": {}
  },
  {
    "name": "Bast Brothers Garden Center",
    "address": "1214 Ellis Mill Rd, Mullica Hill, NJ 08062",
    "phone": "(856) 478-0177",
    "rating": 4.8,
    "reviews": 25,
    "website": "https://www.bastbrothersgc.com/",
    "category": "Baby-Boomer-owned Plant selection assistance in New-Jersey",
    "description": "A family-owned and operated establishment that provides a specialized selection of flowers, shrubs, and garden decor, with a mission to offer high-quality gardening products and personal customer service",
    "hours": "Mon-Fri 9AM-6PM",
    "services": [
      "Baby-Boomer-owned Plant selection assistance in New-Jersey consultation",
      "Professional service",
      "Quality guarantee"
    ],
    "social_links": {}
  },
  {
    "name": "Flowerland Growers",
    "address": "1012 US-519, Belvidere, NJ 07823",
    "phone": "(908) 475-5010",
    "rating": 4.5,
    "reviews": 25,
    "website": "https://flowerlandgrowers.com/",
    "category": "Baby-Boomer-owned Plant selection assistance in New-Jersey",
    "description": "A garden center and gift shop offering a wide variety of plants for all seasons, including annuals, perennials, herbs, and houseplants, as well as a gift shop and a market for local produce",
    "hours": "Mon-Fri 9AM-6PM",
    "services": [
      "Baby-Boomer-owned Plant selection assistance in New-Jersey consultation",
      "Professional service",
      "Quality guarantee"
    ],
    "social_links": {}
  },
  {
    "name": "Good Earth Nursery & Garden Center",
    "address": "1450 Old Freehold Rd, Toms River, NJ 08755",
    "phone": "(732) 929-2244",
    "rating": 4.6,
    "reviews": 25,
    "website": "https://www.goodearthnursery.com/",
    "category": "Baby-Boomer-owned Plant selection assistance in New-Jersey",
    "description": "This nursery revitalized by its owners offers plants and products with an emphasis on environmental stewardship, providing a welcoming environment for the gardening community",
    "hours": "Mon-Fri 9AM-6PM",
    "services": [
      "Baby-Boomer-owned Plant selection assistance in New-Jersey consultation",
      "Professional service",
      "Quality guarantee"
    ],
    "social_links": {}
  },
  {
    "name": "The Farm at Green Village",
    "address": "351 Green Village Rd, Green Village, NJ 07939",
    "phone": "(973) 765-9000",
    "rating": 4.7,
    "reviews": 25,
    "website": "https://www.farmatgreenvillage.com/",
    "category": "Baby-Boomer-owned Plant selection assistance in New-Jersey",
    "description": "A premier nursery and garden center with a vast selection of trees, shrubs, perennials, annuals, and houseplants, offering landscape specialists to help resolve garden problems",
    "hours": "Mon-Fri 9AM-6PM",
    "services": [
      "Baby-Boomer-owned Plant selection assistance in New-Jersey consultation",
      "Professional service",
      "Quality guarantee"
    ],
    "social_links": {}
  },
  {
    "name": "Grown By Overdevest",
    "address": "1113 Deerfield Rd, Bridgeton, NJ 08302",
    "phone": "(856) 451-1023",
    "rating": 4.8,
    "reviews": 25,
    "website": "https://www.overdevest.com/",
    "category": "Baby-Boomer-owned Plant selection assistance in New-Jersey",
    "description": "A family-owned wholesale nursery established in 1952, dedicated to growing high-quality plants using environmentally-conscious practices, partnering with locally-owned garden centers",
    "hours": "Mon-Fri 9AM-6PM",
    "services": [
      "Baby-Boomer-owned Plant selection assistance in New-Jersey consultation",
      "Professional service",
      "Quality guarantee"
    ],
    "social_links": {}
  },
  {
    "name": "Lanza's Flower Farm",
    "address": "1315 NJ-71, Wall Township, NJ 07719",
    "phone": "(732) 974-1144",
    "rating": 4.7,
    "reviews": 25,
    "website": "https://www.lanzasnursery.com/",
    "category": "Baby-Boomer-owned Plant selection assistance in New-Jersey",
    "description": "A flower farm that converted from a family car dealership business, offering a variety of flowers and plants, with a focus on beekeeping and providing joy to customers",
    "hours": "Mon-Fri 9AM-6PM",
    "services": [
      "Baby-Boomer-owned Plant selection assistance in New-Jersey consultation",
      "Professional service",
      "Quality guarantee"
    ],
    "social_links": {}
  },
  {
    "name": "Al's Garden & Flower Shop",
    "address": "1400 US-9, Old Bridge, NJ 08857",
    "phone": "(732) 251-0000",
    "rating": 4.5,
    "reviews": 25,
    "website": "https://www.alsgarden.com/",
    "category": "Baby-Boomer-owned Plant selection assistance in New-Jersey",
    "description": "A long-standing garden center offering a wide selection of plants, flowers, and gardening supplies, known for its knowledgeable staff and commitment to customer satisfaction",
    "hours": "Mon-Fri 9AM-6PM",
    "services": [
      "Baby-Boomer-owned Plant selection assistance in New-Jersey consultation",
      "Professional service",
      "Quality guarantee"
    ],
    "social_links": {}
  },
  {
    "name": "Westwood Garden Center",
    "address": "171 Kinderkamack Rd, Westwood, NJ 07675",
    "phone": "(201) 664-0150",
    "rating": 4.5,
    "reviews": 25,
    "website": "https://www.westwoodgardencenter.com/",
    "category": "Baby-Boomer-owned Plant selection assistance in New-Jersey",
    "description": "A family-owned garden center providing a diverse range of plants, trees, shrubs, and gardening essentials, with a reputation for quality products and helpful customer service",
    "hours": "Mon-Fri 9AM-6PM",
    "services": [
      "Baby-Boomer-owned Plant selection assistance in New-Jersey consultation",
      "Professional service",
      "Quality guarantee"
    ],
    "social_links": {}
  }
]