[
  {
    "name": "El Merkury at The Market",
    "address": "Reading Terminal Market, 51 N 12th St, Philadelphia, PA 19107",
    "phone": "(267) 777-9048",
    "rating": 4.5,
    "reviews": 25,
    "website": "https://www.elmerkury.com/",
    "category": "Central-American-owned Childrens activities in Pennsylvania",
    "description": "Offers Central American street food and churros, which can be a fun cultural experience for children",
    "hours": "Mon-Fri 9AM-6PM",
    "services": [
      "Central-American-owned Childrens activities in Pennsylvania consultation",
      "Professional service",
      "Quality guarantee"
    ],
    "social_links": {}
  },
  {
    "name": "Somos Philly Spanish Immersion Summer Camp",
    "address": "Old Pine Community Center, 401 Lombard St, Philadelphia, PA 19147",
    "phone": "(267) 225-2039",
    "rating": 4.0,
    "reviews": 25,
    "website": "https://www.somosphilly.com/",
    "category": "Central-American-owned Childrens activities in Pennsylvania",
    "description": "This organization hosts events like \"Fiesta Latina for Kids\" that offer cultural activities and Spanish immersion for children",
    "hours": "Mon-Fri 9AM-6PM",
    "services": [
      "Central-American-owned Childrens activities in Pennsylvania consultation",
      "Professional service",
      "Quality guarantee"
    ],
    "social_links": {}
  },
  {
    "name": "Lolo Leo Escuelita LLC",
    "address": "4 East Lancaster Avenue, Paoli, PA 19301",
    "phone": "(484) 661-0982",
    "rating": 4.0,
    "reviews": 25,
    "website": "https://www.lolo-leo-pa.com/",
    "category": "Central-American-owned Childrens activities in Pennsylvania",
    "description": "A bilingual Spanish playschool that aims to make children comfortable with language learning in a family-like environment",
    "hours": "Mon-Fri 9AM-6PM",
    "services": [
      "Central-American-owned Childrens activities in Pennsylvania consultation",
      "Professional service",
      "Quality guarantee"
    ],
    "social_links": {}
  },
  {
    "name": "Esperanza Arts Center (Indigenous Stories from Latin America)",
    "address": "4261 North 5th Street, Philadelphia, PA 19140",
    "phone": "(215) 324-0746",
    "rating": 4.0,
    "reviews": 25,
    "website": "https://www.esperanza.us/esperanza-arts-center/",
    "category": "Central-American-owned Childrens activities in Pennsylvania",
    "description": "Hosts events like \"Indigenous Stories from Latin America\" which include bilingual story time and activities for children, focusing on Latin American heritage",
    "hours": "Mon-Fri 9AM-6PM",
    "services": [
      "Central-American-owned Childrens activities in Pennsylvania consultation",
      "Professional service",
      "Quality guarantee"
    ],
    "social_links": {}
  },
  {
    "name": "Crayola Experience Easton",
    "address": "30 Centre Square, Easton, PA 18042",
    "phone": "(610) 515-8000",
    "rating": 4.5,
    "reviews": 25,
    "website": "https://www.crayolaexperience.com/easton",
    "category": "Central-American-owned Childrens activities in Pennsylvania",
    "description": "While not specifically Central American-owned, this attraction offers a wide range of colorful and creative activities for children, and is a popular family destination in Pennsylvania",
    "hours": "Mon-Fri 9AM-6PM",
    "services": [
      "Central-American-owned Childrens activities in Pennsylvania consultation",
      "Professional service",
      "Quality guarantee"
    ],
    "social_links": {}
  },
  {
    "name": "The Franklin Institute",
    "address": "222 N 20th St, Philadelphia, PA 19103",
    "phone": "(215) 448-1200",
    "rating": 4.6,
    "reviews": 25,
    "website": "https://www.fi.edu/",
    "category": "Central-American-owned Childrens activities in Pennsylvania",
    "description": "A renowned science museum that offers interactive exhibits and educational experiences for children of all ages",
    "hours": "Mon-Fri 9AM-6PM",
    "services": [
      "Central-American-owned Childrens activities in Pennsylvania consultation",
      "Professional service",
      "Quality guarantee"
    ],
    "social_links": {}
  },
  {
    "name": "Philadelphia Zoo",
    "address": "3400 W Girard Ave, Philadelphia, PA 19104",
    "phone": "(215) 243-1100",
    "rating": 4.5,
    "reviews": 25,
    "website": "https://www.philadelphiazoo.org/",
    "category": "Central-American-owned Childrens activities in Pennsylvania",
    "description": "America's first zoo, offering a wide variety of animals and educational programs for children",
    "hours": "Mon-Fri 9AM-6PM",
    "services": [
      "Central-American-owned Childrens activities in Pennsylvania consultation",
      "Professional service",
      "Quality guarantee"
    ],
    "social_links": {}
  },
  {
    "name": "Please Touch Museum",
    "address": "421 N 21st St, Philadelphia, PA 19103",
    "phone": "(215) 581-3181",
    "rating": 4.5,
    "reviews": 25,
    "website": "https://www.pleasetouchmuseum.org/",
    "category": "Central-American-owned Childrens activities in Pennsylvania",
    "description": "An interactive museum designed for children to learn through play, with hands-on exhibits and activities",
    "hours": "Mon-Fri 9AM-6PM",
    "services": [
      "Central-American-owned Childrens activities in Pennsylvania consultation",
      "Professional service",
      "Quality guarantee"
    ],
    "social_links": {}
  },
  {
    "name": "Children's Museum of Pittsburgh and MuseumLab",
    "address": "10 Children's Way, Pittsburgh, PA 15212",
    "phone": "(412) 322-5058",
    "rating": 4.6,
    "reviews": 25,
    "website": "https://pittsburghkids.org/",
    "category": "Central-American-owned Childrens activities in Pennsylvania",
    "description": "Offers innovative and inclusive museum experiences that inspire creativity and curiosity in children",
    "hours": "Mon-Fri 9AM-6PM",
    "services": [
      "Central-American-owned Childrens activities in Pennsylvania consultation",
      "Professional service",
      "Quality guarantee"
    ],
    "social_links": {}
  },
  {
    "name": "Hersheypark",
    "address": "100 W Hersheypark Dr, Hershey, PA 17033",
    "phone": "(717) 534-3900",
    "rating": 4.5,
    "reviews": 25,
    "website": "https://www.hersheypark.com/",
    "category": "Central-American-owned Childrens activities in Pennsylvania",
    "description": "A large amusement park offering rides, roller coasters, and family entertainment",
    "hours": "Mon-Fri 9AM-6PM",
    "services": [
      "Central-American-owned Childrens activities in Pennsylvania consultation",
      "Professional service",
      "Quality guarantee"
    ],
    "social_links": {}
  }
]