[
  {
    "name": "Minority Construction Council, Inc.",
    "address": "151 New Park Avenue - Suite 121, Hartford, CT 06106 and 496 Newhall Street - Suite 208, Hamden, CT 06517",
    "phone": "(860) 882-0675",
    "rating": 4.0,
    "reviews": 25,
    "website": "https://www.minorityconstructioncouncil.org/",
    "category": "Black-owned Safety training in Connecticut",
    "description": "Offers OSHA 10 trainings for contractors, employees, and residents",
    "hours": "Mon-Fri 9AM-6PM",
    "services": [
      "Black-owned Safety training in Connecticut consultation",
      "Professional service",
      "Quality guarantee"
    ],
    "social_links": {}
  },
  {
    "name": "Go Platinum Services",
    "address": "Hartford, CT",
    "phone": "",
    "rating": 4.0,
    "reviews": 25,
    "website": "https://www.google.com/maps/search/Go+Platinum+Services+in+Connecticut",
    "category": "Black-owned Safety training in Connecticut",
    "description": "Offers firearms instruction, including pistol permit classes and refresher courses",
    "hours": "Mon-Fri 9AM-6PM",
    "services": [
      "Black-owned Safety training in Connecticut consultation",
      "Professional service",
      "Quality guarantee"
    ],
    "social_links": {}
  },
  {
    "name": "MGI Fire-Arms",
    "address": "Waterbury, CT",
    "phone": "",
    "rating": 4.0,
    "reviews": 25,
    "website": "https://www.google.com/maps/search/MGI+Fire-Arms+in+Connecticut",
    "category": "Black-owned Safety training in Connecticut",
    "description": "Provides firearms instruction, including Pistol Permit Certification and CT Basic Permit Certification",
    "hours": "Mon-Fri 9AM-6PM",
    "services": [
      "Black-owned Safety training in Connecticut consultation",
      "Professional service",
      "Quality guarantee"
    ],
    "social_links": {}
  },
  {
    "name": "CT NRA Instructor",
    "address": "171 Market Square Suite 203, Newington, CT 06111",
    "phone": "",
    "rating": 4.0,
    "reviews": 25,
    "website": "https://ctnrainstructor.com/",
    "category": "Black-owned Safety training in Connecticut",
    "description": "Offers Basic Pistol Permit classes and promotes safe firearms ownership",
    "hours": "Mon-Fri 9AM-6PM",
    "services": [
      "Black-owned Safety training in Connecticut consultation",
      "Professional service",
      "Quality guarantee"
    ],
    "social_links": {}
  },
  {
    "name": "A Second Chance CPR and First Aid Training LLC",
    "address": "Hartford, CT",
    "phone": "(860) 788-3245",
    "rating": 4.0,
    "reviews": 25,
    "website": "https://asecondchancecpr.com/",
    "category": "Black-owned Safety training in Connecticut",
    "description": "Provides CPR, first aid, and EMT training programs with a focus on hands-on learning",
    "hours": "Mon-Fri 9AM-6PM",
    "services": [
      "Black-owned Safety training in Connecticut consultation",
      "Professional service",
      "Quality guarantee"
    ],
    "social_links": {}
  },
  {
    "name": "The Health Collective",
    "address": "Hartford, CT",
    "phone": "",
    "rating": 4.0,
    "reviews": 25,
    "website": "https://www.thehealthcollective.org/",
    "category": "Black-owned Safety training in Connecticut",
    "description": "Offers American Heart Association BLS CPR & AED certification in an inclusive learning environment",
    "hours": "Mon-Fri 9AM-6PM",
    "services": [
      "Black-owned Safety training in Connecticut consultation",
      "Professional service",
      "Quality guarantee"
    ],
    "social_links": {}
  },
  {
    "name": "AbleCPR",
    "address": "Near Danbury, CT",
    "phone": "914-497-8998",
    "rating": 4.0,
    "reviews": 25,
    "website": "https://www.google.com/maps/search/AbleCPR+in+Connecticut",
    "category": "Black-owned Safety training in Connecticut",
    "description": "Provides CPR, First Aid, Pediatric First Aid, BLS, ACLS, and Advanced First Aid classes",
    "hours": "Mon-Fri 9AM-6PM",
    "services": [
      "Black-owned Safety training in Connecticut consultation",
      "Professional service",
      "Quality guarantee"
    ],
    "social_links": {}
  },
  {
    "name": "Made For First Aid",
    "address": "Fairfield, CT",
    "phone": "",
    "rating": 4.0,
    "reviews": 25,
    "website": "https://www.google.com/maps/search/Made+For+First+Aid+in+Connecticut",
    "category": "Black-owned Safety training in Connecticut",
    "description": "Offers First Aid, CPR, AED Certification Classes for Adults and Teens, as well as Babysitting Classes",
    "hours": "Mon-Fri 9AM-6PM",
    "services": [
      "Black-owned Safety training in Connecticut consultation",
      "Professional service",
      "Quality guarantee"
    ],
    "social_links": {}
  },
  {
    "name": "Buckingham Community Services, Inc.",
    "address": "Bloomfield, CT",
    "phone": "860-930-1220",
    "rating": 4.0,
    "reviews": 25,
    "website": "https://www.google.com/maps/search/Buckingham+Community+Services,+Inc.+in+Connecticut",
    "category": "Black-owned Safety training in Connecticut",
    "description": "Provides tailored safety training programs with a focus on real-world applications",
    "hours": "Mon-Fri 9AM-6PM",
    "services": [
      "Black-owned Safety training in Connecticut consultation",
      "Professional service",
      "Quality guarantee"
    ],
    "social_links": {}
  },
  {
    "name": "National Safety Services, LLC",
    "address": "5 Old Bridge Rd",
    "phone": "+1 (203) 546-0837",
    "rating": 4.0,
    "reviews": 25,
    "website": "https://www.google.com/maps/search/National+Safety+Services,+LLC+in+Connecticut",
    "category": "Black-owned Safety training in Connecticut",
    "description": "An occupational safety consulting firm offering safety training services, inspections, and program development",
    "hours": "Mon-Fri 9AM-6PM",
    "services": [
      "Black-owned Safety training in Connecticut consultation",
      "Professional service",
      "Quality guarantee"
    ],
    "social_links": {}
  }
]