[
  {
    "name": "Catholic Charities Indianapolis",
    "address": "1431 N. Delaware St., Indianapolis, IN 46202",
    "phone": "(317) 236-1500",
    "rating": 4.0,
    "reviews": 25,
    "website": "https://www.archindy.org/charities/",
    "category": "Catholic-owned Operational efficiency in Indiana",
    "description": "Provides various programs and community initiatives rooted in Catholic values to help individuals and families in need",
    "hours": "Mon-Fri 9AM-6PM",
    "services": [
      "Catholic-owned Operational efficiency in Indiana consultation",
      "Professional service",
      "Quality guarantee"
    ],
    "social_links": {}
  },
  {
    "name": "St. Joan of Arc Catholic School",
    "address": "5001 N. Michigan Rd., Indianapolis, IN 46208",
    "phone": "(317) 283-1518",
    "rating": 4.0,
    "reviews": 25,
    "website": "https://www.stjoan.org/",
    "category": "Catholic-owned Operational efficiency in Indiana",
    "description": "A Catholic elementary and middle school that nurtures an environment filled with faith, incorporating it into the daily life of each student",
    "hours": "Mon-Fri 9AM-6PM",
    "services": [
      "Catholic-owned Operational efficiency in Indiana consultation",
      "Professional service",
      "Quality guarantee"
    ],
    "social_links": {}
  },
  {
    "name": "St. Michael the Archangel Catholic Church",
    "address": "3354 West 30th St., Indianapolis, IN 46222",
    "phone": "(317) 926-7359",
    "rating": 4.0,
    "reviews": 25,
    "website": "https://www.saintmichaelindy.org/",
    "category": "Catholic-owned Operational efficiency in Indiana",
    "description": "A Catholic church serving the Indianapolis community with Mass, sacraments, and various parish activities",
    "hours": "Mon-Fri 9AM-6PM",
    "services": [
      "Catholic-owned Operational efficiency in Indiana consultation",
      "Professional service",
      "Quality guarantee"
    ],
    "social_links": {}
  },
  {
    "name": "Brebeuf Jesuit Preparatory School",
    "address": "2801 56th St., Indianapolis, IN 46268",
    "phone": "(317) 522-1000",
    "rating": 4.1,
    "reviews": 25,
    "website": "https://www.brebeuf.org/",
    "category": "Catholic-owned Operational efficiency in Indiana",
    "description": "A Jesuit Catholic high school offering a college preparatory education",
    "hours": "Mon-Fri 9AM-6PM",
    "services": [
      "Catholic-owned Operational efficiency in Indiana consultation",
      "Professional service",
      "Quality guarantee"
    ],
    "social_links": {}
  },
  {
    "name": "Cathedral High School",
    "address": "5225 E. 56th St., Indianapolis, IN 46226",
    "phone": "(317) 542-1400",
    "rating": 4.4,
    "reviews": 25,
    "website": "https://www.gocathedral.com/",
    "category": "Catholic-owned Operational efficiency in Indiana",
    "description": "A Catholic high school in Indianapolis, known for its academic programs and extracurricular activities",
    "hours": "Mon-Fri 9AM-6PM",
    "services": [
      "Catholic-owned Operational efficiency in Indiana consultation",
      "Professional service",
      "Quality guarantee"
    ],
    "social_links": {}
  },
  {
    "name": "Roncalli High School",
    "address": "3300 Prague Rd., Indianapolis, IN 46241",
    "phone": "(317) 787-5244",
    "rating": 4.1,
    "reviews": 25,
    "website": "https://www.roncalli.org/",
    "category": "Catholic-owned Operational efficiency in Indiana",
    "description": "A Catholic high school serving the Indianapolis metropolitan area",
    "hours": "Mon-Fri 9AM-6PM",
    "services": [
      "Catholic-owned Operational efficiency in Indiana consultation",
      "Professional service",
      "Quality guarantee"
    ],
    "social_links": {}
  },
  {
    "name": "Our Lady of Mount Carmel Catholic School",
    "address": "14598 Oak St., Carmel, IN 46033",
    "phone": "(317) 846-4449",
    "rating": 4.0,
    "reviews": 25,
    "website": "https://www.olmc.cc/",
    "category": "Catholic-owned Operational efficiency in Indiana",
    "description": "A Kindergarten through 8th-grade elementary and middle school under the Diocese of Lafayette in Indiana",
    "hours": "Mon-Fri 9AM-6PM",
    "services": [
      "Catholic-owned Operational efficiency in Indiana consultation",
      "Professional service",
      "Quality guarantee"
    ],
    "social_links": {}
  },
  {
    "name": "Lumen Christi Catholic School",
    "address": "1540 N. Meridian St., Indianapolis, IN 46202",
    "phone": "(317) 810-0333",
    "rating": 4.0,
    "reviews": 25,
    "website": "https://lumenchristischool.org/",
    "category": "Catholic-owned Operational efficiency in Indiana",
    "description": "An independent Catholic PreK-12 school in downtown Indianapolis offering a classical education",
    "hours": "Mon-Fri 9AM-6PM",
    "services": [
      "Catholic-owned Operational efficiency in Indiana consultation",
      "Professional service",
      "Quality guarantee"
    ],
    "social_links": {}
  },
  {
    "name": "Catholic Charities Terre Haute",
    "address": "101 S. 9th St., Terre Haute, IN 47807",
    "phone": "(812) 232-1477",
    "rating": 4.0,
    "reviews": 25,
    "website": "https://www.ccth.org/",
    "category": "Catholic-owned Operational efficiency in Indiana",
    "description": "Provides emergency shelter, food, youth programs, and other resources for west central Indiana",
    "hours": "Mon-Fri 9AM-6PM",
    "services": [
      "Catholic-owned Operational efficiency in Indiana consultation",
      "Professional service",
      "Quality guarantee"
    ],
    "social_links": {}
  },
  {
    "name": "Franciscan Health",
    "address": "Multiple locations across Indiana and Illinois. A major presence is at 8111 South Emerson Avenue, Indianapolis, IN 46237",
    "phone": "(317) 520-0000 (Indianapolis general number)",
    "rating": 4.0,
    "reviews": 25,
    "website": "https://www.franciscanhealth.org/",
    "category": "Catholic-owned Operational efficiency in Indiana",
    "description": "A 12-hospital health system offering a variety of care options, including clinics and home health services. They are committed to their mission of providing quality care",
    "hours": "Mon-Fri 9AM-6PM",
    "services": [
      "Catholic-owned Operational efficiency in Indiana consultation",
      "Professional service",
      "Quality guarantee"
    ],
    "social_links": {}
  }
]