[
  {
    "name": "TeamBonding",
    "address": "Multiple locations across Michigan",
    "phone": "(800) 844-8434",
    "rating": 4.0,
    "reviews": 25,
    "website": "https://www.teambonding.com/",
    "category": "Arabic-speaking Team building activities in Michigan",
    "description": "Offers a wide variety of in-person and virtual team-building events, including scavenger hunts, charity bike builds, and more",
    "hours": "Mon-Fri 9AM-6PM",
    "services": [
      "Arabic-speaking Team building activities in Michigan consultation",
      "Professional service",
      "Quality guarantee"
    ],
    "social_links": {}
  },
  {
    "name": "Futureball Paintball and Airsoft",
    "address": "7730 Whitmore Lake Rd, Whitmore Lake, MI 48189",
    "phone": "(734) 426-7700",
    "rating": 4.7,
    "reviews": 25,
    "website": "https://www.futureball.net/",
    "category": "Arabic-speaking Team building activities in Michigan",
    "description": "Michigan's largest paintball and airsoft field, offering action-packed outdoor war games suitable for groups",
    "hours": "Mon-Fri 9AM-6PM",
    "services": [
      "Arabic-speaking Team building activities in Michigan consultation",
      "Professional service",
      "Quality guarantee"
    ],
    "social_links": {}
  },
  {
    "name": "CRU Paintball",
    "address": "17400 Vandyke Ave, Warren, MI 48089",
    "phone": "(586) 415-7000",
    "rating": 4.0,
    "reviews": 25,
    "website": "https://www.cropaintball.com/",
    "category": "Arabic-speaking Team building activities in Michigan",
    "description": "Offers a high-octane paintball experience with over 100 acres of woodsball play, suitable for corporate parties and team-building events",
    "hours": "Mon-Fri 9AM-6PM",
    "services": [
      "Arabic-speaking Team building activities in Michigan consultation",
      "Professional service",
      "Quality guarantee"
    ],
    "social_links": {}
  },
  {
    "name": "Total Axe Throwing",
    "address": "35143 Gratiot Ave, Clinton Township, MI 48035",
    "phone": "(586) 913-7081",
    "rating": 4.0,
    "reviews": 25,
    "website": "https://www.totalaxethrowing.com/",
    "category": "Arabic-speaking Team building activities in Michigan",
    "description": "Premier destination for axe, knife, and small weapon throwing, offering diverse experiences for groups and team-building events",
    "hours": "Mon-Fri 9AM-6PM",
    "services": [
      "Arabic-speaking Team building activities in Michigan consultation",
      "Professional service",
      "Quality guarantee"
    ],
    "social_links": {}
  },
  {
    "name": "Detroit Axe",
    "address": "1411 Broadway St, Detroit, MI 48226 (Corktown location)",
    "phone": "(313) 757-2450",
    "rating": 4.0,
    "reviews": 25,
    "website": "https://www.detroitaxe.com/",
    "category": "Arabic-speaking Team building activities in Michigan",
    "description": "Offers axe throwing experiences in a vibrant atmosphere, ideal for corporate events and group gatherings",
    "hours": "Mon-Fri 9AM-6PM",
    "services": [
      "Arabic-speaking Team building activities in Michigan consultation",
      "Professional service",
      "Quality guarantee"
    ],
    "social_links": {}
  },
  {
    "name": "Eloise Escape Rooms",
    "address": "30712 Michigan Ave, Westland, MI 48185",
    "phone": "(734) 722-7000",
    "rating": 4.0,
    "reviews": 25,
    "website": "https://www.eloiseasylum.com/escape-rooms",
    "category": "Arabic-speaking Team building activities in Michigan",
    "description": "Features themed escape rooms designed to test problem-solving skills and encourage teamwork in a fun-filled adventure",
    "hours": "Mon-Fri 9AM-6PM",
    "services": [
      "Arabic-speaking Team building activities in Michigan consultation",
      "Professional service",
      "Quality guarantee"
    ],
    "social_links": {}
  },
  {
    "name": "Northern Michigan Escape Rooms",
    "address": "100 N Main St, Grayling, MI 49738",
    "phone": "(231) 884-0007",
    "rating": 4.0,
    "reviews": 25,
    "website": "https://www.northernmichiganescaperooms.com/",
    "category": "Arabic-speaking Team building activities in Michigan",
    "description": "Offers escape room entertainment with various themed rooms and team-building experiences for businesses and corporate retreats",
    "hours": "Mon-Fri 9AM-6PM",
    "services": [
      "Arabic-speaking Team building activities in Michigan consultation",
      "Professional service",
      "Quality guarantee"
    ],
    "social_links": {}
  },
  {
    "name": "The Axe Parlor",
    "address": "30100 Plymouth Rd, Livonia, MI 48150",
    "phone": "(734) 744-4396",
    "rating": 4.0,
    "reviews": 25,
    "website": "https://www.theaxeparlor.com/",
    "category": "Arabic-speaking Team building activities in Michigan",
    "description": "Offers axe, knife, and throwing star throwing, along with a full bar and entertainment options, suitable for corporate events",
    "hours": "Mon-Fri 9AM-6PM",
    "services": [
      "Arabic-speaking Team building activities in Michigan consultation",
      "Professional service",
      "Quality guarantee"
    ],
    "social_links": {}
  },
  {
    "name": "Outback Team Building & Training",
    "address": "Multiple locations, including Detroit, MI",
    "phone": "(800) 516-1454",
    "rating": 4.0,
    "reviews": 25,
    "website": "https://www.outbackteambuilding.com/",
    "category": "Arabic-speaking Team building activities in Michigan",
    "description": "Provides a variety of in-person and virtual team-building activities and professional development programs designed to enhance employee engagement",
    "hours": "Mon-Fri 9AM-6PM",
    "services": [
      "Arabic-speaking Team building activities in Michigan consultation",
      "Professional service",
      "Quality guarantee"
    ],
    "social_links": {}
  },
  {
    "name": "Meemo's Farm",
    "address": "7306 130th Ave, Gladwin, MI 48624",
    "phone": "(989) 426-7272",
    "rating": 4.0,
    "reviews": 25,
    "website": "https://www.meemosfarm.com/",
    "category": "Arabic-speaking Team building activities in Michigan",
    "description": "Offers a unique venue for team-building exercises and corporate retreats with over 1,600 acres of diverse terrain and more than 35 activities, including indoor and outdoor options",
    "hours": "Mon-Fri 9AM-6PM",
    "services": [
      "Arabic-speaking Team building activities in Michigan consultation",
      "Professional service",
      "Quality guarantee"
    ],
    "social_links": {}
  }
]