[
  {
    "name": "Bible Harris Smith, P.C.",
    "address": "5300 Poplar Hall Drive, Knoxville, TN 37919",
    "phone": "(865) 584-8770",
    "rating": 4.5,
    "reviews": 25,
    "website": "https://www.bhs-cpa.com/",
    "category": "Agnostic-owned Financial statement preparation in Tennessee",
    "description": "This firm offers comprehensive assurance services, including financial statement reviews and tax compliance audits, with a focus on precision and expertise",
    "hours": "Mon-Fri 9AM-6PM",
    "services": [
      "Agnostic-owned Financial statement preparation in Tennessee consultation",
      "Professional service",
      "Quality guarantee"
    ],
    "social_links": {}
  },
  {
    "name": "McCammon CPA",
    "address": "1640 W. Broad Street, Suite 100, Knoxville, TN 37919",
    "phone": "(865) 577-8325",
    "rating": 4.8,
    "reviews": 25,
    "website": "https://www.mccammoncpa.com/",
    "category": "Agnostic-owned Financial statement preparation in Tennessee",
    "description": "McCammon CPA provides comprehensive financial statement preparation and analysis services, tailoring reports to meet specific business needs for clarity and informed decision-making",
    "hours": "Mon-Fri 9AM-6PM",
    "services": [
      "Agnostic-owned Financial statement preparation in Tennessee consultation",
      "Professional service",
      "Quality guarantee"
    ],
    "social_links": {}
  },
  {
    "name": "Cherry Bekaert LLP",
    "address": "4515 Harding Blvd, Suite 300, Nashville, TN 37205",
    "phone": "(615) 320-1040",
    "rating": 4.6,
    "reviews": 25,
    "website": "https://www.cbh.com/locations/nashville/",
    "category": "Agnostic-owned Financial statement preparation in Tennessee",
    "description": "This firm offers accounting, audit, tax, and consulting services across various industries, with a focus on providing innovative guidance on financial matters",
    "hours": "Mon-Fri 9AM-6PM",
    "services": [
      "Agnostic-owned Financial statement preparation in Tennessee consultation",
      "Professional service",
      "Quality guarantee"
    ],
    "social_links": {}
  },
  {
    "name": "Blankenship CPA Group, PLLC",
    "address": "105 Westpark Drive, Suite 200, Brentwood, TN 37027",
    "phone": "(615) 851-7000",
    "rating": 4.7,
    "reviews": 25,
    "website": "https://www.blankenshipcpagroup.com/",
    "category": "Agnostic-owned Financial statement preparation in Tennessee",
    "description": "Blankenship CPA Group provides reliable audit, tax consulting, and accounting solutions, with a commitment to building long-lasting client relationships and offering expert guidance",
    "hours": "Mon-Fri 9AM-6PM",
    "services": [
      "Agnostic-owned Financial statement preparation in Tennessee consultation",
      "Professional service",
      "Quality guarantee"
    ],
    "social_links": {}
  },
  {
    "name": "Ruhling & Associates, CPAs",
    "address": "1620 Gunbarrel Road, Suite 101, Chattanooga, TN 37405",
    "phone": "(423) 894-0011",
    "rating": 4.4,
    "reviews": 25,
    "website": "https://www.ruhling.com/",
    "category": "Agnostic-owned Financial statement preparation in Tennessee",
    "description": "This firm offers review and compilation services for financial statements, providing limited assurance and relying on management's representation for compilations",
    "hours": "Mon-Fri 9AM-6PM",
    "services": [
      "Agnostic-owned Financial statement preparation in Tennessee consultation",
      "Professional service",
      "Quality guarantee"
    ],
    "social_links": {}
  },
  {
    "name": "WarrenJackson CPAs, PLLC",
    "address": "206 North Hill Street, Athens, TN 37303",
    "phone": "(423) 745-9314",
    "rating": 4.9,
    "reviews": 25,
    "website": "https://www.wj.cpa/",
    "category": "Agnostic-owned Financial statement preparation in Tennessee",
    "description": "WarrenJackson CPAs offers thorough and accurate financial reporting, including financial statements, compilations, and reviews, with a focus on providing critical analysis for business goals",
    "hours": "Mon-Fri 9AM-6PM",
    "services": [
      "Agnostic-owned Financial statement preparation in Tennessee consultation",
      "Professional service",
      "Quality guarantee"
    ],
    "social_links": {}
  },
  {
    "name": "Baker Tilly",
    "address": "4515 Harding Blvd, Suite 300, Nashville, TN 37205",
    "phone": "(615) 320-1040",
    "rating": 4.5,
    "reviews": 25,
    "website": "https://www.bakertilly.com/locations/nashville",
    "category": "Agnostic-owned Financial statement preparation in Tennessee",
    "description": "Baker Tilly delivers tailored advisory, tax, and assurance services, with deep industry expertise and a strong local presence to help clients tackle challenges and prepare for opportunities",
    "hours": "Mon-Fri 9AM-6PM",
    "services": [
      "Agnostic-owned Financial statement preparation in Tennessee consultation",
      "Professional service",
      "Quality guarantee"
    ],
    "social_links": {}
  },
  {
    "name": "Jitasa Group",
    "address": "101 West Main Street, Suite 200, Franklin, TN 37064",
    "phone": "(800) 241-0111",
    "rating": 4.9,
    "reviews": 25,
    "website": "https://www.jitasa.com/",
    "category": "Agnostic-owned Financial statement preparation in Tennessee",
    "description": "Jitasa offers specialized accounting services for nonprofits in Tennessee, including bookkeeping, accounting, and fractional CFO services, designed to meet specific organizational needs",
    "hours": "Mon-Fri 9AM-6PM",
    "services": [
      "Agnostic-owned Financial statement preparation in Tennessee consultation",
      "Professional service",
      "Quality guarantee"
    ],
    "social_links": {}
  },
  {
    "name": "George Dimov, CPA",
    "address": "1111 N.shore Dr, Ste 101, Chattanooga, TN 37405",
    "phone": "(423) 485-1777",
    "rating": 5.0,
    "reviews": 25,
    "website": "https://georgedimovcpa.com/",
    "category": "Agnostic-owned Financial statement preparation in Tennessee",
    "description": "George Dimov, CPA specializes in bookkeeping, tax preparation, financial reporting, and business auditing services, with clients commending their responsiveness, accuracy, and proactive financial advisory",
    "hours": "Mon-Fri 9AM-6PM",
    "services": [
      "Agnostic-owned Financial statement preparation in Tennessee consultation",
      "Professional service",
      "Quality guarantee"
    ],
    "social_links": {}
  },
  {
    "name": "Andrew B. Ellis, CPA",
    "address": "1112 N. Gateway Ave, Ste 101, Lenoir City, TN 37771",
    "phone": "(865) 748-7976",
    "rating": 5.0,
    "reviews": 25,
    "website": "https://www.andrewellis.cpa/",
    "category": "Agnostic-owned Financial statement preparation in Tennessee",
    "description": "This sole practitioner specializes in preparing reviewed and audited financial statements specifically for Tennessee contractors applying for or renewing their licenses",
    "hours": "Mon-Fri 9AM-6PM",
    "services": [
      "Agnostic-owned Financial statement preparation in Tennessee consultation",
      "Professional service",
      "Quality guarantee"
    ],
    "social_links": {}
  }
]