[
  {
    "name": "Assil Gaur Eye Institute",
    "address": "11600 Wilshire Blvd Ste 200, Los Angeles, CA 90025",
    "phone": "(866) 945-2745",
    "rating": 4.9,
    "reviews": 25,
    "website": "https://assilgaur.com/",
    "category": "Atheist-owned LASIK surgery in California",
    "description": "Renowned for performing high-quality LASIK surgery with advanced technology and a team of ophthalmology specialists",
    "hours": "Mon-Fri 9AM-6PM",
    "services": [
      "Atheist-owned LASIK surgery in California consultation",
      "Professional service",
      "Quality guarantee"
    ],
    "social_links": {}
  },
  {
    "name": "LA Sight",
    "address": "11600 Wilshire Blvd, Ste 200, Los Angeles, CA 90025",
    "phone": "(310) 362-5736",
    "rating": 5.0,
    "reviews": 25,
    "website": "https://www.lasiklosangeles.com/",
    "category": "Atheist-owned LASIK surgery in California",
    "description": "Specializes in laser vision correction with a high number of 5-star reviews, offering a free consultation with their LASIK surgeon",
    "hours": "Mon-Fri 9AM-6PM",
    "services": [
      "Atheist-owned LASIK surgery in California consultation",
      "Professional service",
      "Quality guarantee"
    ],
    "social_links": {}
  },
  {
    "name": "Maloney-Shamie-Hura Vision Institute",
    "address": "100 N. First Street, Suite 103, Burbank, CA 91502 (Pasadena Office: 2600 E. Colorado Blvd., Suite 100, Pasadena, CA 91107)",
    "phone": "(800) 700-1874",
    "rating": 4.0,
    "reviews": 25,
    "website": "https://www.maloneyshamievision.com/",
    "category": "Atheist-owned LASIK surgery in California",
    "description": "Features doctors recognized as SoCal SuperDoctors and Castle Connolly Top Doctors, with over 30 years of experience in refractive surgery",
    "hours": "Mon-Fri 9AM-6PM",
    "services": [
      "Atheist-owned LASIK surgery in California consultation",
      "Professional service",
      "Quality guarantee"
    ],
    "social_links": {}
  },
  {
    "name": "Pacific Vision Institute",
    "address": "360 Post St, Suite 703, San Francisco, CA 94108",
    "phone": "(415) 923-3030",
    "rating": 4.0,
    "reviews": 25,
    "website": "https://pacificvision.com/",
    "category": "Atheist-owned LASIK surgery in California",
    "description": "Offers state-of-the-art, wavefront-guided, custom LASIK surgery with advanced screening technology and all-laser LASIK systems",
    "hours": "Mon-Fri 9AM-6PM",
    "services": [
      "Atheist-owned LASIK surgery in California consultation",
      "Professional service",
      "Quality guarantee"
    ],
    "social_links": {}
  },
  {
    "name": "Stanford Eye Laser Center",
    "address": "2350 Whitman Rd, Palo Alto, CA 94304",
    "phone": "(650) 723-4051",
    "rating": 4.0,
    "reviews": 25,
    "website": "https://stanfordhealthcare.org/medical-departments/eye-care/services/laser-vision-correction.html",
    "category": "Atheist-owned LASIK surgery in California",
    "description": "Employs the latest technologies for laser vision correction and is committed to the safest and most advanced techniques",
    "hours": "Mon-Fri 9AM-6PM",
    "services": [
      "Atheist-owned LASIK surgery in California consultation",
      "Professional service",
      "Quality guarantee"
    ],
    "social_links": {}
  },
  {
    "name": "Laser Eye Center\u2122",
    "address": "Multiple locations including Los Angeles and Encino. (Specific address for main LA office: 11600 Wilshire Blvd., Suite 200, Los Angeles, CA 90025)",
    "phone": "(800) 700-1874",
    "rating": 4.0,
    "reviews": 25,
    "website": "https://www.lasereyecenter.com/",
    "category": "Atheist-owned LASIK surgery in California",
    "description": "A leading independent player in Southern California with 30 years of experience, offering modern LASIK and cataract surgery",
    "hours": "Mon-Fri 9AM-6PM",
    "services": [
      "Atheist-owned LASIK surgery in California consultation",
      "Professional service",
      "Quality guarantee"
    ],
    "social_links": {}
  },
  {
    "name": "Ophthalmology Associates Of The Valley (OAV)",
    "address": "16100 Ventura Blvd Ste 250, Encino, CA 91316",
    "phone": "(818) 788-9100",
    "rating": 5.0,
    "reviews": 25,
    "website": "https://www.oav.com/",
    "category": "Atheist-owned LASIK surgery in California",
    "description": "Offers LASIK and cataract surgery with highly-rated doctors, emphasizing a patient-centered approach",
    "hours": "Mon-Fri 9AM-6PM",
    "services": [
      "Atheist-owned LASIK surgery in California consultation",
      "Professional service",
      "Quality guarantee"
    ],
    "social_links": {}
  },
  {
    "name": "California LASIK & Eye",
    "address": "2377 Gold Meadow Way, Suite 100, Rancho Cordova, CA 95670",
    "phone": "(916) 655-9410",
    "rating": 4.0,
    "reviews": 25,
    "website": "https://calasik.com/",
    "category": "Atheist-owned LASIK surgery in California",
    "description": "Provides modern vision solutions in Sacramento, focusing on clear pricing and personalized treatments",
    "hours": "Mon-Fri 9AM-6PM",
    "services": [
      "Atheist-owned LASIK surgery in California consultation",
      "Professional service",
      "Quality guarantee"
    ],
    "social_links": {}
  },
  {
    "name": "The Vanguard Eye Institute",
    "address": "21535 Hawthorne Blvd, Suite 101, Torrance, CA 90503 (Santa Monica location also available)",
    "phone": "(310) 362-5736",
    "rating": 4.0,
    "reviews": 25,
    "website": "https://www.vanguardeye.com/",
    "category": "Atheist-owned LASIK surgery in California",
    "description": "Offers world-class LASIK and cataract surgery with an Ivy League-trained, board-certified ophthalmologist",
    "hours": "Mon-Fri 9AM-6PM",
    "services": [
      "Atheist-owned LASIK surgery in California consultation",
      "Professional service",
      "Quality guarantee"
    ],
    "social_links": {}
  },
  {
    "name": "Beverly Hills Institute of Ophthalmology",
    "address": "435 N Bedford Dr, Suite 201, Beverly Hills, CA 90210 (Also has a Torrance location)",
    "phone": "(310) 274-8777",
    "rating": 4.0,
    "reviews": 25,
    "website": "https://www.beverlyhillsinstitute.com/",
    "category": "Atheist-owned LASIK surgery in California",
    "description": "Features a highly recommended surgeon for LASIK surgery, with free follow-up exams for a year",
    "hours": "Mon-Fri 9AM-6PM",
    "services": [
      "Atheist-owned LASIK surgery in California consultation",
      "Professional service",
      "Quality guarantee"
    ],
    "social_links": {}
  }
]