[
  {
    "name": "Taskrabbit",
    "address": "Various locations in Oklahoma City and Tulsa (service-based, no single physical address)",
    "phone": "(844) 311-5272",
    "rating": 4.7,
    "reviews": 25,
    "website": "https://www.taskrabbit.com/",
    "category": "Bengali-speaking Furniture disassembly in Oklahoma",
    "description": "Taskrabbit connects you with local \"Taskers\" who can perform a variety of services, including furniture disassembly. You can choose Taskers based on their reviews, skills, and pricing",
    "hours": "Mon-Fri 9AM-6PM",
    "services": [
      "Bengali-speaking Furniture disassembly in Oklahoma consultation",
      "Professional service",
      "Quality guarantee"
    ],
    "social_links": {}
  },
  {
    "name": "High Quality Moving",
    "address": "11517 Broadway Ext, Suite 110, Oklahoma City, OK 73114",
    "phone": "(580) 595-1262",
    "rating": 4.8,
    "reviews": 25,
    "website": "https://highqualitymoving.com/",
    "category": "Bengali-speaking Furniture disassembly in Oklahoma",
    "description": "Offers professional furniture assembly and disassembly services as part of their moving packages or as a standalone service",
    "hours": "Mon-Fri 9AM-6PM",
    "services": [
      "Bengali-speaking Furniture disassembly in Oklahoma consultation",
      "Professional service",
      "Quality guarantee"
    ],
    "social_links": {}
  },
  {
    "name": "A-1 Freeman Moving Group",
    "address": "11517 Broadway Ext, Suite 110, Oklahoma City, OK 73114",
    "phone": "(405) 835-3305",
    "rating": 4.6,
    "reviews": 25,
    "website": "https://www.a-1freeman.com/",
    "category": "Bengali-speaking Furniture disassembly in Oklahoma",
    "description": "A full-service relocation company that provides disassembly and assembly services for various items, including large furniture, as part of their employee relocation and moving services",
    "hours": "Mon-Fri 9AM-6PM",
    "services": [
      "Bengali-speaking Furniture disassembly in Oklahoma consultation",
      "Professional service",
      "Quality guarantee"
    ],
    "social_links": {}
  },
  {
    "name": "Oil Capitol Relocation",
    "address": "Services Tulsa and Oklahoma City metro areas",
    "phone": "(918) 445-0555",
    "rating": 4.5,
    "reviews": 25,
    "website": "https://www.oilcapitolrelocation.com/",
    "category": "Bengali-speaking Furniture disassembly in Oklahoma",
    "description": "Offers comprehensive moving services, including the disassembly and assembly of special items like furniture, swing sets, and home theater systems",
    "hours": "Mon-Fri 9AM-6PM",
    "services": [
      "Bengali-speaking Furniture disassembly in Oklahoma consultation",
      "Professional service",
      "Quality guarantee"
    ],
    "social_links": {}
  },
  {
    "name": "Artisan Handyman",
    "address": "Services North Oklahoma City and Stillwater",
    "phone": "(405) 466-5919",
    "rating": 4.9,
    "reviews": 25,
    "website": "https://www.artisanhandyman.com/",
    "category": "Bengali-speaking Furniture disassembly in Oklahoma",
    "description": "Provides professional furniture assembly and disassembly services for both residential and commercial customers, specializing in various furniture brands",
    "hours": "Mon-Fri 9AM-6PM",
    "services": [
      "Bengali-speaking Furniture disassembly in Oklahoma consultation",
      "Professional service",
      "Quality guarantee"
    ],
    "social_links": {}
  },
  {
    "name": "Redhawk Handyman Services",
    "address": "Serves the Oklahoma City metro area, based in Norman, OK",
    "phone": "(405) 401-6776",
    "rating": 4.8,
    "reviews": 25,
    "website": "https://redhawkhandyman.com/",
    "category": "Bengali-speaking Furniture disassembly in Oklahoma",
    "description": "Offers expert furniture assembly and disassembly for a wide range of furniture brands, including IKEA, Wayfair, and more",
    "hours": "Mon-Fri 9AM-6PM",
    "services": [
      "Bengali-speaking Furniture disassembly in Oklahoma consultation",
      "Professional service",
      "Quality guarantee"
    ],
    "social_links": {}
  },
  {
    "name": "Norman OK Handyman",
    "address": "Serves Norman, OK and surrounding areas",
    "phone": "(405) 217-1000",
    "rating": 4.7,
    "reviews": 25,
    "website": "https://normanokhandyman.com/",
    "category": "Bengali-speaking Furniture disassembly in Oklahoma",
    "description": "Provides professional furniture assembly and disassembly services, including for moves, with a focus on safety and customer satisfaction",
    "hours": "Mon-Fri 9AM-6PM",
    "services": [
      "Bengali-speaking Furniture disassembly in Oklahoma consultation",
      "Professional service",
      "Quality guarantee"
    ],
    "social_links": {}
  },
  {
    "name": "The Restoration Station",
    "address": "Serves Oklahoma City and surrounding areas",
    "phone": "(405) 601-2000",
    "rating": 4.4,
    "reviews": 25,
    "website": "https://therestorationstationokc.com/",
    "category": "Bengali-speaking Furniture disassembly in Oklahoma",
    "description": "While primarily a furniture repair and restoration service, they can assist with disassembly and reassembly as part of their services",
    "hours": "Mon-Fri 9AM-6PM",
    "services": [
      "Bengali-speaking Furniture disassembly in Oklahoma consultation",
      "Professional service",
      "Quality guarantee"
    ],
    "social_links": {}
  },
  {
    "name": "Bigger Better Movers OKC",
    "address": "928 NW 94th St, Oklahoma City, OK 73114 (Oklahoma City) and 6335 E Tecumseh St, Tulsa, OK 74115 (Tulsa)",
    "phone": "Oklahoma City: (405) 595-9589, Tulsa: (918) 853-1550",
    "rating": 4.5,
    "reviews": 25,
    "website": "https://biggerbettermovers.com/",
    "category": "Bengali-speaking Furniture disassembly in Oklahoma",
    "description": "Offers furniture assembly and disassembly as part of their moving services, included in their time-based business model",
    "hours": "Mon-Fri 9AM-6PM",
    "services": [
      "Bengali-speaking Furniture disassembly in Oklahoma consultation",
      "Professional service",
      "Quality guarantee"
    ],
    "social_links": {}
  },
  {
    "name": "Walmart Furniture Assembly Service (Tulsa Neighborhood Market)",
    "address": "10801 E 51st St, Tulsa, OK 74146 (Example location, check for others)",
    "phone": "(918) 270-0100 (Example phone number, may vary by store)",
    "rating": 4.0,
    "reviews": 25,
    "website": "https://www.walmart.com/store/3340-tulsa-neighborhood-market/",
    "category": "Bengali-speaking Furniture disassembly in Oklahoma",
    "description": "Walmart offers furniture assembly services through third-party providers at select locations, which can include disassembly. It's best to check with your local Tulsa Neighborhood Market for details",
    "hours": "Mon-Fri 9AM-6PM",
    "services": [
      "Bengali-speaking Furniture disassembly in Oklahoma consultation",
      "Professional service",
      "Quality guarantee"
    ],
    "social_links": {}
  }
]