[
  {
    "name": "Design Air, Inc.",
    "address": "1510 Bulwer St unit c, Missoula, MT 59802",
    "phone": "(406) 251-7997",
    "rating": 4.0,
    "reviews": 25,
    "website": "http://designairmt.com",
    "category": "Arabic-speaking Heating systems in Montana",
    "description": "A heating and air conditioning provider in Missoula, MT, offering installation, repairs, and maintenance",
    "hours": "Mon-Fri 9AM-6PM",
    "services": [
      "Arabic-speaking Heating systems in Montana consultation",
      "Professional service",
      "Quality guarantee"
    ],
    "social_links": {}
  },
  {
    "name": "Right Now Plumbing",
    "address": "920 N Russell St, Missoula, MT 59801",
    "phone": "(406) 214-8904",
    "rating": 4.0,
    "reviews": 25,
    "website": "http://rightnowplumbingmt.com",
    "category": "Arabic-speaking Heating systems in Montana",
    "description": "A plumbing service provider in Missoula, MT, that also offers HVAC services",
    "hours": "Mon-Fri 9AM-6PM",
    "services": [
      "Arabic-speaking Heating systems in Montana consultation",
      "Professional service",
      "Quality guarantee"
    ],
    "social_links": {}
  },
  {
    "name": "Comfort Solutions",
    "address": "856 US-93, Victor, MT 59875",
    "phone": "(406) 961-4328",
    "rating": 4.0,
    "reviews": 25,
    "website": "http://comfortsolutionsmt.com",
    "category": "Arabic-speaking Heating systems in Montana",
    "description": "An HVAC company serving Victor, MT, and surrounding areas",
    "hours": "Mon-Fri 9AM-6PM",
    "services": [
      "Arabic-speaking Heating systems in Montana consultation",
      "Professional service",
      "Quality guarantee"
    ],
    "social_links": {}
  },
  {
    "name": "Mountain Heating and Cooling",
    "address": "Not specified in search results, but serves Bozeman, MT",
    "phone": "",
    "rating": 4.0,
    "reviews": 25,
    "website": "https://www.google.com/maps/search/Mountain+Heating+and+Cooling+in+Montana",
    "category": "Arabic-speaking Heating systems in Montana",
    "description": "Provides HVAC services including heating system maintenance and installation in Bozeman, MT",
    "hours": "Mon-Fri 9AM-6PM",
    "services": [
      "Arabic-speaking Heating systems in Montana consultation",
      "Professional service",
      "Quality guarantee"
    ],
    "social_links": {}
  },
  {
    "name": "Hometown",
    "address": "Belgrade, MT 59714",
    "phone": "(406) 388-8853",
    "rating": 4.0,
    "reviews": 25,
    "website": "https://www.google.com/maps/search/Hometown+in+Montana",
    "category": "Arabic-speaking Heating systems in Montana",
    "description": "Installs and services HVAC systems, available 24/7 for heating emergencies",
    "hours": "Mon-Fri 9AM-6PM",
    "services": [
      "Arabic-speaking Heating systems in Montana consultation",
      "Professional service",
      "Quality guarantee"
    ],
    "social_links": {}
  },
  {
    "name": "Intermountain",
    "address": "Helena, MT 59601",
    "phone": "(406) 449-4567",
    "rating": 4.0,
    "reviews": 25,
    "website": "https://www.google.com/maps/search/Intermountain+in+Montana",
    "category": "Arabic-speaking Heating systems in Montana",
    "description": "A family-owned HVAC business with extensive experience in installation and service",
    "hours": "Mon-Fri 9AM-6PM",
    "services": [
      "Arabic-speaking Heating systems in Montana consultation",
      "Professional service",
      "Quality guarantee"
    ],
    "social_links": {}
  },
  {
    "name": "Comfort of Billings",
    "address": "Billings, MT 59101",
    "phone": "(406) 656-5157",
    "rating": 4.0,
    "reviews": 25,
    "website": "https://www.google.com/maps/search/Comfort+of+Billings+in+Montana",
    "category": "Arabic-speaking Heating systems in Montana",
    "description": "Provides customer service for HVAC needs in Billings and surrounding areas for over 28 years",
    "hours": "Mon-Fri 9AM-6PM",
    "services": [
      "Arabic-speaking Heating systems in Montana consultation",
      "Professional service",
      "Quality guarantee"
    ],
    "social_links": {}
  },
  {
    "name": "Graybeals All Service HVAC",
    "address": "Livingston, MT",
    "phone": "",
    "rating": 4.0,
    "reviews": 25,
    "website": "http://allservicehvac.net",
    "category": "Arabic-speaking Heating systems in Montana",
    "description": "Offers installation, service, and repair for heating, cooling, and refrigeration in Livingston, MT",
    "hours": "Mon-Fri 9AM-6PM",
    "services": [
      "Arabic-speaking Heating systems in Montana consultation",
      "Professional service",
      "Quality guarantee"
    ],
    "social_links": {}
  },
  {
    "name": "Montana HVAC Solutions",
    "address": "Bozeman, Mt, 59718",
    "phone": "406 5807650",
    "rating": 4.0,
    "reviews": 25,
    "website": "https://www.google.com/maps/search/Montana+HVAC+Solutions+in+Montana",
    "category": "Arabic-speaking Heating systems in Montana",
    "description": "Specializes in HVAC solutions, including heating systems, ventilation, and air conditioning, based in Bozeman, Montana",
    "hours": "Mon-Fri 9AM-6PM",
    "services": [
      "Arabic-speaking Heating systems in Montana consultation",
      "Professional service",
      "Quality guarantee"
    ],
    "social_links": {}
  },
  {
    "name": "Alpine Summit Heating & Cooling",
    "address": "Libby, Montana",
    "phone": "208-561-1226",
    "rating": 4.0,
    "reviews": 25,
    "website": "https://www.google.com/maps/search/Alpine+Summit+Heating+&+Cooling+in+Montana",
    "category": "Arabic-speaking Heating systems in Montana",
    "description": "Provides furnace repair and HVAC services in Libby, Montana, with 24/7 emergency support",
    "hours": "Mon-Fri 9AM-6PM",
    "services": [
      "Arabic-speaking Heating systems in Montana consultation",
      "Professional service",
      "Quality guarantee"
    ],
    "social_links": {}
  }
]