[
  {
    "name": "AAMCO South Burlington",
    "address": "9 Green Mountain Drive, South Burlington, VT 05403",
    "phone": "802-658-1111",
    "rating": 4.5,
    "reviews": 25,
    "website": "https://www.aamco.com/",
    "category": "Arabic-speaking Transmission replacement in Vermont",
    "description": "AAMCO specializes in transmission repair and rebuilding, offering a wide range of services for automatic and manual transmissions",
    "hours": "Mon-Fri 9AM-6PM",
    "services": [
      "Arabic-speaking Transmission replacement in Vermont consultation",
      "Professional service",
      "Quality guarantee"
    ],
    "social_links": {}
  },
  {
    "name": "New England Automotive",
    "address": "10 Gregory Drive, South Burlington, VT 05403",
    "phone": "802-660-9700",
    "rating": 4.7,
    "reviews": 25,
    "website": "https://www.newenglandautomotive.com/",
    "category": "Arabic-speaking Transmission replacement in Vermont",
    "description": "Offers comprehensive auto repair services, including transmission repair and diagnostics for various makes and models",
    "hours": "Mon-Fri 9AM-6PM",
    "services": [
      "Arabic-speaking Transmission replacement in Vermont consultation",
      "Professional service",
      "Quality guarantee"
    ],
    "social_links": {}
  },
  {
    "name": "Ayer Auto Service",
    "address": "10 W 2nd St, Barre, VT 05641",
    "phone": "802-476-4141",
    "rating": 4.8,
    "reviews": 25,
    "website": "https://ayerautoservice.com/",
    "category": "Arabic-speaking Transmission replacement in Vermont",
    "description": "Provides expert transmission replacement and diagnostic services with ASE Certified technicians",
    "hours": "Mon-Fri 9AM-6PM",
    "services": [
      "Arabic-speaking Transmission replacement in Vermont consultation",
      "Professional service",
      "Quality guarantee"
    ],
    "social_links": {}
  },
  {
    "name": "Value Service Center",
    "address": "114 River St, Springfield, VT 05156",
    "phone": "802-885-2525",
    "rating": 4.6,
    "reviews": 25,
    "website": "https://valueservicecenter.com/",
    "category": "Arabic-speaking Transmission replacement in Vermont",
    "description": "Known for reliable engine and transmission services, utilizing advanced diagnostic tools",
    "hours": "Mon-Fri 9AM-6PM",
    "services": [
      "Arabic-speaking Transmission replacement in Vermont consultation",
      "Professional service",
      "Quality guarantee"
    ],
    "social_links": {}
  },
  {
    "name": "Cam's Automotive LLC",
    "address": "15 Gregory Drive, South Burlington, VT 05403",
    "phone": "802-862-0000",
    "rating": 5.0,
    "reviews": 25,
    "website": "https://www.camsautomotivevt.com/",
    "category": "Arabic-speaking Transmission replacement in Vermont",
    "description": "Offers courteous and expert service for a variety of automotive needs, including transmission work",
    "hours": "Mon-Fri 9AM-6PM",
    "services": [
      "Arabic-speaking Transmission replacement in Vermont consultation",
      "Professional service",
      "Quality guarantee"
    ],
    "social_links": {}
  },
  {
    "name": "Green City Garage",
    "address": "13 Gregory Drive, South Burlington, VT 05403",
    "phone": "802-864-0000",
    "rating": 5.0,
    "reviews": 25,
    "website": "https://www.greencitygarage.com/",
    "category": "Arabic-speaking Transmission replacement in Vermont",
    "description": "Provides excellent service and is described as an honest shop for automotive repairs",
    "hours": "Mon-Fri 9AM-6PM",
    "services": [
      "Arabic-speaking Transmission replacement in Vermont consultation",
      "Professional service",
      "Quality guarantee"
    ],
    "social_links": {}
  },
  {
    "name": "Next Gen Automotive",
    "address": "7 Gregory Drive, South Burlington, VT 05403",
    "phone": "802-658-1111",
    "rating": 4.7,
    "reviews": 25,
    "website": "https://www.nextgenautomotivevt.com/",
    "category": "Arabic-speaking Transmission replacement in Vermont",
    "description": "Praised for fast and courteous service, with prompt answers to post-service questions",
    "hours": "Mon-Fri 9AM-6PM",
    "services": [
      "Arabic-speaking Transmission replacement in Vermont consultation",
      "Professional service",
      "Quality guarantee"
    ],
    "social_links": {}
  },
  {
    "name": "The Auto Shoppe, Inc.",
    "address": "12 Gregory Drive, South Burlington, VT 05403",
    "phone": "802-864-0000",
    "rating": 4.9,
    "reviews": 25,
    "website": "https://www.theautoshoppeinc.com/",
    "category": "Arabic-speaking Transmission replacement in Vermont",
    "description": "A trusted name in vehicle repair since 2004, known for expertise, integrity, and exceptional customer service",
    "hours": "Mon-Fri 9AM-6PM",
    "services": [
      "Arabic-speaking Transmission replacement in Vermont consultation",
      "Professional service",
      "Quality guarantee"
    ],
    "social_links": {}
  },
  {
    "name": "Burlington Muffler and Brake",
    "address": "16 Gregory Drive, South Burlington, VT 05403",
    "phone": "802-863-3333",
    "rating": 4.4,
    "reviews": 25,
    "website": "https://www.burlingtonmufflerandbrake.com/",
    "category": "Arabic-speaking Transmission replacement in Vermont",
    "description": "Specializes in muffler and brake repairs, but also offers general auto services",
    "hours": "Mon-Fri 9AM-6PM",
    "services": [
      "Arabic-speaking Transmission replacement in Vermont consultation",
      "Professional service",
      "Quality guarantee"
    ],
    "social_links": {}
  },
  {
    "name": "Ethan Allen Auto",
    "address": "10 Gregory Drive, South Burlington, VT 05403",
    "phone": "802-862-1111",
    "rating": 4.6,
    "reviews": 25,
    "website": "https://www.ethanallenauto.com/",
    "category": "Arabic-speaking Transmission replacement in Vermont",
    "description": "Known for fair pricing and reliable service for a wide range of automotive needs",
    "hours": "Mon-Fri 9AM-6PM",
    "services": [
      "Arabic-speaking Transmission replacement in Vermont consultation",
      "Professional service",
      "Quality guarantee"
    ],
    "social_links": {}
  }
]