[
  {
    "name": "Bobby Cooper Salon",
    "address": "725 E 65th St Ste 100, Indianapolis, IN 46220, USA",
    "phone": "(317) 757-3227",
    "rating": 4.8,
    "reviews": 25,
    "website": "https://www.bobbycoopersalon.com/",
    "category": "Chinese-speaking Hair coloring in Indiana",
    "description": "This Indianapolis salon is known for its high-end cuts, styling, and vibrant color services, offering a personalized and relaxing experience",
    "hours": "Mon-Fri 9AM-6PM",
    "services": [
      "Chinese-speaking Hair coloring in Indiana consultation",
      "Professional service",
      "Quality guarantee"
    ],
    "social_links": {}
  },
  {
    "name": "LUXORI - Premier Hair Salon",
    "address": "201 N Illinois St, Indianapolis, IN 46204, USA (Located on the east corner of Monument Circle)",
    "phone": "(317) 600-3000",
    "rating": 4.9,
    "reviews": 25,
    "website": "https://luxorisalon.com/",
    "category": "Chinese-speaking Hair coloring in Indiana",
    "description": "LUXORI specializes in hair cutting, highlights, balayage, and ombr\u00e9 coloring techniques, offering exceptional craftsmanship and customer service",
    "hours": "Mon-Fri 9AM-6PM",
    "services": [
      "Chinese-speaking Hair coloring in Indiana consultation",
      "Professional service",
      "Quality guarantee"
    ],
    "social_links": {}
  },
  {
    "name": "G Michael Salon",
    "address": "2727 E 86th St #120, Indianapolis, IN 46240, USA",
    "phone": "(317) 844-4000",
    "rating": 4.7,
    "reviews": 25,
    "website": "https://gmichaelsalon.com/",
    "category": "Chinese-speaking Hair coloring in Indiana",
    "description": "Renowned for modern styles and hair care services, G Michael Salon's team is praised for professional hair color, styling, and extensions",
    "hours": "Mon-Fri 9AM-6PM",
    "services": [
      "Chinese-speaking Hair coloring in Indiana consultation",
      "Professional service",
      "Quality guarantee"
    ],
    "social_links": {}
  },
  {
    "name": "Fiore Hair Salon",
    "address": "4825 E 96th St Ste 600, Indianapolis, IN 46240, USA",
    "phone": "(317) 574-0770",
    "rating": 4.8,
    "reviews": 25,
    "website": "https://fiorehairsalon.com/",
    "category": "Chinese-speaking Hair coloring in Indiana",
    "description": "Fiore Hair Salon has a skilled team known for color, cuts, and styling, with reviewers praising its warm atmosphere and attention to detail",
    "hours": "Mon-Fri 9AM-6PM",
    "services": [
      "Chinese-speaking Hair coloring in Indiana consultation",
      "Professional service",
      "Quality guarantee"
    ],
    "social_links": {}
  },
  {
    "name": "Nicole Bryan Salon",
    "address": "12505 Old US Hwy 31 N, Carmel, IN 46032, USA",
    "phone": "(317) 844-4000",
    "rating": 4.9,
    "reviews": 25,
    "website": "https://www.nicolebryansalon.com/",
    "category": "Chinese-speaking Hair coloring in Indiana",
    "description": "This Carmel salon offers a luxury experience with sophisticated haircuts, color, and styling, committed to delivering exceptional service",
    "hours": "Mon-Fri 9AM-6PM",
    "services": [
      "Chinese-speaking Hair coloring in Indiana consultation",
      "Professional service",
      "Quality guarantee"
    ],
    "social_links": {}
  },
  {
    "name": "Splash Hair Salon and Spa",
    "address": "4659 E 82nd St, Indianapolis, IN 46250, USA",
    "phone": "(317) 576-9200",
    "rating": 4.7,
    "reviews": 25,
    "website": "https://splashhairsalon.net/",
    "category": "Chinese-speaking Hair coloring in Indiana",
    "description": "Since 2001, Splash Hair Salon has been a top choice for professional hair coloring, extensions, and bridal beauty, providing a customized luxury salon experience",
    "hours": "Mon-Fri 9AM-6PM",
    "services": [
      "Chinese-speaking Hair coloring in Indiana consultation",
      "Professional service",
      "Quality guarantee"
    ],
    "social_links": {}
  },
  {
    "name": "BeLaVie Hair Salon",
    "address": "3170 E Thompson Rd, Indianapolis, IN 46227, USA",
    "phone": "(317) 992-1111",
    "rating": 4.9,
    "reviews": 25,
    "website": "https://belaviesalon.com/",
    "category": "Chinese-speaking Hair coloring in Indiana",
    "description": "BeLaVie Hair Salon is a team of hair experts specializing in color, cuts, extensions, and Brazilian Blowouts, focusing on hair integrity and vibrant health",
    "hours": "Mon-Fri 9AM-6PM",
    "services": [
      "Chinese-speaking Hair coloring in Indiana consultation",
      "Professional service",
      "Quality guarantee"
    ],
    "social_links": {}
  },
  {
    "name": "Color Room Salon & Day Spa",
    "address": "1130 Sheffield Ave, Dyer, IN 46311, USA",
    "phone": "(219) 865-2555",
    "rating": 4.7,
    "reviews": 25,
    "website": "https://www.colorroomsalon.com/",
    "category": "Chinese-speaking Hair coloring in Indiana",
    "description": "This Northwest Indiana salon offers a full range of services including hair coloring, highlights, extensions, haircuts, and more in an upscale environment",
    "hours": "Mon-Fri 9AM-6PM",
    "services": [
      "Chinese-speaking Hair coloring in Indiana consultation",
      "Professional service",
      "Quality guarantee"
    ],
    "social_links": {}
  },
  {
    "name": "Salon 6",
    "address": "6378 N College Ave, Indianapolis, IN 46220, USA",
    "phone": "(317) 255-7575",
    "rating": 4.7,
    "reviews": 25,
    "website": "https://www.salon6indy.com/",
    "category": "Chinese-speaking Hair coloring in Indiana",
    "description": "An inclusive, eco-friendly salon in Indianapolis with a team of stylists, including two board-certified hair colorists, offering the latest trends in haircuts and colors",
    "hours": "Mon-Fri 9AM-6PM",
    "services": [
      "Chinese-speaking Hair coloring in Indiana consultation",
      "Professional service",
      "Quality guarantee"
    ],
    "social_links": {}
  },
  {
    "name": "The Electric Owl",
    "address": "2640 N Heidelbach Ave, Evansville, IN 47714, USA",
    "phone": "(812) 760-9533",
    "rating": 4.9,
    "reviews": 25,
    "website": "https://www.theelectricowl.com/",
    "category": "Chinese-speaking Hair coloring in Indiana",
    "description": "This Evansville salon offers expertise in color, color correction, razor cutting, curly hair styles, and extensions in a welcoming and affirming space",
    "hours": "Mon-Fri 9AM-6PM",
    "services": [
      "Chinese-speaking Hair coloring in Indiana consultation",
      "Professional service",
      "Quality guarantee"
    ],
    "social_links": {}
  }
]