[
  {
    "name": "St. Garabed Armenian Apostolic Church",
    "address": "2054 E Desert Inn Rd, Las Vegas, NV 89169",
    "phone": "(702) 834-6344",
    "rating": 4.0,
    "reviews": 25,
    "website": "https://www.google.com/maps/search/St.+Garabed+Armenian+Apostolic+Church+in+Nevada",
    "category": "Armenian-speaking Email response in Nevada",
    "description": "A prominent Armenian Apostolic Church serving the Las Vegas community, offering spiritual services and community events",
    "hours": "Mon-Fri 9AM-6PM",
    "services": [
      "Armenian-speaking Email response in Nevada consultation",
      "Professional service",
      "Quality guarantee"
    ],
    "social_links": {}
  },
  {
    "name": "Armenian Apostolic Church Las Vegas",
    "address": "2120 Lindell Road, Las Vegas, NV 89146",
    "phone": "702-247-8400",
    "rating": 4.0,
    "reviews": 25,
    "website": "http://www.armenianchurchlasvegas.org/",
    "category": "Armenian-speaking Email response in Nevada",
    "description": "Another Armenian Apostolic Church in Las Vegas, providing religious services and community support",
    "hours": "Mon-Fri 9AM-6PM",
    "services": [
      "Armenian-speaking Email response in Nevada consultation",
      "Professional service",
      "Quality guarantee"
    ],
    "social_links": {}
  },
  {
    "name": "T.K. House of Bread And Armenian Restaurant",
    "address": "9030 W Flamingo Rd #140, Las Vegas, NV",
    "phone": "",
    "rating": 4.7,
    "reviews": 25,
    "website": "https://www.google.com/maps/search/T.K.+House+of+Bread+And+Armenian+Restaurant+in+Nevada",
    "category": "Armenian-speaking Email response in Nevada",
    "description": "An Armenian and Mediterranean restaurant known for its authentic cuisine and homey atmosphere",
    "hours": "Mon-Fri 9AM-6PM",
    "services": [
      "Armenian-speaking Email response in Nevada consultation",
      "Professional service",
      "Quality guarantee"
    ],
    "social_links": {}
  },
  {
    "name": "Eastern Market",
    "address": "2550 E. Windmill Ln. Suite 160-165, Henderson, NV 89074",
    "phone": "1-702-463-5544",
    "rating": 4.0,
    "reviews": 25,
    "website": "https://www.google.com/maps/search/Eastern+Market+in+Nevada",
    "category": "Armenian-speaking Email response in Nevada",
    "description": "A market specializing in a wide selection of Armenian, Eastern European, and Mediterranean foods, including deli meats, cheeses, wines, and beers",
    "hours": "Mon-Fri 9AM-6PM",
    "services": [
      "Armenian-speaking Email response in Nevada consultation",
      "Professional service",
      "Quality guarantee"
    ],
    "social_links": {}
  },
  {
    "name": "Arevik Bakery",
    "address": "3544 S Wynn Rd., Las Vegas, NV 89103",
    "phone": "",
    "rating": 4.9,
    "reviews": 25,
    "website": "https://www.google.com/maps/search/Arevik+Bakery+in+Nevada",
    "category": "Armenian-speaking Email response in Nevada",
    "description": "A bakery offering a variety of Armenian pastries and baked goods, including baklava and Lahmajo (Armenian Pizza)",
    "hours": "Mon-Fri 9AM-6PM",
    "services": [
      "Armenian-speaking Email response in Nevada consultation",
      "Professional service",
      "Quality guarantee"
    ],
    "social_links": {}
  },
  {
    "name": "Manan Bakery",
    "address": "6680 W Flamingo Rd, Las Vegas, NV 89103",
    "phone": "(702) 733-4000",
    "rating": 4.0,
    "reviews": 25,
    "website": "https://www.google.com/maps/search/Manan+Bakery+in+Nevada",
    "category": "Armenian-speaking Email response in Nevada",
    "description": "A family-owned bakery specializing in sweets and pastries, incorporating Armenian traditions with worldwide techniques",
    "hours": "Mon-Fri 9AM-6PM",
    "services": [
      "Armenian-speaking Email response in Nevada consultation",
      "Professional service",
      "Quality guarantee"
    ],
    "social_links": {}
  },
  {
    "name": "Shish Kabob House",
    "address": "6620 W Flamingo Rd #8, Las Vegas, NV 89103",
    "phone": "(702) 643-5454",
    "rating": 4.3,
    "reviews": 25,
    "website": "https://www.google.com/maps/search/Shish+Kabob+House+in+Nevada",
    "category": "Armenian-speaking Email response in Nevada",
    "description": "A popular restaurant known for its juicy kebabs, flavorful sides, and traditional Armenian dishes",
    "hours": "Mon-Fri 9AM-6PM",
    "services": [
      "Armenian-speaking Email response in Nevada consultation",
      "Professional service",
      "Quality guarantee"
    ],
    "social_links": {}
  },
  {
    "name": "Soroush Mediterranean Cuisine",
    "address": "2790 E Flamingo Rd, Las Vegas, NV 89121",
    "phone": "(702) 799-0336",
    "rating": 4.7,
    "reviews": 25,
    "website": "https://www.google.com/maps/search/Soroush+Mediterranean+Cuisine+in+Nevada",
    "category": "Armenian-speaking Email response in Nevada",
    "description": "Offers authentic Mediterranean and Armenian dishes with a focus on fresh ingredients",
    "hours": "Mon-Fri 9AM-6PM",
    "services": [
      "Armenian-speaking Email response in Nevada consultation",
      "Professional service",
      "Quality guarantee"
    ],
    "social_links": {}
  },
  {
    "name": "Armenian Evangelical Church of Las Vegas",
    "address": "Not explicitly available in search results",
    "phone": "",
    "rating": 4.0,
    "reviews": 25,
    "website": "https://www.google.com/maps/search/Armenian+Evangelical+Church+of+Las+Vegas+in+Nevada",
    "category": "Armenian-speaking Email response in Nevada",
    "description": "Mentioned as one of the Armenian churches in Las Vegas",
    "hours": "Mon-Fri 9AM-6PM",
    "services": [
      "Armenian-speaking Email response in Nevada consultation",
      "Professional service",
      "Quality guarantee"
    ],
    "social_links": {}
  },
  {
    "name": "Nevada Legal Group (Paralegal Arus Arustamyan)",
    "address": "3225 S. Rainbow Blvd. Suite 204, Las Vegas, Nevada 89146",
    "phone": "702-538-7824 or 702-825-5658",
    "rating": 4.0,
    "reviews": 25,
    "website": "https://www.google.com/maps/search/Nevada+Legal+Group+(Paralegal+Arus+Arustamyan)+in+Nevada",
    "category": "Armenian-speaking Email response in Nevada",
    "description": "While not an Armenian business, Arus Arustamyan, a paralegal at this firm, speaks Armenian, English, and Russian, and can assist with legal document authenticity and communication",
    "hours": "Mon-Fri 9AM-6PM",
    "services": [
      "Armenian-speaking Email response in Nevada consultation",
      "Professional service",
      "Quality guarantee"
    ],
    "social_links": {}
  }
]