[
  {
    "name": "Mr. Handyman of N Kansas City, Liberty and Gladstone",
    "address": "Varies by location (serves Kansas City, Liberty, Gladstone, MO)",
    "phone": "(816) 727-2277",
    "rating": 4.7,
    "reviews": 25,
    "website": "https://www.mrhandyman.com/locations/mo/north-kansas-city/",
    "category": "Agnostic-owned Tile repair and replacement in Missouri",
    "description": "Offers professional tile installation and repair services for kitchens and bathrooms",
    "hours": "Mon-Fri 9AM-6PM",
    "services": [
      "Agnostic-owned Tile repair and replacement in Missouri consultation",
      "Professional service",
      "Quality guarantee"
    ],
    "social_links": {}
  },
  {
    "name": "S&S Floors",
    "address": "Serves St. Charles, MO, including O'Fallon, Cottleville, and Wentzville",
    "phone": "(314) 280-0640",
    "rating": 4.0,
    "reviews": 25,
    "website": "https://www.ssfloors.com/",
    "category": "Agnostic-owned Tile repair and replacement in Missouri",
    "description": "Specializes in tile and grout repair, restoration, crack and chip repair, and tile replacement",
    "hours": "Mon-Fri 9AM-6PM",
    "services": [
      "Agnostic-owned Tile repair and replacement in Missouri consultation",
      "Professional service",
      "Quality guarantee"
    ],
    "social_links": {}
  },
  {
    "name": "Ozark Stone & Tile",
    "address": "Serves Camdenton, MO, and surrounding areas",
    "phone": "",
    "rating": 4.0,
    "reviews": 25,
    "website": "https://ozarkstoneandtile.com/",
    "category": "Agnostic-owned Tile repair and replacement in Missouri",
    "description": "Specializes in tile, stone, and grout restoration, cleaning, and sealing",
    "hours": "Mon-Fri 9AM-6PM",
    "services": [
      "Agnostic-owned Tile repair and replacement in Missouri consultation",
      "Professional service",
      "Quality guarantee"
    ],
    "social_links": {}
  },
  {
    "name": "Anything Flooring LLC",
    "address": "Serves Lebanon, MO",
    "phone": "(417) 650-6341",
    "rating": 4.0,
    "reviews": 25,
    "website": "https://anythingflooringllc.com/",
    "category": "Agnostic-owned Tile repair and replacement in Missouri",
    "description": "Offers expert tile repair services and a full range of flooring services",
    "hours": "Mon-Fri 9AM-6PM",
    "services": [
      "Agnostic-owned Tile repair and replacement in Missouri consultation",
      "Professional service",
      "Quality guarantee"
    ],
    "social_links": {}
  },
  {
    "name": "The Grout Medic of St. Louis",
    "address": "Serves St. Louis, MO, and surrounding areas",
    "phone": "(314) 408-6531",
    "rating": 4.0,
    "reviews": 25,
    "website": "https://www.thegroutmedic.com/st-louis/",
    "category": "Agnostic-owned Tile repair and replacement in Missouri",
    "description": "Provides professional tile repair, grout repair, and tile replacement services",
    "hours": "Mon-Fri 9AM-6PM",
    "services": [
      "Agnostic-owned Tile repair and replacement in Missouri consultation",
      "Professional service",
      "Quality guarantee"
    ],
    "social_links": {}
  },
  {
    "name": "R & F Tile & Marble Company Inc.",
    "address": "St. Louis, MO",
    "phone": "",
    "rating": 4.0,
    "reviews": 25,
    "website": "https://rf-tile-marble.business.site/",
    "category": "Agnostic-owned Tile repair and replacement in Missouri",
    "description": "Specializes in tile installation and exceptional craftsmanship for residential and commercial clients",
    "hours": "Mon-Fri 9AM-6PM",
    "services": [
      "Agnostic-owned Tile repair and replacement in Missouri consultation",
      "Professional service",
      "Quality guarantee"
    ],
    "social_links": {}
  },
  {
    "name": "M & M Tile Services",
    "address": "Serves Kansas City, MO area",
    "phone": "",
    "rating": 4.0,
    "reviews": 25,
    "website": "https://www.mmtileservices.com/",
    "category": "Agnostic-owned Tile repair and replacement in Missouri",
    "description": "Specializes in tile installation and luxury plank vinyl flooring installation",
    "hours": "Mon-Fri 9AM-6PM",
    "services": [
      "Agnostic-owned Tile repair and replacement in Missouri consultation",
      "Professional service",
      "Quality guarantee"
    ],
    "social_links": {}
  },
  {
    "name": "All Pro Tile & Stone",
    "address": "Serves Kansas City, MO area",
    "phone": "",
    "rating": 4.0,
    "reviews": 25,
    "website": "https://www.allprotileandstone.com/",
    "category": "Agnostic-owned Tile repair and replacement in Missouri",
    "description": "Experts in tile and stone work, known for reliability and quality craftsmanship",
    "hours": "Mon-Fri 9AM-6PM",
    "services": [
      "Agnostic-owned Tile repair and replacement in Missouri consultation",
      "Professional service",
      "Quality guarantee"
    ],
    "social_links": {}
  },
  {
    "name": "ShowMe Tile Creations, LLC",
    "address": "Serves Kansas City, MO area",
    "phone": "",
    "rating": 4.0,
    "reviews": 25,
    "website": "https://showmetilecreations.com/",
    "category": "Agnostic-owned Tile repair and replacement in Missouri",
    "description": "Specializes in tile installation and creating custom tile designs",
    "hours": "Mon-Fri 9AM-6PM",
    "services": [
      "Agnostic-owned Tile repair and replacement in Missouri consultation",
      "Professional service",
      "Quality guarantee"
    ],
    "social_links": {}
  },
  {
    "name": "Dave Grigg's Flooring America",
    "address": "Columbia, MO",
    "phone": "(573) 445-7171",
    "rating": 4.0,
    "reviews": 25,
    "website": "https://www.flooringamerica.com/dave-griggs",
    "category": "Agnostic-owned Tile repair and replacement in Missouri",
    "description": "Offers professional tile installation services, a wide selection of tiles, and custom tile solutions",
    "hours": "Mon-Fri 9AM-6PM",
    "services": [
      "Agnostic-owned Tile repair and replacement in Missouri consultation",
      "Professional service",
      "Quality guarantee"
    ],
    "social_links": {}
  }
]