[
  {
    "name": "Maltese CrossFit",
    "address": "2380 Gallatin Ave, Idaho Falls, ID 83402",
    "phone": "(208) 360-9423",
    "rating": 4.8,
    "reviews": 25,
    "website": "https://www.google.com/maps/search/Maltese+CrossFit+in+Idaho",
    "category": "Asian-owned Gyms in Idaho",
    "description": "A CrossFit gym known for its community and coaches",
    "hours": "Mon-Fri 9AM-6PM",
    "services": [
      "Asian-owned Gyms in Idaho consultation",
      "Professional service",
      "Quality guarantee"
    ],
    "social_links": {}
  },
  {
    "name": "Elevation Floating Fitness",
    "address": "537 W 20th St, Idaho Falls, ID 83402",
    "phone": "(208) 221-2685",
    "rating": 5.0,
    "reviews": 25,
    "website": "https://www.google.com/maps/search/Elevation+Floating+Fitness+in+Idaho",
    "category": "Asian-owned Gyms in Idaho",
    "description": "Offers fitness classes with a focus on stretching and well-being",
    "hours": "Mon-Fri 9AM-6PM",
    "services": [
      "Asian-owned Gyms in Idaho consultation",
      "Professional service",
      "Quality guarantee"
    ],
    "social_links": {}
  },
  {
    "name": "Apple Athletic Club",
    "address": "2030 Jennie Lee Dr, Idaho Falls, ID 83404",
    "phone": "(208) 529-8600",
    "rating": 4.1,
    "reviews": 25,
    "website": "https://www.google.com/maps/search/Apple+Athletic+Club+in+Idaho",
    "category": "Asian-owned Gyms in Idaho",
    "description": "A comprehensive athletic club with equipment, pools, and group classes",
    "hours": "Mon-Fri 9AM-6PM",
    "services": [
      "Asian-owned Gyms in Idaho consultation",
      "Professional service",
      "Quality guarantee"
    ],
    "social_links": {}
  },
  {
    "name": "Idaho Falls Training Center Inc.",
    "address": "3140 S Yellowstone Hwy, Idaho Falls, ID 83402",
    "phone": "(208) 524-3334",
    "rating": 3.2,
    "reviews": 25,
    "website": "https://www.google.com/maps/search/Idaho+Falls+Training+Center+Inc.+in+Idaho",
    "category": "Asian-owned Gyms in Idaho",
    "description": "A training center in Idaho Falls",
    "hours": "Mon-Fri 9AM-6PM",
    "services": [
      "Asian-owned Gyms in Idaho consultation",
      "Professional service",
      "Quality guarantee"
    ],
    "social_links": {}
  },
  {
    "name": "Planet Fitness (Nampa, ID)",
    "address": "2040 Caldwell Blvd, Nampa, ID 83651",
    "phone": "",
    "rating": 4.0,
    "reviews": 25,
    "website": "https://www.google.com/maps/search/Planet+Fitness+(Nampa,+ID)+in+Idaho",
    "category": "Asian-owned Gyms in Idaho",
    "description": "A fitness center known for its welcoming and non-intimidating environment",
    "hours": "Mon-Fri 9AM-6PM",
    "services": [
      "Asian-owned Gyms in Idaho consultation",
      "Professional service",
      "Quality guarantee"
    ],
    "social_links": {}
  },
  {
    "name": "Anytime Fitness (Nampa, ID)",
    "address": "(Specific address not provided in search results, but located in Nampa, ID)",
    "phone": "",
    "rating": 4.0,
    "reviews": 25,
    "website": "https://www.google.com/maps/search/Anytime+Fitness+(Nampa,+ID)+in+Idaho",
    "category": "Asian-owned Gyms in Idaho",
    "description": "A locally owned and operated gym offering 24/7 access and a supportive community",
    "hours": "Mon-Fri 9AM-6PM",
    "services": [
      "Asian-owned Gyms in Idaho consultation",
      "Professional service",
      "Quality guarantee"
    ],
    "social_links": {}
  },
  {
    "name": "Snake River CrossFit",
    "address": "1123 N 36th St, Nampa, ID 83687",
    "phone": "(208) 480-6838",
    "rating": 4.0,
    "reviews": 25,
    "website": "https://www.google.com/maps/search/Snake+River+CrossFit+in+Idaho",
    "category": "Asian-owned Gyms in Idaho",
    "description": "A CrossFit gym in Nampa emphasizing community and tailored workouts",
    "hours": "Mon-Fri 9AM-6PM",
    "services": [
      "Asian-owned Gyms in Idaho consultation",
      "Professional service",
      "Quality guarantee"
    ],
    "social_links": {}
  },
  {
    "name": "CrossFit Fireside",
    "address": "490 E Schiller Ln #100, Meridian, ID 83642",
    "phone": "",
    "rating": 4.0,
    "reviews": 25,
    "website": "https://www.google.com/maps/search/CrossFit+Fireside+in+Idaho",
    "category": "Asian-owned Gyms in Idaho",
    "description": "Described as Idaho's largest gym, focusing on community, results, safety, and excellence",
    "hours": "Mon-Fri 9AM-6PM",
    "services": [
      "Asian-owned Gyms in Idaho consultation",
      "Professional service",
      "Quality guarantee"
    ],
    "social_links": {}
  },
  {
    "name": "Anytime Fitness (Coeur d'Alene, ID)",
    "address": "(Specific address not provided in search results, but located in Coeur d'Alene, ID)",
    "phone": "",
    "rating": 4.7,
    "reviews": 25,
    "website": "https://www.google.com/maps/search/Anytime+Fitness+(Coeur+d'Alene,+ID)+in+Idaho",
    "category": "Asian-owned Gyms in Idaho",
    "description": "Offers 24/7 access, personal training, and group workouts",
    "hours": "Mon-Fri 9AM-6PM",
    "services": [
      "Asian-owned Gyms in Idaho consultation",
      "Professional service",
      "Quality guarantee"
    ],
    "social_links": {}
  },
  {
    "name": "Fuel Fitness",
    "address": "2641 N Government Way, Coeur d'Alene, ID 83815",
    "phone": "208-666-5517",
    "rating": 4.0,
    "reviews": 25,
    "website": "https://www.google.com/maps/search/Fuel+Fitness+in+Idaho",
    "category": "Asian-owned Gyms in Idaho",
    "description": "A fitness club aiming to provide a family-like atmosphere",
    "hours": "Mon-Fri 9AM-6PM",
    "services": [
      "Asian-owned Gyms in Idaho consultation",
      "Professional service",
      "Quality guarantee"
    ],
    "social_links": {}
  }
]