[
  {
    "name": "ServiceMaster Clean Team - Albuquerque",
    "address": "5400 Gibson Blvd SE, Albuquerque, NM 87108",
    "phone": "(505) 421-4291",
    "rating": 4.5,
    "reviews": 25,
    "website": "https://www.servicemasterclean.com/albuquerque/",
    "category": "Bengali-speaking Commercial cleaning in New-Mexico",
    "description": "Offers customized commercial cleaning solutions for various industries, including healthcare, offices, and industrial facilities. They emphasize a safe and healthy workplace",
    "hours": "Mon-Fri 9AM-6PM",
    "services": [
      "Bengali-speaking Commercial cleaning in New-Mexico consultation",
      "Professional service",
      "Quality guarantee"
    ],
    "social_links": {}
  },
  {
    "name": "Emerald Commercial Cleaning",
    "address": "10150 Montgomery Blvd NE, Albuquerque, NM 87111",
    "phone": "(505) 501-7677",
    "rating": 4.8,
    "reviews": 25,
    "website": "https://emeraldcleaningnm.com/",
    "category": "Bengali-speaking Commercial cleaning in New-Mexico",
    "description": "Provides janitorial, post-construction, floor, and carpet cleaning services in Albuquerque, catering to various industries like offices, schools, and medical facilities",
    "hours": "Mon-Fri 9AM-6PM",
    "services": [
      "Bengali-speaking Commercial cleaning in New-Mexico consultation",
      "Professional service",
      "Quality guarantee"
    ],
    "social_links": {}
  },
  {
    "name": "Clean Team Santa Fe",
    "address": "3201 Richards Ln, Santa Fe, NM 87507",
    "phone": "(505) 888-5130",
    "rating": 4.7,
    "reviews": 25,
    "website": "https://cleanteamusa.com/locations/santa-fe/",
    "category": "Bengali-speaking Commercial cleaning in New-Mexico",
    "description": "Offers professional commercial cleaning and janitorial services in Santa Fe, focusing on maintaining business appearance and prioritizing health and safety",
    "hours": "Mon-Fri 9AM-6PM",
    "services": [
      "Bengali-speaking Commercial cleaning in New-Mexico consultation",
      "Professional service",
      "Quality guarantee"
    ],
    "social_links": {}
  },
  {
    "name": "Vanguard Cleaning Systems of New Mexico",
    "address": "5400 Gibson Blvd SE, Albuquerque, NM 87108",
    "phone": "(505) 796-4450",
    "rating": 4.6,
    "reviews": 25,
    "website": "https://vanguardcleaning.com/new-mexico/",
    "category": "Bengali-speaking Commercial cleaning in New-Mexico",
    "description": "Independent janitorial franchise businesses providing commercial cleaning and disinfection services throughout the Albuquerque-Rio Rancho metropolitan area and Santa Fe",
    "hours": "Mon-Fri 9AM-6PM",
    "services": [
      "Bengali-speaking Commercial cleaning in New-Mexico consultation",
      "Professional service",
      "Quality guarantee"
    ],
    "social_links": {}
  },
  {
    "name": "The Pro's Commercial Cleaning, LLC",
    "address": "6001 4th St NW, Albuquerque, NM 87107",
    "phone": "(505) 305-4687",
    "rating": 4.9,
    "reviews": 25,
    "website": "https://theproscleaningnm.com/",
    "category": "Bengali-speaking Commercial cleaning in New-Mexico",
    "description": "A commercial cleaning contractor serving the Albuquerque area since 2014, offering janitorial services, disinfection, and window cleaning with quality products",
    "hours": "Mon-Fri 9AM-6PM",
    "services": [
      "Bengali-speaking Commercial cleaning in New-Mexico consultation",
      "Professional service",
      "Quality guarantee"
    ],
    "social_links": {}
  },
  {
    "name": "Panoptic Clean, LLC",
    "address": "3401 Candelaria Rd NE, Albuquerque, NM 87107",
    "phone": "(505) 407-1000",
    "rating": 4.7,
    "reviews": 25,
    "website": "https://panopticclean.com/",
    "category": "Bengali-speaking Commercial cleaning in New-Mexico",
    "description": "Provides janitorial and commercial cleaning services throughout New Mexico, using EPA-approved products and CDC recommendations. They were an official vendor for the Albuquerque Balloon Fiesta",
    "hours": "Mon-Fri 9AM-6PM",
    "services": [
      "Bengali-speaking Commercial cleaning in New-Mexico consultation",
      "Professional service",
      "Quality guarantee"
    ],
    "social_links": {}
  },
  {
    "name": "Green Sweep",
    "address": "10000 Copper Ave NE, Albuquerque, NM 87123",
    "phone": "(505) 414-7887",
    "rating": 4.8,
    "reviews": 25,
    "website": "https://greensweepnm.com/",
    "category": "Bengali-speaking Commercial cleaning in New-Mexico",
    "description": "Offers reliable commercial and office cleaning services in Albuquerque, including daily, weekly, or monthly cleaning, and sanitizing services using EPA-registered disinfectants",
    "hours": "Mon-Fri 9AM-6PM",
    "services": [
      "Bengali-speaking Commercial cleaning in New-Mexico consultation",
      "Professional service",
      "Quality guarantee"
    ],
    "social_links": {}
  },
  {
    "name": "K & L Cleaning Specialists",
    "address": "7001 4th St NW, Albuquerque, NM 87107",
    "phone": "(505) 890-7790",
    "rating": 4.9,
    "reviews": 25,
    "website": "https://klcleaningspecialists.com/",
    "category": "Bengali-speaking Commercial cleaning in New-Mexico",
    "description": "Provides commercial cleaning, janitorial services, and floor refinishing to businesses, churches, daycares, and medical facilities in the Greater Albuquerque and Santa Fe areas since 1996",
    "hours": "Mon-Fri 9AM-6PM",
    "services": [
      "Bengali-speaking Commercial cleaning in New-Mexico consultation",
      "Professional service",
      "Quality guarantee"
    ],
    "social_links": {}
  },
  {
    "name": "Clean Team Albuquerque",
    "address": "5015 Prospect Ave., Albuquerque, NM 87110",
    "phone": "(505) 888-5130",
    "rating": 4.7,
    "reviews": 25,
    "website": "https://cleanteamusa.com/locations/albuquerque/",
    "category": "Bengali-speaking Commercial cleaning in New-Mexico",
    "description": "Offers professional commercial cleaning and janitorial services in Albuquerque, focusing on maintaining business appearance and prioritizing health and safety, including advanced electrostatic disinfection services",
    "hours": "Mon-Fri 9AM-6PM",
    "services": [
      "Bengali-speaking Commercial cleaning in New-Mexico consultation",
      "Professional service",
      "Quality guarantee"
    ],
    "social_links": {}
  },
  {
    "name": "QMI New Mexico",
    "address": "4001 Carlisle Blvd NE, Albuquerque, NM 87107",
    "phone": "(505) 884-4552",
    "rating": 4.9,
    "reviews": 25,
    "website": "https://qminewmexico.com/",
    "category": "Bengali-speaking Commercial cleaning in New-Mexico",
    "description": "Provides affordable and reliable janitorial, commercial cleaning, and disinfection services in Albuquerque, specializing in commercial facilities over 20,000 sq. feet",
    "hours": "Mon-Fri 9AM-6PM",
    "services": [
      "Bengali-speaking Commercial cleaning in New-Mexico consultation",
      "Professional service",
      "Quality guarantee"
    ],
    "social_links": {}
  }
]