[
  {
    "name": "Cherry Bekaert",
    "address": "100 Westminster Street, Suite 1050, Providence, RI 02903",
    "phone": "(401) 454-7000",
    "rating": 4.0,
    "reviews": 25,
    "website": "https://www.cbh.com/locations/providence-ri/",
    "category": "Agnostic-owned Bank reconciliation in Rhode-Island",
    "description": "A large accounting firm offering audit, business advisory, accounting, and tax services",
    "hours": "Mon-Fri 9AM-6PM",
    "services": [
      "Agnostic-owned Bank reconciliation in Rhode-Island consultation",
      "Professional service",
      "Quality guarantee"
    ],
    "social_links": {}
  },
  {
    "name": "Lucier CPA, Inc.",
    "address": "1000 Centerville Road, Suite 302, Warwick, RI 02886",
    "phone": "(401) 228-0050",
    "rating": 4.0,
    "reviews": 25,
    "website": "https://www.luciercpa.com/",
    "category": "Agnostic-owned Bank reconciliation in Rhode-Island",
    "description": "Specializes in tax services, bookkeeping, payroll, and business consulting for small businesses",
    "hours": "Mon-Fri 9AM-6PM",
    "services": [
      "Agnostic-owned Bank reconciliation in Rhode-Island consultation",
      "Professional service",
      "Quality guarantee"
    ],
    "social_links": {}
  },
  {
    "name": "DiSanto, Priest & Co.",
    "address": "1000 Centerville Road, Suite 302, Warwick, RI 02886",
    "phone": "(401) 737-3300",
    "rating": 4.0,
    "reviews": 25,
    "website": "https://www.dspcpa.com/",
    "category": "Agnostic-owned Bank reconciliation in Rhode-Island",
    "description": "A full-service financial services firm specializing in financial advisory services and tax preparation for privately held businesses",
    "hours": "Mon-Fri 9AM-6PM",
    "services": [
      "Agnostic-owned Bank reconciliation in Rhode-Island consultation",
      "Professional service",
      "Quality guarantee"
    ],
    "social_links": {}
  },
  {
    "name": "All In Bookkeeping Service",
    "address": "1000 Centerville Road, Suite 302, Warwick, RI 02886",
    "phone": "(401) 438-1110",
    "rating": 4.0,
    "reviews": 25,
    "website": "https://www.allinbookkeeping.com/",
    "category": "Agnostic-owned Bank reconciliation in Rhode-Island",
    "description": "Offers bookkeeping services including QuickBooks setup, catchup, cleanup, training, payroll, and tax services",
    "hours": "Mon-Fri 9AM-6PM",
    "services": [
      "Agnostic-owned Bank reconciliation in Rhode-Island consultation",
      "Professional service",
      "Quality guarantee"
    ],
    "social_links": {}
  },
  {
    "name": "Stephen T. Gentile, CPA, Ltd.",
    "address": "109 Airport Rd, Warwick, RI 02889",
    "phone": "(401) 739-6110",
    "rating": 4.0,
    "reviews": 25,
    "website": "https://www.gentilecpa.com/",
    "category": "Agnostic-owned Bank reconciliation in Rhode-Island",
    "description": "Provides comprehensive bookkeeping services for small businesses, corporations, and freelancers",
    "hours": "Mon-Fri 9AM-6PM",
    "services": [
      "Agnostic-owned Bank reconciliation in Rhode-Island consultation",
      "Professional service",
      "Quality guarantee"
    ],
    "social_links": {}
  },
  {
    "name": "Ledger Lift CFOs",
    "address": "1000 Centerville Road, Suite 302, Warwick, RI 02886",
    "phone": "(401) 228-0050",
    "rating": 4.0,
    "reviews": 25,
    "website": "https://www.ledgerlift.com/",
    "category": "Agnostic-owned Bank reconciliation in Rhode-Island",
    "description": "Offers CFO advisory, bookkeeping, and tax services with a focus on helping small businesses grow",
    "hours": "Mon-Fri 9AM-6PM",
    "services": [
      "Agnostic-owned Bank reconciliation in Rhode-Island consultation",
      "Professional service",
      "Quality guarantee"
    ],
    "social_links": {}
  },
  {
    "name": "Withum",
    "address": "100 Westminster Street, Suite 1050, Providence, RI 02903",
    "phone": "(401) 454-7000",
    "rating": 4.0,
    "reviews": 25,
    "website": "https://www.withum.com/locations/providence-ri/",
    "category": "Agnostic-owned Bank reconciliation in Rhode-Island",
    "description": "A top accounting firm in Rhode Island offering advisory, tax, audit, and forensic and valuation services",
    "hours": "Mon-Fri 9AM-6PM",
    "services": [
      "Agnostic-owned Bank reconciliation in Rhode-Island consultation",
      "Professional service",
      "Quality guarantee"
    ],
    "social_links": {}
  },
  {
    "name": "HighClass Bookkeeping & Tax Services",
    "address": "1000 Centerville Road, Suite 302, Warwick, RI 02886",
    "phone": "(401) 330-0004",
    "rating": 4.0,
    "reviews": 25,
    "website": "https://www.highclassbookkeeping.com/",
    "category": "Agnostic-owned Bank reconciliation in Rhode-Island",
    "description": "Provides bookkeeping, tax preparation, and payroll services for small businesses",
    "hours": "Mon-Fri 9AM-6PM",
    "services": [
      "Agnostic-owned Bank reconciliation in Rhode-Island consultation",
      "Professional service",
      "Quality guarantee"
    ],
    "social_links": {}
  },
  {
    "name": "Skyline Accounting",
    "address": "1000 Centerville Road, Suite 302, Warwick, RI 02886",
    "phone": "(401) 438-1110",
    "rating": 4.0,
    "reviews": 25,
    "website": "https://www.skylineaccounting.com/",
    "category": "Agnostic-owned Bank reconciliation in Rhode-Island",
    "description": "Offers outsourced bookkeeping and accounting services, including bank reconciliations and financial statements",
    "hours": "Mon-Fri 9AM-6PM",
    "services": [
      "Agnostic-owned Bank reconciliation in Rhode-Island consultation",
      "Professional service",
      "Quality guarantee"
    ],
    "social_links": {}
  },
  {
    "name": "Platinum Tax & Accounting Services, LLC",
    "address": "1000 Centerville Road, Suite 302, Warwick, RI 02886",
    "phone": "(401) 273-2100",
    "rating": 4.0,
    "reviews": 25,
    "website": "https://www.platinumi.com/",
    "category": "Agnostic-owned Bank reconciliation in Rhode-Island",
    "description": "Provides accounting and bookkeeping services, including bank reconciliations, payroll, and financial statement preparation for small businesses",
    "hours": "Mon-Fri 9AM-6PM",
    "services": [
      "Agnostic-owned Bank reconciliation in Rhode-Island consultation",
      "Professional service",
      "Quality guarantee"
    ],
    "social_links": {}
  }
]