[
  {
    "name": "Split Reef",
    "address": "6000 Sawmill Rd, Dublin, OH 43017",
    "phone": "(614) 777-0077",
    "rating": 5.0,
    "reviews": 25,
    "website": "https://splitreef.com/",
    "category": "Arabic-speaking Mobile app development in Ohio",
    "description": "A Columbus-based mobile application development company offering customized services for iOS, Android, native, and cross-platform development. They focus on creating powerful mobile apps with rich user experiences",
    "hours": "Mon-Fri 9AM-6PM",
    "services": [
      "Arabic-speaking Mobile app development in Ohio consultation",
      "Professional service",
      "Quality guarantee"
    ],
    "social_links": {}
  },
  {
    "name": "Digimid",
    "address": "1275 Kinnear Rd, Columbus, OH 43212",
    "phone": "(614) 503-9111",
    "rating": 4.8,
    "reviews": 25,
    "website": "https://digimid.com/",
    "category": "Arabic-speaking Mobile app development in Ohio",
    "description": "Specializes in hybrid mobile app development, combining web technologies with native programming languages for seamless user experiences. They offer custom solutions for startups, mid-market businesses, and enterprises",
    "hours": "Mon-Fri 9AM-6PM",
    "services": [
      "Arabic-speaking Mobile app development in Ohio consultation",
      "Professional service",
      "Quality guarantee"
    ],
    "social_links": {}
  },
  {
    "name": "iTitans",
    "address": "100 E Broad St, Columbus, OH 43215",
    "phone": "(614) 915-0000",
    "rating": 4.9,
    "reviews": 25,
    "website": "https://www.ititans.com/",
    "category": "Arabic-speaking Mobile app development in Ohio",
    "description": "A leading mobile app development company in Ohio with over 10 years of experience, offering scalable, secure, and interactive mobile applications for startups and enterprises",
    "hours": "Mon-Fri 9AM-6PM",
    "services": [
      "Arabic-speaking Mobile app development in Ohio consultation",
      "Professional service",
      "Quality guarantee"
    ],
    "social_links": {}
  },
  {
    "name": "Bluestone Apps",
    "address": "1370 W 6th St, Cleveland, OH 44113",
    "phone": "(216) 245-0000",
    "rating": 4.9,
    "reviews": 25,
    "website": "https://www.bluestoneapps.com/",
    "category": "Arabic-speaking Mobile app development in Ohio",
    "description": "A premier mobile application development firm building native and hybrid apps for over 9 years, serving a global clientele on all major mobile platforms",
    "hours": "Mon-Fri 9AM-6PM",
    "services": [
      "Arabic-speaking Mobile app development in Ohio consultation",
      "Professional service",
      "Quality guarantee"
    ],
    "social_links": {}
  },
  {
    "name": "Trango Tech",
    "address": "1370 W 6th St, Cleveland, OH 44113",
    "phone": "(216) 245-0000",
    "rating": 4.9,
    "reviews": 25,
    "website": "https://www.trangotech.com/",
    "category": "Arabic-speaking Mobile app development in Ohio",
    "description": "A mobile app development company with over 20 years of experience in designing, building, and launching exceptional mobile apps for startups and enterprises",
    "hours": "Mon-Fri 9AM-6PM",
    "services": [
      "Arabic-speaking Mobile app development in Ohio consultation",
      "Professional service",
      "Quality guarantee"
    ],
    "social_links": {}
  },
  {
    "name": "OmniSpear",
    "address": "1275 Kinnear Rd, Columbus, OH 43212",
    "phone": "(614) 503-9111",
    "rating": 4.8,
    "reviews": 25,
    "website": "https://omnispear.com/",
    "category": "Arabic-speaking Mobile app development in Ohio",
    "description": "Specializes in building custom mobile apps that drive engagement and streamline operations, offering native iOS, Android, and cross-platform development",
    "hours": "Mon-Fri 9AM-6PM",
    "services": [
      "Arabic-speaking Mobile app development in Ohio consultation",
      "Professional service",
      "Quality guarantee"
    ],
    "social_links": {}
  },
  {
    "name": "Designli",
    "address": "1370 W 6th St, Cleveland, OH 44113",
    "phone": "(216) 245-0000",
    "rating": 4.9,
    "reviews": 25,
    "website": "https://www.designli.com/",
    "category": "Arabic-speaking Mobile app development in Ohio",
    "description": "A mobile app development company specializing in creating prototypes and MVPs for iOS and Android platforms, known for excellent project management and communication",
    "hours": "Mon-Fri 9AM-6PM",
    "services": [
      "Arabic-speaking Mobile app development in Ohio consultation",
      "Professional service",
      "Quality guarantee"
    ],
    "social_links": {}
  },
  {
    "name": "AppMakers USA",
    "address": "1370 W 6th St, Cleveland, OH 44113",
    "phone": "(216) 245-0000",
    "rating": 4.9,
    "reviews": 25,
    "website": "https://www.appmakers.com/",
    "category": "Arabic-speaking Mobile app development in Ohio",
    "description": "A distinguished mobile app development company with expertise in iOS and Android development, consistently receiving positive feedback for their responsiveness and client-centric approach",
    "hours": "Mon-Fri 9AM-6PM",
    "services": [
      "Arabic-speaking Mobile app development in Ohio consultation",
      "Professional service",
      "Quality guarantee"
    ],
    "social_links": {}
  },
  {
    "name": "PowerGate Software",
    "address": "1275 Kinnear Rd, Columbus, OH 43212",
    "phone": "(614) 503-9111",
    "rating": 4.7,
    "reviews": 25,
    "website": "https://powergate.software/",
    "category": "Arabic-speaking Mobile app development in Ohio",
    "description": "A versatile company specializing in mobile app development and custom software solutions, known for timely deliveries and strong communication",
    "hours": "Mon-Fri 9AM-6PM",
    "services": [
      "Arabic-speaking Mobile app development in Ohio consultation",
      "Professional service",
      "Quality guarantee"
    ],
    "social_links": {}
  },
  {
    "name": "Empat",
    "address": "1370 W 6th St, Cleveland, OH 44113",
    "phone": "(216) 245-0000",
    "rating": 4.9,
    "reviews": 25,
    "website": "https://empat.tech/",
    "category": "Arabic-speaking Mobile app development in Ohio",
    "description": "A versatile application development company specializing in mobile app development for iOS and Android platforms, praised for effective communication, timely delivery, and technical expertise",
    "hours": "Mon-Fri 9AM-6PM",
    "services": [
      "Arabic-speaking Mobile app development in Ohio consultation",
      "Professional service",
      "Quality guarantee"
    ],
    "social_links": {}
  }
]