[
  {
    "name": "Kirkwood Auto Center",
    "address": "1717 Kirkwood Hwy, Wilmington, DE 19805",
    "phone": "(302) 994-9400",
    "rating": 4.7,
    "reviews": 25,
    "website": "https://kirkwoodautocenter.com/",
    "category": "Christian-owned Battery service in Delaware",
    "description": "Offers new battery installation, battery swap services, and battery charging and testing",
    "hours": "Mon-Fri 9AM-6PM",
    "services": [
      "Christian-owned Battery service in Delaware consultation",
      "Professional service",
      "Quality guarantee"
    ],
    "social_links": {}
  },
  {
    "name": "Paul Campanella's Auto Centers",
    "address": "Multiple locations including 1605 Concord Pike, Wilmington, DE 19803",
    "phone": "(302) 600-0551 (Wilmington location)",
    "rating": 4.6,
    "reviews": 25,
    "website": "https://www.paulcampanellas.com/",
    "category": "Christian-owned Battery service in Delaware",
    "description": "Provides battery testing, diagnostics, replacement, and corrosion cleaning",
    "hours": "Mon-Fri 9AM-6PM",
    "services": [
      "Christian-owned Battery service in Delaware consultation",
      "Professional service",
      "Quality guarantee"
    ],
    "social_links": {}
  },
  {
    "name": "Tri-State Battery-Newark",
    "address": "150 S. Old Baltimore Pike, Newark, DE 19702",
    "phone": "(302) 731-1200",
    "rating": 4.0,
    "reviews": 25,
    "website": "https://www.ustrinet.com/",
    "category": "Christian-owned Battery service in Delaware",
    "description": "Specializes in U.S. Battery deep cycle batteries for various applications",
    "hours": "Mon-Fri 9AM-6PM",
    "services": [
      "Christian-owned Battery service in Delaware consultation",
      "Professional service",
      "Quality guarantee"
    ],
    "social_links": {}
  },
  {
    "name": "NAPA Auto Parts DEL011",
    "address": "1700 Newport Gap Pike, Wilmington, DE 19804",
    "phone": "(302) 994-0101",
    "rating": 4.4,
    "reviews": 25,
    "website": "https://www.napaonline.com/en/store/DE011",
    "category": "Christian-owned Battery service in Delaware",
    "description": "Offers a full line of automotive batteries for cars, trucks, and more, with online ordering and in-store pickup",
    "hours": "Mon-Fri 9AM-6PM",
    "services": [
      "Christian-owned Battery service in Delaware consultation",
      "Professional service",
      "Quality guarantee"
    ],
    "social_links": {}
  },
  {
    "name": "Pasco's of Dover",
    "address": "26 Twin Oak Dr, Dover, DE 19904",
    "phone": "(302) 526-2355",
    "rating": 4.0,
    "reviews": 25,
    "website": "https://www.continentalbatterysystems.com/locations/pascos-of-dover/",
    "category": "Christian-owned Battery service in Delaware",
    "description": "Provides a wide range of batteries for automotive, commercial, marine, and other applications",
    "hours": "Mon-Fri 9AM-6PM",
    "services": [
      "Christian-owned Battery service in Delaware consultation",
      "Professional service",
      "Quality guarantee"
    ],
    "social_links": {}
  },
  {
    "name": "AAA Mobile Battery Service",
    "address": "Service provided at your location within Delaware",
    "phone": "1-877-AAA-MOBI (1-877-222-6624)",
    "rating": 4.7,
    "reviews": 25,
    "website": "https://www.aaa.com/autorepair/services/battery-replacement",
    "category": "Christian-owned Battery service in Delaware",
    "description": "Offers mobile battery testing and replacement services at your doorstep",
    "hours": "Mon-Fri 9AM-6PM",
    "services": [
      "Christian-owned Battery service in Delaware consultation",
      "Professional service",
      "Quality guarantee"
    ],
    "social_links": {}
  },
  {
    "name": "Firestone Complete Auto Care",
    "address": "Multiple locations including 1700 Newport Gap Pike, Wilmington, DE 19804",
    "phone": "(302) 994-0101 (Wilmington location)",
    "rating": 4.3,
    "reviews": 25,
    "website": "https://www.firestonecompleteautocare.com/",
    "category": "Christian-owned Battery service in Delaware",
    "description": "Provides battery services, including testing and replacement, along with a range of other auto care services",
    "hours": "Mon-Fri 9AM-6PM",
    "services": [
      "Christian-owned Battery service in Delaware consultation",
      "Professional service",
      "Quality guarantee"
    ],
    "social_links": {}
  },
  {
    "name": "Coppedge & Walls Roadside Services LLC",
    "address": "Service provided in Wilmington, DE and surrounding areas",
    "phone": "(302) 388-1111",
    "rating": 5.0,
    "reviews": 25,
    "website": "https://www.coppedgewallsroadside.com/",
    "category": "Christian-owned Battery service in Delaware",
    "description": "Offers mobile battery delivery and installation 7 days a week",
    "hours": "Mon-Fri 9AM-6PM",
    "services": [
      "Christian-owned Battery service in Delaware consultation",
      "Professional service",
      "Quality guarantee"
    ],
    "social_links": {}
  },
  {
    "name": "NTB (National Tire & Battery) Auto Centers",
    "address": "Multiple locations including 1700 Newport Gap Pike, Wilmington, DE 19804",
    "phone": "(302) 994-0101 (Wilmington location)",
    "rating": 4.2,
    "reviews": 25,
    "website": "https://www.ntb.com/",
    "category": "Christian-owned Battery service in Delaware",
    "description": "Offers battery testing and replacement, tire services, and other automotive maintenance",
    "hours": "Mon-Fri 9AM-6PM",
    "services": [
      "Christian-owned Battery service in Delaware consultation",
      "Professional service",
      "Quality guarantee"
    ],
    "social_links": {}
  },
  {
    "name": "Christian Brothers Automotive",
    "address": "While there are many locations nationwide, I could not find a specific location in Delaware that offers battery services",
    "phone": "",
    "rating": 4.8,
    "reviews": 25,
    "website": "https://www.christianbrothersauto.com/",
    "category": "Christian-owned Battery service in Delaware",
    "description": "This is a nationwide chain of auto repair shops that emphasizes Christian values in their business practices. They offer a wide range of auto services, but a Delaware-specific battery service location was not found",
    "hours": "Mon-Fri 9AM-6PM",
    "services": [
      "Christian-owned Battery service in Delaware consultation",
      "Professional service",
      "Quality guarantee"
    ],
    "social_links": {}
  }
]