[
  {
    "name": "Omega Group Advertising Agency",
    "address": "1077 E County Line Rd, Jackson, MS 39211",
    "phone": "(601) 957-3300",
    "rating": 4.0,
    "reviews": 25,
    "website": "http://omegagrp.com/",
    "category": "Asian-owned Media relations in Mississippi",
    "description": "Develops brands and creates strategies to distinguish clients from the competition. Utilizes online digital advertising and website development",
    "hours": "Mon-Fri 9AM-6PM",
    "services": [
      "Asian-owned Media relations in Mississippi consultation",
      "Professional service",
      "Quality guarantee"
    ],
    "social_links": {}
  },
  {
    "name": "The Prime Time Agency",
    "address": "100 E Beach Blvd, Long Beach, MS 39560",
    "phone": "(228) 206-1777",
    "rating": 4.0,
    "reviews": 25,
    "website": "https://theprimetimeagency.com/",
    "category": "Asian-owned Media relations in Mississippi",
    "description": "Offers strategic marketing, creative design, and political advertising expertise to help brands grow and succeed with tailored solutions",
    "hours": "Mon-Fri 9AM-6PM",
    "services": [
      "Asian-owned Media relations in Mississippi consultation",
      "Professional service",
      "Quality guarantee"
    ],
    "social_links": {}
  },
  {
    "name": "Future Design Group",
    "address": "2419 19th St, Gulfport, MS 39501",
    "phone": "(228) 206-1777",
    "rating": 4.0,
    "reviews": 25,
    "website": "https://www.futuredesigngroup.net/",
    "category": "Asian-owned Media relations in Mississippi",
    "description": "A digital marketing studio that creates innovative branding and digital marketing experiences, focusing on storytelling",
    "hours": "Mon-Fri 9AM-6PM",
    "services": [
      "Asian-owned Media relations in Mississippi consultation",
      "Professional service",
      "Quality guarantee"
    ],
    "social_links": {}
  },
  {
    "name": "Raborn Media",
    "address": "110 W Jackson St, Madison, MS 39110",
    "phone": "(601) 898-0000",
    "rating": 4.0,
    "reviews": 25,
    "website": "https://rabornmedia.com/",
    "category": "Asian-owned Media relations in Mississippi",
    "description": "A full-service marketing firm offering digital advertising, web development, video production, social media management, public relations, and more",
    "hours": "Mon-Fri 9AM-6PM",
    "services": [
      "Asian-owned Media relations in Mississippi consultation",
      "Professional service",
      "Quality guarantee"
    ],
    "social_links": {}
  },
  {
    "name": "Maris, West & Baker (MWB)",
    "address": "500 E Amite St, Jackson, MS 39201",
    "phone": "(601) 948-0077",
    "rating": 4.0,
    "reviews": 25,
    "website": "https://www.mwb.com/",
    "category": "Asian-owned Media relations in Mississippi",
    "description": "A full-service creative agency specializing in advertising, marketing strategy, digital media, public relations, and social media marketing",
    "hours": "Mon-Fri 9AM-6PM",
    "services": [
      "Asian-owned Media relations in Mississippi consultation",
      "Professional service",
      "Quality guarantee"
    ],
    "social_links": {}
  },
  {
    "name": "The Cirlot Agency",
    "address": "426 E State St, Jackson, MS 39201",
    "phone": "(601) 354-4744",
    "rating": 4.0,
    "reviews": 25,
    "website": "https://www.thecirlotagency.com/",
    "category": "Asian-owned Media relations in Mississippi",
    "description": "Specializes in global brand strategy, integrated communications, and business development, with a focus on defense, aerospace, government, corporate, and technology sectors",
    "hours": "Mon-Fri 9AM-6PM",
    "services": [
      "Asian-owned Media relations in Mississippi consultation",
      "Professional service",
      "Quality guarantee"
    ],
    "social_links": {}
  },
  {
    "name": "Fahrenheit Creative Group, LLC",
    "address": "111 E Capitol St, Jackson, MS 39201",
    "phone": "(601) 948-3211",
    "rating": 4.0,
    "reviews": 25,
    "website": "https://www.fahrenheitcreative.com/",
    "category": "Asian-owned Media relations in Mississippi",
    "description": "A full-service marketing communications firm developing strategic communications plans and creative designs, with a focus on equity, justice, and community",
    "hours": "Mon-Fri 9AM-6PM",
    "services": [
      "Asian-owned Media relations in Mississippi consultation",
      "Professional service",
      "Quality guarantee"
    ],
    "social_links": {}
  },
  {
    "name": "KD Public Relations",
    "address": "411 N Commerce St, Natchez, MS 39120",
    "phone": "(601) 445-3300",
    "rating": 4.0,
    "reviews": 25,
    "website": "https://kdpublicrelations.com/",
    "category": "Asian-owned Media relations in Mississippi",
    "description": "A boutique PR agency specializing in brand and reputation management, media relations, and strategic communication, notably as Mississippi's only mental health-focused PR agency",
    "hours": "Mon-Fri 9AM-6PM",
    "services": [
      "Asian-owned Media relations in Mississippi consultation",
      "Professional service",
      "Quality guarantee"
    ],
    "social_links": {}
  },
  {
    "name": "Liquid Creative",
    "address": "100 E Amite St, Jackson, MS 39201",
    "phone": "(601) 354-0770",
    "rating": 4.0,
    "reviews": 25,
    "website": "https://www.liquidcreative.net/",
    "category": "Asian-owned Media relations in Mississippi",
    "description": "An advertising company offering advertising and graphic design services",
    "hours": "Mon-Fri 9AM-6PM",
    "services": [
      "Asian-owned Media relations in Mississippi consultation",
      "Professional service",
      "Quality guarantee"
    ],
    "social_links": {}
  },
  {
    "name": "DACO LLC",
    "address": "1000 5th Ave N, Columbus, MS 39701",
    "phone": "(662) 328-1000",
    "rating": 4.0,
    "reviews": 25,
    "website": "https://www.dacolllc.com/",
    "category": "Asian-owned Media relations in Mississippi",
    "description": "A branding agency offering branding and public relations services",
    "hours": "Mon-Fri 9AM-6PM",
    "services": [
      "Asian-owned Media relations in Mississippi consultation",
      "Professional service",
      "Quality guarantee"
    ],
    "social_links": {}
  }
]