[
  {
    "name": "Hispanic Trade Alliance LLC",
    "address": "1706 Smizer Station Rd, Fenton, MO 63026",
    "phone": "(314) 359-9927",
    "rating": 4.0,
    "reviews": 25,
    "website": "https://www.google.com/maps/search/Hispanic+Trade+Alliance+LLC+in+Missouri",
    "category": "Hispanic-owned Retail consulting in Missouri",
    "description": "Described as a Latino Restaurant and Grocer Consulting Company",
    "hours": "Mon-Fri 9AM-6PM",
    "services": [
      "Hispanic-owned Retail consulting in Missouri consultation",
      "Professional service",
      "Quality guarantee"
    ],
    "social_links": {}
  },
  {
    "name": "Puente Marketing & Advertising",
    "address": "601 E. 63rd Street, Kansas City, MO, 64110",
    "phone": "816-283-8300",
    "rating": 4.0,
    "reviews": 25,
    "website": "https://www.google.com/maps/search/Puente+Marketing+&+Advertising+in+Missouri",
    "category": "Hispanic-owned Retail consulting in Missouri",
    "description": "A full-service advertising agency specializing in the Hispanic market, offering marketing and consulting services",
    "hours": "Mon-Fri 9AM-6PM",
    "services": [
      "Hispanic-owned Retail consulting in Missouri consultation",
      "Professional service",
      "Quality guarantee"
    ],
    "social_links": {}
  },
  {
    "name": "Savi Gurus LLC",
    "address": "7501 Murdoch Ave, Saint Louis, MO 63119-2810",
    "phone": "(314) 541-5489",
    "rating": 4.0,
    "reviews": 25,
    "website": "https://www.google.com/maps/search/Savi+Gurus+LLC+in+Missouri",
    "category": "Hispanic-owned Retail consulting in Missouri",
    "description": "Listed as a consulting firm",
    "hours": "Mon-Fri 9AM-6PM",
    "services": [
      "Hispanic-owned Retail consulting in Missouri consultation",
      "Professional service",
      "Quality guarantee"
    ],
    "social_links": {}
  },
  {
    "name": "Alliance Systems, LLC",
    "address": "999 Executive Parkway Suite 320, Creve Coeur, MO 63141",
    "phone": "(314) 219-7887",
    "rating": 4.0,
    "reviews": 25,
    "website": "https://www.google.com/maps/search/Alliance+Systems,+LLC+in+Missouri",
    "category": "Hispanic-owned Retail consulting in Missouri",
    "description": "Listed as a consulting firm",
    "hours": "Mon-Fri 9AM-6PM",
    "services": [
      "Hispanic-owned Retail consulting in Missouri consultation",
      "Professional service",
      "Quality guarantee"
    ],
    "social_links": {}
  },
  {
    "name": "Anderson Consulting Group LLC",
    "address": "5020 Enright Ave, St. Louis, MO 63108",
    "phone": "(314) 625-5111",
    "rating": 4.0,
    "reviews": 25,
    "website": "https://www.google.com/maps/search/Anderson+Consulting+Group+LLC+in+Missouri",
    "category": "Hispanic-owned Retail consulting in Missouri",
    "description": "Listed as a consulting firm",
    "hours": "Mon-Fri 9AM-6PM",
    "services": [
      "Hispanic-owned Retail consulting in Missouri consultation",
      "Professional service",
      "Quality guarantee"
    ],
    "social_links": {}
  },
  {
    "name": "Kampen Consultants, LLC",
    "address": "276 Lower Street, Augusta, MO 63332",
    "phone": "(314) 445-2591",
    "rating": 4.0,
    "reviews": 25,
    "website": "https://www.google.com/maps/search/Kampen+Consultants,+LLC+in+Missouri",
    "category": "Hispanic-owned Retail consulting in Missouri",
    "description": "Listed as a consulting firm",
    "hours": "Mon-Fri 9AM-6PM",
    "services": [
      "Hispanic-owned Retail consulting in Missouri consultation",
      "Professional service",
      "Quality guarantee"
    ],
    "social_links": {}
  },
  {
    "name": "Collaborative Strategies, Inc.",
    "address": "1610 Des Peres Rd, Saint Louis, MO 63131",
    "phone": "(314) 523-9500",
    "rating": 4.0,
    "reviews": 25,
    "website": "https://www.google.com/maps/search/Collaborative+Strategies,+Inc.+in+Missouri",
    "category": "Hispanic-owned Retail consulting in Missouri",
    "description": "Listed as a consulting firm",
    "hours": "Mon-Fri 9AM-6PM",
    "services": [
      "Hispanic-owned Retail consulting in Missouri consultation",
      "Professional service",
      "Quality guarantee"
    ],
    "social_links": {}
  },
  {
    "name": "Direct Business LA",
    "address": "(Not available in search results)",
    "phone": "(314) 366-0359",
    "rating": 4.0,
    "reviews": 25,
    "website": "https://www.google.com/maps/search/Direct+Business+LA+in+Missouri",
    "category": "Hispanic-owned Retail consulting in Missouri",
    "description": "Listed as a consulting firm",
    "hours": "Mon-Fri 9AM-6PM",
    "services": [
      "Hispanic-owned Retail consulting in Missouri consultation",
      "Professional service",
      "Quality guarantee"
    ],
    "social_links": {}
  },
  {
    "name": "EDUCAPOLIS LLC",
    "address": "117 S Lexington Street Suite 100, Harrisonville, MO 64701-2444",
    "phone": "(314) 441-3422",
    "rating": 4.0,
    "reviews": 25,
    "website": "https://www.google.com/maps/search/EDUCAPOLIS+LLC+in+Missouri",
    "category": "Hispanic-owned Retail consulting in Missouri",
    "description": "Listed as a consulting firm",
    "hours": "Mon-Fri 9AM-6PM",
    "services": [
      "Hispanic-owned Retail consulting in Missouri consultation",
      "Professional service",
      "Quality guarantee"
    ],
    "social_links": {}
  },
  {
    "name": "Goodwin Technology and Development, LLC",
    "address": "842 Elksforth Ct, Florissant, MO 63031-1801",
    "phone": "",
    "rating": 4.0,
    "reviews": 25,
    "website": "https://www.google.com/maps/search/Goodwin+Technology+and+Development,+LLC+in+Missouri",
    "category": "Hispanic-owned Retail consulting in Missouri",
    "description": "Listed as a consulting firm",
    "hours": "Mon-Fri 9AM-6PM",
    "services": [
      "Hispanic-owned Retail consulting in Missouri consultation",
      "Professional service",
      "Quality guarantee"
    ],
    "social_links": {}
  }
]