[
  {
    "name": "All-Dry of the Carolinas",
    "address": "432 Church Street, Laurens, SC 29360",
    "phone": "1-864-984-2308",
    "rating": 4.0,
    "reviews": 25,
    "website": "https://www.alldryofthecarolinas.com/",
    "category": "Black-owned Waterproofing in South-Carolina",
    "description": "Offers foundation repair, basement waterproofing, and crawl space repair services",
    "hours": "Mon-Fri 9AM-6PM",
    "services": [
      "Black-owned Waterproofing in South-Carolina consultation",
      "Professional service",
      "Quality guarantee"
    ],
    "social_links": {}
  },
  {
    "name": "Cantey Foundation Specialists",
    "address": "621 Rutledge Street, Camden, SC 29020",
    "phone": "(803) 432-7777",
    "rating": 4.0,
    "reviews": 25,
    "website": "https://www.canteyfoundation.com/",
    "category": "Black-owned Waterproofing in South-Carolina",
    "description": "Specializes in foundation repair and waterproofing solutions",
    "hours": "Mon-Fri 9AM-6PM",
    "services": [
      "Black-owned Waterproofing in South-Carolina consultation",
      "Professional service",
      "Quality guarantee"
    ],
    "social_links": {}
  },
  {
    "name": "Lowcountry Foundation and Crawl Space Repair",
    "address": "145 Commercial Ct, Rincon, GA 31326",
    "phone": "(912) 295-1250",
    "rating": 4.0,
    "reviews": 25,
    "website": "https://www.lowcountryfcr.com/",
    "category": "Black-owned Waterproofing in South-Carolina",
    "description": "Provides foundation and crawl space repair and waterproofing services",
    "hours": "Mon-Fri 9AM-6PM",
    "services": [
      "Black-owned Waterproofing in South-Carolina consultation",
      "Professional service",
      "Quality guarantee"
    ],
    "social_links": {}
  },
  {
    "name": "Best Home & Property Services",
    "address": "7364 Highway 90, Longs, SC 29568",
    "phone": "(843) 390-2121",
    "rating": 4.0,
    "reviews": 25,
    "website": "https://besthomeandpropertyservices.com/",
    "category": "Black-owned Waterproofing in South-Carolina",
    "description": "Offers a range of home improvement and property services, including waterproofing",
    "hours": "Mon-Fri 9AM-6PM",
    "services": [
      "Black-owned Waterproofing in South-Carolina consultation",
      "Professional service",
      "Quality guarantee"
    ],
    "social_links": {}
  },
  {
    "name": "Sedona Waterproofing Solutions",
    "address": "Fort Mill, SC (Service area includes Fort Mill, Rock Hill, Tega Cay, Indian Land, SC, and more)",
    "phone": "704-960-7906",
    "rating": 4.0,
    "reviews": 25,
    "website": "https://sedonawaterproofingsolutions.com/",
    "category": "Black-owned Waterproofing in South-Carolina",
    "description": "Provides basement waterproofing, crawl space repair, encapsulation, sump pump installation, and mold remediation",
    "hours": "Mon-Fri 9AM-6PM",
    "services": [
      "Black-owned Waterproofing in South-Carolina consultation",
      "Professional service",
      "Quality guarantee"
    ],
    "social_links": {}
  },
  {
    "name": "Final Tier Waterproofing LLC",
    "address": "Roebuck, SC 29376",
    "phone": "(864) 576-0000",
    "rating": 4.0,
    "reviews": 25,
    "website": "https://finaltierwaterproofing.com/",
    "category": "Black-owned Waterproofing in South-Carolina",
    "description": "Offers comprehensive waterproofing solutions for residential and commercial properties",
    "hours": "Mon-Fri 9AM-6PM",
    "services": [
      "Black-owned Waterproofing in South-Carolina consultation",
      "Professional service",
      "Quality guarantee"
    ],
    "social_links": {}
  },
  {
    "name": "Presto Restoration Products & Services",
    "address": "Columbia, SC and Charleston, SC",
    "phone": "1-800-693-1228",
    "rating": 4.0,
    "reviews": 25,
    "website": "https://prestoration.com/",
    "category": "Black-owned Waterproofing in South-Carolina",
    "description": "Specializes in commercial waterproofing services for various surfaces",
    "hours": "Mon-Fri 9AM-6PM",
    "services": [
      "Black-owned Waterproofing in South-Carolina consultation",
      "Professional service",
      "Quality guarantee"
    ],
    "social_links": {}
  },
  {
    "name": "Thompson Brothers",
    "address": "(Serves SC & NC)",
    "phone": "(800) 570-3787",
    "rating": 4.0,
    "reviews": 25,
    "website": "https://www.thompsonbrothers.us/",
    "category": "Black-owned Waterproofing in South-Carolina",
    "description": "Offers basement and crawlspace waterproofing, foundation repair, and pest control services",
    "hours": "Mon-Fri 9AM-6PM",
    "services": [
      "Black-owned Waterproofing in South-Carolina consultation",
      "Professional service",
      "Quality guarantee"
    ],
    "social_links": {}
  },
  {
    "name": "American Drain & Waterproofing, Inc.",
    "address": "(Locally owned and operated in South Carolina since 1982)",
    "phone": "(803) 794-7777",
    "rating": 4.0,
    "reviews": 25,
    "website": "https://www.americandrainandwaterproofing.com/",
    "category": "Black-owned Waterproofing in South-Carolina",
    "description": "Provides residential, commercial, and industrial drainage and waterproofing solutions",
    "hours": "Mon-Fri 9AM-6PM",
    "services": [
      "Black-owned Waterproofing in South-Carolina consultation",
      "Professional service",
      "Quality guarantee"
    ],
    "social_links": {}
  },
  {
    "name": "Black's Waterproofing",
    "address": "(Serves Atlanta, GA area, but may serve surrounding regions)",
    "phone": "770-489-2901",
    "rating": 4.0,
    "reviews": 25,
    "website": "https://www.blackswaterproofing.com/",
    "category": "Black-owned Waterproofing in South-Carolina",
    "description": "Offers basement and crawl space waterproofing, new construction waterproofing, and vapor barriers. While this business is Black-owned, it is primarily located in Georgia and may not serve South Carolina",
    "hours": "Mon-Fri 9AM-6PM",
    "services": [
      "Black-owned Waterproofing in South-Carolina consultation",
      "Professional service",
      "Quality guarantee"
    ],
    "social_links": {}
  }
]