[
  {
    "name": "Shahid Haque (Border Crossing Law Firm)",
    "address": "7 W 6th Ave, Suite 2A, Helena, MT 59601",
    "phone": "(888) 595-2004",
    "rating": 4.0,
    "reviews": 25,
    "website": "https://www.bcfirm.com/",
    "category": "Arabic-speaking Immigration law in Montana",
    "description": "Shahid Haque is an immigration attorney with over 20 years of experience, dedicated to advocating for immigrant rights. His firm handles a wide range of immigration matters, including visas, green cards, citizenship, and deportation defense",
    "hours": "Mon-Fri 9AM-6PM",
    "services": [
      "Arabic-speaking Immigration law in Montana consultation",
      "Professional service",
      "Quality guarantee"
    ],
    "social_links": {}
  },
  {
    "name": "Immigration Law of Montana, P.C.",
    "address": "Information not available through search",
    "phone": "",
    "rating": 4.0,
    "reviews": 25,
    "website": "https://www.immigrationlawofmontana.com/",
    "category": "Arabic-speaking Immigration law in Montana",
    "description": "This firm specializes in immigration and green card matters, serving clients across the Rocky Mountain states. They have 18 years of experience practicing exclusively immigration law",
    "hours": "Mon-Fri 9AM-6PM",
    "services": [
      "Arabic-speaking Immigration law in Montana consultation",
      "Professional service",
      "Quality guarantee"
    ],
    "social_links": {}
  },
  {
    "name": "River Mountain Immigration",
    "address": "Information not available through search",
    "phone": "",
    "rating": 4.0,
    "reviews": 25,
    "website": "https://www.rivermountainimmigration.com/",
    "category": "Arabic-speaking Immigration law in Montana",
    "description": "This boutique immigration law firm in Missoula focuses on family, sports immigration, and crimmigration. They serve clients in Montana, the Pacific Northwest, the U.S., and internationally",
    "hours": "Mon-Fri 9AM-6PM",
    "services": [
      "Arabic-speaking Immigration law in Montana consultation",
      "Professional service",
      "Quality guarantee"
    ],
    "social_links": {}
  },
  {
    "name": "Glacier Law Firm",
    "address": "Information not available through search",
    "phone": "",
    "rating": 4.0,
    "reviews": 25,
    "website": "https://www.glacierlaw.com/",
    "category": "Arabic-speaking Immigration law in Montana",
    "description": "Glacier Law Firm offers legal services for various immigration cases, emphasizing personalized attention and efficient case building",
    "hours": "Mon-Fri 9AM-6PM",
    "services": [
      "Arabic-speaking Immigration law in Montana consultation",
      "Professional service",
      "Quality guarantee"
    ],
    "social_links": {}
  },
  {
    "name": "Laird Cowley",
    "address": "Offices in Helena and Missoula, Montana. Specific addresses not provided in search results",
    "phone": "",
    "rating": 4.0,
    "reviews": 25,
    "website": "https://www.google.com/maps/search/Laird+Cowley+in+Montana",
    "category": "Arabic-speaking Immigration law in Montana",
    "description": "This law firm provides legal representation for a diverse range of immigration issues throughout Montana and surrounding states",
    "hours": "Mon-Fri 9AM-6PM",
    "services": [
      "Arabic-speaking Immigration law in Montana consultation",
      "Professional service",
      "Quality guarantee"
    ],
    "social_links": {}
  },
  {
    "name": "Moses O Okeyo",
    "address": "610 Woody Street, Missoula, MT 59802",
    "phone": "(208) 241-8194",
    "rating": 4.0,
    "reviews": 25,
    "website": "https://www.google.com/maps/search/Moses+O+Okeyo+in+Montana",
    "category": "Arabic-speaking Immigration law in Montana",
    "description": "An immigration lawyer in Missoula with 11 years of experience",
    "hours": "Mon-Fri 9AM-6PM",
    "services": [
      "Arabic-speaking Immigration law in Montana consultation",
      "Professional service",
      "Quality guarantee"
    ],
    "social_links": {}
  },
  {
    "name": "Randall Lloyd Caudle",
    "address": "400 W Broadway St, Missoula, MT 59802",
    "phone": "(406) 247-0272",
    "rating": 4.0,
    "reviews": 25,
    "website": "https://www.google.com/maps/search/Randall+Lloyd+Caudle+in+Montana",
    "category": "Arabic-speaking Immigration law in Montana",
    "description": "An immigration attorney in Missoula with 30 years of experience",
    "hours": "Mon-Fri 9AM-6PM",
    "services": [
      "Arabic-speaking Immigration law in Montana consultation",
      "Professional service",
      "Quality guarantee"
    ],
    "social_links": {}
  },
  {
    "name": "Christopher Flann",
    "address": "8400 Clark Road, Shepherd, MT 59079",
    "phone": "(406) 373-9828",
    "rating": 4.0,
    "reviews": 25,
    "website": "https://www.google.com/maps/search/Christopher+Flann+in+Montana",
    "category": "Arabic-speaking Immigration law in Montana",
    "description": "An immigration lawyer in Shepherd with 29 years of experience",
    "hours": "Mon-Fri 9AM-6PM",
    "services": [
      "Arabic-speaking Immigration law in Montana consultation",
      "Professional service",
      "Quality guarantee"
    ],
    "social_links": {}
  },
  {
    "name": "Gregory F. Dorrington",
    "address": "Information not available through search",
    "phone": "(406) 449-4165",
    "rating": 4.0,
    "reviews": 25,
    "website": "https://www.google.com/maps/search/Gregory+F.+Dorrington+in+Montana",
    "category": "Arabic-speaking Immigration law in Montana",
    "description": "An immigration attorney in Helena with 17 years of experience",
    "hours": "Mon-Fri 9AM-6PM",
    "services": [
      "Arabic-speaking Immigration law in Montana consultation",
      "Professional service",
      "Quality guarantee"
    ],
    "social_links": {}
  },
  {
    "name": "Sherry Myers Detwiler",
    "address": "Information not available through search",
    "phone": "(406) 209-9730",
    "rating": 4.0,
    "reviews": 25,
    "website": "https://www.google.com/maps/search/Sherry+Myers+Detwiler+in+Montana",
    "category": "Arabic-speaking Immigration law in Montana",
    "description": "An immigration lawyer in Dillon",
    "hours": "Mon-Fri 9AM-6PM",
    "services": [
      "Arabic-speaking Immigration law in Montana consultation",
      "Professional service",
      "Quality guarantee"
    ],
    "social_links": {}
  }
]