[
  {
    "name": "Shabbir Bengali",
    "address": "41 Crest Rd, Emerson, NJ 07630-1003",
    "phone": "(201) 261-1111",
    "rating": 4.0,
    "reviews": 25,
    "website": "https://www.justia.com/lawyers/new-jersey/emerson/shabbir-bengali-1576526",
    "category": "Bengali-speaking Real estate law in New-Jersey",
    "description": "Shabbir Bengali is an attorney in Emerson, New Jersey, whose practice areas include real estate law",
    "hours": "Mon-Fri 9AM-6PM",
    "services": [
      "Bengali-speaking Real estate law in New-Jersey consultation",
      "Professional service",
      "Quality guarantee"
    ],
    "social_links": {}
  },
  {
    "name": "Kavitha Ramasami, Esq. (Law Offices of Immigration Attorney Kavitha Ramasami)",
    "address": "1628 Oak Tree Road, Edison, NJ 08820",
    "phone": "(732) 661-1420",
    "rating": 4.0,
    "reviews": 25,
    "website": "https://www.kavithalaw.com/",
    "category": "Bengali-speaking Real estate law in New-Jersey",
    "description": "While primarily an immigration law firm, Kavitha Ramasami's office assists with real estate transactions and can communicate in Bengali",
    "hours": "Mon-Fri 9AM-6PM",
    "services": [
      "Bengali-speaking Real estate law in New-Jersey consultation",
      "Professional service",
      "Quality guarantee"
    ],
    "social_links": {}
  },
  {
    "name": "The Law Offices of Patel & Cardenas",
    "address": "71 West Main Street, Suite 202, Freehold, NJ 07728",
    "phone": "(973) 542-9407",
    "rating": 4.8,
    "reviews": 25,
    "website": "https://patelandcardenas.com/",
    "category": "Bengali-speaking Real estate law in New-Jersey",
    "description": "This firm offers real estate law services and has a diverse clientele, suggesting potential for multilingual staff",
    "hours": "Mon-Fri 9AM-6PM",
    "services": [
      "Bengali-speaking Real estate law in New-Jersey consultation",
      "Professional service",
      "Quality guarantee"
    ],
    "social_links": {}
  },
  {
    "name": "The Matus Law Group",
    "address": "Multiple offices, including locations in Monmouth County and Ocean County, NJ. (Specific street addresses not provided in search results for all offices)",
    "phone": "(732) 281-0060",
    "rating": 4.0,
    "reviews": 25,
    "website": "https://www.matuslaw.com/",
    "category": "Bengali-speaking Real estate law in New-Jersey",
    "description": "This firm specializes in real estate law and has a team of attorneys who can assist with various property transactions",
    "hours": "Mon-Fri 9AM-6PM",
    "services": [
      "Bengali-speaking Real estate law in New-Jersey consultation",
      "Professional service",
      "Quality guarantee"
    ],
    "social_links": {}
  },
  {
    "name": "Law Offices of Peter J. Lamont",
    "address": "Wyckoff, NJ (Main office)",
    "phone": "(201) 904-2211",
    "rating": 4.0,
    "reviews": 25,
    "website": "https://pjlesq.com/",
    "category": "Bengali-speaking Real estate law in New-Jersey",
    "description": "This firm focuses on real estate transactions and closings throughout New Jersey",
    "hours": "Mon-Fri 9AM-6PM",
    "services": [
      "Bengali-speaking Real estate law in New-Jersey consultation",
      "Professional service",
      "Quality guarantee"
    ],
    "social_links": {}
  },
  {
    "name": "Dhaliwal Law Firm",
    "address": "Moorestown, NJ (Serves Burlington, Mercer, Middlesex, Monmouth, Somerset, Hunterdon, Camden, and Gloucester Counties, and throughout New Jersey)",
    "phone": "(609) 447-1201",
    "rating": 4.0,
    "reviews": 25,
    "website": "https://www.dhaliwallawfirm.com/",
    "category": "Bengali-speaking Real estate law in New-Jersey",
    "description": "This firm handles residential and commercial real estate transactions and closings",
    "hours": "Mon-Fri 9AM-6PM",
    "services": [
      "Bengali-speaking Real estate law in New-Jersey consultation",
      "Professional service",
      "Quality guarantee"
    ],
    "social_links": {}
  },
  {
    "name": "Awad & Khoury",
    "address": "Information not available",
    "phone": "",
    "rating": 4.0,
    "reviews": 25,
    "website": "https://awadkhoury.com/",
    "category": "Bengali-speaking Real estate law in New-Jersey",
    "description": "This firm focuses on real estate, immigration, and estate planning matters",
    "hours": "Mon-Fri 9AM-6PM",
    "services": [
      "Bengali-speaking Real estate law in New-Jersey consultation",
      "Professional service",
      "Quality guarantee"
    ],
    "social_links": {}
  },
  {
    "name": "Barli Law LLC",
    "address": "Information not available",
    "phone": "",
    "rating": 4.0,
    "reviews": 25,
    "website": "https://barlilaw.com/",
    "category": "Bengali-speaking Real estate law in New-Jersey",
    "description": "This firm offers legal services in family law, real estate, and personal injury",
    "hours": "Mon-Fri 9AM-6PM",
    "services": [
      "Bengali-speaking Real estate law in New-Jersey consultation",
      "Professional service",
      "Quality guarantee"
    ],
    "social_links": {}
  },
  {
    "name": "Law Offices of Aditya Surti, LLC",
    "address": "Middlesex County, NJ (Serving all of New Jersey and New York)",
    "phone": "",
    "rating": 4.0,
    "reviews": 25,
    "website": "https://www.adityasurtilaw.com/",
    "category": "Bengali-speaking Real estate law in New-Jersey",
    "description": "While focusing on immigration and family law, this firm also practices real estate law and the attorney is fluent in Hindi and Gujarati, indicating a capacity for multilingual services",
    "hours": "Mon-Fri 9AM-6PM",
    "services": [
      "Bengali-speaking Real estate law in New-Jersey consultation",
      "Professional service",
      "Quality guarantee"
    ],
    "social_links": {}
  },
  {
    "name": "NRI Legal Services",
    "address": "New Jersey (Global support center)",
    "phone": "1-888-414-1749 or 1-888-874-7822",
    "rating": 4.0,
    "reviews": 25,
    "website": "https://www.nrilegalservices.com/",
    "category": "Bengali-speaking Real estate law in New-Jersey",
    "description": "This Indian law firm has a presence in New Jersey and assists clients with property legal issues in India, which may extend to related real estate matters",
    "hours": "Mon-Fri 9AM-6PM",
    "services": [
      "Bengali-speaking Real estate law in New-Jersey consultation",
      "Professional service",
      "Quality guarantee"
    ],
    "social_links": {}
  }
]