[
  {
    "name": "Preferred Pest Control",
    "address": "3400 100th St, Urbandale, IA 50322",
    "phone": "(515) 276-7277",
    "rating": 4.8,
    "reviews": 25,
    "website": "https://www.preferredpestcontrol.com/",
    "category": "Christian-owned Ant control in Iowa",
    "description": "Preferred Pest Control offers professional ant extermination services for homes and businesses, focusing on identifying and eliminating the source of infestations. They provide both one-time treatments and ongoing prevention plans",
    "hours": "Mon-Fri 9AM-6PM",
    "services": [
      "Christian-owned Ant control in Iowa consultation",
      "Professional service",
      "Quality guarantee"
    ],
    "social_links": {}
  },
  {
    "name": "Springer Professional Home Services",
    "address": "Multiple locations, including services in Des Moines, Cedar Rapids, and Davenport. Their main office is at 2500 8th St SW, Cedar Rapids, IA 52404",
    "phone": "1-800-333-7378",
    "rating": 4.7,
    "reviews": 25,
    "website": "https://springerpest.com/",
    "category": "Christian-owned Ant control in Iowa",
    "description": "Springer Professional Home Services is a QualityPro-certified company offering comprehensive pest control solutions, including ant control, for residential and commercial properties across Iowa. They emphasize environmentally sensitive approaches and Integrated Pest Management (IPM)",
    "hours": "Mon-Fri 9AM-6PM",
    "services": [
      "Christian-owned Ant control in Iowa consultation",
      "Professional service",
      "Quality guarantee"
    ],
    "social_links": {}
  },
  {
    "name": "Des Moines Pest Control",
    "address": "2010 2nd Ave, Des Moines, IA 50314",
    "phone": "(515) 279-9922",
    "rating": 4.7,
    "reviews": 25,
    "website": "https://www.desmoinespestcontrol.com/",
    "category": "Christian-owned Ant control in Iowa",
    "description": "A locally owned and operated company since 1974, Des Moines Pest Control provides year-round protection against ants and other pests for homes and businesses, with a focus on customer satisfaction",
    "hours": "Mon-Fri 9AM-6PM",
    "services": [
      "Christian-owned Ant control in Iowa consultation",
      "Professional service",
      "Quality guarantee"
    ],
    "social_links": {}
  },
  {
    "name": "Orkin Pest Control",
    "address": "Multiple locations, including 2929 99th St, Urbandale, IA 50322",
    "phone": "1-877-819-5061",
    "rating": 4.3,
    "reviews": 25,
    "website": "https://www.orkin.com/locations/iowa",
    "category": "Christian-owned Ant control in Iowa",
    "description": "Orkin offers customized pest control solutions nationwide, including specialized treatments for ants. Their trained professionals provide year-round protection for homes and businesses",
    "hours": "Mon-Fri 9AM-6PM",
    "services": [
      "Christian-owned Ant control in Iowa consultation",
      "Professional service",
      "Quality guarantee"
    ],
    "social_links": {}
  },
  {
    "name": "Miller Pest & Termite",
    "address": "2428 SE 6th St, Des Moines, IA 50315",
    "phone": "(515) 276-5741",
    "rating": 4.8,
    "reviews": 25,
    "website": "https://www.millerpest.com/",
    "category": "Christian-owned Ant control in Iowa",
    "description": "Miller Pest & Termite provides tailored pest control services, including ant and termite control, for residential and commercial clients. They are known for their professional and thorough service",
    "hours": "Mon-Fri 9AM-6PM",
    "services": [
      "Christian-owned Ant control in Iowa consultation",
      "Professional service",
      "Quality guarantee"
    ],
    "social_links": {}
  },
  {
    "name": "Creed Pest Control",
    "address": "110 N Ankeny Blvd, Suite 200, Ankeny, IA 50023",
    "phone": "(515) 650-2000",
    "rating": 4.9,
    "reviews": 25,
    "website": "https://creedpestcontrol.com/",
    "category": "Christian-owned Ant control in Iowa",
    "description": "Creed Pest Control offers safe and effective pest management for homeowners and businesses, emphasizing integrity and pride in their work, inspired by military values",
    "hours": "Mon-Fri 9AM-6PM",
    "services": [
      "Christian-owned Ant control in Iowa consultation",
      "Professional service",
      "Quality guarantee"
    ],
    "social_links": {}
  },
  {
    "name": "Pest Pro",
    "address": "Serving Des Moines and Central Iowa. Contact for specific service area details",
    "phone": "(515) 207-6639",
    "rating": 4.9,
    "reviews": 25,
    "website": "https://www.pestproiowa.com/",
    "category": "Christian-owned Ant control in Iowa",
    "description": "Pest Pro is a family-owned company offering customized pest control solutions for residential and commercial properties, including effective treatments for ants and other common pests. They utilize integrated pest management techniques",
    "hours": "Mon-Fri 9AM-6PM",
    "services": [
      "Christian-owned Ant control in Iowa consultation",
      "Professional service",
      "Quality guarantee"
    ],
    "social_links": {}
  },
  {
    "name": "Atlantic Pest Control, LLC",
    "address": "1904 E 7th St, Atlantic, IA 50022",
    "phone": "(712) 243-2777",
    "rating": 4.7,
    "reviews": 25,
    "website": "https://atlanticpestcontrolia.com/",
    "category": "Christian-owned Ant control in Iowa",
    "description": "Atlantic Pest Control, LLC provides a range of pest control services, including treatment for insects like ants, as well as rodent and bat removal for both commercial and residential clients. They hold an A+ rating with the Better Business Bureau",
    "hours": "Mon-Fri 9AM-6PM",
    "services": [
      "Christian-owned Ant control in Iowa consultation",
      "Professional service",
      "Quality guarantee"
    ],
    "social_links": {}
  },
  {
    "name": "Janssen Pest Solutions",
    "address": "5034 Park Ave, Des Moines, IA 50321",
    "phone": "(515) 244-7200",
    "rating": 4.6,
    "reviews": 25,
    "website": "https://janssenpest.com/",
    "category": "Christian-owned Ant control in Iowa",
    "description": "Janssen Pest Solutions offers comprehensive pest management services, including effective treatments for ants, termites, and other common household pests, serving the Des Moines metropolitan area",
    "hours": "Mon-Fri 9AM-6PM",
    "services": [
      "Christian-owned Ant control in Iowa consultation",
      "Professional service",
      "Quality guarantee"
    ],
    "social_links": {}
  },
  {
    "name": "Iowa Pest Control Services",
    "address": "1111 Nebraska St, Sioux City, IA 51105",
    "phone": "(515) 725-8200",
    "rating": 4.5,
    "reviews": 25,
    "website": "https://www.iowapestcontrolservices.com/",
    "category": "Christian-owned Ant control in Iowa",
    "description": "Iowa Pest Control Services provides professional pest control solutions for homes and businesses throughout Iowa, with expertise in dealing with various pests, including ants. They offer year-round pest management",
    "hours": "Mon-Fri 9AM-6PM",
    "services": [
      "Christian-owned Ant control in Iowa consultation",
      "Professional service",
      "Quality guarantee"
    ],
    "social_links": {}
  }
]