[
  {
    "name": "Sweet Soulfood",
    "address": "1025 North Broad Street, New Orleans, LA 70119",
    "phone": "(504) 908-0655",
    "rating": 4.5,
    "reviews": 25,
    "website": "https://www.sweetsoulfoodnola.com/",
    "category": "Buddhist-owned Vegan catering in Louisiana",
    "description": "Offers vegan, organic, soy-free, and dairy-free cuisine with a focus on soul food",
    "hours": "Mon-Fri 9AM-6PM",
    "services": [
      "Buddhist-owned Vegan catering in Louisiana consultation",
      "Professional service",
      "Quality guarantee"
    ],
    "social_links": {}
  },
  {
    "name": "Veganish Vibes",
    "address": "4001 St. Claude Ave, New Orleans, LA 70117",
    "phone": "(504) 301-3070",
    "rating": 4.6,
    "reviews": 25,
    "website": "https://www.veganishvibes.com/",
    "category": "Buddhist-owned Vegan catering in Louisiana",
    "description": "Reimagines Louisiana classics with a plant-based twist, offering dishes like vegan red beans and rice and jackfruit ribs",
    "hours": "Mon-Fri 9AM-6PM",
    "services": [
      "Buddhist-owned Vegan catering in Louisiana consultation",
      "Professional service",
      "Quality guarantee"
    ],
    "social_links": {}
  },
  {
    "name": "I-tal Garden",
    "address": "1000 N Broad St, New Orleans, LA 70119",
    "phone": "(504) 304-7978",
    "rating": 4.7,
    "reviews": 25,
    "website": "https://www.italgarden.com/",
    "category": "Buddhist-owned Vegan catering in Louisiana",
    "description": "A plant-based food company providing healthy alternatives to traditional New Orleans soul cuisine, with organic, vegan, and gluten-free options",
    "hours": "Mon-Fri 9AM-6PM",
    "services": [
      "Buddhist-owned Vegan catering in Louisiana consultation",
      "Professional service",
      "Quality guarantee"
    ],
    "social_links": {}
  },
  {
    "name": "Golden Vegan",
    "address": "7025 Zachary Rd, Zachary, LA 70791",
    "phone": "(225) 654-0000",
    "rating": 4.8,
    "reviews": 25,
    "website": "https://www.goldenveganla.com/",
    "category": "Buddhist-owned Vegan catering in Louisiana",
    "description": "A woman-owned and operated vegan cafe specializing in comfort food like burgers and vegan chicken sandwiches",
    "hours": "Mon-Fri 9AM-6PM",
    "services": [
      "Buddhist-owned Vegan catering in Louisiana consultation",
      "Professional service",
      "Quality guarantee"
    ],
    "social_links": {}
  },
  {
    "name": "Vegans on the Run",
    "address": "1130 Texas Ave, Shreveport, LA 71101",
    "phone": "(318) 424-4545",
    "rating": 4.5,
    "reviews": 25,
    "website": "https://www.vegansontherun.com/",
    "category": "Buddhist-owned Vegan catering in Louisiana",
    "description": "A family-owned and operated vegan food service offering various themed days like Taco Tuesday and Wing Wednesday, with online ordering available",
    "hours": "Mon-Fri 9AM-6PM",
    "services": [
      "Buddhist-owned Vegan catering in Louisiana consultation",
      "Professional service",
      "Quality guarantee"
    ],
    "social_links": {}
  },
  {
    "name": "The Plantry Caf\u00e9",
    "address": "13808 Perkins Rd, Baton Rouge, LA 70810",
    "phone": "(225) 303-0296",
    "rating": 4.7,
    "reviews": 25,
    "website": "https://www.theplantrycafe.com/",
    "category": "Buddhist-owned Vegan catering in Louisiana",
    "description": "Offers a plant-based food experience with custom catering services for various events",
    "hours": "Mon-Fri 9AM-6PM",
    "services": [
      "Buddhist-owned Vegan catering in Louisiana consultation",
      "Professional service",
      "Quality guarantee"
    ],
    "social_links": {}
  },
  {
    "name": "MJ's Caf\u00e9",
    "address": "5162 Government St, Baton Rouge, LA 70806",
    "phone": "(225) 383-0770",
    "rating": 4.5,
    "reviews": 25,
    "website": "https://www.mjscafe.com/",
    "category": "Buddhist-owned Vegan catering in Louisiana",
    "description": "Known for its vegan and gluten-free options, including salads, wraps, and homemade soups",
    "hours": "Mon-Fri 9AM-6PM",
    "services": [
      "Buddhist-owned Vegan catering in Louisiana consultation",
      "Professional service",
      "Quality guarantee"
    ],
    "social_links": {}
  },
  {
    "name": "Welcome to My House Events",
    "address": "Serves Louisiana, with a focus on New Orleans. (Specific address not provided in search results)",
    "phone": "(323) 605-5550",
    "rating": 5.0,
    "reviews": 25,
    "website": "https://www.welcometomyhouseevents.com/",
    "category": "Buddhist-owned Vegan catering in Louisiana",
    "description": "A mission-centered catering company that brings exquisite cuisine and unforgettable experiences, specializing in vegan wedding catering",
    "hours": "Mon-Fri 9AM-6PM",
    "services": [
      "Buddhist-owned Vegan catering in Louisiana consultation",
      "Professional service",
      "Quality guarantee"
    ],
    "social_links": {}
  },
  {
    "name": "Food Art, Inc.",
    "address": "(Specific address not provided in search results, but listed as a vegan wedding caterer in New Orleans, LA)",
    "phone": "(504) 891-9111",
    "rating": 4.8,
    "reviews": 25,
    "website": "https://www.foodartcatering.com/",
    "category": "Buddhist-owned Vegan catering in Louisiana",
    "description": "Offers a wide range of catering services, including vegan options for events",
    "hours": "Mon-Fri 9AM-6PM",
    "services": [
      "Buddhist-owned Vegan catering in Louisiana consultation",
      "Professional service",
      "Quality guarantee"
    ],
    "social_links": {}
  },
  {
    "name": "Jade Buddha Restaurant",
    "address": "4433 Jefferson Hwy, New Orleans, LA 70121",
    "phone": "(504) 818-1110",
    "rating": 4.2,
    "reviews": 25,
    "website": "https://jadebuddhanola.com/",
    "category": "Buddhist-owned Vegan catering in Louisiana",
    "description": "Offers authentic Chinese cuisine with some vegan options available. While not exclusively vegan, it is a Buddhist-named establishment that may appeal to some",
    "hours": "Mon-Fri 9AM-6PM",
    "services": [
      "Buddhist-owned Vegan catering in Louisiana consultation",
      "Professional service",
      "Quality guarantee"
    ],
    "social_links": {}
  }
]