[
  {
    "name": "Holy Family Catholic Church Gift & Book Store",
    "address": "10360 West Orange Blossom Trail, Orlando, FL 32837",
    "phone": "(407) 876-0833",
    "rating": 4.0,
    "reviews": 25,
    "website": "http://www.holyfamilyorlando.org/gift-book-store",
    "category": "Catholic-owned Specialty item moving in Florida",
    "description": "Offers a wide selection of Catholic faith-based items for all ages",
    "hours": "Mon-Fri 9AM-6PM",
    "services": [
      "Catholic-owned Specialty item moving in Florida consultation",
      "Professional service",
      "Quality guarantee"
    ],
    "social_links": {}
  },
  {
    "name": "Queen of Angels Catholic Store",
    "address": "10000 San Jose Blvd, Jacksonville, FL 32257",
    "phone": "(904) 268-6001",
    "rating": 4.0,
    "reviews": 25,
    "website": "http://www.queenofangelscatholicstore.com/",
    "category": "Catholic-owned Specialty item moving in Florida",
    "description": "Largest Catholic store in Jacksonville, carrying books, crucifixes, medals, and other essentials",
    "hours": "Mon-Fri 9AM-6PM",
    "services": [
      "Catholic-owned Specialty item moving in Florida consultation",
      "Professional service",
      "Quality guarantee"
    ],
    "social_links": {}
  },
  {
    "name": "St. Anthony's Catholic Gift Shop",
    "address": "1400 N Dale Mabry Hwy, Tampa, FL 33607",
    "phone": "(813) 876-4000",
    "rating": 4.0,
    "reviews": 25,
    "website": "http://www.stanthonyscatholicgifts.com/",
    "category": "Catholic-owned Specialty item moving in Florida",
    "description": "Family-owned and operated for over 30 years, offering a wide range of Catholic goods",
    "hours": "Mon-Fri 9AM-6PM",
    "services": [
      "Catholic-owned Specialty item moving in Florida consultation",
      "Professional service",
      "Quality guarantee"
    ],
    "social_links": {}
  },
  {
    "name": "Little Saint Religious Goods",
    "address": "(Serves Florida & New York - specific Florida address not provided in search results)",
    "phone": "",
    "rating": 4.0,
    "reviews": 25,
    "website": "http://www.littlesaint.com/",
    "category": "Catholic-owned Specialty item moving in Florida",
    "description": "Specializes in shipping memorial gift vestments and other Catholic items",
    "hours": "Mon-Fri 9AM-6PM",
    "services": [
      "Catholic-owned Specialty item moving in Florida consultation",
      "Professional service",
      "Quality guarantee"
    ],
    "social_links": {}
  },
  {
    "name": "Cathedral of St. James Gift Shop",
    "address": "215 N Orange Ave, Orlando, FL 32801",
    "phone": "(407) 422-2005",
    "rating": 4.0,
    "reviews": 25,
    "website": "http://www.stjamescathedral.org/gift-shop",
    "category": "Catholic-owned Specialty item moving in Florida",
    "description": "Owned by St. James Catholic Cathedral, offering gifts for various sacraments and occasions",
    "hours": "Mon-Fri 9AM-6PM",
    "services": [
      "Catholic-owned Specialty item moving in Florida consultation",
      "Professional service",
      "Quality guarantee"
    ],
    "social_links": {}
  },
  {
    "name": "Pauline Books and Media (Miami)",
    "address": "8338 NW 68th St, Doral, FL 33166 (This address appears to be for \"Doral Nuestra Fe\" which is associated with The Faith Gift Shop, but Pauline Books and Media is listed as being at the corner of 107th Avenue and Flagler St in Miami.)",
    "phone": "(305) 595-3555 (for Pauline Books and Media)",
    "rating": 4.0,
    "reviews": 25,
    "website": "http://www.paulinemedia.com/",
    "category": "Catholic-owned Specialty item moving in Florida",
    "description": "Offers a wide selection of Bibles, books, DVDs, and religious gifts",
    "hours": "Mon-Fri 9AM-6PM",
    "services": [
      "Catholic-owned Specialty item moving in Florida consultation",
      "Professional service",
      "Quality guarantee"
    ],
    "social_links": {}
  },
  {
    "name": "St. Dominic Books & Gifts",
    "address": "12755 W. Newberry Road, Newberry, FL 32669",
    "phone": "(850) 785-4574",
    "rating": 4.0,
    "reviews": 25,
    "website": "http://www.saintdominicpc.com/",
    "category": "Catholic-owned Specialty item moving in Florida",
    "description": "A Catholic bookstore offering books and gifts to encourage faith",
    "hours": "Mon-Fri 9AM-6PM",
    "services": [
      "Catholic-owned Specialty item moving in Florida consultation",
      "Professional service",
      "Quality guarantee"
    ],
    "social_links": {}
  },
  {
    "name": "Corpus Christi Catholic Church Religious Goods Store",
    "address": "301 Mountain St, Destin, FL 32541",
    "phone": "(850) 837-4302",
    "rating": 4.0,
    "reviews": 25,
    "website": "http://www.corpuschristidestin.org/religious-goods-store",
    "category": "Catholic-owned Specialty item moving in Florida",
    "description": "Offers religious items such as statues, crosses, and rosaries",
    "hours": "Mon-Fri 9AM-6PM",
    "services": [
      "Catholic-owned Specialty item moving in Florida consultation",
      "Professional service",
      "Quality guarantee"
    ],
    "social_links": {}
  },
  {
    "name": "Sacred Heart Catholic Church Gift & Book Store (Tampa)",
    "address": "507 N Florida Ave, Tampa, FL 33602",
    "phone": "(813) 229-3400",
    "rating": 4.0,
    "reviews": 25,
    "website": "http://www.sacredhearttampa.org/gift-book-store",
    "category": "Catholic-owned Specialty item moving in Florida",
    "description": "Offers a wide array of religious items and specialty gifts, including unique pieces from around the world",
    "hours": "Mon-Fri 9AM-6PM",
    "services": [
      "Catholic-owned Specialty item moving in Florida consultation",
      "Professional service",
      "Quality guarantee"
    ],
    "social_links": {}
  },
  {
    "name": "Moroneys' Religious Art",
    "address": "5090 Dixie Highway, Oakland Park, Florida 33334",
    "phone": "1-800-423-7704",
    "rating": 4.0,
    "reviews": 25,
    "website": "http://www.moroneys.com/",
    "category": "Catholic-owned Specialty item moving in Florida",
    "description": "Serving the Catholic community in Florida since 1958, offering liturgical design expertise and church supplies",
    "hours": "Mon-Fri 9AM-6PM",
    "services": [
      "Catholic-owned Specialty item moving in Florida consultation",
      "Professional service",
      "Quality guarantee"
    ],
    "social_links": {}
  }
]