[
  {
    "name": "KC Movement Lab",
    "address": "Waldo and Brookside communities, Kansas City, MO",
    "phone": "",
    "rating": 4.0,
    "reviews": 25,
    "website": "https://www.google.com/maps/search/KC+Movement+Lab+in+Missouri",
    "category": "Female-owned Pilates in Missouri",
    "description": "Founded by sisters Rebekah and Addie Fasel, this studio offers private and small group Pilates and strength training",
    "hours": "Mon-Fri 9AM-6PM",
    "services": [
      "Female-owned Pilates in Missouri consultation",
      "Professional service",
      "Quality guarantee"
    ],
    "social_links": {}
  },
  {
    "name": "The Tease MVMT",
    "address": "Saint Charles, MO",
    "phone": "314.200.5889",
    "rating": 4.0,
    "reviews": 25,
    "website": "https://www.google.com/maps/search/The+Tease+MVMT+in+Missouri",
    "category": "Female-owned Pilates in Missouri",
    "description": "A luxury Pilates, Barre, and Yoga studio with a focus on balance, strength, and identity. It is highlighted as women-owned",
    "hours": "Mon-Fri 9AM-6PM",
    "services": [
      "Female-owned Pilates in Missouri consultation",
      "Professional service",
      "Quality guarantee"
    ],
    "social_links": {}
  },
  {
    "name": "Studio Ivanhoe Pilates & Movement",
    "address": "3219 Ivanhoe Ave, St. Louis, MO",
    "phone": "314-202-4018",
    "rating": 4.0,
    "reviews": 25,
    "website": "https://www.google.com/maps/search/Studio+Ivanhoe+Pilates+&+Movement+in+Missouri",
    "category": "Female-owned Pilates in Missouri",
    "description": "A boutique Pilates studio offering equipment and mat classes, described as women-owned",
    "hours": "Mon-Fri 9AM-6PM",
    "services": [
      "Female-owned Pilates in Missouri consultation",
      "Professional service",
      "Quality guarantee"
    ],
    "social_links": {}
  },
  {
    "name": "The Pilates Center of St. Louis",
    "address": "Ladue, MO",
    "phone": "(314) 569-9400",
    "rating": 4.0,
    "reviews": 25,
    "website": "https://www.google.com/maps/search/The+Pilates+Center+of+St.+Louis+in+Missouri",
    "category": "Female-owned Pilates in Missouri",
    "description": "Owned by Karen Prechtl, this studio has been in operation since 1993 and is noted as a woman-owned business",
    "hours": "Mon-Fri 9AM-6PM",
    "services": [
      "Female-owned Pilates in Missouri consultation",
      "Professional service",
      "Quality guarantee"
    ],
    "social_links": {}
  },
  {
    "name": "Fit Form Pilates",
    "address": "7254 West 151st Street, Overland Park, KS (serving the Kansas City area)",
    "phone": "KS: (913) 345-8787, MO: (816) 309-6367",
    "rating": 4.0,
    "reviews": 25,
    "website": "https://www.google.com/maps/search/Fit+Form+Pilates+in+Missouri",
    "category": "Female-owned Pilates in Missouri",
    "description": "A locally and woman-owned boutique Pilates studio",
    "hours": "Mon-Fri 9AM-6PM",
    "services": [
      "Female-owned Pilates in Missouri consultation",
      "Professional service",
      "Quality guarantee"
    ],
    "social_links": {}
  },
  {
    "name": "Studio One Pilates",
    "address": "Springfield, MO",
    "phone": "",
    "rating": 4.0,
    "reviews": 25,
    "website": "https://www.google.com/maps/search/Studio+One+Pilates+in+Missouri",
    "category": "Female-owned Pilates in Missouri",
    "description": "Owned by Chyrel Love Miller, this studio has been a Licensed Training Center since 2000",
    "hours": "Mon-Fri 9AM-6PM",
    "services": [
      "Female-owned Pilates in Missouri consultation",
      "Professional service",
      "Quality guarantee"
    ],
    "social_links": {}
  },
  {
    "name": "The BodySmith",
    "address": "Downtown Springfield, MO",
    "phone": "",
    "rating": 4.0,
    "reviews": 25,
    "website": "https://www.google.com/maps/search/The+BodySmith+in+Missouri",
    "category": "Female-owned Pilates in Missouri",
    "description": "Offers Pilates and fitness classes. Abbe Ehlers, an instructor, teaches yoga and Pilates",
    "hours": "Mon-Fri 9AM-6PM",
    "services": [
      "Female-owned Pilates in Missouri consultation",
      "Professional service",
      "Quality guarantee"
    ],
    "social_links": {}
  },
  {
    "name": "Moore Wellness Studio",
    "address": "Springfield, MO",
    "phone": "",
    "rating": 4.0,
    "reviews": 25,
    "website": "https://www.google.com/maps/search/Moore+Wellness+Studio+in+Missouri",
    "category": "Female-owned Pilates in Missouri",
    "description": "Owned and operated by Chandler Moore Sanders, who previously owned and co-owned Pilates studios in California",
    "hours": "Mon-Fri 9AM-6PM",
    "services": [
      "Female-owned Pilates in Missouri consultation",
      "Professional service",
      "Quality guarantee"
    ],
    "social_links": {}
  },
  {
    "name": "Precision Pilates, LLC",
    "address": "Springfield, MO",
    "phone": "",
    "rating": 4.0,
    "reviews": 25,
    "website": "https://www.google.com/maps/search/Precision+Pilates,+LLC+in+Missouri",
    "category": "Female-owned Pilates in Missouri",
    "description": "Owned by Kim Earl, a certified advanced level STOTT PILATES\u2122 instructor",
    "hours": "Mon-Fri 9AM-6PM",
    "services": [
      "Female-owned Pilates in Missouri consultation",
      "Professional service",
      "Quality guarantee"
    ],
    "social_links": {}
  },
  {
    "name": "Absolute Flow Pilates",
    "address": "St. Louis, MO",
    "phone": "",
    "rating": 4.0,
    "reviews": 25,
    "website": "https://www.google.com/maps/search/Absolute+Flow+Pilates+in+Missouri",
    "category": "Female-owned Pilates in Missouri",
    "description": "Owned by Lisa Udasco, this studio offers a comprehensive approach to Pilates",
    "hours": "Mon-Fri 9AM-6PM",
    "services": [
      "Female-owned Pilates in Missouri consultation",
      "Professional service",
      "Quality guarantee"
    ],
    "social_links": {}
  }
]