[
  {
    "name": "Skin Spectrum",
    "address": "3030 E. Kleindale Rd., Tucson, AZ 85716",
    "phone": "(520) 795-7475",
    "rating": 4.7,
    "reviews": 25,
    "website": "https://www.skinspectrum.com/",
    "category": "Arabic-speaking Skin care facilities in Arizona",
    "description": "A premier cosmetic dermatology facility offering a comprehensive range of non-surgical skin rejuvenation, anti-aging, and wellness strategies",
    "hours": "Mon-Fri 9AM-6PM",
    "services": [
      "Arabic-speaking Skin care facilities in Arizona consultation",
      "Professional service",
      "Quality guarantee"
    ],
    "social_links": {}
  },
  {
    "name": "Alliance Dermatology and MOHS Center",
    "address": "Multiple locations, including 1420 S. Dobson Rd., Ste. 320B, Mesa, AZ 85202",
    "phone": "(480) 820-9774",
    "rating": 4.7,
    "reviews": 25,
    "website": "https://www.alliancederm.com/",
    "category": "Arabic-speaking Skin care facilities in Arizona",
    "description": "Offers comprehensive dermatologic services including medical, cosmetic, and surgical dermatology, with a focus on Mohs surgery for skin cancer",
    "hours": "Mon-Fri 9AM-6PM",
    "services": [
      "Arabic-speaking Skin care facilities in Arizona consultation",
      "Professional service",
      "Quality guarantee"
    ],
    "social_links": {}
  },
  {
    "name": "Skin Care Specialists",
    "address": "Multiple locations, including 6832 E. Brown Road, Mesa, AZ 85207",
    "phone": "(480) 830-8333",
    "rating": 4.6,
    "reviews": 25,
    "website": "https://www.skincareaz.com/",
    "category": "Arabic-speaking Skin care facilities in Arizona",
    "description": "A premier medical and cosmetic dermatology practice with board-certified dermatologists offering personalized, patient-centered care",
    "hours": "Mon-Fri 9AM-6PM",
    "services": [
      "Arabic-speaking Skin care facilities in Arizona consultation",
      "Professional service",
      "Quality guarantee"
    ],
    "social_links": {}
  },
  {
    "name": "Camelback Dermatology & Skin Surgery",
    "address": "4512 N 40th St, Phoenix, AZ 85018",
    "phone": "(602) 954-7546",
    "rating": 4.6,
    "reviews": 25,
    "website": "https://www.camelbackdermatology.com/",
    "category": "Arabic-speaking Skin care facilities in Arizona",
    "description": "Provides advanced medical and cosmetic dermatology services with a world-class team of doctors and providers passionate about skincare",
    "hours": "Mon-Fri 9AM-6PM",
    "services": [
      "Arabic-speaking Skin care facilities in Arizona consultation",
      "Professional service",
      "Quality guarantee"
    ],
    "social_links": {}
  },
  {
    "name": "Peak Dermatology",
    "address": "Multiple locations, including 10238 E. Southern Ave., Mesa, AZ 85209",
    "phone": "(480) 820-9774",
    "rating": 4.8,
    "reviews": 25,
    "website": "https://www.peakdermatology.com/",
    "category": "Arabic-speaking Skin care facilities in Arizona",
    "description": "Led by Dr. Christopher Rex, a Black dermatologist dedicated to serving diverse communities with a focus on treating skin of color",
    "hours": "Mon-Fri 9AM-6PM",
    "services": [
      "Arabic-speaking Skin care facilities in Arizona consultation",
      "Professional service",
      "Quality guarantee"
    ],
    "social_links": {}
  },
  {
    "name": "Moderne Medical",
    "address": "8727 E. Pinnacle Peak Rd., Ste. 101, Scottsdale, AZ 85255",
    "phone": "(480) 863-2800",
    "rating": 4.8,
    "reviews": 25,
    "website": "https://www.modernemedical.com/",
    "category": "Arabic-speaking Skin care facilities in Arizona",
    "description": "A premier med spa offering a beautiful and private setting for personalized aesthetic and wellness treatments",
    "hours": "Mon-Fri 9AM-6PM",
    "services": [
      "Arabic-speaking Skin care facilities in Arizona consultation",
      "Professional service",
      "Quality guarantee"
    ],
    "social_links": {}
  },
  {
    "name": "SkinSpirit",
    "address": "7605 E Pinnacle Peak Rd #4, Scottsdale, AZ 85255",
    "phone": "(480) 513-2888",
    "rating": 4.7,
    "reviews": 25,
    "website": "https://www.skinspirit.com/locations/scottsdale/",
    "category": "Arabic-speaking Skin care facilities in Arizona",
    "description": "A leading med spa offering top-tier medical aesthetics and skincare services designed to enhance long-term skin health",
    "hours": "Mon-Fri 9AM-6PM",
    "services": [
      "Arabic-speaking Skin care facilities in Arizona consultation",
      "Professional service",
      "Quality guarantee"
    ],
    "social_links": {}
  },
  {
    "name": "CurateMD Skin Bar and Wellness Clinic",
    "address": "2745 S. Alma School Rd. Unit 3, Chandler, AZ 85286",
    "phone": "(480) 420-4470",
    "rating": 4.7,
    "reviews": 25,
    "website": "https://curatemd.com/",
    "category": "Arabic-speaking Skin care facilities in Arizona",
    "description": "Specializes in a variety of medical spa treatments with a team of expert medical professionals dedicated to optimal health, balance, and vitality",
    "hours": "Mon-Fri 9AM-6PM",
    "services": [
      "Arabic-speaking Skin care facilities in Arizona consultation",
      "Professional service",
      "Quality guarantee"
    ],
    "social_links": {}
  },
  {
    "name": "Vivid Skin & Laser Center",
    "address": "Multiple locations, including a branch in Chandler, AZ",
    "phone": "(480) 930-7546",
    "rating": 4.7,
    "reviews": 25,
    "website": "https://vividskinandlaser.com/",
    "category": "Arabic-speaking Skin care facilities in Arizona",
    "description": "Offers advanced aesthetic and laser techniques to help clients achieve beautiful and healthy skin, with custom PCA treatments available",
    "hours": "Mon-Fri 9AM-6PM",
    "services": [
      "Arabic-speaking Skin care facilities in Arizona consultation",
      "Professional service",
      "Quality guarantee"
    ],
    "social_links": {}
  },
  {
    "name": "Touch and Glow Med Spa",
    "address": "5620 West Thunderbird Road Suite D-3, Glendale, Arizona 85306",
    "phone": "(602) 562-9800",
    "rating": 4.9,
    "reviews": 25,
    "website": "https://www.touchandglowmedspa.com/",
    "category": "Arabic-speaking Skin care facilities in Arizona",
    "description": "A family-owned and operated medspa specializing in bespoke, medically driven treatments that enhance natural beauty with artistry and precision",
    "hours": "Mon-Fri 9AM-6PM",
    "services": [
      "Arabic-speaking Skin care facilities in Arizona consultation",
      "Professional service",
      "Quality guarantee"
    ],
    "social_links": {}
  }
]