[
  {
    "name": "Cushing Terrell",
    "address": "13 N 23rd Street, Billings, MT 59101",
    "phone": "(406) 252-4151",
    "rating": 4.0,
    "reviews": 25,
    "website": "https://cushingterrell.com/",
    "category": "Atheist-owned Information architecture in Montana",
    "description": "Offers a complete range of architectural services, including energy services, engineering, graphic design, and interior design. They also have expertise in historic preservation",
    "hours": "Mon-Fri 9AM-6PM",
    "services": [
      "Atheist-owned Information architecture in Montana consultation",
      "Professional service",
      "Quality guarantee"
    ],
    "social_links": {}
  },
  {
    "name": "CLB Architects",
    "address": "Cannery District Studio, 109 E Oak Street, Suite 1C, Bozeman, MT 59715",
    "phone": "(406) 586-1400",
    "rating": 4.0,
    "reviews": 25,
    "website": "https://www.clbarchitects.com/",
    "category": "Atheist-owned Information architecture in Montana",
    "description": "Known for a highly collaborative approach to architectural design, serving the Bozeman area and Southwestern Montana",
    "hours": "Mon-Fri 9AM-6PM",
    "services": [
      "Atheist-owned Information architecture in Montana consultation",
      "Professional service",
      "Quality guarantee"
    ],
    "social_links": {}
  },
  {
    "name": "Briggs Architecture",
    "address": "265 W Front, Missoula, MT 59802",
    "phone": "(406) 543-7200",
    "rating": 4.0,
    "reviews": 25,
    "website": "https://www.briggsarchitecture.com/",
    "category": "Atheist-owned Information architecture in Montana",
    "description": "Infuses classical and modern architecture, with expertise in ranch, lodge, and resort residential projects. They also design custom accessories",
    "hours": "Mon-Fri 9AM-6PM",
    "services": [
      "Atheist-owned Information architecture in Montana consultation",
      "Professional service",
      "Quality guarantee"
    ],
    "social_links": {}
  },
  {
    "name": "MMW Architects",
    "address": "125 West Alder Street, Missoula, MT 59802",
    "phone": "(406) 721-3000",
    "rating": 4.0,
    "reviews": 25,
    "website": "https://www.mmwarchitects.com/",
    "category": "Atheist-owned Information architecture in Montana",
    "description": "Employs a holistic approach with sustainability techniques, creating environmentally responsible and site-responsive designs",
    "hours": "Mon-Fri 9AM-6PM",
    "services": [
      "Atheist-owned Information architecture in Montana consultation",
      "Professional service",
      "Quality guarantee"
    ],
    "social_links": {}
  },
  {
    "name": "Comma-Q Architecture",
    "address": "109 North Rouse Avenue, #1, Bozeman, MT 59715",
    "phone": "(406) 586-8000",
    "rating": 4.0,
    "reviews": 25,
    "website": "https://comma-q.com/",
    "category": "Atheist-owned Information architecture in Montana",
    "description": "A full-service studio with over two decades of experience, focusing on thoughtful and detailed design techniques",
    "hours": "Mon-Fri 9AM-6PM",
    "services": [
      "Atheist-owned Information architecture in Montana consultation",
      "Professional service",
      "Quality guarantee"
    ],
    "social_links": {}
  },
  {
    "name": "Studio Architects",
    "address": "21 West Babcock Street, Bozeman, MT 59715",
    "phone": "(406) 586-8000",
    "rating": 4.0,
    "reviews": 25,
    "website": "https://www.studioarchitects.com/",
    "category": "Atheist-owned Information architecture in Montana",
    "description": "Offers a wide variety of architectural planning services for commercial and residential sectors, taking a boutique approach to ensure unique designs",
    "hours": "Mon-Fri 9AM-6PM",
    "services": [
      "Atheist-owned Information architecture in Montana consultation",
      "Professional service",
      "Quality guarantee"
    ],
    "social_links": {}
  },
  {
    "name": "Locati Architects",
    "address": "Bozeman and Big Sky, MT",
    "phone": "(406) 586-3377",
    "rating": 4.0,
    "reviews": 25,
    "website": "https://locatiarchitects.com/",
    "category": "Atheist-owned Information architecture in Montana",
    "description": "Specializes in residential and commercial architecture and design, with services including interior design, community involvement, and sustainable practices",
    "hours": "Mon-Fri 9AM-6PM",
    "services": [
      "Atheist-owned Information architecture in Montana consultation",
      "Professional service",
      "Quality guarantee"
    ],
    "social_links": {}
  },
  {
    "name": "Thinktank Design Group, Inc.",
    "address": "Bozeman, Montana",
    "phone": "",
    "rating": 4.0,
    "reviews": 25,
    "website": "https://www.google.com/maps/search/Thinktank+Design+Group,+Inc.+in+Montana",
    "category": "Atheist-owned Information architecture in Montana",
    "description": "An architectural design company focusing on architectural design",
    "hours": "Mon-Fri 9AM-6PM",
    "services": [
      "Atheist-owned Information architecture in Montana consultation",
      "Professional service",
      "Quality guarantee"
    ],
    "social_links": {}
  },
  {
    "name": "Pearson Design Group",
    "address": "Bozeman, Montana",
    "phone": "",
    "rating": 4.0,
    "reviews": 25,
    "website": "https://www.google.com/maps/search/Pearson+Design+Group+in+Montana",
    "category": "Atheist-owned Information architecture in Montana",
    "description": "An architectural design and interior design company",
    "hours": "Mon-Fri 9AM-6PM",
    "services": [
      "Atheist-owned Information architecture in Montana consultation",
      "Professional service",
      "Quality guarantee"
    ],
    "social_links": {}
  },
  {
    "name": "CWG Architecture & Interiors",
    "address": "Helena, Montana",
    "phone": "",
    "rating": 4.0,
    "reviews": 25,
    "website": "https://www.google.com/maps/search/CWG+Architecture+&+Interiors+in+Montana",
    "category": "Atheist-owned Information architecture in Montana",
    "description": "A small architectural design and interior design company",
    "hours": "Mon-Fri 9AM-6PM",
    "services": [
      "Atheist-owned Information architecture in Montana consultation",
      "Professional service",
      "Quality guarantee"
    ],
    "social_links": {}
  }
]