[
  {
    "name": "Naro Tax Services",
    "address": "170 Kerstetter Way, Elyria, OH 44035",
    "phone": "(440) 323-6276",
    "rating": 5.0,
    "reviews": 25,
    "website": "https://narotaxservices.com/",
    "category": "Arabic-speaking Sales tax compliance in Ohio",
    "description": "Offers tax preparation and accounting services for individuals and businesses, with a focus on saving time and money",
    "hours": "Mon-Fri 9AM-6PM",
    "services": [
      "Arabic-speaking Sales tax compliance in Ohio consultation",
      "Professional service",
      "Quality guarantee"
    ],
    "social_links": {}
  },
  {
    "name": "Clarus Partners",
    "address": "600 Superior Ave E, Suite 1300, Cleveland, OH 44114",
    "phone": "(216) 593-1400",
    "rating": 4.0,
    "reviews": 25,
    "website": "https://www.claruspartners.com/",
    "category": "Arabic-speaking Sales tax compliance in Ohio",
    "description": "Specializes in indirect tax compliance, consulting, and software solutions, including sales and use tax",
    "hours": "Mon-Fri 9AM-6PM",
    "services": [
      "Arabic-speaking Sales tax compliance in Ohio consultation",
      "Professional service",
      "Quality guarantee"
    ],
    "social_links": {}
  },
  {
    "name": "Corrigan Krause",
    "address": "2000 Auburn Dr, Suite 200, Westlake, OH 44145",
    "phone": "(440) 545-3800",
    "rating": 4.0,
    "reviews": 25,
    "website": "https://www.corrigankrause.com/",
    "category": "Arabic-speaking Sales tax compliance in Ohio",
    "description": "Provides state and local tax (SALT) expertise, including nexus studies, refund reviews, audit defense, and multi-state tax compliance",
    "hours": "Mon-Fri 9AM-6PM",
    "services": [
      "Arabic-speaking Sales tax compliance in Ohio consultation",
      "Professional service",
      "Quality guarantee"
    ],
    "social_links": {}
  },
  {
    "name": "Crowe LLP",
    "address": "100 E. Big Beaver Road, Suite 700, Troy, MI 48084 (with offices in Ohio)",
    "phone": "(248) 244-8400",
    "rating": 4.0,
    "reviews": 25,
    "website": "https://www.crowe.com/",
    "category": "Arabic-speaking Sales tax compliance in Ohio",
    "description": "Offers audit, tax, and consulting services to public and private entities, with a focus on industry expertise and technology",
    "hours": "Mon-Fri 9AM-6PM",
    "services": [
      "Arabic-speaking Sales tax compliance in Ohio consultation",
      "Professional service",
      "Quality guarantee"
    ],
    "social_links": {}
  },
  {
    "name": "Dinsmore & Shohl LLP",
    "address": "Multiple Ohio locations, including 255 E. Fifth Street, Suite 2900, Cincinnati, OH 45202",
    "phone": "(513) 929-3100",
    "rating": 4.0,
    "reviews": 25,
    "website": "https://www.dinsmore.com/",
    "category": "Arabic-speaking Sales tax compliance in Ohio",
    "description": "A full-service national law firm that provides legal services, which may include tax-related legal advice",
    "hours": "Mon-Fri 9AM-6PM",
    "services": [
      "Arabic-speaking Sales tax compliance in Ohio consultation",
      "Professional service",
      "Quality guarantee"
    ],
    "social_links": {}
  },
  {
    "name": "Sales Tax Helper LLC",
    "address": "Not explicitly listed, but serves Cincinnati, OH",
    "phone": "",
    "rating": 4.0,
    "reviews": 25,
    "website": "https://salestaxhelper.com/",
    "category": "Arabic-speaking Sales tax compliance in Ohio",
    "description": "Focuses on sales tax compliance, audit defense, litigation, and consulting for businesses in Ohio",
    "hours": "Mon-Fri 9AM-6PM",
    "services": [
      "Arabic-speaking Sales tax compliance in Ohio consultation",
      "Professional service",
      "Quality guarantee"
    ],
    "social_links": {}
  },
  {
    "name": "Berkheimer",
    "address": "Multiple locations, including 1049 N. Hermitage Rd., Hermitage, PA 16148 (serves Ohio businesses)",
    "phone": "(724) 962-7051",
    "rating": 4.0,
    "reviews": 25,
    "website": "https://www.berkheimer.com/",
    "category": "Arabic-speaking Sales tax compliance in Ohio",
    "description": "Provides tax administration services for individuals and businesses, including earned income tax, local services tax, and business privilege taxes",
    "hours": "Mon-Fri 9AM-6PM",
    "services": [
      "Arabic-speaking Sales tax compliance in Ohio consultation",
      "Professional service",
      "Quality guarantee"
    ],
    "social_links": {}
  },
  {
    "name": "ADP",
    "address": "Multiple locations, including 1000 W. 5th Ave, Columbus, OH 43212",
    "phone": "(614) 488-1111",
    "rating": 4.0,
    "reviews": 25,
    "website": "https://www.adp.com/",
    "category": "Arabic-speaking Sales tax compliance in Ohio",
    "description": "Offers a range of services for businesses, including payroll, HR, and tax compliance solutions",
    "hours": "Mon-Fri 9AM-6PM",
    "services": [
      "Arabic-speaking Sales tax compliance in Ohio consultation",
      "Professional service",
      "Quality guarantee"
    ],
    "social_links": {}
  },
  {
    "name": "Pennington & Associates (Arab CPA & Tax Accountant)",
    "address": "Not explicitly listed, but serves Arab, AL (may serve clients remotely or have connections in Ohio)",
    "phone": "",
    "rating": 4.0,
    "reviews": 25,
    "website": "https://www.penningtonandassociates.com/",
    "category": "Arabic-speaking Sales tax compliance in Ohio",
    "description": "This firm explicitly mentions serving \"Arab businesses\" and offers CPA and tax accountant services, suggesting potential language capabilities",
    "hours": "Mon-Fri 9AM-6PM",
    "services": [
      "Arabic-speaking Sales tax compliance in Ohio consultation",
      "Professional service",
      "Quality guarantee"
    ],
    "social_links": {}
  },
  {
    "name": "Arabic Accountants Directory",
    "address": "Online directory, not a physical business location",
    "phone": "",
    "rating": 4.0,
    "reviews": 25,
    "website": "https://www.arabicaccountants.com/",
    "category": "Arabic-speaking Sales tax compliance in Ohio",
    "description": "This website is a directory to find Arabic-speaking accountants and CPAs across the US, which could be a resource to find professionals in Ohio",
    "hours": "Mon-Fri 9AM-6PM",
    "services": [
      "Arabic-speaking Sales tax compliance in Ohio consultation",
      "Professional service",
      "Quality guarantee"
    ],
    "social_links": {}
  }
]