[
  {
    "name": "Catholic Charities Community Services - International Center",
    "address": "Multiple locations throughout Manhattan and the Bronx (specific addresses for classes vary and are often at local parishes or agencies)",
    "phone": "(718) 726-9790 ext. 3033/3031 (for registration)",
    "rating": 4.0,
    "reviews": 25,
    "website": "https://www.catholiccharitiesny.org/our-services/immigrant-and-refugee-services/esol-and-citizenship-prep/",
    "category": "Catholic-owned Language instruction in New-York",
    "description": "Offers free English (ESOL) classes and citizenship preparation classes to immigrants, refugees, students, and other newcomers",
    "hours": "Mon-Fri 9AM-6PM",
    "services": [
      "Catholic-owned Language instruction in New-York consultation",
      "Professional service",
      "Quality guarantee"
    ],
    "social_links": {}
  },
  {
    "name": "Catholic Charities of Brooklyn and Queens - ESOL Program",
    "address": "Various locations including Corpus Christi Roman Catholic Church (Woodside, Queens), St Pius Jamaica, Our Lady of Sorrows in Corona, and St. Brendan's Church (Brooklyn)",
    "phone": "(718) 726-9790 ext. 3010 or (347) 831-0685",
    "rating": 4.0,
    "reviews": 25,
    "website": "https://www.ccbq.org/esol-classes/",
    "category": "Catholic-owned Language instruction in New-York",
    "description": "Provides free literacy programming to adult English Learners to improve their English skills. Also offers social services and legal referral information",
    "hours": "Mon-Fri 9AM-6PM",
    "services": [
      "Catholic-owned Language instruction in New-York consultation",
      "Professional service",
      "Quality guarantee"
    ],
    "social_links": {}
  },
  {
    "name": "St. Michael's Catholic Academy - English-Mandarin Dual-Language Program",
    "address": "118-14 14th Ave, Flushing, NY 11354",
    "phone": "(718) 539-3444",
    "rating": 4.0,
    "reviews": 25,
    "website": "https://www.stmichaelscatholicacademy.org/",
    "category": "Catholic-owned Language instruction in New-York",
    "description": "Offers an English-Mandarin dual-language program for students from Kindergarten through 8th grade",
    "hours": "Mon-Fri 9AM-6PM",
    "services": [
      "Catholic-owned Language instruction in New-York consultation",
      "Professional service",
      "Quality guarantee"
    ],
    "social_links": {}
  },
  {
    "name": "School of the Blessed Sacrament - Spanish Classes",
    "address": "147 West 71st Street, New York, NY 10023",
    "phone": "(212) 877-3845",
    "rating": 4.0,
    "reviews": 25,
    "website": "https://www.schooloftheblessedsacrament.org/",
    "category": "Catholic-owned Language instruction in New-York",
    "description": "Offers weekly Spanish classes for children in PreK-8, introducing basic vocabulary, conversational skills, and Spanish culture",
    "hours": "Mon-Fri 9AM-6PM",
    "services": [
      "Catholic-owned Language instruction in New-York consultation",
      "Professional service",
      "Quality guarantee"
    ],
    "social_links": {}
  },
  {
    "name": "Our Lady of the Blessed Sacrament Catholic Academy - Foreign Language Program",
    "address": "201-02 73rd Ave, Bayside, NY 11364",
    "phone": "(718) 479-3267",
    "rating": 4.0,
    "reviews": 25,
    "website": "https://www.olbs-ca.org/",
    "category": "Catholic-owned Language instruction in New-York",
    "description": "Offers Spanish language and culture enrichment programs for students in grades K-8",
    "hours": "Mon-Fri 9AM-6PM",
    "services": [
      "Catholic-owned Language instruction in New-York consultation",
      "Professional service",
      "Quality guarantee"
    ],
    "social_links": {}
  },
  {
    "name": "John F. Kennedy Catholic Preparatory School - World Languages Department",
    "address": "54 Route 138, Somers, NY 10589",
    "phone": "(914) 669-5150",
    "rating": 4.0,
    "reviews": 25,
    "website": "https://www.\u0c02\u0c26\u0c41.org/",
    "category": "Catholic-owned Language instruction in New-York",
    "description": "Offers a 4-year language program in Italian, Spanish, and Latin for high school students",
    "hours": "Mon-Fri 9AM-6PM",
    "services": [
      "Catholic-owned Language instruction in New-York consultation",
      "Professional service",
      "Quality guarantee"
    ],
    "social_links": {}
  },
  {
    "name": "Bay Ridge Catholic - Foreign Language Instruction",
    "address": "365 83rd St, Brooklyn, NY 11209",
    "phone": "(718) 745-7643",
    "rating": 4.0,
    "reviews": 25,
    "website": "https://www.bayridgecatholic.org/",
    "category": "Catholic-owned Language instruction in New-York",
    "description": "Offers foreign language instruction as part of its curriculum for students",
    "hours": "Mon-Fri 9AM-6PM",
    "services": [
      "Catholic-owned Language instruction in New-York consultation",
      "Professional service",
      "Quality guarantee"
    ],
    "social_links": {}
  },
  {
    "name": "Catholic Schools in the Archdiocese of New York",
    "address": "488 Madison Avenue, 3rd Floor, New York, NY 10022",
    "phone": "(212) 371-5000",
    "rating": 4.0,
    "reviews": 25,
    "website": "https://www.catholicschoolsny.org/",
    "category": "Catholic-owned Language instruction in New-York",
    "description": "This archdiocese oversees numerous Catholic schools that may offer language programs as part of their curriculum. Specific language offerings and contact information would vary by individual school",
    "hours": "Mon-Fri 9AM-6PM",
    "services": [
      "Catholic-owned Language instruction in New-York consultation",
      "Professional service",
      "Quality guarantee"
    ],
    "social_links": {}
  },
  {
    "name": "Fordham University - Language Programs",
    "address": "Multiple campuses including Rose Hill (Bronx) and Lincoln Center (Manhattan)",
    "phone": "(718) 817-1000 (Rose Hill) / (212) 636-6000 (Lincoln Center)",
    "rating": 4.0,
    "reviews": 25,
    "website": "https://www.fordham.edu/",
    "category": "Catholic-owned Language instruction in New-York",
    "description": "As a Jesuit university, Fordham offers a variety of language programs and courses within its academic departments",
    "hours": "Mon-Fri 9AM-6PM",
    "services": [
      "Catholic-owned Language instruction in New-York consultation",
      "Professional service",
      "Quality guarantee"
    ],
    "social_links": {}
  },
  {
    "name": "Jesuit Volunteer Corps (JVC) - Language Opportunities",
    "address": "Various locations in New York, including Harlem and the Bronx",
    "phone": "(212) 601-4210 (New York Regional Office)",
    "rating": 4.0,
    "reviews": 25,
    "website": "https://www.jesuitvolunteers.org/",
    "category": "Catholic-owned Language instruction in New-York",
    "description": "While not a direct language instruction business, JVC often places volunteers in roles that involve language use or support, particularly in communities with diverse linguistic needs. Some volunteers may also engage in language learning as part of their service",
    "hours": "Mon-Fri 9AM-6PM",
    "services": [
      "Catholic-owned Language instruction in New-York consultation",
      "Professional service",
      "Quality guarantee"
    ],
    "social_links": {}
  }
]