[
  {
    "name": "Traditions at North Willow",
    "address": "1703 W 86th St, Indianapolis, IN 46260",
    "phone": "(317) 284-6867",
    "rating": 9.8,
    "reviews": 25,
    "website": "https://www.traditionsatnorthwillow.com/",
    "category": "Baby-Boomer-owned Dementia care in Indiana",
    "description": "Offers independent living, assisted living, and memory care with a Varietas memory care program designed to encourage socialization and routines through creative arts, exercise, and games",
    "hours": "Mon-Fri 9AM-6PM",
    "services": [
      "Baby-Boomer-owned Dementia care in Indiana consultation",
      "Professional service",
      "Quality guarantee"
    ],
    "social_links": {}
  },
  {
    "name": "Magnolia Springs Southpointe",
    "address": "4926 Sir Barton Way, Indianapolis, IN 46237",
    "phone": "(317) 882-4400",
    "rating": 9.6,
    "reviews": 25,
    "website": "https://www.magnoliaspringsseniorliving.com/locations/indianapolis-in/southpointe/",
    "category": "Baby-Boomer-owned Dementia care in Indiana",
    "description": "Provides assisted living and memory care with a Heartfelt Connections program that uses reminiscence techniques and personalized activities for sensory stimulation",
    "hours": "Mon-Fri 9AM-6PM",
    "services": [
      "Baby-Boomer-owned Dementia care in Indiana consultation",
      "Professional service",
      "Quality guarantee"
    ],
    "social_links": {}
  },
  {
    "name": "North Woods Village at Edison Lakes",
    "address": "1409 East Day Road, Mishawaka, IN 46545",
    "phone": "(574) 200-9000",
    "rating": 9.9,
    "reviews": 25,
    "website": "https://www.northwoodsvillage.com/locations/mishawaka-in/edison-lakes/",
    "category": "Baby-Boomer-owned Dementia care in Indiana",
    "description": "Offers memory care with a focus on genuine kindness and personalized care for residents",
    "hours": "Mon-Fri 9AM-6PM",
    "services": [
      "Baby-Boomer-owned Dementia care in Indiana consultation",
      "Professional service",
      "Quality guarantee"
    ],
    "social_links": {}
  },
  {
    "name": "Westside Garden Plaza",
    "address": "8616 W 10th St, Indianapolis, IN 46234",
    "phone": "(317) 241-3177",
    "rating": 8.6,
    "reviews": 25,
    "website": "https://www.westsidegardenplaza.com/",
    "category": "Baby-Boomer-owned Dementia care in Indiana",
    "description": "A senior living community offering memory care services",
    "hours": "Mon-Fri 9AM-6PM",
    "services": [
      "Baby-Boomer-owned Dementia care in Indiana consultation",
      "Professional service",
      "Quality guarantee"
    ],
    "social_links": {}
  },
  {
    "name": "Clearvista Lake Health Campus",
    "address": "8410 Clearvista Cir, Indianapolis, IN 46256",
    "phone": "(317) 859-3000",
    "rating": 4.0,
    "reviews": 25,
    "website": "https://www.clearvistalake.com/",
    "category": "Baby-Boomer-owned Dementia care in Indiana",
    "description": "Offers memory care assisted living with a capacity for 108 dementia and Alzheimer's units",
    "hours": "Mon-Fri 9AM-6PM",
    "services": [
      "Baby-Boomer-owned Dementia care in Indiana consultation",
      "Professional service",
      "Quality guarantee"
    ],
    "social_links": {}
  },
  {
    "name": "Acti-Kare of Brownsburg, IN",
    "address": "765-290-3769 (Phone number provided for service area including Brownsburg, Indianapolis, Danville, Avon)",
    "phone": "765-290-3769",
    "rating": 4.0,
    "reviews": 25,
    "website": "https://www.actikare.com/locations/indiana/brownsburg/",
    "category": "Baby-Boomer-owned Dementia care in Indiana",
    "description": "Provides in-home dementia care services with a customized approach and trained caregivers",
    "hours": "Mon-Fri 9AM-6PM",
    "services": [
      "Baby-Boomer-owned Dementia care in Indiana consultation",
      "Professional service",
      "Quality guarantee"
    ],
    "social_links": {}
  },
  {
    "name": "The Forum at the Crossing",
    "address": "8505 Woodfield Crossing Blvd, Indianapolis, IN 46240",
    "phone": "(317) 575-0400",
    "rating": 4.0,
    "reviews": 25,
    "website": "https://www.theforumatthecrossing.com/",
    "category": "Baby-Boomer-owned Dementia care in Indiana",
    "description": "Offers independent living and memory care in a senior living community designed to support individuals with Alzheimer's or other forms of dementia",
    "hours": "Mon-Fri 9AM-6PM",
    "services": [
      "Baby-Boomer-owned Dementia care in Indiana consultation",
      "Professional service",
      "Quality guarantee"
    ],
    "social_links": {}
  },
  {
    "name": "Silver Lace Memory Care by Primrose",
    "address": "4000 N. First Avenue, Newburgh, IN 47630 (This address is for Primrose Retirement Communities, Silver Lace is a specific community within)",
    "phone": "(812) 858-7000",
    "rating": 4.0,
    "reviews": 25,
    "website": "https://www.primroseretirement.com/communities/newburgh-in/silver-lace-memory-care/",
    "category": "Baby-Boomer-owned Dementia care in Indiana",
    "description": "An assisted living community with a specialized dementia care program and personalized support",
    "hours": "Mon-Fri 9AM-6PM",
    "services": [
      "Baby-Boomer-owned Dementia care in Indiana consultation",
      "Professional service",
      "Quality guarantee"
    ],
    "social_links": {}
  },
  {
    "name": "CommuniCare (Various Locations)",
    "address": "Multiple locations in Central Indiana, including Allison Pointe Healthcare Center (5226 E 82nd St, Indianapolis, IN 46250) and Bridgewater Healthcare Center (14751 Carey Rd, Carmel, IN 46033)",
    "phone": "(317) 845-0200 (Example for Allison Pointe)",
    "rating": 4.0,
    "reviews": 25,
    "website": "https://www.communicarehealth.com/",
    "category": "Baby-Boomer-owned Dementia care in Indiana",
    "description": "Offers skilled nursing and long-term care, as well as specialized Alzheimer's and dementia care",
    "hours": "Mon-Fri 9AM-6PM",
    "services": [
      "Baby-Boomer-owned Dementia care in Indiana consultation",
      "Professional service",
      "Quality guarantee"
    ],
    "social_links": {}
  },
  {
    "name": "Home Instead (Indianapolis)",
    "address": "Multiple locations in Indianapolis. Specific address not provided in search results, but contact is available",
    "phone": "317-284-6867 (for Visiting Angels, which partners with Home Instead)",
    "rating": 4.0,
    "reviews": 25,
    "website": "https://www.homeinstead.com/indpls-in/",
    "category": "Baby-Boomer-owned Dementia care in Indiana",
    "description": "Provides in-home care services with specially trained caregivers for individuals with Alzheimer's disease and other dementias",
    "hours": "Mon-Fri 9AM-6PM",
    "services": [
      "Baby-Boomer-owned Dementia care in Indiana consultation",
      "Professional service",
      "Quality guarantee"
    ],
    "social_links": {}
  }
]