[
  {
    "name": "City Tire",
    "address": "25 Avocado Street, Springfield, MA 01104",
    "phone": "(413) 737-7467",
    "rating": 4.0,
    "reviews": 25,
    "website": "https://www.citytire.com/",
    "category": "Arabic-speaking Tire repair in Massachusetts",
    "description": "A family-owned business with multiple locations serving Massachusetts, New Hampshire, and Connecticut, offering a wide range of tires and auto repair services",
    "hours": "Mon-Fri 9AM-6PM",
    "services": [
      "Arabic-speaking Tire repair in Massachusetts consultation",
      "Professional service",
      "Quality guarantee"
    ],
    "social_links": {}
  },
  {
    "name": "First Class Tire Shop Inc.",
    "address": "165 S Broadway, Lawrence, MA 01843",
    "phone": "(978) 688-0000",
    "rating": 4.0,
    "reviews": 25,
    "website": "https://www.firstclasstirelawrence.com/",
    "category": "Arabic-speaking Tire repair in Massachusetts",
    "description": "A full-service tire repair shop offering flat tire repair, installation, and balancing with experienced professionals",
    "hours": "Mon-Fri 9AM-6PM",
    "services": [
      "Arabic-speaking Tire repair in Massachusetts consultation",
      "Professional service",
      "Quality guarantee"
    ],
    "social_links": {}
  },
  {
    "name": "Raymond's Tire Shop",
    "address": "1035 Blue Hill Ave, Dorchester, MA 02124",
    "phone": "(617) 436-5523",
    "rating": 4.0,
    "reviews": 25,
    "website": "https://raymondstireshop.com/",
    "category": "Arabic-speaking Tire repair in Massachusetts",
    "description": "Offers new and used tires, tire installations, repairs, rotations, and balancing services with over 40 years of experience",
    "hours": "Mon-Fri 9AM-6PM",
    "services": [
      "Arabic-speaking Tire repair in Massachusetts consultation",
      "Professional service",
      "Quality guarantee"
    ],
    "social_links": {}
  },
  {
    "name": "Firestone Complete Auto Care",
    "address": "7980 S Broadway, Littleton, CO 80122 (Note: This is a Colorado address, but they have locations in Massachusetts. A specific Massachusetts address was not found in the search results.)",
    "phone": "",
    "rating": 4.0,
    "reviews": 25,
    "website": "https://www.firestonecompleteautocare.com/",
    "category": "Arabic-speaking Tire repair in Massachusetts",
    "description": "Provides a wide range of tire services, including maintenance, repair, and sales of top tire brands",
    "hours": "Mon-Fri 9AM-6PM",
    "services": [
      "Arabic-speaking Tire repair in Massachusetts consultation",
      "Professional service",
      "Quality guarantee"
    ],
    "social_links": {}
  },
  {
    "name": "A & B Tire Service",
    "address": "1183 Central Street (Rte. 12), Leominster, MA 01453",
    "phone": "(978) 537-2722",
    "rating": 4.0,
    "reviews": 25,
    "website": "https://www.abtire.com/",
    "category": "Arabic-speaking Tire repair in Massachusetts",
    "description": "A family-owned business specializing in passenger and commercial tires, basic auto service, and repair",
    "hours": "Mon-Fri 9AM-6PM",
    "services": [
      "Arabic-speaking Tire repair in Massachusetts consultation",
      "Professional service",
      "Quality guarantee"
    ],
    "social_links": {}
  },
  {
    "name": "Plymouth Tire Pros",
    "address": "103 Long Pond Rd, Plymouth, MA 02360",
    "phone": "(508) 746-5555",
    "rating": 4.0,
    "reviews": 25,
    "website": "https://www.plymouthtirepros.com/",
    "category": "Arabic-speaking Tire repair in Massachusetts",
    "description": "Offers auto repair and tire services, known for honest and professional service with a broad selection of tires",
    "hours": "Mon-Fri 9AM-6PM",
    "services": [
      "Arabic-speaking Tire repair in Massachusetts consultation",
      "Professional service",
      "Quality guarantee"
    ],
    "social_links": {}
  },
  {
    "name": "My Tire Guys",
    "address": "Serves the Greater Boston Area (Mobile service, specific shop address not provided in search results)",
    "phone": "(617) 314-7464",
    "rating": 4.0,
    "reviews": 25,
    "website": "https://mytireguys.com/",
    "category": "Arabic-speaking Tire repair in Massachusetts",
    "description": "A mobile tire shop that comes to your location for tire sales, installation, flat tire repair, and seasonal changes",
    "hours": "Mon-Fri 9AM-6PM",
    "services": [
      "Arabic-speaking Tire repair in Massachusetts consultation",
      "Professional service",
      "Quality guarantee"
    ],
    "social_links": {}
  },
  {
    "name": "Tire Pros",
    "address": "Multiple locations across Massachusetts (Specific address not provided in search results)",
    "phone": "",
    "rating": 4.0,
    "reviews": 25,
    "website": "https://www.tirepros.com/",
    "category": "Arabic-speaking Tire repair in Massachusetts",
    "description": "A network of tire dealers offering a wide range of tire brands and automotive services",
    "hours": "Mon-Fri 9AM-6PM",
    "services": [
      "Arabic-speaking Tire repair in Massachusetts consultation",
      "Professional service",
      "Quality guarantee"
    ],
    "social_links": {}
  },
  {
    "name": "Tire Rack",
    "address": "While primarily an online retailer, they have partner installers across Massachusetts. (Specific shop address not provided in search results)",
    "phone": "1-888-541-1777",
    "rating": 4.0,
    "reviews": 25,
    "website": "https://www.tirerack.com/",
    "category": "Arabic-speaking Tire repair in Massachusetts",
    "description": "An online retailer of tires and wheels, with a network of local installers for service",
    "hours": "Mon-Fri 9AM-6PM",
    "services": [
      "Arabic-speaking Tire repair in Massachusetts consultation",
      "Professional service",
      "Quality guarantee"
    ],
    "social_links": {}
  },
  {
    "name": "Discount Tire",
    "address": "Multiple locations across Massachusetts (Specific address not provided in search results)",
    "phone": "1-800-381-3275",
    "rating": 4.0,
    "reviews": 25,
    "website": "https://www.discounttire.com/",
    "category": "Arabic-speaking Tire repair in Massachusetts",
    "description": "Offers a wide selection of tires and wheels, along with services like tire installation, balancing, and rotation",
    "hours": "Mon-Fri 9AM-6PM",
    "services": [
      "Arabic-speaking Tire repair in Massachusetts consultation",
      "Professional service",
      "Quality guarantee"
    ],
    "social_links": {}
  }
]