[
  {
    "name": "Lapis Design Partners",
    "address": "Not specified in search results",
    "phone": "",
    "rating": 4.0,
    "reviews": 25,
    "website": "https://www.lapisdesignpartners.com/",
    "category": "Black-owned Space planning in Hawaii",
    "description": "An architectural design firm founded by John August Black, offering interior design services",
    "hours": "Mon-Fri 9AM-6PM",
    "services": [
      "Black-owned Space planning in Hawaii consultation",
      "Professional service",
      "Quality guarantee"
    ],
    "social_links": {}
  },
  {
    "name": "Studio Palomino",
    "address": "Kailua-Kona, Hawaii",
    "phone": "",
    "rating": 4.0,
    "reviews": 25,
    "website": "https://studiopalomino.com/",
    "category": "Black-owned Space planning in Hawaii",
    "description": "An interior design studio led by Barbie Palomino, with over 15 years of experience",
    "hours": "Mon-Fri 9AM-6PM",
    "services": [
      "Black-owned Space planning in Hawaii consultation",
      "Professional service",
      "Quality guarantee"
    ],
    "social_links": {}
  },
  {
    "name": "Kole Kala Interiors",
    "address": "Honolulu, HI and San Diego, CA",
    "phone": "",
    "rating": 4.0,
    "reviews": 25,
    "website": "https://kolekala.com/",
    "category": "Black-owned Space planning in Hawaii",
    "description": "A luxury interior design firm specializing in residential and hospitality design, offering space planning services",
    "hours": "Mon-Fri 9AM-6PM",
    "services": [
      "Black-owned Space planning in Hawaii consultation",
      "Professional service",
      "Quality guarantee"
    ],
    "social_links": {}
  },
  {
    "name": "MCYIA",
    "address": "Hawaii",
    "phone": "",
    "rating": 4.0,
    "reviews": 25,
    "website": "https://www.mcyia.com/",
    "category": "Black-owned Space planning in Hawaii",
    "description": "An interior architecture and interior design firm founded and led by Chuen Yee",
    "hours": "Mon-Fri 9AM-6PM",
    "services": [
      "Black-owned Space planning in Hawaii consultation",
      "Professional service",
      "Quality guarantee"
    ],
    "social_links": {}
  },
  {
    "name": "OASIS STAGING + DESIGN",
    "address": "Oahu, Hawaii",
    "phone": "",
    "rating": 4.0,
    "reviews": 25,
    "website": "https://www.oasisstaginghawaii.com/",
    "category": "Black-owned Space planning in Hawaii",
    "description": "Offers home staging and interior design services across Oahu",
    "hours": "Mon-Fri 9AM-6PM",
    "services": [
      "Black-owned Space planning in Hawaii consultation",
      "Professional service",
      "Quality guarantee"
    ],
    "social_links": {}
  },
  {
    "name": "Dream Decor LLC",
    "address": "Ewa Beach, HI",
    "phone": "",
    "rating": 4.0,
    "reviews": 25,
    "website": "https://www.dreamdecorllc.com/",
    "category": "Black-owned Space planning in Hawaii",
    "description": "Provides professional home staging and redesign services to the island of Oahu",
    "hours": "Mon-Fri 9AM-6PM",
    "services": [
      "Black-owned Space planning in Hawaii consultation",
      "Professional service",
      "Quality guarantee"
    ],
    "social_links": {}
  },
  {
    "name": "Lotus Home Staging & Redesign",
    "address": "Kailua, Hawaii 96734",
    "phone": "808-282-2419",
    "rating": 4.0,
    "reviews": 25,
    "website": "https://www.lotushomestaginghawaii.com/",
    "category": "Black-owned Space planning in Hawaii",
    "description": "A home staging business on Oahu with experience in coastal and beachy designs",
    "hours": "Mon-Fri 9AM-6PM",
    "services": [
      "Black-owned Space planning in Hawaii consultation",
      "Professional service",
      "Quality guarantee"
    ],
    "social_links": {}
  },
  {
    "name": "Aloha Staged Interiors LLC",
    "address": "Hawaii",
    "phone": "808.347.3883",
    "rating": 4.0,
    "reviews": 25,
    "website": "https://www.google.com/maps/search/Aloha+Staged+Interiors+LLC+in+Hawaii",
    "category": "Black-owned Space planning in Hawaii",
    "description": "Offers home staging services to help showcase properties",
    "hours": "Mon-Fri 9AM-6PM",
    "services": [
      "Black-owned Space planning in Hawaii consultation",
      "Professional service",
      "Quality guarantee"
    ],
    "social_links": {}
  },
  {
    "name": "RMA Architects",
    "address": "Hawaii",
    "phone": "",
    "rating": 4.0,
    "reviews": 25,
    "website": "https://rma-architects.com/",
    "category": "Black-owned Space planning in Hawaii",
    "description": "Provides architecture, planning, and interior design services",
    "hours": "Mon-Fri 9AM-6PM",
    "services": [
      "Black-owned Space planning in Hawaii consultation",
      "Professional service",
      "Quality guarantee"
    ],
    "social_links": {}
  },
  {
    "name": "AHL (Architects Hawaii Limited)",
    "address": "Hawaii",
    "phone": "",
    "rating": 4.0,
    "reviews": 25,
    "website": "https://www.ahlhawaii.com/",
    "category": "Black-owned Space planning in Hawaii",
    "description": "A full-service architecture firm specializing in architecture, master planning, and interior design",
    "hours": "Mon-Fri 9AM-6PM",
    "services": [
      "Black-owned Space planning in Hawaii consultation",
      "Professional service",
      "Quality guarantee"
    ],
    "social_links": {}
  }
]