[
  {
    "name": "Binkley Horticulture Services",
    "address": "Wilmington, DE",
    "phone": "(484) 459-2391",
    "rating": 4.5,
    "reviews": 25,
    "website": "https://www.binkleyhorticulture.com/",
    "category": "Arabic-speaking Flower bed design in Delaware",
    "description": "Specializes in garden design, installation, and seasonal floral displays for residential and commercial clients",
    "hours": "Mon-Fri 9AM-6PM",
    "services": [
      "Arabic-speaking Flower bed design in Delaware consultation",
      "Professional service",
      "Quality guarantee"
    ],
    "social_links": {}
  },
  {
    "name": "The Wilmington Florist",
    "address": "Wilmington, DE",
    "phone": "(302) 420-7817",
    "rating": 4.8,
    "reviews": 25,
    "website": "https://www.thewilmingtonflorist.com/",
    "category": "Arabic-speaking Flower bed design in Delaware",
    "description": "Offers modern floral design for weddings, events, and everyday needs, with expertise in horticulture and garden design",
    "hours": "Mon-Fri 9AM-6PM",
    "services": [
      "Arabic-speaking Flower bed design in Delaware consultation",
      "Professional service",
      "Quality guarantee"
    ],
    "social_links": {}
  },
  {
    "name": "Bailey's Lawn and Landscape",
    "address": "Middletown, DE 19709",
    "phone": "(302) 376-7000",
    "rating": 4.7,
    "reviews": 25,
    "website": "https://www.baileyslawnandlandscape.com/",
    "category": "Arabic-speaking Flower bed design in Delaware",
    "description": "Provides comprehensive landscaping, hardscaping, irrigation, and lawn care services",
    "hours": "Mon-Fri 9AM-6PM",
    "services": [
      "Arabic-speaking Flower bed design in Delaware consultation",
      "Professional service",
      "Quality guarantee"
    ],
    "social_links": {}
  },
  {
    "name": "The Cutting Edge of Delaware",
    "address": "Wilmington, DE",
    "phone": "(302) 455-1111",
    "rating": 4.6,
    "reviews": 25,
    "website": "https://www.cuttingedgedelaware.com/",
    "category": "Arabic-speaking Flower bed design in Delaware",
    "description": "Offers a wide range of lawn and landscaping services, including hardscaping, tree work, and property maintenance",
    "hours": "Mon-Fri 9AM-6PM",
    "services": [
      "Arabic-speaking Flower bed design in Delaware consultation",
      "Professional service",
      "Quality guarantee"
    ],
    "social_links": {}
  },
  {
    "name": "Dual Edge Lawn & Landscape",
    "address": "New Castle County, DE",
    "phone": "(302) 444-3333",
    "rating": 4.9,
    "reviews": 25,
    "website": "https://dual-edge-lawn-landscape.business.site/",
    "category": "Arabic-speaking Flower bed design in Delaware",
    "description": "A family-owned company providing top-quality landscaping and hardscaping services with a focus on customer service and attention to detail",
    "hours": "Mon-Fri 9AM-6PM",
    "services": [
      "Arabic-speaking Flower bed design in Delaware consultation",
      "Professional service",
      "Quality guarantee"
    ],
    "social_links": {}
  },
  {
    "name": "EdenScapes Landscaping & Hardscaping",
    "address": "Wilmington, DE",
    "phone": "(302) 543-1050",
    "rating": 4.8,
    "reviews": 25,
    "website": "https://www.edenscapesde.com/",
    "category": "Arabic-speaking Flower bed design in Delaware",
    "description": "Offers professional landscaping and garden installation services, specializing in custom designs and sustainable practices",
    "hours": "Mon-Fri 9AM-6PM",
    "services": [
      "Arabic-speaking Flower bed design in Delaware consultation",
      "Professional service",
      "Quality guarantee"
    ],
    "social_links": {}
  },
  {
    "name": "Eastern Horticultural Services",
    "address": "Chester County, PA (serving Delaware Valley)",
    "phone": "(610) 444-0500",
    "rating": 4.7,
    "reviews": 25,
    "website": "https://www.easternhort.com/",
    "category": "Arabic-speaking Flower bed design in Delaware",
    "description": "Provides full-service landscaping, grounds maintenance, and property management with a focus on client satisfaction and craftsmanship",
    "hours": "Mon-Fri 9AM-6PM",
    "services": [
      "Arabic-speaking Flower bed design in Delaware consultation",
      "Professional service",
      "Quality guarantee"
    ],
    "social_links": {}
  },
  {
    "name": "Green Acres Lawn & Landscaping",
    "address": "Wilmington, DE",
    "phone": "(302) 475-7100",
    "rating": 4.5,
    "reviews": 25,
    "website": "https://www.greenacresde.com/",
    "category": "Arabic-speaking Flower bed design in Delaware",
    "description": "Offers exceptional commercial and residential landscaping services, including design, installation, and maintenance",
    "hours": "Mon-Fri 9AM-6PM",
    "services": [
      "Arabic-speaking Flower bed design in Delaware consultation",
      "Professional service",
      "Quality guarantee"
    ],
    "social_links": {}
  },
  {
    "name": "Jobe's Landscape",
    "address": "Sussex County, DE",
    "phone": "(302) 645-1010",
    "rating": 4.9,
    "reviews": 25,
    "website": "https://jobeslandscape.com/",
    "category": "Arabic-speaking Flower bed design in Delaware",
    "description": "Specializes in landscape design and installation, serving residential and commercial clients with a focus on creating beautiful and functional outdoor spaces",
    "hours": "Mon-Fri 9AM-6PM",
    "services": [
      "Arabic-speaking Flower bed design in Delaware consultation",
      "Professional service",
      "Quality guarantee"
    ],
    "social_links": {}
  },
  {
    "name": "Delaware Dreamscapes LLC",
    "address": "Middletown, DE",
    "phone": "(302) 312-4763",
    "rating": 4.8,
    "reviews": 25,
    "website": "https://www.delawaredreamscapes.com/",
    "category": "Arabic-speaking Flower bed design in Delaware",
    "description": "A leading landscaping and hardscaping company specializing in custom outdoor living areas and landscape design",
    "hours": "Mon-Fri 9AM-6PM",
    "services": [
      "Arabic-speaking Flower bed design in Delaware consultation",
      "Professional service",
      "Quality guarantee"
    ],
    "social_links": {}
  }
]