[
  {
    "name": "The Audio Garage",
    "address": "1020 42nd St S, Fargo, ND 58103",
    "phone": "(701) 237-2699",
    "rating": 4.7,
    "reviews": 25,
    "website": "https://www.theaudiogarage.com/",
    "category": "Central-American-owned Window tinting in North-Dakota",
    "description": "Offers automotive, residential, and commercial window tinting services using high-quality Suntek films, with a focus on expert installation and UV protection",
    "hours": "Mon-Fri 9AM-6PM",
    "services": [
      "Central-American-owned Window tinting in North-Dakota consultation",
      "Professional service",
      "Quality guarantee"
    ],
    "social_links": {}
  },
  {
    "name": "Tint Condition Window Tinting LLC",
    "address": "112 1st Ave NE, Lisbon, ND 58054",
    "phone": "(701) 308-0920",
    "rating": 4.0,
    "reviews": 25,
    "website": "https://www.tintcondition.com/",
    "category": "Central-American-owned Window tinting in North-Dakota",
    "description": "Provides professional automotive, residential, and commercial window tinting services, including paint protection film, with a lifetime warranty",
    "hours": "Mon-Fri 9AM-6PM",
    "services": [
      "Central-American-owned Window tinting in North-Dakota consultation",
      "Professional service",
      "Quality guarantee"
    ],
    "social_links": {}
  },
  {
    "name": "Window Tint Pros & Automotive Accessories",
    "address": "1115 38th St S, Fargo, ND 58103",
    "phone": "(701) 237-2777",
    "rating": 4.0,
    "reviews": 25,
    "website": "https://www.windowtintpros.com/",
    "category": "Central-American-owned Window tinting in North-Dakota",
    "description": "Offers window tinting, paint protection, remote starters, and truck accessories",
    "hours": "Mon-Fri 9AM-6PM",
    "services": [
      "Central-American-owned Window tinting in North-Dakota consultation",
      "Professional service",
      "Quality guarantee"
    ],
    "social_links": {}
  },
  {
    "name": "Tint-Pro & Custom Accessories",
    "address": "1600 N Washington St, Bismarck, ND 58501",
    "phone": "(701) 751-8468",
    "rating": 4.0,
    "reviews": 25,
    "website": "https://www.tint-pro.com/",
    "category": "Central-American-owned Window tinting in North-Dakota",
    "description": "Specializes in window tinting for cars, homes, and businesses, as well as remote car starters, with over 15 years of experience",
    "hours": "Mon-Fri 9AM-6PM",
    "services": [
      "Central-American-owned Window tinting in North-Dakota consultation",
      "Professional service",
      "Quality guarantee"
    ],
    "social_links": {}
  },
  {
    "name": "Straight Line Detailing",
    "address": "1020 42nd St S, Fargo, ND 58103",
    "phone": "(701) 540-0770",
    "rating": 4.9,
    "reviews": 25,
    "website": "https://www.straightlinedetailing.com/",
    "category": "Central-American-owned Window tinting in North-Dakota",
    "description": "Provides pro-quality window tint film packages for vehicles, focusing on elevated style, interior protection, and precise installation with high-performance films",
    "hours": "Mon-Fri 9AM-6PM",
    "services": [
      "Central-American-owned Window tinting in North-Dakota consultation",
      "Professional service",
      "Quality guarantee"
    ],
    "social_links": {}
  },
  {
    "name": "Kepler Dealer",
    "address": "Not specified (operates in North Dakota)",
    "phone": "",
    "rating": 4.0,
    "reviews": 25,
    "website": "https://www.keplerdealer.com/",
    "category": "Central-American-owned Window tinting in North-Dakota",
    "description": "Offers professional car window tinting services in North Dakota using cutting-edge nanotechnology films for superior heat rejection and UV protection, backed by a lifetime warranty",
    "hours": "Mon-Fri 9AM-6PM",
    "services": [
      "Central-American-owned Window tinting in North-Dakota consultation",
      "Professional service",
      "Quality guarantee"
    ],
    "social_links": {}
  },
  {
    "name": "Solar Control Films",
    "address": "Distribution Warehouse: 6100 Chapman St, Houston, TX 77022 (serves North Dakota)",
    "phone": "(713) 681-3000",
    "rating": 4.0,
    "reviews": 25,
    "website": "https://www.solarcontrolfilms.com/",
    "category": "Central-American-owned Window tinting in North-Dakota",
    "description": "A distributor of automotive and architectural window films, providing products that comply with North Dakota's tint laws",
    "hours": "Mon-Fri 9AM-6PM",
    "services": [
      "Central-American-owned Window tinting in North-Dakota consultation",
      "Professional service",
      "Quality guarantee"
    ],
    "social_links": {}
  },
  {
    "name": "TERMINAX",
    "address": "Not specified (operates in North Dakota)",
    "phone": "",
    "rating": 4.0,
    "reviews": 25,
    "website": "https://www.terminax.com/",
    "category": "Central-American-owned Window tinting in North-Dakota",
    "description": "Offers premium tint films that meet North Dakota's VLT and reflectivity standards for automotive window tinting",
    "hours": "Mon-Fri 9AM-6PM",
    "services": [
      "Central-American-owned Window tinting in North-Dakota consultation",
      "Professional service",
      "Quality guarantee"
    ],
    "social_links": {}
  },
  {
    "name": "Rosie's Cantina",
    "address": "20 Main Street, Portal, ND 58772",
    "phone": "(701) 926-4000",
    "rating": 4.0,
    "reviews": 25,
    "website": "https://www.google.com/maps/search/Rosie's+Cantina+North+Dakota",
    "category": "Central-American-owned Window tinting in North-Dakota",
    "description": "A local eatery in Portal, ND, not a window tinting business",
    "hours": "Mon-Fri 9AM-6PM",
    "services": [
      "Central-American-owned Window tinting in North-Dakota consultation",
      "Professional service",
      "Quality guarantee"
    ],
    "social_links": {}
  },
  {
    "name": "GasTrak Service Station, Convenience Store and Motel",
    "address": "Railway Avenue, Portal, ND 58772",
    "phone": "(701) 926-4991",
    "rating": 4.0,
    "reviews": 25,
    "website": "https://www.google.com/maps/search/GasTrak+Service+Station,+Convenience+Store+and+Motel+North+Dakota",
    "category": "Central-American-owned Window tinting in North-Dakota",
    "description": "A gas station and convenience store in Portal, ND, not a window tinting business",
    "hours": "Mon-Fri 9AM-6PM",
    "services": [
      "Central-American-owned Window tinting in North-Dakota consultation",
      "Professional service",
      "Quality guarantee"
    ],
    "social_links": {}
  }
]