[
  {
    "name": "Remedy Clinic",
    "address": "1219 28th Ave, Gulfport, MS 39501",
    "phone": "(228) 432-6194",
    "rating": 4.5,
    "reviews": 25,
    "website": "https://remedyclinic.com/",
    "category": "Buddhist-owned Functional medicine in Mississippi",
    "description": "Offers functional medicine services focusing on identifying and addressing the root cause of disease, with a comprehensive approach to prevention and well-being",
    "hours": "Mon-Fri 9AM-6PM",
    "services": [
      "Buddhist-owned Functional medicine in Mississippi consultation",
      "Professional service",
      "Quality guarantee"
    ],
    "social_links": {}
  },
  {
    "name": "RE Wellness",
    "address": "4500 I-55 North, Jackson, MS 39211",
    "phone": "(601) 374-7411",
    "rating": 4.8,
    "reviews": 25,
    "website": "https://www.rewellness.com/",
    "category": "Buddhist-owned Functional medicine in Mississippi",
    "description": "A functional medicine clinic that also incorporates traditional medicine, natural, and alternative options to optimize health and create wellness",
    "hours": "Mon-Fri 9AM-6PM",
    "services": [
      "Buddhist-owned Functional medicine in Mississippi consultation",
      "Professional service",
      "Quality guarantee"
    ],
    "social_links": {}
  },
  {
    "name": "PEAK Integrative Medicine",
    "address": "1057 Highland Colony Pkwy Suite 100, Madison, MS 39110",
    "phone": "(601) 427-0077",
    "rating": 4.9,
    "reviews": 25,
    "website": "https://www.peakintegrativemedicine.com/",
    "category": "Buddhist-owned Functional medicine in Mississippi",
    "description": "Provides evidence-based, root-cause healthcare, focusing on digestive health, thyroid and hormone balancing, and detox plans",
    "hours": "Mon-Fri 9AM-6PM",
    "services": [
      "Buddhist-owned Functional medicine in Mississippi consultation",
      "Professional service",
      "Quality guarantee"
    ],
    "social_links": {}
  },
  {
    "name": "Sculpt Aesthetics & Wellness",
    "address": "1015 Flowood Dr, Flowood, MS 39232",
    "phone": "(601) 843-2745",
    "rating": 4.7,
    "reviews": 25,
    "website": "https://www.sculptaestheticsandwellness.com/",
    "category": "Buddhist-owned Functional medicine in Mississippi",
    "description": "Offers functional medicine with a personalized approach, considering lifestyle, genetics, and environment to address the root cause of health concerns",
    "hours": "Mon-Fri 9AM-6PM",
    "services": [
      "Buddhist-owned Functional medicine in Mississippi consultation",
      "Professional service",
      "Quality guarantee"
    ],
    "social_links": {}
  },
  {
    "name": "The WAE Clinic",
    "address": "1000 Highland Colony Pkwy Suite 100, Ridgeland, MS 39157",
    "phone": "(601) 427-0077",
    "rating": 4.9,
    "reviews": 25,
    "website": "https://waeclinic.com/",
    "category": "Buddhist-owned Functional medicine in Mississippi",
    "description": "Practices integrative and functional medicine, combining modern medical advancements with holistic strategies to identify and address root causes of health concerns",
    "hours": "Mon-Fri 9AM-6PM",
    "services": [
      "Buddhist-owned Functional medicine in Mississippi consultation",
      "Professional service",
      "Quality guarantee"
    ],
    "social_links": {}
  },
  {
    "name": "Innovative Health LLC",
    "address": "1057 Highland Colony Pkwy Suite 100, Madison, MS 39110",
    "phone": "(601) 427-0077",
    "rating": 4.9,
    "reviews": 25,
    "website": "https://www.innovativehealthllc.com/",
    "category": "Buddhist-owned Functional medicine in Mississippi",
    "description": "Utilizes a systems approach in integrative, functional, and lifestyle medicine, focusing on hormone balance, stress management, and natural weight loss",
    "hours": "Mon-Fri 9AM-6PM",
    "services": [
      "Buddhist-owned Functional medicine in Mississippi consultation",
      "Professional service",
      "Quality guarantee"
    ],
    "social_links": {}
  },
  {
    "name": "Wildflower Wellness, LLC",
    "address": "670 Weathersby Road, Suite 120, Hattiesburg, MS 39402",
    "phone": "(601) 287-3837",
    "rating": 4.8,
    "reviews": 25,
    "website": "https://www.wildflowerwellnessms.com/",
    "category": "Buddhist-owned Functional medicine in Mississippi",
    "description": "Focuses on creating optimal conditions for wellness and addressing the root causes of illness through naturopathic and integrative medicine",
    "hours": "Mon-Fri 9AM-6PM",
    "services": [
      "Buddhist-owned Functional medicine in Mississippi consultation",
      "Professional service",
      "Quality guarantee"
    ],
    "social_links": {}
  },
  {
    "name": "Personalized Wellness",
    "address": "1200 E Northside Dr Suite 101, Jackson, MS 39206",
    "phone": "(601) 981-5400",
    "rating": 4.5,
    "reviews": 25,
    "website": "https://www.personalizedwellness.com/",
    "category": "Buddhist-owned Functional medicine in Mississippi",
    "description": "Offers functional medicine services with a focus on comprehensive wellness solutions, including hormone balancing, diet, and lifestyle changes",
    "hours": "Mon-Fri 9AM-6PM",
    "services": [
      "Buddhist-owned Functional medicine in Mississippi consultation",
      "Professional service",
      "Quality guarantee"
    ],
    "social_links": {}
  },
  {
    "name": "Mississippi Functional Medicine Services",
    "address": "1057 Highland Colony Pkwy Suite 100, Madison, MS 39110",
    "phone": "(601) 427-0077",
    "rating": 4.9,
    "reviews": 25,
    "website": "https://www.peakintegrativemedicine.com/mississippi-functional-medicine-services/",
    "category": "Buddhist-owned Functional medicine in Mississippi",
    "description": "Provides root-cause healthcare, focusing on digestive issues, thyroid and hormone balancing, and detox plans for residents of Mississippi",
    "hours": "Mon-Fri 9AM-6PM",
    "services": [
      "Buddhist-owned Functional medicine in Mississippi consultation",
      "Professional service",
      "Quality guarantee"
    ],
    "social_links": {}
  },
  {
    "name": "Functional Medicine Madison MS",
    "address": "1057 Highland Colony Pkwy Suite 100, Madison, MS 39110",
    "phone": "(601) 427-0077",
    "rating": 4.9,
    "reviews": 25,
    "website": "https://www.innovativehealthllc.com/functional-medicine-madison-ms/",
    "category": "Buddhist-owned Functional medicine in Mississippi",
    "description": "Offers integrative, functional, and lifestyle medicine with an emphasis on promoting balance by treating underlying causes of disease",
    "hours": "Mon-Fri 9AM-6PM",
    "services": [
      "Buddhist-owned Functional medicine in Mississippi consultation",
      "Professional service",
      "Quality guarantee"
    ],
    "social_links": {}
  }
]