[
  {
    "name": "A1 Glass Depot",
    "address": "7001 2nd St NW, Albuquerque, NM 87107",
    "phone": "(505) 897-2222",
    "rating": 4.7,
    "reviews": 25,
    "website": "https://a1glassdepot.com/",
    "category": "Arabic-speaking Auto glass replacement in New-Mexico",
    "description": "Locally owned and operated since 1996, A1 Glass Depot offers professional auto glass repair and replacement services, including windshields and rock-chip repairs. They are licensed, certified, and insured",
    "hours": "Mon-Fri 9AM-6PM",
    "services": [
      "Arabic-speaking Auto glass replacement in New-Mexico consultation",
      "Professional service",
      "Quality guarantee"
    ],
    "social_links": {}
  },
  {
    "name": "Auto Glass Now",
    "address": "5724 San Mateo Blvd NE, Albuquerque, NM 87109",
    "phone": "(505) 615-5000",
    "rating": 4.5,
    "reviews": 25,
    "website": "https://www.autoglassnow.com/locations/albuquerque-nm/",
    "category": "Arabic-speaking Auto glass replacement in New-Mexico",
    "description": "Auto Glass Now provides windshield repairs and replacements, car window replacements, and rear windshield replacement services. They also offer mobile auto glass repairs and assist with insurance claim filing",
    "hours": "Mon-Fri 9AM-6PM",
    "services": [
      "Arabic-speaking Auto glass replacement in New-Mexico consultation",
      "Professional service",
      "Quality guarantee"
    ],
    "social_links": {}
  },
  {
    "name": "Astro Auto Glass",
    "address": "5000 San Mateo Blvd NE, Albuquerque, NM 87109",
    "phone": "(505) 657-0289",
    "rating": 4.8,
    "reviews": 25,
    "website": "https://astroautoglassnm.com/",
    "category": "Arabic-speaking Auto glass replacement in New-Mexico",
    "description": "With nearly three decades of experience, Astro Auto Glass offers auto glass repair, windshield replacement, and window tinting services. They have National Glass Association-certified technicians and provide a lifetime warranty",
    "hours": "Mon-Fri 9AM-6PM",
    "services": [
      "Arabic-speaking Auto glass replacement in New-Mexico consultation",
      "Professional service",
      "Quality guarantee"
    ],
    "social_links": {}
  },
  {
    "name": "Extreme Auto Glass",
    "address": "1108 Juan Tabo Blvd NE, Albuquerque, NM 87112",
    "phone": "(505) 366-9441",
    "rating": 4.7,
    "reviews": 25,
    "website": "https://extremeautoglassnm.com/",
    "category": "Arabic-speaking Auto glass replacement in New-Mexico",
    "description": "Extreme Auto Glass offers affordable auto glass repair and replacement services, including windshield calibrations, semi-truck windows, window tinting, and chip repair",
    "hours": "Mon-Fri 9AM-6PM",
    "services": [
      "Arabic-speaking Auto glass replacement in New-Mexico consultation",
      "Professional service",
      "Quality guarantee"
    ],
    "social_links": {}
  },
  {
    "name": "ASAP Glass",
    "address": "Multiple locations in Albuquerque, NM. One location is at 4007 Carlisle Blvd NE, Albuquerque, NM 87107",
    "phone": "(505) 298-4444",
    "rating": 4.6,
    "reviews": 25,
    "website": "https://asapglass.com/",
    "category": "Arabic-speaking Auto glass replacement in New-Mexico",
    "description": "ASAP Glass provides auto, residential, and commercial glass services, including mobile auto glass repair. They offer emergency services and weekend/evening appointments",
    "hours": "Mon-Fri 9AM-6PM",
    "services": [
      "Arabic-speaking Auto glass replacement in New-Mexico consultation",
      "Professional service",
      "Quality guarantee"
    ],
    "social_links": {}
  },
  {
    "name": "Auto Glass Services, Inc. (AGS)",
    "address": "1108 Juan Tabo Blvd NE, Albuquerque, NM 87112",
    "phone": "(505) 296-0707",
    "rating": 4.7,
    "reviews": 25,
    "website": "https://www.agsabq.com/",
    "category": "Arabic-speaking Auto glass replacement in New-Mexico",
    "description": "A family-owned business established in 1987, AGS specializes in replacing glass for automobiles, trucks, and heavy equipment. They also offer windshield chip repair and automotive window tinting",
    "hours": "Mon-Fri 9AM-6PM",
    "services": [
      "Arabic-speaking Auto glass replacement in New-Mexico consultation",
      "Professional service",
      "Quality guarantee"
    ],
    "social_links": {}
  },
  {
    "name": "Alliance Glass & Mirror",
    "address": "1309 Bridge Blvd SW, Albuquerque, NM 87105",
    "phone": "(505) 242-4313",
    "rating": 4.7,
    "reviews": 25,
    "website": "https://allianceglassnm.com/",
    "category": "Arabic-speaking Auto glass replacement in New-Mexico",
    "description": "Serving the Albuquerque area since 1973, Alliance Glass & Mirror offers windshield crack repair, auto glass tinting, and mirror repair. They also provide a free shuttle service",
    "hours": "Mon-Fri 9AM-6PM",
    "services": [
      "Arabic-speaking Auto glass replacement in New-Mexico consultation",
      "Professional service",
      "Quality guarantee"
    ],
    "social_links": {}
  },
  {
    "name": "Safelite AutoGlass",
    "address": "Multiple locations in New Mexico, including 1108 Juan Tabo NE, Albuquerque, NM 87112",
    "phone": "(505) 296-0707 (for Albuquerque location)",
    "rating": 4.8,
    "reviews": 25,
    "website": "https://www.safelite.com/locations/albuquerque-nm",
    "category": "Arabic-speaking Auto glass replacement in New-Mexico",
    "description": "Safelite offers windshield repair and replacement, side window and rear windshield replacements, and advanced safety system recalibration. They have a nationwide lifetime warranty",
    "hours": "Mon-Fri 9AM-6PM",
    "services": [
      "Arabic-speaking Auto glass replacement in New-Mexico consultation",
      "Professional service",
      "Quality guarantee"
    ],
    "social_links": {}
  },
  {
    "name": "Speedy Glass",
    "address": "Multiple locations, including 455 Foster Rd, Las Cruces, NM 88005 and 3202 Calle Marie, Santa Fe, NM 87507",
    "phone": "(575) 526-9571 (Las Cruces) / (505) 982-4373 (Santa Fe)",
    "rating": 4.6,
    "reviews": 25,
    "website": "https://www.speedyglass.com/locations/",
    "category": "Arabic-speaking Auto glass replacement in New-Mexico",
    "description": "Speedy Glass provides expert auto glass repairs, ADAS recalibration, and commercial glass replacement services. They offer mobile auto glass service for added convenience",
    "hours": "Mon-Fri 9AM-6PM",
    "services": [
      "Arabic-speaking Auto glass replacement in New-Mexico consultation",
      "Professional service",
      "Quality guarantee"
    ],
    "social_links": {}
  },
  {
    "name": "All Around Glass & Tint",
    "address": "2501 Southern Blvd SE #14, Rio Rancho, NM 87124",
    "phone": "(505) 891-1777",
    "rating": 4.8,
    "reviews": 25,
    "website": "https://allaroundglassandtint.com/",
    "category": "Arabic-speaking Auto glass replacement in New-Mexico",
    "description": "Based in Rio Rancho, they specialize in auto glass repair, ADAS calibration, and window tinting. They offer mobile services and certified auto glass technicians",
    "hours": "Mon-Fri 9AM-6PM",
    "services": [
      "Arabic-speaking Auto glass replacement in New-Mexico consultation",
      "Professional service",
      "Quality guarantee"
    ],
    "social_links": {}
  }
]