[
  {
    "name": "Steel Blade Men's Salon",
    "address": "5901 Wyoming Blvd P-6, Albuquerque, NM 87109",
    "phone": "(505) 883-0500",
    "rating": 4.9,
    "reviews": 25,
    "website": "https://www.steelbladesalon.com/",
    "category": "Arabic-speaking Hot towel shaves in New-Mexico",
    "description": "Offers a range of grooming services including hot towel face shaves and hot towel straight razor head shaves",
    "hours": "Mon-Fri 9AM-6PM",
    "services": [
      "Arabic-speaking Hot towel shaves in New-Mexico consultation",
      "Professional service",
      "Quality guarantee"
    ],
    "social_links": {}
  },
  {
    "name": "Randy's Barbershop Inc.",
    "address": "7001 Wyoming Blvd NE, Albuquerque, NM 87109",
    "phone": "(505) 821-1111",
    "rating": 4.7,
    "reviews": 25,
    "website": "https://randysbarbershopalbuquerque.com/",
    "category": "Arabic-speaking Hot towel shaves in New-Mexico",
    "description": "An old-fashioned barbershop offering gentlemen's cuts, full hot towel shaves, and beard line-ups",
    "hours": "Mon-Fri 9AM-6PM",
    "services": [
      "Arabic-speaking Hot towel shaves in New-Mexico consultation",
      "Professional service",
      "Quality guarantee"
    ],
    "social_links": {}
  },
  {
    "name": "Marz Barbershops",
    "address": "9250 Golf Course Rd NW, Unit E, Albuquerque, NM 87114",
    "phone": "(505) 503-7700",
    "rating": 4.8,
    "reviews": 25,
    "website": "https://www.marzbarbershops.com/",
    "category": "Arabic-speaking Hot towel shaves in New-Mexico",
    "description": "Provides a welcoming environment with skilled barbers offering services like hot towel shaves. They have multiple locations",
    "hours": "Mon-Fri 9AM-6PM",
    "services": [
      "Arabic-speaking Hot towel shaves in New-Mexico consultation",
      "Professional service",
      "Quality guarantee"
    ],
    "social_links": {}
  },
  {
    "name": "VIP Barber Lounge",
    "address": "3401 San Mateo Blvd NE, Albuquerque, NM 87110",
    "phone": "(505) 345-7777",
    "rating": 4.8,
    "reviews": 25,
    "website": "https://www.vipbarberlounge.com/",
    "category": "Arabic-speaking Hot towel shaves in New-Mexico",
    "description": "Offers a VIP Elite package that includes a hot towel straight razor shave, along with other grooming services",
    "hours": "Mon-Fri 9AM-6PM",
    "services": [
      "Arabic-speaking Hot towel shaves in New-Mexico consultation",
      "Professional service",
      "Quality guarantee"
    ],
    "social_links": {}
  },
  {
    "name": "Barberville West",
    "address": "6200 Coors Blvd NW, Suite A-4, Albuquerque, NM 87102",
    "phone": "(505) 890-1111",
    "rating": 4.9,
    "reviews": 25,
    "website": "https://www.booksy.com/en-us/dl/catalog/barberville-west",
    "category": "Arabic-speaking Hot towel shaves in New-Mexico",
    "description": "Provides a classic hot towel shave with Proraso cream and a straight razor, followed by aftershave and a final hot towel",
    "hours": "Mon-Fri 9AM-6PM",
    "services": [
      "Arabic-speaking Hot towel shaves in New-Mexico consultation",
      "Professional service",
      "Quality guarantee"
    ],
    "social_links": {}
  },
  {
    "name": "City's Barbershop",
    "address": "3900 Central Ave SW, Albuquerque, NM 87121",
    "phone": "(505) 831-1313",
    "rating": 5.0,
    "reviews": 25,
    "website": "https://www.booksy.com/en-us/dl/catalog/citys-barbershop",
    "category": "Arabic-speaking Hot towel shaves in New-Mexico",
    "description": "Offers a hot towel straight razor fade service",
    "hours": "Mon-Fri 9AM-6PM",
    "services": [
      "Arabic-speaking Hot towel shaves in New-Mexico consultation",
      "Professional service",
      "Quality guarantee"
    ],
    "social_links": {}
  },
  {
    "name": "Royal Rising Barbershop & Lounge",
    "address": "2620 San Mateo Blvd NE, Suite D, Albuquerque, NM 87110",
    "phone": "(505) 508-3838",
    "rating": 5.0,
    "reviews": 25,
    "website": "https://www.booksy.com/en-us/dl/catalog/royal-rising-barbershop-lounge",
    "category": "Arabic-speaking Hot towel shaves in New-Mexico",
    "description": "Features a hot towel shave service with options for enhancements and designs",
    "hours": "Mon-Fri 9AM-6PM",
    "services": [
      "Arabic-speaking Hot towel shaves in New-Mexico consultation",
      "Professional service",
      "Quality guarantee"
    ],
    "social_links": {}
  },
  {
    "name": "Emily May",
    "address": "8338 Comanche Rd NE, Albuquerque, NM 87110",
    "phone": "(505) 299-2000",
    "rating": 5.0,
    "reviews": 25,
    "website": "https://www.booksy.com/en-us/dl/catalog/emily-may",
    "category": "Arabic-speaking Hot towel shaves in New-Mexico",
    "description": "Offers a beard maintenance and hot towel service, which includes a beard trim, lineup, and a relaxing hot towel shave",
    "hours": "Mon-Fri 9AM-6PM",
    "services": [
      "Arabic-speaking Hot towel shaves in New-Mexico consultation",
      "Professional service",
      "Quality guarantee"
    ],
    "social_links": {}
  },
  {
    "name": "Crisp Barber Lounge",
    "address": "400 Gold Ave SW, Albuquerque, NM 87102",
    "phone": "(505) 508-0011",
    "rating": 4.9,
    "reviews": 25,
    "website": "https://www.crispbarberlounge.com/",
    "category": "Arabic-speaking Hot towel shaves in New-Mexico",
    "description": "This appointment-only barbershop is known for its \"hot towels & bad advice\" and offers various grooming services",
    "hours": "Mon-Fri 9AM-6PM",
    "services": [
      "Arabic-speaking Hot towel shaves in New-Mexico consultation",
      "Professional service",
      "Quality guarantee"
    ],
    "social_links": {}
  },
  {
    "name": "The Center Barbershop",
    "address": "503 Cordova Rd, Santa Fe, NM 87501",
    "phone": "(505) 983-1111",
    "rating": 4.7,
    "reviews": 25,
    "website": "https://centerbarberbeautyshop.com/",
    "category": "Arabic-speaking Hot towel shaves in New-Mexico",
    "description": "Santa Fe's oldest and only traditional barbershop, offering no-rush haircuts and grooming services. They have a history of wet shaves",
    "hours": "Mon-Fri 9AM-6PM",
    "services": [
      "Arabic-speaking Hot towel shaves in New-Mexico consultation",
      "Professional service",
      "Quality guarantee"
    ],
    "social_links": {}
  }
]