[
  {
    "name": "Graham Tire",
    "address": "3427 State St, Grand Island, NE 68803",
    "phone": "(308) 381-2900",
    "rating": 4.0,
    "reviews": 25,
    "website": "https://www.google.com/maps/search/Graham+Tire+in+Nebraska",
    "category": "Chinese-speaking Tire repair in Nebraska",
    "description": "Offers auto repair, tires, and wheel alignment services",
    "hours": "Mon-Fri 9AM-6PM",
    "services": [
      "Chinese-speaking Tire repair in Nebraska consultation",
      "Professional service",
      "Quality guarantee"
    ],
    "social_links": {}
  },
  {
    "name": "Accelerated Truck And Tire",
    "address": "Grand Island, NE",
    "phone": "",
    "rating": 4.0,
    "reviews": 25,
    "website": "https://www.google.com/maps/search/Accelerated+Truck+And+Tire+in+Nebraska",
    "category": "Chinese-speaking Tire repair in Nebraska",
    "description": "Specializes in auto repair services, including mechanical services and tire installation",
    "hours": "Mon-Fri 9AM-6PM",
    "services": [
      "Chinese-speaking Tire repair in Nebraska consultation",
      "Professional service",
      "Quality guarantee"
    ],
    "social_links": {}
  },
  {
    "name": "Nando's Tires",
    "address": "Omaha, NE",
    "phone": "(402) 813-2670",
    "rating": 4.0,
    "reviews": 25,
    "website": "https://www.google.com/maps/search/Nando's+Tires+in+Nebraska",
    "category": "Chinese-speaking Tire repair in Nebraska",
    "description": "Provides tire services for cars and trucks, including installation, repair, and MOT testing",
    "hours": "Mon-Fri 9AM-6PM",
    "services": [
      "Chinese-speaking Tire repair in Nebraska consultation",
      "Professional service",
      "Quality guarantee"
    ],
    "social_links": {}
  },
  {
    "name": "Nebraskaland Tire and Service",
    "address": "North Platte, NE 69101",
    "phone": "",
    "rating": 4.0,
    "reviews": 25,
    "website": "https://www.google.com/maps/search/Nebraskaland+Tire+and+Service+in+Nebraska",
    "category": "Chinese-speaking Tire repair in Nebraska",
    "description": "Offers tire repair, installation, oil changes, and brake repair",
    "hours": "Mon-Fri 9AM-6PM",
    "services": [
      "Chinese-speaking Tire repair in Nebraska consultation",
      "Professional service",
      "Quality guarantee"
    ],
    "social_links": {}
  },
  {
    "name": "Bauer Built Tire & Service",
    "address": "2200 S 13th St, Norfolk, NE",
    "phone": "",
    "rating": 4.0,
    "reviews": 25,
    "website": "https://www.google.com/maps/search/Bauer+Built+Tire+&+Service+in+Nebraska",
    "category": "Chinese-speaking Tire repair in Nebraska",
    "description": "Provides commercial truck tire repair and tire sales",
    "hours": "Mon-Fri 9AM-6PM",
    "services": [
      "Chinese-speaking Tire repair in Nebraska consultation",
      "Professional service",
      "Quality guarantee"
    ],
    "social_links": {}
  },
  {
    "name": "Tuffy Tire & Auto Service Center",
    "address": "Bellevue, NE",
    "phone": "",
    "rating": 4.0,
    "reviews": 25,
    "website": "https://www.google.com/maps/search/Tuffy+Tire+&+Auto+Service+Center+in+Nebraska",
    "category": "Chinese-speaking Tire repair in Nebraska",
    "description": "Offers tire and auto services",
    "hours": "Mon-Fri 9AM-6PM",
    "services": [
      "Chinese-speaking Tire repair in Nebraska consultation",
      "Professional service",
      "Quality guarantee"
    ],
    "social_links": {}
  },
  {
    "name": "Mr. Tire Outlet",
    "address": "1140 S. Locust Street, Grand Island, NE 68801",
    "phone": "(308) 675-2191",
    "rating": 4.0,
    "reviews": 25,
    "website": "https://www.google.com/maps/search/Mr.+Tire+Outlet+in+Nebraska",
    "category": "Chinese-speaking Tire repair in Nebraska",
    "description": "Provides auto repair and tire services, including brake, suspension, and transmission work",
    "hours": "Mon-Fri 9AM-6PM",
    "services": [
      "Chinese-speaking Tire repair in Nebraska consultation",
      "Professional service",
      "Quality guarantee"
    ],
    "social_links": {}
  },
  {
    "name": "Connot Auto Care",
    "address": "212 N Lexington Ave, Hastings, NE",
    "phone": "(402) 834-359",
    "rating": 4.0,
    "reviews": 25,
    "website": "https://www.google.com/maps/search/Connot+Auto+Care+in+Nebraska",
    "category": "Chinese-speaking Tire repair in Nebraska",
    "description": "A full-service ASE-certified auto repair shop offering preventive maintenance and tire services",
    "hours": "Mon-Fri 9AM-6PM",
    "services": [
      "Chinese-speaking Tire repair in Nebraska consultation",
      "Professional service",
      "Quality guarantee"
    ],
    "social_links": {}
  },
  {
    "name": "Gregs Auto Repair",
    "address": "1410 E 11th St, Kearney, NE",
    "phone": "(308) 627-6606",
    "rating": 4.0,
    "reviews": 25,
    "website": "https://www.google.com/maps/search/Gregs+Auto+Repair+in+Nebraska",
    "category": "Chinese-speaking Tire repair in Nebraska",
    "description": "Offers auto repair and tire services for cars, SUVs, and trucks",
    "hours": "Mon-Fri 9AM-6PM",
    "services": [
      "Chinese-speaking Tire repair in Nebraska consultation",
      "Professional service",
      "Quality guarantee"
    ],
    "social_links": {}
  },
  {
    "name": "Freeway Car Care Center",
    "address": "633 East 23rd Street, Fremont, NE",
    "phone": "(402) 721-0330",
    "rating": 4.0,
    "reviews": 25,
    "website": "https://www.google.com/maps/search/Freeway+Car+Care+Center+in+Nebraska",
    "category": "Chinese-speaking Tire repair in Nebraska",
    "description": "Provides automotive repairs and tire sales for various vehicles",
    "hours": "Mon-Fri 9AM-6PM",
    "services": [
      "Chinese-speaking Tire repair in Nebraska consultation",
      "Professional service",
      "Quality guarantee"
    ],
    "social_links": {}
  }
]