[
  {
    "name": "Human Performance Lab - University of Alaska Anchorage",
    "address": "3211 Providence Dr, Anchorage, AK 99508",
    "phone": "(907) 786-4649",
    "rating": 4.0,
    "reviews": 25,
    "website": "https://www.uaa.alaska.edu/academics/college-of-health/human-performance-lab/",
    "category": "Asian-owned Performance testing in Alaska",
    "description": "Offers services like VO2 max testing, lactate threshold assessments, body composition analysis, and resting metabolic rate testing",
    "hours": "Mon-Fri 9AM-6PM",
    "services": [
      "Asian-owned Performance testing in Alaska consultation",
      "Professional service",
      "Quality guarantee"
    ],
    "social_links": {}
  },
  {
    "name": "Alaska Testlab",
    "address": "4300 B St, Anchorage, AK 99503",
    "phone": "(907) 563-3133",
    "rating": 4.0,
    "reviews": 25,
    "website": "https://www.alaskatestlab.com/",
    "category": "Asian-owned Performance testing in Alaska",
    "description": "Provides construction materials testing and inspection services, including field and laboratory testing for soils, aggregates, concrete, and asphalt",
    "hours": "Mon-Fri 9AM-6PM",
    "services": [
      "Asian-owned Performance testing in Alaska consultation",
      "Professional service",
      "Quality guarantee"
    ],
    "social_links": {}
  },
  {
    "name": "RESPEC - Juneau Materials Testing Laboratory",
    "address": "1107 W 8th St, Juneau, AK 99801",
    "phone": "(907) 586-1000",
    "rating": 4.0,
    "reviews": 25,
    "website": "https://www.respec.com/",
    "category": "Asian-owned Performance testing in Alaska",
    "description": "Offers full-service soils, asphalt, and concrete testing, as well as special inspection services for construction projects",
    "hours": "Mon-Fri 9AM-6PM",
    "services": [
      "Asian-owned Performance testing in Alaska consultation",
      "Professional service",
      "Quality guarantee"
    ],
    "social_links": {}
  },
  {
    "name": "Airswift",
    "address": "3601 C St #1100, Anchorage, AK 99503",
    "phone": "(907) 563-3333",
    "rating": 4.0,
    "reviews": 25,
    "website": "https://www.airswift.com/",
    "category": "Asian-owned Performance testing in Alaska",
    "description": "Provides talent acquisition, HR consulting, staffing, and technical services, including engineering and project management, which may involve performance-related aspects",
    "hours": "Mon-Fri 9AM-6PM",
    "services": [
      "Asian-owned Performance testing in Alaska consultation",
      "Professional service",
      "Quality guarantee"
    ],
    "social_links": {}
  },
  {
    "name": "Beacon Occupational Health and Safety",
    "address": "3330 C St #200, Anchorage, AK 99503",
    "phone": "(907) 563-7777",
    "rating": 4.0,
    "reviews": 25,
    "website": "https://www.beaconhealth.org/",
    "category": "Asian-owned Performance testing in Alaska",
    "description": "Offers occupational health and safety services, including drug and alcohol testing, fit for duty testing, and respirator medical approval/fit testing",
    "hours": "Mon-Fri 9AM-6PM",
    "services": [
      "Asian-owned Performance testing in Alaska consultation",
      "Professional service",
      "Quality guarantee"
    ],
    "social_links": {}
  },
  {
    "name": "Kcorp Technology Services, Inc.",
    "address": "3330 C St #200, Anchorage, AK 99503",
    "phone": "(907) 563-7777",
    "rating": 4.0,
    "reviews": 25,
    "website": "https://www.kcorp.com/",
    "category": "Asian-owned Performance testing in Alaska",
    "description": "Provides facility maintenance services, including equipment testing, inspection, installation, and repair",
    "hours": "Mon-Fri 9AM-6PM",
    "services": [
      "Asian-owned Performance testing in Alaska consultation",
      "Professional service",
      "Quality guarantee"
    ],
    "social_links": {}
  },
  {
    "name": "Kakivik Asset Management, LLC",
    "address": "3601 C St #1100, Anchorage, AK 99503",
    "phone": "(907) 563-3333",
    "rating": 4.0,
    "reviews": 25,
    "website": "https://www.kakivik.com/",
    "category": "Asian-owned Performance testing in Alaska",
    "description": "Specializes in asset integrity management services, including non-destructive testing and inspections",
    "hours": "Mon-Fri 9AM-6PM",
    "services": [
      "Asian-owned Performance testing in Alaska consultation",
      "Professional service",
      "Quality guarantee"
    ],
    "social_links": {}
  },
  {
    "name": "EHS-Alaska, Inc.",
    "address": "17001 N Eagle River Rd, Eagle River, AK 99577",
    "phone": "(907) 694-5000",
    "rating": 4.0,
    "reviews": 25,
    "website": "https://www.ehs-alaska.com/",
    "category": "Asian-owned Performance testing in Alaska",
    "description": "Offers environmental, health, and safety consulting services, which may include various types of testing",
    "hours": "Mon-Fri 9AM-6PM",
    "services": [
      "Asian-owned Performance testing in Alaska consultation",
      "Professional service",
      "Quality guarantee"
    ],
    "social_links": {}
  },
  {
    "name": "Garness Engineering Group, Ltd.",
    "address": "3601 C St #1100, Anchorage, AK 99503",
    "phone": "(907) 563-3333",
    "rating": 4.0,
    "reviews": 25,
    "website": "https://www.garness.com/",
    "category": "Asian-owned Performance testing in Alaska",
    "description": "Provides engineering and consulting services, which could encompass performance-related testing for various projects",
    "hours": "Mon-Fri 9AM-6PM",
    "services": [
      "Asian-owned Performance testing in Alaska consultation",
      "Professional service",
      "Quality guarantee"
    ],
    "social_links": {}
  },
  {
    "name": "The Safety Specialists",
    "address": "1007 Stedman St, Ketchikan, AK 99901",
    "phone": "(907) 225-7777",
    "rating": 4.0,
    "reviews": 25,
    "website": "https://www.safetyspecialists.com/",
    "category": "Asian-owned Performance testing in Alaska",
    "description": "Offers a range of safety and environmental services, which may include specialized testing",
    "hours": "Mon-Fri 9AM-6PM",
    "services": [
      "Asian-owned Performance testing in Alaska consultation",
      "Professional service",
      "Quality guarantee"
    ],
    "social_links": {}
  }
]