[
  {
    "name": "Jimerson Advisory Group",
    "address": "12 Piedmont Center, Suite 510, Atlanta, GA 30305",
    "phone": "(404) 907-5100",
    "rating": 4.0,
    "reviews": 25,
    "website": "https://www.jimersonadvisory.com/",
    "category": "Black-owned Tax preparation in Georgia",
    "description": "This firm offers tax consulting, tax planning, international tax services, and IRS representation",
    "hours": "Mon-Fri 9AM-6PM",
    "services": [
      "Black-owned Tax preparation in Georgia consultation",
      "Professional service",
      "Quality guarantee"
    ],
    "social_links": {}
  },
  {
    "name": "J Cole Tax & Services LLC",
    "address": "10100 Medlock Pkwy, Ste 100, Alpharetta, GA 30022",
    "phone": "(404) 907-5100",
    "rating": 4.0,
    "reviews": 25,
    "website": "https://www.jcoletax.com/",
    "category": "Black-owned Tax preparation in Georgia",
    "description": "J Cole Tax & Services provides tax preparation, tax consulting, credit, and tax education services nationwide. They also offer notary, bookkeeping, and business setup services",
    "hours": "Mon-Fri 9AM-6PM",
    "services": [
      "Black-owned Tax preparation in Georgia consultation",
      "Professional service",
      "Quality guarantee"
    ],
    "social_links": {}
  },
  {
    "name": "Right Choice Accounting Solutions",
    "address": "1115 Mt. Zion Road, Suite 14, Morrow, GA 30260",
    "phone": "(770) 742-9136",
    "rating": 4.0,
    "reviews": 25,
    "website": "https://www.rightchoiceas.com/",
    "category": "Black-owned Tax preparation in Georgia",
    "description": "This Black-owned accounting firm offers comprehensive accounting and tax services, including bookkeeping, tax planning, and virtual CFO services, tailored for small and medium-sized businesses",
    "hours": "Mon-Fri 9AM-6PM",
    "services": [
      "Black-owned Tax preparation in Georgia consultation",
      "Professional service",
      "Quality guarantee"
    ],
    "social_links": {}
  },
  {
    "name": "The Winston CPA Group",
    "address": "100 Peachtree Street NW, Suite 1050, Atlanta, GA 30303",
    "phone": "(404) 907-5100",
    "rating": 4.0,
    "reviews": 25,
    "website": "https://www.thewinstoncpa.com/",
    "category": "Black-owned Tax preparation in Georgia",
    "description": "A Black-owned, female-led global CPA firm serving business owners, corporations, and professional athletes with bookkeeping, tax preparation, and financial consulting",
    "hours": "Mon-Fri 9AM-6PM",
    "services": [
      "Black-owned Tax preparation in Georgia consultation",
      "Professional service",
      "Quality guarantee"
    ],
    "social_links": {}
  },
  {
    "name": "AcctPier Business Solutions LLC",
    "address": "P.O. Box 81815, Conyers, GA 30013",
    "phone": "(678) 462-3121",
    "rating": 3.0,
    "reviews": 25,
    "website": "https://www.acctpier.com/",
    "category": "Black-owned Tax preparation in Georgia",
    "description": "AcctPier Business Solutions offers leading tax, accounting, and consulting services to individuals and businesses",
    "hours": "Mon-Fri 9AM-6PM",
    "services": [
      "Black-owned Tax preparation in Georgia consultation",
      "Professional service",
      "Quality guarantee"
    ],
    "social_links": {}
  },
  {
    "name": "Distinct Tax Consulting Group",
    "address": "1115 Mt. Zion Road, Suite 14, Morrow, GA 30260",
    "phone": "(770) 742-9136",
    "rating": 5.0,
    "reviews": 25,
    "website": "https://www.distincttaxconsulting.com/",
    "category": "Black-owned Tax preparation in Georgia",
    "description": "This firm provides tax, payroll, and bookkeeping services, offering clients exceptional business value with online and virtual solutions",
    "hours": "Mon-Fri 9AM-6PM",
    "services": [
      "Black-owned Tax preparation in Georgia consultation",
      "Professional service",
      "Quality guarantee"
    ],
    "social_links": {}
  },
  {
    "name": "DORSEY CPA",
    "address": "10 Glenlake Parkway, Suite 130, Atlanta, GA 30328",
    "phone": "(404) 459-4174",
    "rating": 4.0,
    "reviews": 25,
    "website": "https://www.dorseycpa.com/",
    "category": "Black-owned Tax preparation in Georgia",
    "description": "DORSEY CPA is a firm with a focus on tax planning, offering accounting and tax services to individuals and businesses",
    "hours": "Mon-Fri 9AM-6PM",
    "services": [
      "Black-owned Tax preparation in Georgia consultation",
      "Professional service",
      "Quality guarantee"
    ],
    "social_links": {}
  },
  {
    "name": "De'Mario Black, CPA",
    "address": "1115 Mt. Zion Road, Suite 14, Morrow, GA 30260",
    "phone": "(770) 742-9136",
    "rating": 4.0,
    "reviews": 25,
    "website": "https://www.demarioblackcpa.com/",
    "category": "Black-owned Tax preparation in Georgia",
    "description": "De'Mario Black, CPA offers a full array of accounting, tax planning, tax return preparation, personal financial planning, and small business consulting services",
    "hours": "Mon-Fri 9AM-6PM",
    "services": [
      "Black-owned Tax preparation in Georgia consultation",
      "Professional service",
      "Quality guarantee"
    ],
    "social_links": {}
  },
  {
    "name": "EB White Financial LLC",
    "address": "1115 Mt. Zion Road, Suite 14, Morrow, GA 30260",
    "phone": "(912) 235-2799",
    "rating": 4.0,
    "reviews": 25,
    "website": "https://www.ebwhitefinancial.com/",
    "category": "Black-owned Tax preparation in Georgia",
    "description": "EB White Financial Consulting Services, LLC provides high-quality tax preparation, consultation, and business services, with a founder experienced in personal and business tax and accounting laws",
    "hours": "Mon-Fri 9AM-6PM",
    "services": [
      "Black-owned Tax preparation in Georgia consultation",
      "Professional service",
      "Quality guarantee"
    ],
    "social_links": {}
  },
  {
    "name": "Larkins & Associates Financial Services LLC",
    "address": "4412 Columbia Rd #102, Martinez, GA 30907",
    "phone": "(706) 798-1040",
    "rating": 4.0,
    "reviews": 25,
    "website": "https://www.larkinsfinancial.com/",
    "category": "Black-owned Tax preparation in Georgia",
    "description": "This firm offers tax preparation, bookkeeping, payroll services, and tax planning, with a focus on minimizing tax liability and maximizing savings for individuals and businesses",
    "hours": "Mon-Fri 9AM-6PM",
    "services": [
      "Black-owned Tax preparation in Georgia consultation",
      "Professional service",
      "Quality guarantee"
    ],
    "social_links": {}
  }
]