[
  {
    "name": "REDW Financial Advisors & CPAs",
    "address": "5051 Rio Grande Village NE, Albuquerque, NM 87113",
    "phone": "(505) 348-4900",
    "rating": 4.0,
    "reviews": 25,
    "website": "https://www.redw.com/",
    "category": "Central-American-owned Financial analysis in New-Mexico",
    "description": "Provides financial advisory services to businesses, Tribal Nations, and government entities, with a focus on financial planning, tax compliance, and data analytics",
    "hours": "Mon-Fri 9AM-6PM",
    "services": [
      "Central-American-owned Financial analysis in New-Mexico consultation",
      "Professional service",
      "Quality guarantee"
    ],
    "social_links": {}
  },
  {
    "name": "Horizons Sustainable Financial Services, Inc.",
    "address": "120 Amherst Dr NE, Albuquerque, NM 87106",
    "phone": "(505) 234-7400",
    "rating": 4.0,
    "reviews": 25,
    "website": "https://horizonsfinancial.com/",
    "category": "Central-American-owned Financial analysis in New-Mexico",
    "description": "Specializes in ESG investing, Socially Responsible Investing, and values-based investment strategies, offering financial planning and investment management",
    "hours": "Mon-Fri 9AM-6PM",
    "services": [
      "Central-American-owned Financial analysis in New-Mexico consultation",
      "Professional service",
      "Quality guarantee"
    ],
    "social_links": {}
  },
  {
    "name": "Crow Financial Advisors Ltd Co",
    "address": "5301 Central Ave NE Suite 1100, Albuquerque, NM 87108",
    "phone": "(505) 265-7777",
    "rating": 4.0,
    "reviews": 25,
    "website": "https://www.crowfinancial.com/",
    "category": "Central-American-owned Financial analysis in New-Mexico",
    "description": "An independent investment advisory firm offering personalized investment strategies and portfolio management",
    "hours": "Mon-Fri 9AM-6PM",
    "services": [
      "Central-American-owned Financial analysis in New-Mexico consultation",
      "Professional service",
      "Quality guarantee"
    ],
    "social_links": {}
  },
  {
    "name": "John Moore & Associates Inc.",
    "address": "5301 Central Ave NE Suite 1100, Albuquerque, NM 87108",
    "phone": "(505) 265-7777",
    "rating": 4.0,
    "reviews": 25,
    "website": "https://www.johnmooreassociates.com/",
    "category": "Central-American-owned Financial analysis in New-Mexico",
    "description": "Provides investment management services in equity, fixed income, and balanced strategies for individuals and organizations",
    "hours": "Mon-Fri 9AM-6PM",
    "services": [
      "Central-American-owned Financial analysis in New-Mexico consultation",
      "Professional service",
      "Quality guarantee"
    ],
    "social_links": {}
  },
  {
    "name": "Titan Fund Management, LLC",
    "address": "6301 Indian School Rd NE Suite 300, Albuquerque, NM 87110",
    "phone": "(505) 884-3400",
    "rating": 4.0,
    "reviews": 25,
    "website": "https://www.titanfundmanagement.com/",
    "category": "Central-American-owned Financial analysis in New-Mexico",
    "description": "Manages investment funds with a focus on real estate and real estate-related investments",
    "hours": "Mon-Fri 9AM-6PM",
    "services": [
      "Central-American-owned Financial analysis in New-Mexico consultation",
      "Professional service",
      "Quality guarantee"
    ],
    "social_links": {}
  },
  {
    "name": "Ulrich Investment Consultants (UIC)",
    "address": "6301 Indian School Rd NE Suite 300, Albuquerque, NM 87110",
    "phone": "(505) 884-3400",
    "rating": 4.0,
    "reviews": 25,
    "website": "https://ulrichinvest.com/",
    "category": "Central-American-owned Financial analysis in New-Mexico",
    "description": "Provides investment management services to private and institutional clients, focusing on asset allocation, investment selection, and risk management",
    "hours": "Mon-Fri 9AM-6PM",
    "services": [
      "Central-American-owned Financial analysis in New-Mexico consultation",
      "Professional service",
      "Quality guarantee"
    ],
    "social_links": {}
  },
  {
    "name": "Justice Financial",
    "address": "8220 San Pedro Dr NE, Suite 505, Albuquerque, NM 87113",
    "phone": "(505) 872-7848",
    "rating": 4.0,
    "reviews": 25,
    "website": "https://www.northwesternmutual.com/",
    "category": "Central-American-owned Financial analysis in New-Mexico",
    "description": "Offers financial planning and wealth management services, aiming to guide clients toward financial freedom",
    "hours": "Mon-Fri 9AM-6PM",
    "services": [
      "Central-American-owned Financial analysis in New-Mexico consultation",
      "Professional service",
      "Quality guarantee"
    ],
    "social_links": {}
  },
  {
    "name": "Mercer Advisors",
    "address": "333 Rio Grande Blvd NW, Albuquerque, NM 87104",
    "phone": "(505) 247-5500",
    "rating": 4.0,
    "reviews": 25,
    "website": "https://www.merceradvisors.com/",
    "category": "Central-American-owned Financial analysis in New-Mexico",
    "description": "Provides comprehensive wealth management services, including financial planning, investment management, tax, and estate planning",
    "hours": "Mon-Fri 9AM-6PM",
    "services": [
      "Central-American-owned Financial analysis in New-Mexico consultation",
      "Professional service",
      "Quality guarantee"
    ],
    "social_links": {}
  },
  {
    "name": "The Wealth Consulting Group",
    "address": "7001 Carmel Ave NE, Albuquerque, NM 87111",
    "phone": "(505) 821-7277",
    "rating": 4.0,
    "reviews": 25,
    "website": "https://www.wcgwealth.com/",
    "category": "Central-American-owned Financial analysis in New-Mexico",
    "description": "Offers financial consulting and investment advice through LPL Financial and WCG Wealth Advisors",
    "hours": "Mon-Fri 9AM-6PM",
    "services": [
      "Central-American-owned Financial analysis in New-Mexico consultation",
      "Professional service",
      "Quality guarantee"
    ],
    "social_links": {}
  },
  {
    "name": "Turquoise Sky Group at Morgan Stanley",
    "address": "5051 Rio Grande Village NE, Albuquerque, NM 87113",
    "phone": "(505) 883-2500",
    "rating": 4.0,
    "reviews": 25,
    "website": "https://advisor.morganstanley.com/turquoise-sky-group",
    "category": "Central-American-owned Financial analysis in New-Mexico",
    "description": "Provides wealth management services, focusing on personalized financial plans and investment strategies",
    "hours": "Mon-Fri 9AM-6PM",
    "services": [
      "Central-American-owned Financial analysis in New-Mexico consultation",
      "Professional service",
      "Quality guarantee"
    ],
    "social_links": {}
  }
]