[
  {
    "name": "509 Cryo",
    "address": "116 E Augusta Ave, Spokane, WA 99207",
    "phone": "(509) 413-9786",
    "rating": 4.0,
    "reviews": 25,
    "website": "http://www.509cryo.com/",
    "category": "Black-owned Cryotherapy in Washington",
    "description": "Spokane Washington's Premier Whole Body Cryotherapy Chamber",
    "hours": "Mon-Fri 9AM-6PM",
    "services": [
      "Black-owned Cryotherapy in Washington consultation",
      "Professional service",
      "Quality guarantee"
    ],
    "social_links": {}
  },
  {
    "name": "Dam Performance Cryotherapy & Recovery",
    "address": "2603 Bridgeport Way W Suite A, Tacoma, WA 98466",
    "phone": "(253) 317-1064",
    "rating": 4.0,
    "reviews": 25,
    "website": "http://www.damperformance.com/",
    "category": "Black-owned Cryotherapy in Washington",
    "description": "Offers cryotherapy, red light therapy, cryoSlimming, weight-loss, infrared sauna, and body sculpting",
    "hours": "Mon-Fri 9AM-6PM",
    "services": [
      "Black-owned Cryotherapy in Washington consultation",
      "Professional service",
      "Quality guarantee"
    ],
    "social_links": {}
  },
  {
    "name": "FloatWell Spa",
    "address": "315 NE 192nd Ave, Suite 304, Vancouver, WA 98684",
    "phone": "(360) 718-8510",
    "rating": 4.0,
    "reviews": 25,
    "website": "http://www.floatwellspa.com/",
    "category": "Black-owned Cryotherapy in Washington",
    "description": "Offers Whole Body Cryotherapy, contrast therapy (cryotherapy and infrared sauna), and localized cryotherapy",
    "hours": "Mon-Fri 9AM-6PM",
    "services": [
      "Black-owned Cryotherapy in Washington consultation",
      "Professional service",
      "Quality guarantee"
    ],
    "social_links": {}
  },
  {
    "name": "Grit City Wellness",
    "address": "Information not available",
    "phone": "",
    "rating": 4.0,
    "reviews": 25,
    "website": "http://www.gritcitywellness.com/",
    "category": "Black-owned Cryotherapy in Washington",
    "description": "Offers whole-body cryotherapy chambers and localized cryo",
    "hours": "Mon-Fri 9AM-6PM",
    "services": [
      "Black-owned Cryotherapy in Washington consultation",
      "Professional service",
      "Quality guarantee"
    ],
    "social_links": {}
  },
  {
    "name": "IVitality Wellness Center",
    "address": "Locations in Bellevue, Bellingham, and Issaquah, WA. Specific addresses not provided",
    "phone": "",
    "rating": 4.0,
    "reviews": 25,
    "website": "http://www.ivitality.com/",
    "category": "Black-owned Cryotherapy in Washington",
    "description": "Offers full-body and local cryotherapy sessions",
    "hours": "Mon-Fri 9AM-6PM",
    "services": [
      "Black-owned Cryotherapy in Washington consultation",
      "Professional service",
      "Quality guarantee"
    ],
    "social_links": {}
  },
  {
    "name": "Level Up Wellness",
    "address": "Located in Liberty Lake, WA (near Spokane). Specific address not provided",
    "phone": "",
    "rating": 4.0,
    "reviews": 25,
    "website": "http://www.levelupwellness.com/",
    "category": "Black-owned Cryotherapy in Washington",
    "description": "Offers whole-body cryotherapy and other wellness therapies",
    "hours": "Mon-Fri 9AM-6PM",
    "services": [
      "Black-owned Cryotherapy in Washington consultation",
      "Professional service",
      "Quality guarantee"
    ],
    "social_links": {}
  },
  {
    "name": "Lux Cryo",
    "address": "Locations in Vancouver, WA (13712 NE 20th Ave, Vancouver, WA 98686 and 6700 NE 162nd Ave #401, Vancouver, WA 98682)",
    "phone": "",
    "rating": 4.0,
    "reviews": 25,
    "website": "http://www.luxcryo.com/",
    "category": "Black-owned Cryotherapy in Washington",
    "description": "Offers cryotherapy, tanning, and other wellness services",
    "hours": "Mon-Fri 9AM-6PM",
    "services": [
      "Black-owned Cryotherapy in Washington consultation",
      "Professional service",
      "Quality guarantee"
    ],
    "social_links": {}
  },
  {
    "name": "Restore Hyper Wellness",
    "address": "Multiple locations nationwide, including in Washington. Specific addresses not provided",
    "phone": "",
    "rating": 4.0,
    "reviews": 25,
    "website": "http://www.restore.com/",
    "category": "Black-owned Cryotherapy in Washington",
    "description": "Offers various wellness therapies including cryotherapy",
    "hours": "Mon-Fri 9AM-6PM",
    "services": [
      "Black-owned Cryotherapy in Washington consultation",
      "Professional service",
      "Quality guarantee"
    ],
    "social_links": {}
  },
  {
    "name": "West Seattle Health Club",
    "address": "Information not available",
    "phone": "",
    "rating": 4.0,
    "reviews": 25,
    "website": "http://www.wshc.com/",
    "category": "Black-owned Cryotherapy in Washington",
    "description": "Offers cryotherapy as one of its services",
    "hours": "Mon-Fri 9AM-6PM",
    "services": [
      "Black-owned Cryotherapy in Washington consultation",
      "Professional service",
      "Quality guarantee"
    ],
    "social_links": {}
  },
  {
    "name": "WholeBody Wellness Aesthetics",
    "address": "Information not available",
    "phone": "(509) 795-2025",
    "rating": 4.0,
    "reviews": 25,
    "website": "http://www.wholebodywa.com/",
    "category": "Black-owned Cryotherapy in Washington",
    "description": "Offers holistic wellness services, including cryotherapy",
    "hours": "Mon-Fri 9AM-6PM",
    "services": [
      "Black-owned Cryotherapy in Washington consultation",
      "Professional service",
      "Quality guarantee"
    ],
    "social_links": {}
  }
]