[
  {
    "name": "Gallatin Valley Martial Arts",
    "address": "Bozeman, MT",
    "phone": "(406) 551-0000",
    "rating": 4.9,
    "reviews": 25,
    "website": "https://www.gallatinvalleymartialarts.com/",
    "category": "Agnostic-owned Martial arts coaching in Montana",
    "description": "Offers Muay Thai kickboxing and Brazilian Jiu-Jitsu for adults and children",
    "hours": "Mon-Fri 9AM-6PM",
    "services": [
      "Agnostic-owned Martial arts coaching in Montana consultation",
      "Professional service",
      "Quality guarantee"
    ],
    "social_links": {}
  },
  {
    "name": "Cunningham's Martial Arts",
    "address": "Bozeman, MT",
    "phone": "(406) 587-3777",
    "rating": 4.9,
    "reviews": 25,
    "website": "https://www.cunninghamsmartialarts.com/",
    "category": "Agnostic-owned Martial arts coaching in Montana",
    "description": "Provides Taekwondo, Martial Arts, and Karate classes, focusing on life skills and confidence building",
    "hours": "Mon-Fri 9AM-6PM",
    "services": [
      "Agnostic-owned Martial arts coaching in Montana consultation",
      "Professional service",
      "Quality guarantee"
    ],
    "social_links": {}
  },
  {
    "name": "Rock Solid Martial Arts",
    "address": "Billings, MT",
    "phone": "(406) 656-1600",
    "rating": 4.8,
    "reviews": 25,
    "website": "https://rocksolidmt.com/",
    "category": "Agnostic-owned Martial arts coaching in Montana",
    "description": "Offers a mixed martial arts program blending Taekwondo, Tang Soo Do, Muay Thai, Boxing, Self-Defense, Jiu-Jitsu, and Escrima",
    "hours": "Mon-Fri 9AM-6PM",
    "services": [
      "Agnostic-owned Martial arts coaching in Montana consultation",
      "Professional service",
      "Quality guarantee"
    ],
    "social_links": {}
  },
  {
    "name": "Sakura Warrior Arts",
    "address": "255 SW Higgins Ave, Missoula, MT 59803",
    "phone": "(406) 543-6262",
    "rating": 4.7,
    "reviews": 25,
    "website": "https://www.sakurawarriorarts.com/",
    "category": "Agnostic-owned Martial arts coaching in Montana",
    "description": "A comprehensive martial arts academy offering Judo, Jujitsu, striking, grappling, and self-defense for all ages",
    "hours": "Mon-Fri 9AM-6PM",
    "services": [
      "Agnostic-owned Martial arts coaching in Montana consultation",
      "Professional service",
      "Quality guarantee"
    ],
    "social_links": {}
  },
  {
    "name": "Cutting Edge Martial Arts",
    "address": "215 Haggerty Lane, Bozeman, MT 59715",
    "phone": "(406) 587-0400",
    "rating": 4.7,
    "reviews": 25,
    "website": "https://www.cuttingedgemt.com/",
    "category": "Agnostic-owned Martial arts coaching in Montana",
    "description": "Offers classes in Krav Maga, Taekwondo, Muay Thai, Tai Chi, and BJJ, focusing on practical self-defense",
    "hours": "Mon-Fri 9AM-6PM",
    "services": [
      "Agnostic-owned Martial arts coaching in Montana consultation",
      "Professional service",
      "Quality guarantee"
    ],
    "social_links": {}
  },
  {
    "name": "3 Rivers Defense",
    "address": "Bozeman, MT",
    "phone": "(406) 580-5190",
    "rating": 4.9,
    "reviews": 25,
    "website": "https://www.3riversdefense.com/",
    "category": "Agnostic-owned Martial arts coaching in Montana",
    "description": "Provides reality-based, trauma-informed self-defense coaching with a holistic approach",
    "hours": "Mon-Fri 9AM-6PM",
    "services": [
      "Agnostic-owned Martial arts coaching in Montana consultation",
      "Professional service",
      "Quality guarantee"
    ],
    "social_links": {}
  },
  {
    "name": "SBG Whitefish",
    "address": "Whitefish, MT",
    "phone": "(406) 862-1030",
    "rating": 4.8,
    "reviews": 25,
    "website": "https://www.sbgwhitefish.com/",
    "category": "Agnostic-owned Martial arts coaching in Montana",
    "description": "A premier gym for BJJ, MMA, Boxing, and Yoga, offering training for all ages and experience levels",
    "hours": "Mon-Fri 9AM-6PM",
    "services": [
      "Agnostic-owned Martial arts coaching in Montana consultation",
      "Professional service",
      "Quality guarantee"
    ],
    "social_links": {}
  },
  {
    "name": "Mountain West Aikido",
    "address": "2804 Minnesota Ave, Suite D, Billings, MT 59101",
    "phone": "(406) 670-0200",
    "rating": 4.8,
    "reviews": 25,
    "website": "https://www.mountainwestaikido.com/",
    "category": "Agnostic-owned Martial arts coaching in Montana",
    "description": "The only dedicated Aikido school in the Billings area, affiliated with Aikido Schools of Ueshiba",
    "hours": "Mon-Fri 9AM-6PM",
    "services": [
      "Agnostic-owned Martial arts coaching in Montana consultation",
      "Professional service",
      "Quality guarantee"
    ],
    "social_links": {}
  },
  {
    "name": "Real Kung Fu San Soo",
    "address": "215 Haggerty Lane, Bozeman, MT 59715",
    "phone": "(406) 404-4146",
    "rating": 4.9,
    "reviews": 25,
    "website": "https://www.realkungfusansoo.com/",
    "category": "Agnostic-owned Martial arts coaching in Montana",
    "description": "Teaches Kung Fu San Soo, a practical art of fighting, with a focus on personalized instruction and self-defense",
    "hours": "Mon-Fri 9AM-6PM",
    "services": [
      "Agnostic-owned Martial arts coaching in Montana consultation",
      "Professional service",
      "Quality guarantee"
    ],
    "social_links": {}
  },
  {
    "name": "Helena ATA Martial Arts",
    "address": "3180 Dredge Drive Ste., Helena, MT 59602",
    "phone": "(406) 410-0827",
    "rating": 4.8,
    "reviews": 25,
    "website": "https://www.helenaata.com/",
    "category": "Agnostic-owned Martial arts coaching in Montana",
    "description": "Offers martial arts training for the entire family, focusing on character development, leadership, and self-defense",
    "hours": "Mon-Fri 9AM-6PM",
    "services": [
      "Agnostic-owned Martial arts coaching in Montana consultation",
      "Professional service",
      "Quality guarantee"
    ],
    "social_links": {}
  }
]