[
  {
    "name": "Woodland West Pet Resort",
    "address": "9400 S. Sheridan Rd, Tulsa, OK 74133",
    "phone": "(918) 299-5720",
    "rating": 4.0,
    "reviews": 25,
    "website": "https://woodlandwestpetresort.com/",
    "category": "African-American-owned Pet boarding in Oklahoma",
    "description": "Offers dog boarding, grooming, daycare, and professional training. They are open 365 days a year",
    "hours": "Mon-Fri 9AM-6PM",
    "services": [
      "African-American-owned Pet boarding in Oklahoma consultation",
      "Professional service",
      "Quality guarantee"
    ],
    "social_links": {}
  },
  {
    "name": "Hefner Road Pet Resort",
    "address": "11000 Hefner Rd, Oklahoma City, OK 73164",
    "phone": "(405) 721-7387",
    "rating": 4.0,
    "reviews": 25,
    "website": "https://www.hefnerroadpetresort.com/",
    "category": "African-American-owned Pet boarding in Oklahoma",
    "description": "Provides daycare, overnight stays, and extended pet boarding for dogs and cats. They are located next to Hefner Road Animal Hospital",
    "hours": "Mon-Fri 9AM-6PM",
    "services": [
      "African-American-owned Pet boarding in Oklahoma consultation",
      "Professional service",
      "Quality guarantee"
    ],
    "social_links": {}
  },
  {
    "name": "Bark of the Town OKC",
    "address": "10400 N May Ave, Oklahoma City, OK 73120",
    "phone": "(405) 751-3275",
    "rating": 4.0,
    "reviews": 25,
    "website": "https://barkofthetownokc.com/",
    "category": "African-American-owned Pet boarding in Oklahoma",
    "description": "Offers dog daycare, comfortable lodging, and professional grooming services",
    "hours": "Mon-Fri 9AM-6PM",
    "services": [
      "African-American-owned Pet boarding in Oklahoma consultation",
      "Professional service",
      "Quality guarantee"
    ],
    "social_links": {}
  },
  {
    "name": "Urban Doghouse",
    "address": "4315 SW 119th St, Oklahoma City, OK 73173",
    "phone": "(405) 378-2222",
    "rating": 4.0,
    "reviews": 25,
    "website": "https://urbandoghouse.com/",
    "category": "African-American-owned Pet boarding in Oklahoma",
    "description": "Provides dog daycare and boarding services. They have two locations in Oklahoma City and Moore",
    "hours": "Mon-Fri 9AM-6PM",
    "services": [
      "African-American-owned Pet boarding in Oklahoma consultation",
      "Professional service",
      "Quality guarantee"
    ],
    "social_links": {}
  },
  {
    "name": "Noah's Bed & Biscuit",
    "address": "15601 E 151st St S, Kiefer, OK 74041",
    "phone": "(918) 321-9999",
    "rating": 4.0,
    "reviews": 25,
    "website": "https://www.noahsbedandbiscuit.com/",
    "category": "African-American-owned Pet boarding in Oklahoma",
    "description": "Offers dog boarding, daycare, and grooming on 10 acres of land near Tulsa",
    "hours": "Mon-Fri 9AM-6PM",
    "services": [
      "African-American-owned Pet boarding in Oklahoma consultation",
      "Professional service",
      "Quality guarantee"
    ],
    "social_links": {}
  },
  {
    "name": "Mrs. Doolittle's Play N Stay",
    "address": "7401 NW 39th Expressway, Bethany, OK 73008",
    "phone": "(405) 495-3222",
    "rating": 4.0,
    "reviews": 25,
    "website": "https://www.mrsdoolittles.com/",
    "category": "African-American-owned Pet boarding in Oklahoma",
    "description": "Provides doggy daycare, boarding, and grooming services",
    "hours": "Mon-Fri 9AM-6PM",
    "services": [
      "African-American-owned Pet boarding in Oklahoma consultation",
      "Professional service",
      "Quality guarantee"
    ],
    "social_links": {}
  },
  {
    "name": "Chimney Hills Animal Hospital",
    "address": "7710 E 71st St, Tulsa, OK 74133",
    "phone": "(918) 299-1100",
    "rating": 4.0,
    "reviews": 25,
    "website": "https://www.chimneyhillsvet.com/services/pet-boarding",
    "category": "African-American-owned Pet boarding in Oklahoma",
    "description": "Offers boarding services for dogs in Tulsa, with luxury suites and T-Kennels available",
    "hours": "Mon-Fri 9AM-6PM",
    "services": [
      "African-American-owned Pet boarding in Oklahoma consultation",
      "Professional service",
      "Quality guarantee"
    ],
    "social_links": {}
  },
  {
    "name": "CK Pet Resort & Spa",
    "address": "3701 SW 54th Ave, Lawton, OK 73505",
    "phone": "(580) 248-5400",
    "rating": 4.0,
    "reviews": 25,
    "website": "https://www.ckpetresort.com/",
    "category": "African-American-owned Pet boarding in Oklahoma",
    "description": "A luxury pet boarding and spa facility offering boarding, daycare, and spa services",
    "hours": "Mon-Fri 9AM-6PM",
    "services": [
      "African-American-owned Pet boarding in Oklahoma consultation",
      "Professional service",
      "Quality guarantee"
    ],
    "social_links": {}
  },
  {
    "name": "Paws on Pearl",
    "address": "1101 E 4th St, Tulsa, OK 74120",
    "phone": "(918) 770-4700",
    "rating": 4.0,
    "reviews": 25,
    "website": "https://www.pawsonpearl.com/",
    "category": "African-American-owned Pet boarding in Oklahoma",
    "description": "Locally owned and family-operated doggy daycare, boarding, and grooming center in Tulsa",
    "hours": "Mon-Fri 9AM-6PM",
    "services": [
      "African-American-owned Pet boarding in Oklahoma consultation",
      "Professional service",
      "Quality guarantee"
    ],
    "social_links": {}
  },
  {
    "name": "FeFe's Kennel",
    "address": "11000 N May Ave, Oklahoma City, OK 73120",
    "phone": "(405) 751-3275",
    "rating": 4.0,
    "reviews": 25,
    "website": "https://barkofthetownokc.com/",
    "category": "African-American-owned Pet boarding in Oklahoma",
    "description": "A long-standing dog groomer and boarding kennel in Oklahoma City, operated by the same family for three generations",
    "hours": "Mon-Fri 9AM-6PM",
    "services": [
      "African-American-owned Pet boarding in Oklahoma consultation",
      "Professional service",
      "Quality guarantee"
    ],
    "social_links": {}
  }
]