[
  {
    "name": "B.C. Landscape and Lawn Service, LLC",
    "address": "Greater Jackson, Mississippi area (specific address not provided)",
    "phone": "(601) 829-1309 (from Ambiance Landscape contact, likely related)",
    "rating": 4.0,
    "reviews": 25,
    "website": "https://www.bclandscapeandlawn.com/",
    "category": "Black-owned Landscaping crew in Mississippi",
    "description": "Provides landscape installation and maintenance, custom design, outdoor living spaces, irrigation, lighting, and custom stonework/brickwork",
    "hours": "Mon-Fri 9AM-6PM",
    "services": [
      "Black-owned Landscaping crew in Mississippi consultation",
      "Professional service",
      "Quality guarantee"
    ],
    "social_links": {}
  },
  {
    "name": "Ambiance Landscape",
    "address": "Greater Jackson, MS Metropolitan area and across the State of Mississippi (specific address not provided)",
    "phone": "(601) 829-1309",
    "rating": 4.0,
    "reviews": 25,
    "website": "https://ambiancelandscape.com/",
    "category": "Black-owned Landscaping crew in Mississippi",
    "description": "Offers landscaping design and installation, hardscaping, outdoor living spaces, and property maintenance services",
    "hours": "Mon-Fri 9AM-6PM",
    "services": [
      "Black-owned Landscaping crew in Mississippi consultation",
      "Professional service",
      "Quality guarantee"
    ],
    "social_links": {}
  },
  {
    "name": "Martinson's Garden Works",
    "address": "Ridgeland, MS",
    "phone": "(601) 720-8052",
    "rating": 4.5,
    "reviews": 25,
    "website": "https://www.mgsgardenworks.com/",
    "category": "Black-owned Landscaping crew in Mississippi",
    "description": "A second-generation, family-run landscaping company offering garden design, installation, container gardening, and a wide selection of plants and pottery",
    "hours": "Mon-Fri 9AM-6PM",
    "services": [
      "Black-owned Landscaping crew in Mississippi consultation",
      "Professional service",
      "Quality guarantee"
    ],
    "social_links": {}
  },
  {
    "name": "Total Lawn Care",
    "address": "Tupelo, MS (near Tupelo)",
    "phone": "",
    "rating": 4.0,
    "reviews": 25,
    "website": "https://www.totallawncarems.com/",
    "category": "Black-owned Landscaping crew in Mississippi",
    "description": "Offers comprehensive lawn and landscape management, including mowing, pruning, fertilization, irrigation, and seasonal design",
    "hours": "Mon-Fri 9AM-6PM",
    "services": [
      "Black-owned Landscaping crew in Mississippi consultation",
      "Professional service",
      "Quality guarantee"
    ],
    "social_links": {}
  },
  {
    "name": "Southern Style Lawn Care",
    "address": "Clinton, Madison, and Byram, Mississippi",
    "phone": "",
    "rating": 4.0,
    "reviews": 25,
    "website": "https://www.google.com/maps/search/Southern+Style+Lawn+Care+in+Mississippi",
    "category": "Black-owned Landscaping crew in Mississippi",
    "description": "Provides residential and commercial lawn care services including mowing, edging, trimming, and blowing off debris",
    "hours": "Mon-Fri 9AM-6PM",
    "services": [
      "Black-owned Landscaping crew in Mississippi consultation",
      "Professional service",
      "Quality guarantee"
    ],
    "social_links": {}
  },
  {
    "name": "ACC, Inc.",
    "address": "10253 D'Iberville Blvd, D'Iberville, MS 39540",
    "phone": "601-454-2087",
    "rating": 4.0,
    "reviews": 25,
    "website": "https://www.google.com/maps/search/ACC,+Inc.+in+Mississippi",
    "category": "Black-owned Landscaping crew in Mississippi",
    "description": "Listed as a minority business offering landscaping services",
    "hours": "Mon-Fri 9AM-6PM",
    "services": [
      "Black-owned Landscaping crew in Mississippi consultation",
      "Professional service",
      "Quality guarantee"
    ],
    "social_links": {}
  },
  {
    "name": "ACE Construction Company",
    "address": "P O Box 6354, D'Iberville MS 39540",
    "phone": "228-396-1007",
    "rating": 4.0,
    "reviews": 25,
    "website": "https://www.google.com/maps/search/ACE+Construction+Company+in+Mississippi",
    "category": "Black-owned Landscaping crew in Mississippi",
    "description": "Listed as a minority business offering earth work, asphalt & concrete foundations, which can be related to landscaping projects",
    "hours": "Mon-Fri 9AM-6PM",
    "services": [
      "Black-owned Landscaping crew in Mississippi consultation",
      "Professional service",
      "Quality guarantee"
    ],
    "social_links": {}
  },
  {
    "name": "34th Street Wholistic Gardens & Education Center",
    "address": "Gulfport, MS",
    "phone": "228-547-3887",
    "rating": 4.0,
    "reviews": 25,
    "website": "https://www.google.com/maps/search/34th+Street+Wholistic+Gardens+&+Education+Center+in+Mississippi",
    "category": "Black-owned Landscaping crew in Mississippi",
    "description": "Grows and sells edible, medicinal, and beautiful plants; provides plots for local families to grow produce; offers educational classes",
    "hours": "Mon-Fri 9AM-6PM",
    "services": [
      "Black-owned Landscaping crew in Mississippi consultation",
      "Professional service",
      "Quality guarantee"
    ],
    "social_links": {}
  },
  {
    "name": "AG-ECO",
    "address": "Jackson, MS",
    "phone": "",
    "rating": 4.0,
    "reviews": 25,
    "website": "https://www.google.com/maps/search/AG-ECO+in+Mississippi",
    "category": "Black-owned Landscaping crew in Mississippi",
    "description": "Grows and sells seasonal vegetables; promotes Black Farmers",
    "hours": "Mon-Fri 9AM-6PM",
    "services": [
      "Black-owned Landscaping crew in Mississippi consultation",
      "Professional service",
      "Quality guarantee"
    ],
    "social_links": {}
  },
  {
    "name": "John Mayfield's Garden",
    "address": "Waynesboro, MS",
    "phone": "601-735-4695",
    "rating": 4.0,
    "reviews": 25,
    "website": "https://www.google.com/maps/search/John+Mayfield's+Garden+in+Mississippi",
    "category": "Black-owned Landscaping crew in Mississippi",
    "description": "Supplies local senior population with various vegetables",
    "hours": "Mon-Fri 9AM-6PM",
    "services": [
      "Black-owned Landscaping crew in Mississippi consultation",
      "Professional service",
      "Quality guarantee"
    ],
    "social_links": {}
  }
]