[
  {
    "name": "Mouin Atallah - Farmers Insurance Agent",
    "address": "11754 Jollyville Rd. Ste 101, Austin, TX 78759",
    "phone": "(512) 335-1991",
    "rating": 5.0,
    "reviews": 25,
    "website": "https://www.farmersagent.com/matallah",
    "category": "Arabic-speaking Homeowners insurance in Texas",
    "description": "Offers auto, home, life, and business insurance. Speaks Arabic and English",
    "hours": "Mon-Fri 9AM-6PM",
    "services": [
      "Arabic-speaking Homeowners insurance in Texas consultation",
      "Professional service",
      "Quality guarantee"
    ],
    "social_links": {}
  },
  {
    "name": "Khalid Alrashed - State Farm Insurance Agent",
    "address": "146 Bella Katy Dr, Katy, TX 77494",
    "phone": "(281) 392-0404 / (713) 777-0202",
    "rating": 4.0,
    "reviews": 25,
    "website": "https://www.statefarm.com/agent/us/tx/katy/khalid-alrashed-k1p193701a",
    "category": "Arabic-speaking Homeowners insurance in Texas",
    "description": "Offers auto, home, life, and renters insurance. Speaks English, Spanish, and Arabic",
    "hours": "Mon-Fri 9AM-6PM",
    "services": [
      "Arabic-speaking Homeowners insurance in Texas consultation",
      "Professional service",
      "Quality guarantee"
    ],
    "social_links": {}
  },
  {
    "name": "Ammad Hija - Farmers Insurance Agent",
    "address": "6776 Southwest Fwy, Houston, TX 77074",
    "phone": "(713) 334-4221",
    "rating": 4.0,
    "reviews": 25,
    "website": "https://www.farmersagent.com/ahija",
    "category": "Arabic-speaking Homeowners insurance in Texas",
    "description": "Offers auto, home, renters, and business insurance",
    "hours": "Mon-Fri 9AM-6PM",
    "services": [
      "Arabic-speaking Homeowners insurance in Texas consultation",
      "Professional service",
      "Quality guarantee"
    ],
    "social_links": {}
  },
  {
    "name": "Homestate Insurance Agency",
    "address": "4504 Montana Avenue, El Paso, Texas 79903 (Central location)",
    "phone": "915-832-1894",
    "rating": 4.0,
    "reviews": 25,
    "website": "https://homestateinsurance.com/",
    "category": "Arabic-speaking Homeowners insurance in Texas",
    "description": "Independent and locally owned agency specializing in insurance services for Texas and New Mexico residents. Offers home insurance",
    "hours": "Mon-Fri 9AM-6PM",
    "services": [
      "Arabic-speaking Homeowners insurance in Texas consultation",
      "Professional service",
      "Quality guarantee"
    ],
    "social_links": {}
  },
  {
    "name": "Alpha Insurance Services",
    "address": "8815 Dyer St Ste 105, El Paso, TX 79904 (Northeast Office)",
    "phone": "(915) 629-9155",
    "rating": 5.0,
    "reviews": 25,
    "website": "https://www.alphainsuranceelpaso.com/",
    "category": "Arabic-speaking Homeowners insurance in Texas",
    "description": "Offers auto, home, commercial, and business insurance. Has been in business for over 15 years",
    "hours": "Mon-Fri 9AM-6PM",
    "services": [
      "Arabic-speaking Homeowners insurance in Texas consultation",
      "Professional service",
      "Quality guarantee"
    ],
    "social_links": {}
  },
  {
    "name": "Magnum Choice Insurance Agency, Inc.",
    "address": "1701 N Plano Rd #100, Richardson, TX 75081 (Serves Plano and Richardson)",
    "phone": "972-801-6878 (Plano) / 972-378-6400 (Richardson)",
    "rating": 4.0,
    "reviews": 25,
    "website": "https://www.magnumchoice.com/",
    "category": "Arabic-speaking Homeowners insurance in Texas",
    "description": "Independent agency offering auto, home, life, and business insurance in Texas and California",
    "hours": "Mon-Fri 9AM-6PM",
    "services": [
      "Arabic-speaking Homeowners insurance in Texas consultation",
      "Professional service",
      "Quality guarantee"
    ],
    "social_links": {}
  },
  {
    "name": "Central Insurance Agency",
    "address": "1101 S Capital of Texas Hwy, Suite 100, Austin, TX 78746",
    "phone": "(512) 328-5200",
    "rating": 4.0,
    "reviews": 25,
    "website": "https://www.centralinsurance.com/",
    "category": "Arabic-speaking Homeowners insurance in Texas",
    "description": "Independent, family-owned agency offering personal and business insurance, including homeowners insurance. They offer services in Spanish",
    "hours": "Mon-Fri 9AM-6PM",
    "services": [
      "Arabic-speaking Homeowners insurance in Texas consultation",
      "Professional service",
      "Quality guarantee"
    ],
    "social_links": {}
  },
  {
    "name": "TGS Insurance Agency",
    "address": "Multiple locations, including Arlington, TX and Corpus Christi, TX. For Arlington: 1000 N. Collins St., Suite 100, Arlington, TX 76011. For Corpus Christi: 5801 Spohn Dr., Corpus Christi, TX 78404",
    "phone": "(817) 717-4000 (Arlington) / (361) 336-1000 (Corpus Christi)",
    "rating": 4.0,
    "reviews": 25,
    "website": "https://tgsinsurance.com/",
    "category": "Arabic-speaking Homeowners insurance in Texas",
    "description": "Offers homeowners insurance from over 35 A-rated carriers. They emphasize finding the best policy at a great rate",
    "hours": "Mon-Fri 9AM-6PM",
    "services": [
      "Arabic-speaking Homeowners insurance in Texas consultation",
      "Professional service",
      "Quality guarantee"
    ],
    "social_links": {}
  },
  {
    "name": "Germania Insurance",
    "address": "While they serve many areas, they do not list specific agent addresses for all locations. Their headquarters is in Brenham, TX. They serve Plano, Arlington, San Antonio, and other Texas cities",
    "phone": "1-800-366-2210",
    "rating": 4.0,
    "reviews": 25,
    "website": "https://www.germaniainsurance.com/",
    "category": "Arabic-speaking Homeowners insurance in Texas",
    "description": "Texas-focused insurance company offering home and property insurance. They emphasize tailored policies for Texans",
    "hours": "Mon-Fri 9AM-6PM",
    "services": [
      "Arabic-speaking Homeowners insurance in Texas consultation",
      "Professional service",
      "Quality guarantee"
    ],
    "social_links": {}
  },
  {
    "name": "Thumann Insurance Agency",
    "address": "1776 Yorktown St, Dallas, TX 75229",
    "phone": "(972) 458-2000",
    "rating": 4.9,
    "reviews": 25,
    "website": "https://www.thumannagency.com/",
    "category": "Arabic-speaking Homeowners insurance in Texas",
    "description": "Provides homeowners insurance in Dallas, TX, partnering with top-rated insurance companies. They offer customized packages and have been in business for over 28 years",
    "hours": "Mon-Fri 9AM-6PM",
    "services": [
      "Arabic-speaking Homeowners insurance in Texas consultation",
      "Professional service",
      "Quality guarantee"
    ],
    "social_links": {}
  }
]