[
  {
    "name": "Rosenbloom Pest Control",
    "address": "7000 Loch Raven Blvd, Baltimore, MD 21239",
    "phone": "(410) 668-4400",
    "rating": 4.8,
    "reviews": 25,
    "website": "https://www.rosenbloompestcontrol.com/",
    "category": "Baby-Boomer-owned Pest management in Maryland",
    "description": "Offers residential and commercial pest control services in Baltimore City and County, with over 25 years of experience",
    "hours": "Mon-Fri 9AM-6PM",
    "services": [
      "Baby-Boomer-owned Pest management in Maryland consultation",
      "Professional service",
      "Quality guarantee"
    ],
    "social_links": {}
  },
  {
    "name": "Brody Brothers Pest Control",
    "address": "10706 Reisterstown Rd, Owings Mills, MD 21117",
    "phone": "(410) 653-2121",
    "rating": 4.9,
    "reviews": 25,
    "website": "https://www.brodybrothers.com/",
    "category": "Baby-Boomer-owned Pest management in Maryland",
    "description": "A family-owned and operated pest control service in the Baltimore area since 1984, now on its second generation of experts",
    "hours": "Mon-Fri 9AM-6PM",
    "services": [
      "Baby-Boomer-owned Pest management in Maryland consultation",
      "Professional service",
      "Quality guarantee"
    ],
    "social_links": {}
  },
  {
    "name": "American Pest",
    "address": "1700 Old Annapolis Rd, Upper Marlboro, MD 20774",
    "phone": "(800) 777-7071",
    "rating": 4.7,
    "reviews": 25,
    "website": "https://www.americanpest.com/",
    "category": "Baby-Boomer-owned Pest management in Maryland",
    "description": "Provides pest control services across Maryland, Washington D.C., and Virginia since 1925, utilizing green, sustainable, and innovative technology",
    "hours": "Mon-Fri 9AM-6PM",
    "services": [
      "Baby-Boomer-owned Pest management in Maryland consultation",
      "Professional service",
      "Quality guarantee"
    ],
    "social_links": {}
  },
  {
    "name": "Fox Pest Control",
    "address": "10025 York Rd, Cockeysville, MD 21030",
    "phone": "(855) 953-1976",
    "rating": 4.7,
    "reviews": 25,
    "website": "https://www.foxpestcontrol.com/locations/maryland/cockeysville/",
    "category": "Baby-Boomer-owned Pest management in Maryland",
    "description": "Offers pest control and extermination services with same-day service, free inspections, and a satisfaction guarantee",
    "hours": "Mon-Fri 9AM-6PM",
    "services": [
      "Baby-Boomer-owned Pest management in Maryland consultation",
      "Professional service",
      "Quality guarantee"
    ],
    "social_links": {}
  },
  {
    "name": "PestNow",
    "address": "10320 Saffold Way, Suite 101, Frederick, MD 21701",
    "phone": "(301) 662-1500",
    "rating": 4.7,
    "reviews": 25,
    "website": "https://www.pestnow.com/",
    "category": "Baby-Boomer-owned Pest management in Maryland",
    "description": "Provides pest, termite, and tick control, lawn care, and insulation services in Northern Virginia, Maryland, and Washington D.C",
    "hours": "Mon-Fri 9AM-6PM",
    "services": [
      "Baby-Boomer-owned Pest management in Maryland consultation",
      "Professional service",
      "Quality guarantee"
    ],
    "social_links": {}
  },
  {
    "name": "Affordable Pest",
    "address": "10025 York Rd, Cockeysville, MD 21030",
    "phone": "(410) 777-8022",
    "rating": 4.7,
    "reviews": 25,
    "website": "https://www.affordablepest.com/",
    "category": "Baby-Boomer-owned Pest management in Maryland",
    "description": "Offers a full line of pest control services for homes in Maryland, focusing on friendly and affordable solutions safe for families and pets",
    "hours": "Mon-Fri 9AM-6PM",
    "services": [
      "Baby-Boomer-owned Pest management in Maryland consultation",
      "Professional service",
      "Quality guarantee"
    ],
    "social_links": {}
  },
  {
    "name": "Montgomery Pest Control",
    "address": "401 N Washington St, Rockville, MD 20850",
    "phone": "(410) 975-9447",
    "rating": 4.8,
    "reviews": 25,
    "website": "https://www.montgomerypest.com/",
    "category": "Baby-Boomer-owned Pest management in Maryland",
    "description": "A locally owned and operated company with over 25 years of experience providing pest extermination services in Montgomery and Anne Arundel County, MD",
    "hours": "Mon-Fri 9AM-6PM",
    "services": [
      "Baby-Boomer-owned Pest management in Maryland consultation",
      "Professional service",
      "Quality guarantee"
    ],
    "social_links": {}
  },
  {
    "name": "Bugaboo Pest Control",
    "address": "10025 York Rd, Cockeysville, MD 21030",
    "phone": "(410) 777-8022",
    "rating": 4.7,
    "reviews": 25,
    "website": "https://www.bugaboopestcontrol.com/",
    "category": "Baby-Boomer-owned Pest management in Maryland",
    "description": "Offers comprehensive pest management solutions in Maryland, specializing in termite control, rodent control, and bed bug removal",
    "hours": "Mon-Fri 9AM-6PM",
    "services": [
      "Baby-Boomer-owned Pest management in Maryland consultation",
      "Professional service",
      "Quality guarantee"
    ],
    "social_links": {}
  },
  {
    "name": "Barefoot Pest Control",
    "address": "10025 York Rd, Cockeysville, MD 21030",
    "phone": "(410) 777-8022",
    "rating": 4.7,
    "reviews": 25,
    "website": "https://www.barefootpestcontrol.com/",
    "category": "Baby-Boomer-owned Pest management in Maryland",
    "description": "A family-owned and operated business with over 70 years of experience in commercial and residential pest control in Southern Maryland",
    "hours": "Mon-Fri 9AM-6PM",
    "services": [
      "Baby-Boomer-owned Pest management in Maryland consultation",
      "Professional service",
      "Quality guarantee"
    ],
    "social_links": {}
  },
  {
    "name": "Pest Control Inc.",
    "address": "10025 York Rd, Cockeysville, MD 21030",
    "phone": "(410) 777-8022",
    "rating": 4.7,
    "reviews": 25,
    "website": "https://www.pestcontrolinc.com/",
    "category": "Baby-Boomer-owned Pest management in Maryland",
    "description": "Provides a wide range of pest control services, including termite, ant, rodent, and mosquito control, for homes and businesses",
    "hours": "Mon-Fri 9AM-6PM",
    "services": [
      "Baby-Boomer-owned Pest management in Maryland consultation",
      "Professional service",
      "Quality guarantee"
    ],
    "social_links": {}
  }
]