[
  {
    "name": "North End Chinese Restaurant",
    "address": "1806 W State St #3955, Boise, ID 83702",
    "phone": "(208) 343-2121",
    "rating": 4.0,
    "reviews": 25,
    "website": "https://www.google.com/maps/search/North+End+Chinese+Restaurant+in+Idaho",
    "category": "Chinese-speaking Trade secrets in Idaho",
    "description": "Offers a variety of Chinese dishes, including mandarin chicken, almond chicken, and szechuan beef",
    "hours": "Mon-Fri 9AM-6PM",
    "services": [
      "Chinese-speaking Trade secrets in Idaho consultation",
      "Professional service",
      "Quality guarantee"
    ],
    "social_links": {}
  },
  {
    "name": "Mala House",
    "address": "3027 N Cole Rd, Boise, ID 83704",
    "phone": "(208) 323-0999",
    "rating": 4.0,
    "reviews": 25,
    "website": "https://www.google.com/maps/search/Mala+House+in+Idaho",
    "category": "Chinese-speaking Trade secrets in Idaho",
    "description": "Specializes in traditional Sichuan hot pot and spicy Chinese cuisine",
    "hours": "Mon-Fri 9AM-6PM",
    "services": [
      "Chinese-speaking Trade secrets in Idaho consultation",
      "Professional service",
      "Quality guarantee"
    ],
    "social_links": {}
  },
  {
    "name": "New Hong Kong Restaurant",
    "address": "107 N 5th Ave, Pocatello, ID 83204",
    "phone": "(208) 232-1888",
    "rating": 4.0,
    "reviews": 25,
    "website": "https://www.google.com/maps/search/New+Hong+Kong+Restaurant+in+Idaho",
    "category": "Chinese-speaking Trade secrets in Idaho",
    "description": "Offers a fusion of Chinese, American, and seafood dishes, with options for delivery and takeout",
    "hours": "Mon-Fri 9AM-6PM",
    "services": [
      "Chinese-speaking Trade secrets in Idaho consultation",
      "Professional service",
      "Quality guarantee"
    ],
    "social_links": {}
  },
  {
    "name": "Canton Restaurant",
    "address": "2173 E 17th St, Idaho Falls, ID 83404",
    "phone": "(208) 523-3448",
    "rating": 4.0,
    "reviews": 25,
    "website": "https://www.google.com/maps/search/Canton+Restaurant+in+Idaho",
    "category": "Chinese-speaking Trade secrets in Idaho",
    "description": "Serves authentic Cantonese specialties, hearty Chow Mein, and delightful Chop Suey, with dine-in and carry-out options",
    "hours": "Mon-Fri 9AM-6PM",
    "services": [
      "Chinese-speaking Trade secrets in Idaho consultation",
      "Professional service",
      "Quality guarantee"
    ],
    "social_links": {}
  },
  {
    "name": "China Inn",
    "address": "310 N 4th St, Coeur d'Alene, ID 83814",
    "phone": "(208) 665-7699",
    "rating": 4.0,
    "reviews": 25,
    "website": "https://www.google.com/maps/search/China+Inn+in+Idaho",
    "category": "Chinese-speaking Trade secrets in Idaho",
    "description": "A family-owned restaurant offering traditional Chinese cuisine, including Orange Chicken and Beef and Broccoli",
    "hours": "Mon-Fri 9AM-6PM",
    "services": [
      "Chinese-speaking Trade secrets in Idaho consultation",
      "Professional service",
      "Quality guarantee"
    ],
    "social_links": {}
  },
  {
    "name": "Panda Express",
    "address": "400 W Wilbur Ave, Coeur d'Alene, ID 83815",
    "phone": "(208) 664-1888",
    "rating": 4.0,
    "reviews": 25,
    "website": "https://www.pandaexpress.com/",
    "category": "Chinese-speaking Trade secrets in Idaho",
    "description": "A fast-casual restaurant chain offering American Chinese cuisine, including Orange Chicken and Honey Walnut Shrimp",
    "hours": "Mon-Fri 9AM-6PM",
    "services": [
      "Chinese-speaking Trade secrets in Idaho consultation",
      "Professional service",
      "Quality guarantee"
    ],
    "social_links": {}
  },
  {
    "name": "Top of China Buffet",
    "address": "1000 N 4th St, Coeur d'Alene, ID 83814",
    "phone": "(208) 676-8888",
    "rating": 4.0,
    "reviews": 25,
    "website": "https://www.google.com/maps/search/Top+of+China+Buffet+in+Idaho",
    "category": "Chinese-speaking Trade secrets in Idaho",
    "description": "Offers a large international buffet with Chinese options, including a sushi bar",
    "hours": "Mon-Fri 9AM-6PM",
    "services": [
      "Chinese-speaking Trade secrets in Idaho consultation",
      "Professional service",
      "Quality guarantee"
    ],
    "social_links": {}
  },
  {
    "name": "Ming Hao - Nampa",
    "address": "1112 Nampa Blvd, Nampa, ID 83687",
    "phone": "(208) 466-2921",
    "rating": 4.0,
    "reviews": 25,
    "website": "https://www.google.com/maps/search/Ming+Hao+-+Nampa+in+Idaho",
    "category": "Chinese-speaking Trade secrets in Idaho",
    "description": "Offers authentic and delicious Chinese American cuisine with buffet, dine-in, take-out, and delivery options",
    "hours": "Mon-Fri 9AM-6PM",
    "services": [
      "Chinese-speaking Trade secrets in Idaho consultation",
      "Professional service",
      "Quality guarantee"
    ],
    "social_links": {}
  },
  {
    "name": "Shang-Hai Restaurant",
    "address": "1112 Nampa Blvd, Nampa, ID 83687",
    "phone": "(208) 466-2921",
    "rating": 4.0,
    "reviews": 25,
    "website": "http://www.shanghainampa.com/",
    "category": "Chinese-speaking Trade secrets in Idaho",
    "description": "A family-owned restaurant serving Chinese American cuisine with buffet, dine-in, take-out, and delivery services",
    "hours": "Mon-Fri 9AM-6PM",
    "services": [
      "Chinese-speaking Trade secrets in Idaho consultation",
      "Professional service",
      "Quality guarantee"
    ],
    "social_links": {}
  },
  {
    "name": "Red Pavilion Mandarin Cuisine",
    "address": "1760 S Meridian Rd Suite 102, Meridian, ID 83642",
    "phone": "(208) 895-5880",
    "rating": 4.0,
    "reviews": 25,
    "website": "https://www.google.com/maps/search/Red+Pavilion+Mandarin+Cuisine+in+Idaho",
    "category": "Chinese-speaking Trade secrets in Idaho",
    "description": "Offers authentic Chinese food with a focus on Mandarin cuisine, praised for its food and service",
    "hours": "Mon-Fri 9AM-6PM",
    "services": [
      "Chinese-speaking Trade secrets in Idaho consultation",
      "Professional service",
      "Quality guarantee"
    ],
    "social_links": {}
  }
]