[
  {
    "name": "Grand Forks Senior Center",
    "address": "600 32nd Ave S, Grand Forks, ND 58201",
    "phone": "(701) 772-2441",
    "rating": 4.0,
    "reviews": 25,
    "website": "https://www.grandforks.gov/departments/parks-and-recreation/senior-center/",
    "category": "Chinese-speaking Senior fitness in North-Dakota",
    "description": "Offers various physical activities and exercise classes for seniors, including Tai Chi and Chair Yoga",
    "hours": "Mon-Fri 9AM-6PM",
    "services": [
      "Chinese-speaking Senior fitness in North-Dakota consultation",
      "Professional service",
      "Quality guarantee"
    ],
    "social_links": {}
  },
  {
    "name": "Bismarck Parks and Recreation District",
    "address": "400 East Front Avenue, Bismarck, North Dakota 58504",
    "phone": "(701) 222-6455",
    "rating": 4.0,
    "reviews": 25,
    "website": "https://www.bisparks.org/",
    "category": "Chinese-speaking Senior fitness in North-Dakota",
    "description": "Provides programs like \"Fit Fifty+\" which includes strength, balance, core, and flexibility exercises for individuals aged 50 and older",
    "hours": "Mon-Fri 9AM-6PM",
    "services": [
      "Chinese-speaking Senior fitness in North-Dakota consultation",
      "Professional service",
      "Quality guarantee"
    ],
    "social_links": {}
  },
  {
    "name": "Minot Family YMCA",
    "address": "1016 2nd Ave SE, Minot, ND 58701",
    "phone": "(701) 838-1475",
    "rating": 4.0,
    "reviews": 25,
    "website": "https://www.minotymca.org/",
    "category": "Chinese-speaking Senior fitness in North-Dakota",
    "description": "Offers a variety of senior fitness classes, including SilverSneakers Classic, Zumba Gold, Gentle Yoga, and water aerobics",
    "hours": "Mon-Fri 9AM-6PM",
    "services": [
      "Chinese-speaking Senior fitness in North-Dakota consultation",
      "Professional service",
      "Quality guarantee"
    ],
    "social_links": {}
  },
  {
    "name": "Choice Health & Fitness (Grand Forks)",
    "address": "4000 19th Ave S, Grand Forks, ND 58201",
    "phone": "(701) 772-0777",
    "rating": 4.0,
    "reviews": 25,
    "website": "https://www.choicehealthandfitness.com/",
    "category": "Chinese-speaking Senior fitness in North-Dakota",
    "description": "Partners with the Grand Forks Park District to offer senior programs, including Silver Sneakers classes, senior weight training, and water aerobics",
    "hours": "Mon-Fri 9AM-6PM",
    "services": [
      "Chinese-speaking Senior fitness in North-Dakota consultation",
      "Professional service",
      "Quality guarantee"
    ],
    "social_links": {}
  },
  {
    "name": "Fargo Park District",
    "address": "701 Main Ave, Fargo, ND 58103",
    "phone": "(701) 499-7788",
    "rating": 4.0,
    "reviews": 25,
    "website": "https://www.fargoparks.com/",
    "category": "Chinese-speaking Senior fitness in North-Dakota",
    "description": "Features an \"Active Agers Program\" with classes like SAIL (Stay Active & Independent For Life), Pilates, and Yoga for adults 55 and older",
    "hours": "Mon-Fri 9AM-6PM",
    "services": [
      "Chinese-speaking Senior fitness in North-Dakota consultation",
      "Professional service",
      "Quality guarantee"
    ],
    "social_links": {}
  },
  {
    "name": "Family Wellness (Fargo)",
    "address": "2960 Seter Parkway, Fargo, ND 58104",
    "phone": "(701) 234-2400",
    "rating": 4.0,
    "reviews": 25,
    "website": "https://www.familywellnessfargo.org/",
    "category": "Chinese-speaking Senior fitness in North-Dakota",
    "description": "Offers group fitness classes for active older adults, including programs like SilverSneakers and Silver n Fit. They also have a \"Training for Seniors\" program",
    "hours": "Mon-Fri 9AM-6PM",
    "services": [
      "Chinese-speaking Senior fitness in North-Dakota consultation",
      "Professional service",
      "Quality guarantee"
    ],
    "social_links": {}
  },
  {
    "name": "Revolution Trainers (Fargo)",
    "address": "1435 32nd Ave S, Fargo, ND 58104",
    "phone": "(701) 540-0005",
    "rating": 4.0,
    "reviews": 25,
    "website": "https://www.revolutiontrainers.com/",
    "category": "Chinese-speaking Senior fitness in North-Dakota",
    "description": "Specializes in personal training for seniors, offering tailored programs for balance, strength, and flexibility in a supportive environment",
    "hours": "Mon-Fri 9AM-6PM",
    "services": [
      "Chinese-speaking Senior fitness in North-Dakota consultation",
      "Professional service",
      "Quality guarantee"
    ],
    "social_links": {}
  },
  {
    "name": "West Fargo Park District",
    "address": "601 26th Ave E, West Fargo, ND 58078",
    "phone": "(701) 433-5360",
    "rating": 4.0,
    "reviews": 25,
    "website": "https://www.westfargoparks.com/",
    "category": "Chinese-speaking Senior fitness in North-Dakota",
    "description": "Offers the SAIL (Stay Active & Independent For Life) program for adults 55 and older, focusing on strength, balance, and fitness",
    "hours": "Mon-Fri 9AM-6PM",
    "services": [
      "Chinese-speaking Senior fitness in North-Dakota consultation",
      "Professional service",
      "Quality guarantee"
    ],
    "social_links": {}
  },
  {
    "name": "Williston Parks & Recreation District",
    "address": "822 18th Street East, Williston, ND 58802",
    "phone": "(701) 572-9272",
    "rating": 4.0,
    "reviews": 25,
    "website": "https://www.wprd.us/",
    "category": "Chinese-speaking Senior fitness in North-Dakota",
    "description": "Provides various fitness classes for seniors, including aquatic options and general fitness classes. They also mention insurance benefits like Silver Sneakers",
    "hours": "Mon-Fri 9AM-6PM",
    "services": [
      "Chinese-speaking Senior fitness in North-Dakota consultation",
      "Professional service",
      "Quality guarantee"
    ],
    "social_links": {}
  },
  {
    "name": "Two Rivers Activity Center (Jamestown)",
    "address": "1501 5th St NE, Jamestown, ND 58401",
    "phone": "(701) 952-TRAC (8722)",
    "rating": 4.0,
    "reviews": 25,
    "website": "https://www.jamestownparksandrec.com/trac/",
    "category": "Chinese-speaking Senior fitness in North-Dakota",
    "description": "Offers group fitness classes for all levels, including \"Strong Seniors\" and \"Flow Yoga.\"",
    "hours": "Mon-Fri 9AM-6PM",
    "services": [
      "Chinese-speaking Senior fitness in North-Dakota consultation",
      "Professional service",
      "Quality guarantee"
    ],
    "social_links": {}
  }
]