[
  {
    "name": "Catholic Charities of Arkansas",
    "address": "2500 N. Tyler St., Little Rock, AR 72207",
    "phone": "(501) 664-0340",
    "rating": 4.0,
    "reviews": 25,
    "website": "https://dolr.org/catholic-charities",
    "category": "Catholic-owned Social catering in Arkansas",
    "description": "While not a traditional catering business, Catholic Charities of Arkansas provides various social services and may be involved in food-related community outreach. They focus on serving those in need and advocating for the vulnerable",
    "hours": "Mon-Fri 9AM-6PM",
    "services": [
      "Catholic-owned Social catering in Arkansas consultation",
      "Professional service",
      "Quality guarantee"
    ],
    "social_links": {}
  },
  {
    "name": "Vibrant Occasions Catering",
    "address": "10800 Kanis Rd, Little Rock, AR 72211",
    "phone": "(501) 831-3000",
    "rating": 4.9,
    "reviews": 25,
    "website": "https://vibrantoccasions.com/",
    "category": "Catholic-owned Social catering in Arkansas",
    "description": "Vibrant Occasions Catering, formerly Dinner's Ready Catering, has been serving Arkansas for over 20 years, offering a wide range of catering services for weddings and social events. They focus on creating memorable dining experiences",
    "hours": "Mon-Fri 9AM-6PM",
    "services": [
      "Catholic-owned Social catering in Arkansas consultation",
      "Professional service",
      "Quality guarantee"
    ],
    "social_links": {}
  },
  {
    "name": "Catering Concepts",
    "address": "903 N Bloomington St, Lowell, AR 72745",
    "phone": "(479) 657-2929",
    "rating": 4.5,
    "reviews": 25,
    "website": "https://www.cateringconcepts.net/",
    "category": "Catholic-owned Social catering in Arkansas",
    "description": "Catering Concepts offers a variety of menu and service options, handling everything from setup to cleanup for events. They are known for delicious food and professional staff",
    "hours": "Mon-Fri 9AM-6PM",
    "services": [
      "Catholic-owned Social catering in Arkansas consultation",
      "Professional service",
      "Quality guarantee"
    ],
    "social_links": {}
  },
  {
    "name": "The Sous Chef",
    "address": "101 W Central Ave, Bentonville, AR 72712",
    "phone": "(479) 715-6400",
    "rating": 4.0,
    "reviews": 25,
    "website": "https://www.thesouschef.com/",
    "category": "Catholic-owned Social catering in Arkansas",
    "description": "The Sous Chef provides delicious cuisine for weddings and special celebrations in Bentonville, Arkansas, offering a range of dishes inspired by fresh ingredients and global flavors",
    "hours": "Mon-Fri 9AM-6PM",
    "services": [
      "Catholic-owned Social catering in Arkansas consultation",
      "Professional service",
      "Quality guarantee"
    ],
    "social_links": {}
  },
  {
    "name": "Rx Catering",
    "address": "121 W Township St, Fayetteville, AR 72703 (also serves Little Rock)",
    "phone": "(479) 301-2300 (Fayetteville), (501) 224-5000 (Little Rock)",
    "rating": 4.0,
    "reviews": 25,
    "website": "https://rxcatering.com/",
    "category": "Catholic-owned Social catering in Arkansas",
    "description": "Rx Catering offers fresh, reliable catering for offices, events, and celebrations across Little Rock and Northwest Arkansas, with easy online ordering and on-time delivery. They have been serving Arkansas since 2001",
    "hours": "Mon-Fri 9AM-6PM",
    "services": [
      "Catholic-owned Social catering in Arkansas consultation",
      "Professional service",
      "Quality guarantee"
    ],
    "social_links": {}
  },
  {
    "name": "Two Sisters Catering",
    "address": "3140 E Kiehl Ave, Sherwood, AR 72120",
    "phone": "(501) 351-4289",
    "rating": 4.0,
    "reviews": 25,
    "website": "https://twosisterscatering.com/",
    "category": "Catholic-owned Social catering in Arkansas",
    "description": "Two Sisters Catering is a licensed full-service catering company established in 2001, dedicated to providing delicious food and perfect execution for events",
    "hours": "Mon-Fri 9AM-6PM",
    "services": [
      "Catholic-owned Social catering in Arkansas consultation",
      "Professional service",
      "Quality guarantee"
    ],
    "social_links": {}
  },
  {
    "name": "Eat My Catfish",
    "address": "Multiple locations, including 2516 Cantrell Road Ste A 12, Little Rock, AR 72202 (Holy Souls School PTO location)",
    "phone": "(501) 404-3000",
    "rating": 4.0,
    "reviews": 25,
    "website": "https://www.eatmycatfish.com/",
    "category": "Catholic-owned Social catering in Arkansas",
    "description": "Eat My Catfish partners with Catholic churches and schools for fundraisers, donating a portion of proceeds back to the organizations. They offer Cajun-style food and catering services",
    "hours": "Mon-Fri 9AM-6PM",
    "services": [
      "Catholic-owned Social catering in Arkansas consultation",
      "Professional service",
      "Quality guarantee"
    ],
    "social_links": {}
  },
  {
    "name": "Mountain Top Catering",
    "address": "1200 N. Mountain St, Mountainburg, AR 72946",
    "phone": "(479) 366-3333",
    "rating": 5.0,
    "reviews": 25,
    "website": "https://www.mountaintopcatering.com/",
    "category": "Catholic-owned Social catering in Arkansas",
    "description": "Mountain Top Catering offers a wide variety of choices for events and is highly rated by customers for their quality and service",
    "hours": "Mon-Fri 9AM-6PM",
    "services": [
      "Catholic-owned Social catering in Arkansas consultation",
      "Professional service",
      "Quality guarantee"
    ],
    "social_links": {}
  },
  {
    "name": "Catering Arkansas",
    "address": "Little Rock, AR (specific address not provided)",
    "phone": "(501) 244-3333",
    "rating": 4.0,
    "reviews": 25,
    "website": "https://www.cateringarkansas.com/",
    "category": "Catholic-owned Social catering in Arkansas",
    "description": "Catering Arkansas provides event planning and catering services, working with various local chefs and restaurants to create custom menus for weddings and celebrations",
    "hours": "Mon-Fri 9AM-6PM",
    "services": [
      "Catholic-owned Social catering in Arkansas consultation",
      "Professional service",
      "Quality guarantee"
    ],
    "social_links": {}
  },
  {
    "name": "Smokin Zo's BBQ Food Truck",
    "address": "Catholic Point, AR (serves Catholic Point and surrounding areas)",
    "phone": "(501) 404-3000 (This number is also listed for Eat My Catfish, suggesting a potential connection or shared administrative line)",
    "rating": 4.0,
    "reviews": 25,
    "website": "https://www.smokinzo.com/",
    "category": "Catholic-owned Social catering in Arkansas",
    "description": "Smokin Zo's offers Texas-style BBQ catering for private and public events in Catholic Point, Arkansas, and surrounding areas, providing a flavorful and memorable experience",
    "hours": "Mon-Fri 9AM-6PM",
    "services": [
      "Catholic-owned Social catering in Arkansas consultation",
      "Professional service",
      "Quality guarantee"
    ],
    "social_links": {}
  }
]