[
  {
    "name": "Stunning Smiles of Las Vegas",
    "address": "6410 Medical Center St, Las Vegas, NV, 89148",
    "phone": "(702) 434-4800",
    "rating": 4.9,
    "reviews": 25,
    "website": "https://www.stunningsmilesoflasvegas.com/",
    "category": "Baby-Boomer-owned Cosmetic dentistry in Nevada",
    "description": "Offers cosmetic, restorative, and preventative dentistry, including same-day dental crowns, All-on-6 dental implants, teeth whitening, and Invisalign",
    "hours": "Mon-Fri 9AM-6PM",
    "services": [
      "Baby-Boomer-owned Cosmetic dentistry in Nevada consultation",
      "Professional service",
      "Quality guarantee"
    ],
    "social_links": {}
  },
  {
    "name": "Boca Park Dental",
    "address": "1000 S Rampart Blvd #13, Las Vegas, NV, 89145",
    "phone": "(702) 243-8000",
    "rating": 4.9,
    "reviews": 25,
    "website": "https://www.bocaparkdental.com/",
    "category": "Baby-Boomer-owned Cosmetic dentistry in Nevada",
    "description": "Provides general and cosmetic dentistry using advanced techniques and equipment, including porcelain veneers, dental implants, and teeth whitening",
    "hours": "Mon-Fri 9AM-6PM",
    "services": [
      "Baby-Boomer-owned Cosmetic dentistry in Nevada consultation",
      "Professional service",
      "Quality guarantee"
    ],
    "social_links": {}
  },
  {
    "name": "Wagner Dental",
    "address": "855 W 7th St #200, Reno, NV 89503",
    "phone": "(775) 200-1900",
    "rating": 4.9,
    "reviews": 25,
    "website": "https://www.therenodentist.com/",
    "category": "Baby-Boomer-owned Cosmetic dentistry in Nevada",
    "description": "Specializes in general and cosmetic dentistry, including dental implants, CEREC same-day crowns, Invisalign, and smile design",
    "hours": "Mon-Fri 9AM-6PM",
    "services": [
      "Baby-Boomer-owned Cosmetic dentistry in Nevada consultation",
      "Professional service",
      "Quality guarantee"
    ],
    "social_links": {}
  },
  {
    "name": "Baldwin Distinctive Dentistry",
    "address": "7370 W Azure Dr #150, Las Vegas, NV 89130",
    "phone": "(702) 702-0202",
    "rating": 4.9,
    "reviews": 25,
    "website": "https://www.baldwindds.com/",
    "category": "Baby-Boomer-owned Cosmetic dentistry in Nevada",
    "description": "Offers family and cosmetic dentistry, including clear aligners, tooth replacement, porcelain crowns, and teeth whitening, with advanced technology and sedation dentistry",
    "hours": "Mon-Fri 9AM-6PM",
    "services": [
      "Baby-Boomer-owned Cosmetic dentistry in Nevada consultation",
      "Professional service",
      "Quality guarantee"
    ],
    "social_links": {}
  },
  {
    "name": "Delicate Dental",
    "address": "7370 W Azure Dr #150, Las Vegas, NV 89130",
    "phone": "(702) 702-0202",
    "rating": 4.9,
    "reviews": 25,
    "website": "https://www.delicatedentallv.com/",
    "category": "Baby-Boomer-owned Cosmetic dentistry in Nevada",
    "description": "Provides general and cosmetic dentistry, including dental bonding, veneers, oral surgery, and dental implants, with a focus on easing patient anxiety",
    "hours": "Mon-Fri 9AM-6PM",
    "services": [
      "Baby-Boomer-owned Cosmetic dentistry in Nevada consultation",
      "Professional service",
      "Quality guarantee"
    ],
    "social_links": {}
  },
  {
    "name": "SunBrite Dental",
    "address": "7370 W Azure Dr #150, Las Vegas, NV 89130",
    "phone": "(702) 702-0202",
    "rating": 4.9,
    "reviews": 25,
    "website": "https://www.sunbritedental.com/",
    "category": "Baby-Boomer-owned Cosmetic dentistry in Nevada",
    "description": "Offers a full range of dental services, including cosmetic dentistry, Invisalign, smile makeovers, and implants, in a relaxing environment",
    "hours": "Mon-Fri 9AM-6PM",
    "services": [
      "Baby-Boomer-owned Cosmetic dentistry in Nevada consultation",
      "Professional service",
      "Quality guarantee"
    ],
    "social_links": {}
  },
  {
    "name": "Center for Cosmetic and Family Dentistry",
    "address": "10410 S Eastern Ave Suite 200, Henderson, NV 89052",
    "phone": "(702) 702-0202",
    "rating": 4.9,
    "reviews": 25,
    "website": "https://www.centerforcosmeticandfamilydentistry.com/",
    "category": "Baby-Boomer-owned Cosmetic dentistry in Nevada",
    "description": "Dedicated to creating a convenient and pleasant dental experience, offering a wide range of cosmetic and family dentistry services",
    "hours": "Mon-Fri 9AM-6PM",
    "services": [
      "Baby-Boomer-owned Cosmetic dentistry in Nevada consultation",
      "Professional service",
      "Quality guarantee"
    ],
    "social_links": {}
  },
  {
    "name": "Michaela Tozzi, DMD",
    "address": "1070 W Horizon Ridge Pkwy #121, Henderson, NV 89012",
    "phone": "(725) 257-2220",
    "rating": 5.0,
    "reviews": 25,
    "website": "https://www.vegastoothdr.com/",
    "category": "Baby-Boomer-owned Cosmetic dentistry in Nevada",
    "description": "Specializes in cosmetic services aimed at improving the appearance of teeth and overall smile, from minor changes to full-tooth restorations",
    "hours": "Mon-Fri 9AM-6PM",
    "services": [
      "Baby-Boomer-owned Cosmetic dentistry in Nevada consultation",
      "Professional service",
      "Quality guarantee"
    ],
    "social_links": {}
  },
  {
    "name": "Summerlin Center for Aesthetic Dentistry",
    "address": "2095 Village Center Circle, Suite 110, Las Vegas, NV 89134",
    "phone": "(702) 243-8000",
    "rating": 5.0,
    "reviews": 25,
    "website": "https://www.summerlinsmiles.com/",
    "category": "Baby-Boomer-owned Cosmetic dentistry in Nevada",
    "description": "Offers preventative, restorative, and cosmetic dental care, including dental implants and same-day crowns, in a spa-like environment",
    "hours": "Mon-Fri 9AM-6PM",
    "services": [
      "Baby-Boomer-owned Cosmetic dentistry in Nevada consultation",
      "Professional service",
      "Quality guarantee"
    ],
    "social_links": {}
  },
  {
    "name": "Rose Cosmetic & Family Dentistry",
    "address": "4230 E Charleston Blvd, Las Vegas, NV 89104",
    "phone": "(702) 459-1950",
    "rating": 5.0,
    "reviews": 25,
    "website": "https://www.rosefamilydentistry.com/",
    "category": "Baby-Boomer-owned Cosmetic dentistry in Nevada",
    "description": "Provides comprehensive dental care from preventive services to smile makeovers, with a focus on personalized and compassionate attention",
    "hours": "Mon-Fri 9AM-6PM",
    "services": [
      "Baby-Boomer-owned Cosmetic dentistry in Nevada consultation",
      "Professional service",
      "Quality guarantee"
    ],
    "social_links": {}
  }
]