[
  {
    "name": "AFS Foundation & Waterproofing Specialists",
    "address": "1519 Heil Quaker Blvd, La Vergne, TN 37086",
    "phone": "(615) 802-6746",
    "rating": 4.3,
    "reviews": 25,
    "website": "https://www.google.com/maps/search/AFS+Foundation+&+Waterproofing+Specialists+in+Tennessee",
    "category": "Central-American-owned Foundation repair in Tennessee",
    "description": "Specializes in foundation repair, waterproofing, and concrete needs for homeowners. They have been serving Tennessee since 2000 and are accredited by the Better Business Bureau",
    "hours": "Mon-Fri 9AM-6PM",
    "services": [
      "Central-American-owned Foundation repair in Tennessee consultation",
      "Professional service",
      "Quality guarantee"
    ],
    "social_links": {}
  },
  {
    "name": "Frontier Foundation & Crawl Space Repair",
    "address": "5150 US-41A, Joelton, TN 37080",
    "phone": "(615) 650-2300",
    "rating": 4.5,
    "reviews": 25,
    "website": "https://www.google.com/maps/search/Frontier+Foundation+&+Crawl+Space+Repair+in+Tennessee",
    "category": "Central-American-owned Foundation repair in Tennessee",
    "description": "Provides foundation repair, crawl space repair, and basement waterproofing services throughout Central Tennessee, Southwestern Kentucky, and Northern Alabama",
    "hours": "Mon-Fri 9AM-6PM",
    "services": [
      "Central-American-owned Foundation repair in Tennessee consultation",
      "Professional service",
      "Quality guarantee"
    ],
    "social_links": {}
  },
  {
    "name": "Ground Up Foundation Repair",
    "address": "Serves Murfreesboro, Nashville, and Middle Tennessee. (Specific address not provided in search results, but contact number is available)",
    "phone": "(615) 987-0254",
    "rating": 4.0,
    "reviews": 25,
    "website": "https://www.google.com/maps/search/Ground+Up+Foundation+Repair+in+Tennessee",
    "category": "Central-American-owned Foundation repair in Tennessee",
    "description": "A family-owned business offering foundation/crawl space repair, waterproofing, concrete leveling, and more. They have been serving Middle Tennessee since 2009",
    "hours": "Mon-Fri 9AM-6PM",
    "services": [
      "Central-American-owned Foundation repair in Tennessee consultation",
      "Professional service",
      "Quality guarantee"
    ],
    "social_links": {}
  },
  {
    "name": "Olshan Foundation Repair",
    "address": "Services the entire state of Tennessee from regional offices. (Specific addresses for all offices not listed, but a general contact is available)",
    "phone": "(877) 299-3007",
    "rating": 4.0,
    "reviews": 25,
    "website": "https://www.google.com/maps/search/Olshan+Foundation+Repair+in+Tennessee",
    "category": "Central-American-owned Foundation repair in Tennessee",
    "description": "Offers foundation repair, basement waterproofing, crawl space recovery, and wall repair services with patented technology and a warranty",
    "hours": "Mon-Fri 9AM-6PM",
    "services": [
      "Central-American-owned Foundation repair in Tennessee consultation",
      "Professional service",
      "Quality guarantee"
    ],
    "social_links": {}
  },
  {
    "name": "TFS - The Foundation Specialists",
    "address": "8421 Horton Highway, College Grove, TN 37046",
    "phone": "(855) 450-0450",
    "rating": 4.6,
    "reviews": 25,
    "website": "https://www.google.com/maps/search/TFS+-+The+Foundation+Specialists+in+Tennessee",
    "category": "Central-American-owned Foundation repair in Tennessee",
    "description": "A regional leader in foundation repair, concrete lifting, and basement & crawl space waterproofing solutions, serving Tennessee, Kentucky, Alabama, and Southern Indiana",
    "hours": "Mon-Fri 9AM-6PM",
    "services": [
      "Central-American-owned Foundation repair in Tennessee consultation",
      "Professional service",
      "Quality guarantee"
    ],
    "social_links": {}
  },
  {
    "name": "Master Services",
    "address": "6226 Clinton Highway, Suite 1, Knoxville, TN 37912",
    "phone": "(865) 244-4500",
    "rating": 4.0,
    "reviews": 25,
    "website": "https://www.google.com/maps/search/Master+Services+in+Tennessee",
    "category": "Central-American-owned Foundation repair in Tennessee",
    "description": "An East Tennessee dealer for Foundation Supportworks, Inc., providing foundation repair and crawl space services",
    "hours": "Mon-Fri 9AM-6PM",
    "services": [
      "Central-American-owned Foundation repair in Tennessee consultation",
      "Professional service",
      "Quality guarantee"
    ],
    "social_links": {}
  },
  {
    "name": "American Foundation & Waterproofing",
    "address": "1503 Old Mount Tabor Rd, Maryville, TN 37801",
    "phone": "(865) 244-4500",
    "rating": 4.0,
    "reviews": 25,
    "website": "https://www.google.com/maps/search/American+Foundation+&+Waterproofing+in+Tennessee",
    "category": "Central-American-owned Foundation repair in Tennessee",
    "description": "A foundation contractor servicing the Greater Knoxville, Tennessee region",
    "hours": "Mon-Fri 9AM-6PM",
    "services": [
      "Central-American-owned Foundation repair in Tennessee consultation",
      "Professional service",
      "Quality guarantee"
    ],
    "social_links": {}
  },
  {
    "name": "All Dry, Inc.",
    "address": "260 Nonaville Road, Lebanon, TN 37087",
    "phone": "(615) 779-1220",
    "rating": 4.97,
    "reviews": 25,
    "website": "https://www.google.com/maps/search/All+Dry,+Inc.+in+Tennessee",
    "category": "Central-American-owned Foundation repair in Tennessee",
    "description": "Offers basement waterproofing, foundation repair, and crawl space repair services. Recommended by a high percentage of Angi and HomeAdvisor customers",
    "hours": "Mon-Fri 9AM-6PM",
    "services": [
      "Central-American-owned Foundation repair in Tennessee consultation",
      "Professional service",
      "Quality guarantee"
    ],
    "social_links": {}
  },
  {
    "name": "A-1 Concrete Leveling and Foundation Repair Nashville",
    "address": "3444 Howard Bridge Rd, Columbia, TN 38401",
    "phone": "(615) 212-5791",
    "rating": 4.0,
    "reviews": 25,
    "website": "https://www.google.com/maps/search/A-1+Concrete+Leveling+and+Foundation+Repair+Nashville+in+Tennessee",
    "category": "Central-American-owned Foundation repair in Tennessee",
    "description": "Provides concrete leveling and foundation repair services, including driveways, sidewalks, and waterproofing",
    "hours": "Mon-Fri 9AM-6PM",
    "services": [
      "Central-American-owned Foundation repair in Tennessee consultation",
      "Professional service",
      "Quality guarantee"
    ],
    "social_links": {}
  },
  {
    "name": "Creative Concrete Solutions",
    "address": "9406 Franklin Rd, Murfreesboro, TN 37128",
    "phone": "(615) 691-6613",
    "rating": 4.0,
    "reviews": 25,
    "website": "https://www.google.com/maps/search/Creative+Concrete+Solutions+in+Tennessee",
    "category": "Central-American-owned Foundation repair in Tennessee",
    "description": "Offers a range of services including concrete repair, driveways, sidewalks, masonry, and grading and leveling",
    "hours": "Mon-Fri 9AM-6PM",
    "services": [
      "Central-American-owned Foundation repair in Tennessee consultation",
      "Professional service",
      "Quality guarantee"
    ],
    "social_links": {}
  }
]