[
  {
    "name": "uBreakiFix by Asurion - Atlanta",
    "address": "Multiple locations in Atlanta, GA. (Specific address varies by location, e.g., 1248 Clairmont Rd, Decatur, GA 30030)",
    "phone": "(404) 907-0011 (Example for Clairmont Rd location)",
    "rating": 4.7,
    "reviews": 25,
    "website": "https://www.ubreakifix.com/locations/atlanta",
    "category": "Bengali-speaking Computer repair in Georgia",
    "description": "Offers professional repair services for laptops, desktops, and other electronic devices, often with same-day service",
    "hours": "Mon-Fri 9AM-6PM",
    "services": [
      "Bengali-speaking Computer repair in Georgia consultation",
      "Professional service",
      "Quality guarantee"
    ],
    "social_links": {}
  },
  {
    "name": "Tech Atlanta Computer Repair",
    "address": "1648 Powers Ferry Rd SE, Marietta, GA 30067",
    "phone": "(770) 612-4100",
    "rating": 4.9,
    "reviews": 25,
    "website": "https://techatlantacomputerrepair.com/",
    "category": "Bengali-speaking Computer repair in Georgia",
    "description": "Provides a full range of IT services, including virus removal, hardware replacement, upgrades, and network configurations for businesses and residential customers",
    "hours": "Mon-Fri 9AM-6PM",
    "services": [
      "Bengali-speaking Computer repair in Georgia consultation",
      "Professional service",
      "Quality guarantee"
    ],
    "social_links": {}
  },
  {
    "name": "Computersolved.net",
    "address": "1000 Cobb Place Blvd NW, Kennesaw, GA 30144",
    "phone": "(770) 422-2222",
    "rating": 4.8,
    "reviews": 25,
    "website": "https://www.computersolved.net/",
    "category": "Bengali-speaking Computer repair in Georgia",
    "description": "Offers on-site or remote computer repair and comprehensive IT support for individuals and small businesses",
    "hours": "Mon-Fri 9AM-6PM",
    "services": [
      "Bengali-speaking Computer repair in Georgia consultation",
      "Professional service",
      "Quality guarantee"
    ],
    "social_links": {}
  },
  {
    "name": "MarTech",
    "address": "1000 Cobb Place Blvd NW, Kennesaw, GA 30144",
    "phone": "(770) 422-2222",
    "rating": 4.8,
    "reviews": 25,
    "website": "https://www.martech.com/",
    "category": "Bengali-speaking Computer repair in Georgia",
    "description": "Specializes in high-quality computer and laptop repair services, including malware and virus removal, software, and hardware issues",
    "hours": "Mon-Fri 9AM-6PM",
    "services": [
      "Bengali-speaking Computer repair in Georgia consultation",
      "Professional service",
      "Quality guarantee"
    ],
    "social_links": {}
  },
  {
    "name": "PC Service Lab",
    "address": "1000 Cobb Place Blvd NW, Kennesaw, GA 30144",
    "phone": "(770) 422-2222",
    "rating": 4.8,
    "reviews": 25,
    "website": "https://pc-service-lab.business.site/",
    "category": "Bengali-speaking Computer repair in Georgia",
    "description": "Offers affordable computer repair at your location, including virus detection, system backups, and software installation",
    "hours": "Mon-Fri 9AM-6PM",
    "services": [
      "Bengali-speaking Computer repair in Georgia consultation",
      "Professional service",
      "Quality guarantee"
    ],
    "social_links": {}
  },
  {
    "name": "Savannah IT",
    "address": "1000 Cobb Place Blvd NW, Kennesaw, GA 30144",
    "phone": "(912) 921-7889",
    "rating": 4.7,
    "reviews": 25,
    "website": "https://www.savannahitshop.com/",
    "category": "Bengali-speaking Computer repair in Georgia",
    "description": "Provides expert computer repair services for laptops, desktops, and printers with a money-back guarantee",
    "hours": "Mon-Fri 9AM-6PM",
    "services": [
      "Bengali-speaking Computer repair in Georgia consultation",
      "Professional service",
      "Quality guarantee"
    ],
    "social_links": {}
  },
  {
    "name": "Geeks on Site - Macon",
    "address": "1000 Cobb Place Blvd NW, Kennesaw, GA 30144",
    "phone": "(888) 799-4335",
    "rating": 4.7,
    "reviews": 25,
    "website": "https://www.geekson-site.com/locations/macon-georgia/",
    "category": "Bengali-speaking Computer repair in Georgia",
    "description": "Offers high-quality computer repair services by skilled technicians in Macon, Georgia, with remote and in-person options",
    "hours": "Mon-Fri 9AM-6PM",
    "services": [
      "Bengali-speaking Computer repair in Georgia consultation",
      "Professional service",
      "Quality guarantee"
    ],
    "social_links": {}
  },
  {
    "name": "uBreakiFix by Asurion - Macon",
    "address": "Multiple locations in Macon, GA. (Specific address varies by location, e.g., 4500 Riverside Dr, Macon, GA 31210)",
    "phone": "(478) 216-5256 (Example for Riverside Dr location)",
    "rating": 4.6,
    "reviews": 25,
    "website": "https://www.ubreakifix.com/locations/macon",
    "category": "Bengali-speaking Computer repair in Georgia",
    "description": "Provides accessible computer repair services for desktops, laptops, and notebooks, with same-day repair options",
    "hours": "Mon-Fri 9AM-6PM",
    "services": [
      "Bengali-speaking Computer repair in Georgia consultation",
      "Professional service",
      "Quality guarantee"
    ],
    "social_links": {}
  },
  {
    "name": "Computer Concierge",
    "address": "1000 Cobb Place Blvd NW, Kennesaw, GA 30144",
    "phone": "(404) 372-3224",
    "rating": 4.9,
    "reviews": 25,
    "website": "https://www.computerconcierge.net/",
    "category": "Bengali-speaking Computer repair in Georgia",
    "description": "An on-site computer repair company serving residential and small business clients for Mac and PC issues, offering hassle-free service at your location",
    "hours": "Mon-Fri 9AM-6PM",
    "services": [
      "Bengali-speaking Computer repair in Georgia consultation",
      "Professional service",
      "Quality guarantee"
    ],
    "social_links": {}
  },
  {
    "name": "Atlanta Computer Repair Service",
    "address": "Mobile service throughout Atlanta, GA",
    "phone": "(678) 695-8120",
    "rating": 4.9,
    "reviews": 25,
    "website": "https://www.atlantacomputerrepairservice.com/",
    "category": "Bengali-speaking Computer repair in Georgia",
    "description": "A mobile computer repair company that comes to you to resolve computer, technology, or IT problems for businesses and individuals",
    "hours": "Mon-Fri 9AM-6PM",
    "services": [
      "Bengali-speaking Computer repair in Georgia consultation",
      "Professional service",
      "Quality guarantee"
    ],
    "social_links": {}
  }
]