[
  {
    "name": "Metal Garage J.I.K LLC",
    "address": "Waukesha, WI 53186",
    "phone": "(414) 861-6093",
    "rating": 4.0,
    "reviews": 25,
    "website": "https://www.google.com/maps/search/Metal+Garage+J.I.K+LLC+in+Wisconsin",
    "category": "German-speaking Mobile auto repair in Wisconsin",
    "description": "Offers exceptional automotive services with precision and care for all vehicles, serving Waukesha, WI. They specialize in car alternator repair, car tuning, alternator replacement, auto brake repair, and brake service",
    "hours": "Mon-Fri 9AM-6PM",
    "services": [
      "German-speaking Mobile auto repair in Wisconsin consultation",
      "Professional service",
      "Quality guarantee"
    ],
    "social_links": {}
  },
  {
    "name": "InstantCarFix",
    "address": "Waukesha, WI and surrounding areas",
    "phone": "844-669-6324",
    "rating": 4.0,
    "reviews": 25,
    "website": "https://www.google.com/maps/search/InstantCarFix+in+Wisconsin",
    "category": "German-speaking Mobile auto repair in Wisconsin",
    "description": "Provides mobile car repair services in Waukesha and surrounding areas, available 365 days a year. They handle routine maintenance and more extensive repairs",
    "hours": "Mon-Fri 9AM-6PM",
    "services": [
      "German-speaking Mobile auto repair in Wisconsin consultation",
      "Professional service",
      "Quality guarantee"
    ],
    "social_links": {}
  },
  {
    "name": "Mobile Mechanic Pros Milwaukee",
    "address": "Milwaukee, WI and surrounding areas",
    "phone": "(414) 667-7722",
    "rating": 4.0,
    "reviews": 25,
    "website": "https://www.google.com/maps/search/Mobile+Mechanic+Pros+Milwaukee+in+Wisconsin",
    "category": "German-speaking Mobile auto repair in Wisconsin",
    "description": "Offers on-site car repair services in Wisconsin since 2014, covering almost all cities near Milwaukee",
    "hours": "Mon-Fri 9AM-6PM",
    "services": [
      "German-speaking Mobile auto repair in Wisconsin consultation",
      "Professional service",
      "Quality guarantee"
    ],
    "social_links": {}
  },
  {
    "name": "Autos Angels Mobile Mechanic LLC",
    "address": "Milwaukee, Wisconsin",
    "phone": "",
    "rating": 4.0,
    "reviews": 25,
    "website": "https://www.google.com/maps/search/Autos+Angels+Mobile+Mechanic+LLC+in+Wisconsin",
    "category": "German-speaking Mobile auto repair in Wisconsin",
    "description": "Provides top-quality mobile mechanic services in Milwaukee, Wisconsin, with a history of successful repairs and inspections since 2014",
    "hours": "Mon-Fri 9AM-6PM",
    "services": [
      "German-speaking Mobile auto repair in Wisconsin consultation",
      "Professional service",
      "Quality guarantee"
    ],
    "social_links": {}
  },
  {
    "name": "Madison Pro Mobile Mechanic",
    "address": "Madison, WI",
    "phone": "(608) 200-4650",
    "rating": 4.0,
    "reviews": 25,
    "website": "https://www.google.com/maps/search/Madison+Pro+Mobile+Mechanic+in+Wisconsin",
    "category": "German-speaking Mobile auto repair in Wisconsin",
    "description": "Offers on-the-go vehicle repair solutions in Madison, WI, for a wide spectrum of mechanical challenges",
    "hours": "Mon-Fri 9AM-6PM",
    "services": [
      "German-speaking Mobile auto repair in Wisconsin consultation",
      "Professional service",
      "Quality guarantee"
    ],
    "social_links": {}
  },
  {
    "name": "Scott's Automotive Repair",
    "address": "Pewaukee, Wisconsin",
    "phone": "",
    "rating": 4.0,
    "reviews": 25,
    "website": "https://www.google.com/maps/search/Scott's+Automotive+Repair+in+Wisconsin",
    "category": "German-speaking Mobile auto repair in Wisconsin",
    "description": "ASE certified technicians providing automotive repair services in Pewaukee, Wisconsin, for nearly all makes and models",
    "hours": "Mon-Fri 9AM-6PM",
    "services": [
      "German-speaking Mobile auto repair in Wisconsin consultation",
      "Professional service",
      "Quality guarantee"
    ],
    "social_links": {}
  },
  {
    "name": "Salem Auto Service",
    "address": "8517 Antioch Road, Salem, WI, 53168",
    "phone": "262-843-3636",
    "rating": 4.0,
    "reviews": 25,
    "website": "https://www.google.com/maps/search/Salem+Auto+Service+in+Wisconsin",
    "category": "German-speaking Mobile auto repair in Wisconsin",
    "description": "An independent, family-owned auto repair shop serving Salem, WI, and surrounding areas, with ASE-certified technicians",
    "hours": "Mon-Fri 9AM-6PM",
    "services": [
      "German-speaking Mobile auto repair in Wisconsin consultation",
      "Professional service",
      "Quality guarantee"
    ],
    "social_links": {}
  },
  {
    "name": "Hopson Automotive",
    "address": "Waukesha, WI",
    "phone": "",
    "rating": 4.0,
    "reviews": 25,
    "website": "https://www.google.com/maps/search/Hopson+Automotive+in+Wisconsin",
    "category": "German-speaking Mobile auto repair in Wisconsin",
    "description": "Offers excellent auto repair services in Waukesha, WI, with certified technicians committed to vehicle performance and reliability",
    "hours": "Mon-Fri 9AM-6PM",
    "services": [
      "German-speaking Mobile auto repair in Wisconsin consultation",
      "Professional service",
      "Quality guarantee"
    ],
    "social_links": {}
  },
  {
    "name": "Bill's Auto Tech Inc.",
    "address": "4737 S 108th St, Greenfield, WI",
    "phone": "414-529-8324",
    "rating": 4.0,
    "reviews": 25,
    "website": "https://www.google.com/maps/search/Bill's+Auto+Tech+Inc.+in+Wisconsin",
    "category": "German-speaking Mobile auto repair in Wisconsin",
    "description": "Provides expert auto repair services for domestic and import automobiles in Greenfield, WI",
    "hours": "Mon-Fri 9AM-6PM",
    "services": [
      "German-speaking Mobile auto repair in Wisconsin consultation",
      "Professional service",
      "Quality guarantee"
    ],
    "social_links": {}
  },
  {
    "name": "Libke Auto Specialists",
    "address": "9201 County Road J, Minocqua, WI",
    "phone": "715-356-9008",
    "rating": 4.0,
    "reviews": 25,
    "website": "https://www.google.com/maps/search/Libke+Auto+Specialists+in+Wisconsin",
    "category": "German-speaking Mobile auto repair in Wisconsin",
    "description": "Offers expert auto repair services for domestic and import automobiles in Minocqua, WI",
    "hours": "Mon-Fri 9AM-6PM",
    "services": [
      "German-speaking Mobile auto repair in Wisconsin consultation",
      "Professional service",
      "Quality guarantee"
    ],
    "social_links": {}
  }
]