[
  {
    "name": "Bishop & Company",
    "address": "1000 Bishop St, Honolulu, HI 96813",
    "phone": "(808) 521-9444",
    "rating": 4.5,
    "reviews": 25,
    "website": "https://www.bishopco.net/",
    "category": "Chinese-American-owned Contingency recruiting in Hawaii",
    "description": "A locally-owned staffing agency providing temporary, direct hire, and executive recruiting services",
    "hours": "Mon-Fri 9AM-6PM",
    "services": [
      "Chinese-American-owned Contingency recruiting in Hawaii consultation",
      "Professional service",
      "Quality guarantee"
    ],
    "social_links": {}
  },
  {
    "name": "Robert Half",
    "address": "700 Bishop St Suite 1400, Honolulu, HI 96813",
    "phone": "(808) 521-1700",
    "rating": 4.2,
    "reviews": 25,
    "website": "https://www.roberthalf.com/honolulu",
    "category": "Chinese-American-owned Contingency recruiting in Hawaii",
    "description": "Connects job seekers with employers for accounting, finance, technology, administrative, and legal positions",
    "hours": "Mon-Fri 9AM-6PM",
    "services": [
      "Chinese-American-owned Contingency recruiting in Hawaii consultation",
      "Professional service",
      "Quality guarantee"
    ],
    "social_links": {}
  },
  {
    "name": "Express Employment Professionals",
    "address": "1130 N Nimitz Hwy Suite A135, Honolulu, HI 96817 (and a Pearl City location)",
    "phone": "(808) 447-7700",
    "rating": 4.4,
    "reviews": 25,
    "website": "https://www.expresspros.com/honoluluhi/",
    "category": "Chinese-American-owned Contingency recruiting in Hawaii",
    "description": "Provides temporary, part-time, and full-time staffing solutions across various industries",
    "hours": "Mon-Fri 9AM-6PM",
    "services": [
      "Chinese-American-owned Contingency recruiting in Hawaii consultation",
      "Professional service",
      "Quality guarantee"
    ],
    "social_links": {}
  },
  {
    "name": "Dunhill Professional Staffing of Hawaii",
    "address": "1000 Bishop St Suite 500, Honolulu, HI 96813",
    "phone": "(808) 591-0466",
    "rating": 4.0,
    "reviews": 25,
    "website": "https://www.dunhillhawaii.com/",
    "category": "Chinese-American-owned Contingency recruiting in Hawaii",
    "description": "An executive search and temporary staffing firm serving Hawaii since 1974",
    "hours": "Mon-Fri 9AM-6PM",
    "services": [
      "Chinese-American-owned Contingency recruiting in Hawaii consultation",
      "Professional service",
      "Quality guarantee"
    ],
    "social_links": {}
  },
  {
    "name": "Aloha International Employment, Inc.",
    "address": "1130 N Nimitz Hwy Suite 133, Honolulu, HI 96817",
    "phone": "(808) 591-5000",
    "rating": 4.7,
    "reviews": 25,
    "website": "https://www.alohaintl.com/",
    "category": "Chinese-American-owned Contingency recruiting in Hawaii",
    "description": "A Hawaii employment agency helping laborers and professionals find full-time and temporary jobs since 1981",
    "hours": "Mon-Fri 9AM-6PM",
    "services": [
      "Chinese-American-owned Contingency recruiting in Hawaii consultation",
      "Professional service",
      "Quality guarantee"
    ],
    "social_links": {}
  },
  {
    "name": "HIVE Recruiting",
    "address": "1130 N Nimitz Hwy Suite 133, Honolulu, HI 96817 (This appears to be a shared office space with Aloha International Employment)",
    "phone": "(808) 591-5000 (This appears to be the same number as Aloha International Employment)",
    "rating": 5.0,
    "reviews": 25,
    "website": "https://www.hiverecruiting.com/",
    "category": "Chinese-American-owned Contingency recruiting in Hawaii",
    "description": "A boutique search firm specializing in building teams for leading businesses, with a focus on contingency-based direct placements",
    "hours": "Mon-Fri 9AM-6PM",
    "services": [
      "Chinese-American-owned Contingency recruiting in Hawaii consultation",
      "Professional service",
      "Quality guarantee"
    ],
    "social_links": {}
  },
  {
    "name": "HiEmployment",
    "address": "745 Fort Street, Honolulu, HI 96813 (also has locations on Kauai, Maui, and the Big Island)",
    "phone": "(808) 695-3974",
    "rating": 4.8,
    "reviews": 25,
    "website": "https://www.hiemployment.com/",
    "category": "Chinese-American-owned Contingency recruiting in Hawaii",
    "description": "Offers executive search and contingency staffing services for companies in Hawaii and the mainland",
    "hours": "Mon-Fri 9AM-6PM",
    "services": [
      "Chinese-American-owned Contingency recruiting in Hawaii consultation",
      "Professional service",
      "Quality guarantee"
    ],
    "social_links": {}
  },
  {
    "name": "Keller Executive Search",
    "address": "1000 Bishop St Suite 500, Honolulu, HI 96813 (This address appears to be shared with Dunhill Professional Staffing)",
    "phone": "(808) 591-0466 (This appears to be the same number as Dunhill Professional Staffing)",
    "rating": 4.7,
    "reviews": 25,
    "website": "https://kellerexecutivesearch.com/hawaii/",
    "category": "Chinese-American-owned Contingency recruiting in Hawaii",
    "description": "A headhunting, executive search, and recruiting firm servicing Honolulu, Pearl City, and Hilo",
    "hours": "Mon-Fri 9AM-6PM",
    "services": [
      "Chinese-American-owned Contingency recruiting in Hawaii consultation",
      "Professional service",
      "Quality guarantee"
    ],
    "social_links": {}
  },
  {
    "name": "Alakai Executive Search",
    "address": "1000 Bishop St Suite 500, Honolulu, HI 96813 (This address appears to be shared with Dunhill Professional Staffing and Keller Executive Search)",
    "phone": "(808) 591-0466 (This appears to be the same number as Dunhill Professional Staffing and Keller Executive Search)",
    "rating": 5.0,
    "reviews": 25,
    "website": "https://www.alakai-es.com/",
    "category": "Chinese-American-owned Contingency recruiting in Hawaii",
    "description": "Identifies and secures talented leaders and executives for the Hawaii job market",
    "hours": "Mon-Fri 9AM-6PM",
    "services": [
      "Chinese-American-owned Contingency recruiting in Hawaii consultation",
      "Professional service",
      "Quality guarantee"
    ],
    "social_links": {}
  },
  {
    "name": "Cowen Partners",
    "address": "1000 Bishop St Suite 500, Honolulu, HI 96813 (This address appears to be shared with Dunhill Professional Staffing, Keller Executive Search, and Alakai Executive Search)",
    "phone": "(808) 591-0466 (This appears to be the same number as Dunhill Professional Staffing, Keller Executive Search, and Alakai Executive Search)",
    "rating": 4.9,
    "reviews": 25,
    "website": "https://cowenpartners.com/hawaii/",
    "category": "Chinese-American-owned Contingency recruiting in Hawaii",
    "description": "Executive recruiters providing C-suite and senior leadership talent to Hawaii-based companies and mainland organizations expanding into the islands",
    "hours": "Mon-Fri 9AM-6PM",
    "services": [
      "Chinese-American-owned Contingency recruiting in Hawaii consultation",
      "Professional service",
      "Quality guarantee"
    ],
    "social_links": {}
  }
]