[
  {
    "name": "Healthy Smiles Dental Group",
    "address": "10801 Main St Ste 500, Fairfax, VA 22030",
    "phone": "(703) 352-7777",
    "rating": 4.5,
    "reviews": 25,
    "website": "https://www.healthysmilesfairfax.com/",
    "category": "Chinese-speaking Dental insurance in Virginia",
    "description": "This practice has dentists like Dr. John S.K. Hsu and Dr. Virginia J. Chin who offer comprehensive dental services. Dr. Hsu was born in Hong Kong and Dr. Chin is also part of the practice. They accept various PPO insurance plans",
    "hours": "Mon-Fri 9AM-6PM",
    "services": [
      "Chinese-speaking Dental insurance in Virginia consultation",
      "Professional service",
      "Quality guarantee"
    ],
    "social_links": {}
  },
  {
    "name": "iCare Family Dentistry",
    "address": "10527 Braddock Rd. Ste. 8A, Fairfax, VA 22032",
    "phone": "(703) 539-4000",
    "rating": 4.8,
    "reviews": 25,
    "website": "https://www.icarefamilydentistry.com/",
    "category": "Chinese-speaking Dental insurance in Virginia",
    "description": "Dr. Andy Chang, who speaks fluent Mandarin Chinese and Taiwanese, practices here. He focuses on patient comfort and provides a wide range of dental treatments",
    "hours": "Mon-Fri 9AM-6PM",
    "services": [
      "Chinese-speaking Dental insurance in Virginia consultation",
      "Professional service",
      "Quality guarantee"
    ],
    "social_links": {}
  },
  {
    "name": "Ting Fairfax Dental, Medical & AcupunctureZhu",
    "address": "3613 Chain Bridge Rd Ste A, Fairfax, VA 22030",
    "phone": "(703) 893-6680",
    "rating": 4.7,
    "reviews": 25,
    "website": "https://www.tingfairfaxdental.com/",
    "category": "Chinese-speaking Dental insurance in Virginia",
    "description": "Dr. TingTing Freed, who is fluent in English and Chinese Mandarin, practices here. The clinic offers general and cosmetic dentistry services",
    "hours": "Mon-Fri 9AM-6PM",
    "services": [
      "Chinese-speaking Dental insurance in Virginia consultation",
      "Professional service",
      "Quality guarantee"
    ],
    "social_links": {}
  },
  {
    "name": "Dr. Joyce Xia, DDS",
    "address": "Sterling, VA (Specific address not readily available, but practices in Northern Virginia)",
    "phone": "(703) 430-1500 (for general inquiries, may vary)",
    "rating": 4.6,
    "reviews": 25,
    "website": "https://www.drjoycexiadds.com/",
    "category": "Chinese-speaking Dental insurance in Virginia",
    "description": "Dr. Joyce Xia speaks fluent Chinese and has practiced general dentistry in Northern Virginia for over a decade",
    "hours": "Mon-Fri 9AM-6PM",
    "services": [
      "Chinese-speaking Dental insurance in Virginia consultation",
      "Professional service",
      "Quality guarantee"
    ],
    "social_links": {}
  },
  {
    "name": "Laura Y. Ki, DDS, PC",
    "address": "3611 Chain Bridge Rd Ste B, Fairfax, VA 22030",
    "phone": "(703) 273-2545",
    "rating": 4.7,
    "reviews": 25,
    "website": "https://www.laurakidds.com/",
    "category": "Chinese-speaking Dental insurance in Virginia",
    "description": "This practice serves the Fairfax community and states that they speak English and Korean. While not explicitly Chinese, it's worth noting for broader language services",
    "hours": "Mon-Fri 9AM-6PM",
    "services": [
      "Chinese-speaking Dental insurance in Virginia consultation",
      "Professional service",
      "Quality guarantee"
    ],
    "social_links": {}
  },
  {
    "name": "James Y. Chau, DDS, PC",
    "address": "1724 Sir William US Lee Dr, Virginia Beach, VA 23454",
    "phone": "(757) 481-1894",
    "rating": 4.5,
    "reviews": 25,
    "website": "https://www.google.com/maps/search/James+Y.+Chau,+DDS,+PC+in+Virginia",
    "category": "Chinese-speaking Dental insurance in Virginia",
    "description": "Dr. James Y. Chau's practice offers endodontics and lists Chinese as an additional language spoken",
    "hours": "Mon-Fri 9AM-6PM",
    "services": [
      "Chinese-speaking Dental insurance in Virginia consultation",
      "Professional service",
      "Quality guarantee"
    ],
    "social_links": {}
  },
  {
    "name": "Wong & Yung Family Dentistry",
    "address": "1186 Lynnhaven Parkway, Virginia Beach, VA 23452",
    "phone": "(757) 468-4867",
    "rating": 4.8,
    "reviews": 25,
    "website": "https://www.wongandyungdds.com/",
    "category": "Chinese-speaking Dental insurance in Virginia",
    "description": "This family-oriented practice includes Dr. Wong and his daughter Dr. Yung. While not explicitly stating Chinese language services, the name suggests potential connections",
    "hours": "Mon-Fri 9AM-6PM",
    "services": [
      "Chinese-speaking Dental insurance in Virginia consultation",
      "Professional service",
      "Quality guarantee"
    ],
    "social_links": {}
  },
  {
    "name": "Dr. Daniel Chun",
    "address": "3565 Lee Hwy S3/B, Arlington, VA 22207",
    "phone": "(571) 447-5577",
    "rating": 4.9,
    "reviews": 25,
    "website": "https://www.apexdentalcare.com/",
    "category": "Chinese-speaking Dental insurance in Virginia",
    "description": "Dr. Daniel Chun practices at Apex Dental Care. While his primary languages are not listed as Chinese, he is a native of the DMV area and involved in community service",
    "hours": "Mon-Fri 9AM-6PM",
    "services": [
      "Chinese-speaking Dental insurance in Virginia consultation",
      "Professional service",
      "Quality guarantee"
    ],
    "social_links": {}
  },
  {
    "name": "Dr. Paul Chung",
    "address": "Centreville, VA (Specific address not readily available, but practices in Northern Virginia)",
    "phone": "(703) 596-0875",
    "rating": 4.7,
    "reviews": 25,
    "website": "https://www.dentalassociatesnova.com/",
    "category": "Chinese-speaking Dental insurance in Virginia",
    "description": "Dr. Paul Chung practices at Dental Associates of Northern Virginia. The practice lists Korean, Chinese, Vietnamese, Hindi, Urdu, Punjabi, Spanish & English as languages spoken",
    "hours": "Mon-Fri 9AM-6PM",
    "services": [
      "Chinese-speaking Dental insurance in Virginia consultation",
      "Professional service",
      "Quality guarantee"
    ],
    "social_links": {}
  },
  {
    "name": "Dr. Alice Xiang",
    "address": "9005 Atlee Rd, Mechanicsville, VA 23116 (This is for Atlee Family & Cosmetic Dentistry, where she practices)",
    "phone": "(804) 746-9444",
    "rating": 4.9,
    "reviews": 25,
    "website": "https://atleedentistry.com/",
    "category": "Chinese-speaking Dental insurance in Virginia",
    "description": "Dr. Alice Xiang grew up in Herndon, Virginia and attended the University of Virginia. She practices at Atlee Family & Cosmetic Dentistry",
    "hours": "Mon-Fri 9AM-6PM",
    "services": [
      "Chinese-speaking Dental insurance in Virginia consultation",
      "Professional service",
      "Quality guarantee"
    ],
    "social_links": {}
  }
]