[
  {
    "name": "CHR Tire and Auto",
    "address": "5499 NE 14th St, Des Moines, IA 50313",
    "phone": "515-265-4247",
    "rating": 4.0,
    "reviews": 25,
    "website": "https://www.google.com/maps/search/CHR+Tire+and+Auto+in+Iowa",
    "category": "Chinese-speaking Tire repair in Iowa",
    "description": "Full-service auto repair and preventative maintenance facility specializing in Asian vehicles",
    "hours": "Mon-Fri 9AM-6PM",
    "services": [
      "Chinese-speaking Tire repair in Iowa consultation",
      "Professional service",
      "Quality guarantee"
    ],
    "social_links": {}
  },
  {
    "name": "Linder Tire Service Inc.",
    "address": "632 S Riverside Dr, Iowa City, IA 52246",
    "phone": "319-337-4163",
    "rating": 4.0,
    "reviews": 25,
    "website": "https://www.google.com/maps/search/Linder+Tire+Service+Inc.+in+Iowa",
    "category": "Chinese-speaking Tire repair in Iowa",
    "description": "Offers auto repair, brake service, and tire retreading/repairing",
    "hours": "Mon-Fri 9AM-6PM",
    "services": [
      "Chinese-speaking Tire repair in Iowa consultation",
      "Professional service",
      "Quality guarantee"
    ],
    "social_links": {}
  },
  {
    "name": "Dave & Pat Seydel Auto & Truck",
    "address": "917 Maiden Lane, Iowa City, IA 52240",
    "phone": "319-351-6805",
    "rating": 4.0,
    "reviews": 25,
    "website": "https://www.google.com/maps/search/Dave+&+Pat+Seydel+Auto+&+Truck+in+Iowa",
    "category": "Chinese-speaking Tire repair in Iowa",
    "description": "Full-service auto repair and preventative maintenance facility specializing in Asian vehicles",
    "hours": "Mon-Fri 9AM-6PM",
    "services": [
      "Chinese-speaking Tire repair in Iowa consultation",
      "Professional service",
      "Quality guarantee"
    ],
    "social_links": {}
  },
  {
    "name": "CFI Tire Service",
    "address": "505 Nuckolls Street, Council Bluffs, IA 51501 (and 1520 East South Omaha Bridge Road, Council Bluffs, IA 51501)",
    "phone": "712-527-2757 (and 712-388-9744)",
    "rating": 4.0,
    "reviews": 25,
    "website": "https://www.google.com/maps/search/CFI+Tire+Service+in+Iowa",
    "category": "Chinese-speaking Tire repair in Iowa",
    "description": "Family-owned auto repair shop offering tire solutions for various applications including agricultural and industrial",
    "hours": "Mon-Fri 9AM-6PM",
    "services": [
      "Chinese-speaking Tire repair in Iowa consultation",
      "Professional service",
      "Quality guarantee"
    ],
    "social_links": {}
  },
  {
    "name": "Iowa City Tire & Service",
    "address": "410 Kirkwood Ave, Iowa City, IA 52240",
    "phone": "319-338-5401",
    "rating": 4.0,
    "reviews": 25,
    "website": "https://www.google.com/maps/search/Iowa+City+Tire+&+Service+in+Iowa",
    "category": "Chinese-speaking Tire repair in Iowa",
    "description": "Specializes in domestic and Asian car repair, offering a wide range of automotive services",
    "hours": "Mon-Fri 9AM-6PM",
    "services": [
      "Chinese-speaking Tire repair in Iowa consultation",
      "Professional service",
      "Quality guarantee"
    ],
    "social_links": {}
  },
  {
    "name": "Square Tire",
    "address": "3300 Gordon Drive, Sioux City, IA 51106 (and 25th & Hamilton, Sioux City, IA)",
    "phone": "",
    "rating": 4.0,
    "reviews": 25,
    "website": "https://www.google.com/maps/search/Square+Tire+in+Iowa",
    "category": "Chinese-speaking Tire repair in Iowa",
    "description": "Full-service tire shop and auto repair center",
    "hours": "Mon-Fri 9AM-6PM",
    "services": [
      "Chinese-speaking Tire repair in Iowa consultation",
      "Professional service",
      "Quality guarantee"
    ],
    "social_links": {}
  },
  {
    "name": "Tires Plus Total Car Care",
    "address": "Multiple locations including Ankeny, IA and Des Moines, IA",
    "phone": "",
    "rating": 4.0,
    "reviews": 25,
    "website": "https://www.google.com/maps/search/Tires+Plus+Total+Car+Care+in+Iowa",
    "category": "Chinese-speaking Tire repair in Iowa",
    "description": "Offers tire repair and a wide range of auto services",
    "hours": "Mon-Fri 9AM-6PM",
    "services": [
      "Chinese-speaking Tire repair in Iowa consultation",
      "Professional service",
      "Quality guarantee"
    ],
    "social_links": {}
  },
  {
    "name": "Trickle's Tire & Automotive",
    "address": "120 Lincoln Way, Ames, IA 50010",
    "phone": "515-232-3743",
    "rating": 4.0,
    "reviews": 25,
    "website": "https://www.google.com/maps/search/Trickle's+Tire+&+Automotive+in+Iowa",
    "category": "Chinese-speaking Tire repair in Iowa",
    "description": "Tire dealer and auto repair shop offering general automotive repair services",
    "hours": "Mon-Fri 9AM-6PM",
    "services": [
      "Chinese-speaking Tire repair in Iowa consultation",
      "Professional service",
      "Quality guarantee"
    ],
    "social_links": {}
  },
  {
    "name": "Chuy's Auto Service LLC",
    "address": "1525 W 2nd St, Perry, IA 50220",
    "phone": "515-979-3104",
    "rating": 4.0,
    "reviews": 25,
    "website": "https://www.google.com/maps/search/Chuy's+Auto+Service+LLC+in+Iowa",
    "category": "Chinese-speaking Tire repair in Iowa",
    "description": "Offers auto repair services including tires, brakes, and fuel systems. They speak English and Spanish",
    "hours": "Mon-Fri 9AM-6PM",
    "services": [
      "Chinese-speaking Tire repair in Iowa consultation",
      "Professional service",
      "Quality guarantee"
    ],
    "social_links": {}
  },
  {
    "name": "Westside Tire Co.",
    "address": "3200 Williams Blvd SW, Cedar Rapids, IA 52404",
    "phone": "319-366-7596",
    "rating": 4.0,
    "reviews": 25,
    "website": "https://www.google.com/maps/search/Westside+Tire+Co.+in+Iowa",
    "category": "Chinese-speaking Tire repair in Iowa",
    "description": "Full-service automotive facility offering tire services, engine diagnostics, brakes, and more",
    "hours": "Mon-Fri 9AM-6PM",
    "services": [
      "Chinese-speaking Tire repair in Iowa consultation",
      "Professional service",
      "Quality guarantee"
    ],
    "social_links": {}
  }
]