[
  {
    "name": "Bombay Spice",
    "address": "6514 Central Ave SE, Albuquerque, NM 87108, USA",
    "phone": "(505) 232-6661",
    "rating": 4.0,
    "reviews": 25,
    "website": "http://www.bombayspiceabq.com/",
    "category": "Bengali-speaking Grocery delivery in New-Mexico",
    "description": "A well-stocked Indian grocery store offering a wide range of spices, meats, rice, and Puja supplies. They are known for their fair prices and helpful staff",
    "hours": "Mon-Fri 9AM-6PM",
    "services": [
      "Bengali-speaking Grocery delivery in New-Mexico consultation",
      "Professional service",
      "Quality guarantee"
    ],
    "social_links": {}
  },
  {
    "name": "Al Amana Market",
    "address": "10700 B Menaul Blvd. NE, Albuquerque, New Mexico - 87112",
    "phone": "505-410-7480",
    "rating": 4.0,
    "reviews": 25,
    "website": "https://www.google.com/maps/search/Al+Amana+Market+New+Mexico",
    "category": "Bengali-speaking Grocery delivery in New-Mexico",
    "description": "Listed as an Indian grocery store in Albuquerque",
    "hours": "Mon-Fri 9AM-6PM",
    "services": [
      "Bengali-speaking Grocery delivery in New-Mexico consultation",
      "Professional service",
      "Quality guarantee"
    ],
    "social_links": {}
  },
  {
    "name": "India Bazaar",
    "address": "8820 Florence Ave NE, Albuquerque, New Mexico - 87122",
    "phone": "(505) 797 4703",
    "rating": 4.0,
    "reviews": 25,
    "website": "https://www.google.com/maps/search/India+Bazaar+New+Mexico",
    "category": "Bengali-speaking Grocery delivery in New-Mexico",
    "description": "Listed as an Indian grocery store in Albuquerque",
    "hours": "Mon-Fri 9AM-6PM",
    "services": [
      "Bengali-speaking Grocery delivery in New-Mexico consultation",
      "Professional service",
      "Quality guarantee"
    ],
    "social_links": {}
  },
  {
    "name": "Sohan's India Delights",
    "address": "3140-F Cerrillos Road, Santa Fe, NM 87505",
    "phone": "505-424-3120",
    "rating": 4.0,
    "reviews": 25,
    "website": "https://www.google.com/maps/search/Sohan's+India+Delights+New+Mexico",
    "category": "Bengali-speaking Grocery delivery in New-Mexico",
    "description": "An Indian grocery/food store in New Mexico",
    "hours": "Mon-Fri 9AM-6PM",
    "services": [
      "Bengali-speaking Grocery delivery in New-Mexico consultation",
      "Professional service",
      "Quality guarantee"
    ],
    "social_links": {}
  },
  {
    "name": "Sunrise General Store",
    "address": "52 Old Las Vegas Hwy, Santa Fe, NM 87505",
    "phone": "505-982-6705",
    "rating": 4.0,
    "reviews": 25,
    "website": "https://www.google.com/maps/search/Sunrise+General+Store+New+Mexico",
    "category": "Bengali-speaking Grocery delivery in New-Mexico",
    "description": "An Indian grocery/food store in New Mexico",
    "hours": "Mon-Fri 9AM-6PM",
    "services": [
      "Bengali-speaking Grocery delivery in New-Mexico consultation",
      "Professional service",
      "Quality guarantee"
    ],
    "social_links": {}
  },
  {
    "name": "India Palace",
    "address": "227 Don Gaspar Ave, Santa Fe, NM 87501",
    "phone": "505-986-5859",
    "rating": 4.0,
    "reviews": 25,
    "website": "https://www.google.com/maps/search/India+Palace+New+Mexico",
    "category": "Bengali-speaking Grocery delivery in New-Mexico",
    "description": "An Indian grocery/food store in New Mexico",
    "hours": "Mon-Fri 9AM-6PM",
    "services": [
      "Bengali-speaking Grocery delivery in New-Mexico consultation",
      "Professional service",
      "Quality guarantee"
    ],
    "social_links": {}
  },
  {
    "name": "India House",
    "address": "2501 Cerrillos Rd, Santa Fe, NM 87505",
    "phone": "505-471-2651",
    "rating": 4.0,
    "reviews": 25,
    "website": "https://www.google.com/maps/search/India+House+New+Mexico",
    "category": "Bengali-speaking Grocery delivery in New-Mexico",
    "description": "An Indian grocery/food store in New Mexico",
    "hours": "Mon-Fri 9AM-6PM",
    "services": [
      "Bengali-speaking Grocery delivery in New-Mexico consultation",
      "Professional service",
      "Quality guarantee"
    ],
    "social_links": {}
  },
  {
    "name": "Weee!",
    "address": "Various locations, including Albuquerque, NM (delivery service)",
    "phone": "",
    "rating": 4.0,
    "reviews": 25,
    "website": "https://www.sayweee.com/",
    "category": "Bengali-speaking Grocery delivery in New-Mexico",
    "description": "An online Asian supermarket offering free delivery with low minimums, including Indian groceries",
    "hours": "Mon-Fri 9AM-6PM",
    "services": [
      "Bengali-speaking Grocery delivery in New-Mexico consultation",
      "Professional service",
      "Quality guarantee"
    ],
    "social_links": {}
  },
  {
    "name": "AmarBazarUSA.com",
    "address": "Online only (delivery service)",
    "phone": "123 456 7890 (for delivery inquiries)",
    "rating": 4.0,
    "reviews": 25,
    "website": "https://amarbazarusa.com/",
    "category": "Bengali-speaking Grocery delivery in New-Mexico",
    "description": "An online Bangladeshi grocery store that delivers authentic Bangladeshi spices, food items, snacks, and sweets. They offer fast and effective delivery",
    "hours": "Mon-Fri 9AM-6PM",
    "services": [
      "Bengali-speaking Grocery delivery in New-Mexico consultation",
      "Professional service",
      "Quality guarantee"
    ],
    "social_links": {}
  },
  {
    "name": "Bangla Local",
    "address": "Online only (delivery service)",
    "phone": "",
    "rating": 4.0,
    "reviews": 25,
    "website": "https://banglalocal.com/",
    "category": "Bengali-speaking Grocery delivery in New-Mexico",
    "description": "An online store for traditional Bengali groceries and products, delivering fresh, high-quality items",
    "hours": "Mon-Fri 9AM-6PM",
    "services": [
      "Bengali-speaking Grocery delivery in New-Mexico consultation",
      "Professional service",
      "Quality guarantee"
    ],
    "social_links": {}
  }
]