[
  {
    "name": "Randy Moon's Tire & Auto Service LLC",
    "address": "3699 Washington Rd, Martinez, GA 30907",
    "phone": "(706) 855-7957",
    "rating": 4.0,
    "reviews": 25,
    "website": "https://www.google.com/maps/search/Randy+Moon's+Tire+&+Auto+Service+LLC+in+Georgia",
    "category": "Chinese-American-owned Tire sales in Georgia",
    "description": "Offers Nankang tires and provides tire sales and auto services",
    "hours": "Mon-Fri 9AM-6PM",
    "services": [
      "Chinese-American-owned Tire sales in Georgia consultation",
      "Professional service",
      "Quality guarantee"
    ],
    "social_links": {}
  },
  {
    "name": "Complete Tire & Service",
    "address": "Multiple locations including Columbus, GA",
    "phone": "",
    "rating": 4.0,
    "reviews": 25,
    "website": "https://www.google.com/maps/search/Complete+Tire+&+Service+in+Georgia",
    "category": "Chinese-American-owned Tire sales in Georgia",
    "description": "Provides tire sales and full-service auto repair",
    "hours": "Mon-Fri 9AM-6PM",
    "services": [
      "Chinese-American-owned Tire sales in Georgia consultation",
      "Professional service",
      "Quality guarantee"
    ],
    "social_links": {}
  },
  {
    "name": "Smith Tire Co.",
    "address": "1417 Gordon Hwy, Augusta, GA 30901",
    "phone": "(706) 724-8277",
    "rating": 4.0,
    "reviews": 25,
    "website": "https://www.google.com/maps/search/Smith+Tire+Co.+in+Georgia",
    "category": "Chinese-American-owned Tire sales in Georgia",
    "description": "Offers auto repairs and tires, in business since 1936",
    "hours": "Mon-Fri 9AM-6PM",
    "services": [
      "Chinese-American-owned Tire sales in Georgia consultation",
      "Professional service",
      "Quality guarantee"
    ],
    "social_links": {}
  },
  {
    "name": "C&C Automotive",
    "address": "Multiple locations including Downtown Augusta, GA",
    "phone": "",
    "rating": 4.0,
    "reviews": 25,
    "website": "https://www.google.com/maps/search/C&C+Automotive+in+Georgia",
    "category": "Chinese-American-owned Tire sales in Georgia",
    "description": "Sells all brands of tires and offers comprehensive auto repair services",
    "hours": "Mon-Fri 9AM-6PM",
    "services": [
      "Chinese-American-owned Tire sales in Georgia consultation",
      "Professional service",
      "Quality guarantee"
    ],
    "social_links": {}
  },
  {
    "name": "Gordy Tire and Automotive",
    "address": "Multiple locations in Atlanta, GA",
    "phone": "404-355-0118",
    "rating": 4.0,
    "reviews": 25,
    "website": "https://www.google.com/maps/search/Gordy+Tire+and+Automotive+in+Georgia",
    "category": "Chinese-American-owned Tire sales in Georgia",
    "description": "Specializes in Asian vehicle repair and also offers tire services",
    "hours": "Mon-Fri 9AM-6PM",
    "services": [
      "Chinese-American-owned Tire sales in Georgia consultation",
      "Professional service",
      "Quality guarantee"
    ],
    "social_links": {}
  },
  {
    "name": "Discount Tire",
    "address": "5505 Abercorn St, Savannah, GA 31405",
    "phone": "",
    "rating": 4.0,
    "reviews": 25,
    "website": "https://www.google.com/maps/search/Discount+Tire+in+Georgia",
    "category": "Chinese-American-owned Tire sales in Georgia",
    "description": "Offers tire and wheel sales, rotations, balancing, and flat repairs",
    "hours": "Mon-Fri 9AM-6PM",
    "services": [
      "Chinese-American-owned Tire sales in Georgia consultation",
      "Professional service",
      "Quality guarantee"
    ],
    "social_links": {}
  },
  {
    "name": "G&A Tires",
    "address": "Two locations in Augusta, GA: 750 Mike Padgett Hwy and 798 Doug Barnard Pkwy",
    "phone": "(706) 750-0707 (Mike Padgett Hwy) or (706) 798-3377 (Doug Barnard Pkwy)",
    "rating": 4.0,
    "reviews": 25,
    "website": "https://www.google.com/maps/search/G&A+Tires+in+Georgia",
    "category": "Chinese-American-owned Tire sales in Georgia",
    "description": "Sells new and used tires and offers tire repair services",
    "hours": "Mon-Fri 9AM-6PM",
    "services": [
      "Chinese-American-owned Tire sales in Georgia consultation",
      "Professional service",
      "Quality guarantee"
    ],
    "social_links": {}
  },
  {
    "name": "Vineville Tire Co.",
    "address": "3253 Vineville Ave, Macon, GA 31204",
    "phone": "",
    "rating": 4.0,
    "reviews": 25,
    "website": "https://www.google.com/maps/search/Vineville+Tire+Co.+in+Georgia",
    "category": "Chinese-American-owned Tire sales in Georgia",
    "description": "Offers tires, auto repairs, and wheels, serving Macon and surrounding areas",
    "hours": "Mon-Fri 9AM-6PM",
    "services": [
      "Chinese-American-owned Tire sales in Georgia consultation",
      "Professional service",
      "Quality guarantee"
    ],
    "social_links": {}
  },
  {
    "name": "Rutland Tire & Wheel",
    "address": "5711 White Bluff Rd, Savannah, GA 31405 and 420 S Columbia Ave, Rincon, GA 31405",
    "phone": "(912) 352-2927 (Savannah) or (912) 826-5555 (Rincon)",
    "rating": 4.0,
    "reviews": 25,
    "website": "https://www.google.com/maps/search/Rutland+Tire+&+Wheel+in+Georgia",
    "category": "Chinese-American-owned Tire sales in Georgia",
    "description": "Tire dealer and auto repair shop offering tires, wheels, and automotive services",
    "hours": "Mon-Fri 9AM-6PM",
    "services": [
      "Chinese-American-owned Tire sales in Georgia consultation",
      "Professional service",
      "Quality guarantee"
    ],
    "social_links": {}
  },
  {
    "name": "J's Tire Inc",
    "address": "201 Brennan Rd, Columbus, GA 31903",
    "phone": "(706) 682-4323",
    "rating": 4.0,
    "reviews": 25,
    "website": "https://www.google.com/maps/search/J's+Tire+Inc+in+Georgia",
    "category": "Chinese-American-owned Tire sales in Georgia",
    "description": "Family-owned auto repair shop offering tire installation, alignment, and other automotive services",
    "hours": "Mon-Fri 9AM-6PM",
    "services": [
      "Chinese-American-owned Tire sales in Georgia consultation",
      "Professional service",
      "Quality guarantee"
    ],
    "social_links": {}
  }
]