[
  {
    "name": "Forwood Manor",
    "address": "1912 Marsh Rd, Wilmington, DE 19810",
    "phone": "(302) 478-3700",
    "rating": 4.4,
    "reviews": 25,
    "website": "https://www.forwoodmanor.com/",
    "category": "Gujarati-speaking Memory care units in Delaware",
    "description": "Offers memory care services with a focus on person-centered care and a comfortable environment",
    "hours": "Mon-Fri 9AM-6PM",
    "services": [
      "Gujarati-speaking Memory care units in Delaware consultation",
      "Professional service",
      "Quality guarantee"
    ],
    "social_links": {}
  },
  {
    "name": "Brookdale Dover",
    "address": "1157 South Governors Ave, Dover, DE 19904",
    "phone": "(302) 674-0400",
    "rating": 4.2,
    "reviews": 25,
    "website": "https://www.brookdale.com/en/communities/brookdale-dover.html",
    "category": "Gujarati-speaking Memory care units in Delaware",
    "description": "Provides assisted living and memory care in a cozy environment with engaging activities",
    "hours": "Mon-Fri 9AM-6PM",
    "services": [
      "Gujarati-speaking Memory care units in Delaware consultation",
      "Professional service",
      "Quality guarantee"
    ],
    "social_links": {}
  },
  {
    "name": "Sunrise of Wilmington",
    "address": "1717 Marsh Rd, Wilmington, DE 19810",
    "phone": "(302) 478-5500",
    "rating": 4.3,
    "reviews": 25,
    "website": "https://www.sunriseseniorliving.com/communities/sunrise-of-wilmington/",
    "category": "Gujarati-speaking Memory care units in Delaware",
    "description": "Offers a supportive community with personalized care and engaging activities for residents",
    "hours": "Mon-Fri 9AM-6PM",
    "services": [
      "Gujarati-speaking Memory care units in Delaware consultation",
      "Professional service",
      "Quality guarantee"
    ],
    "social_links": {}
  },
  {
    "name": "Cadia Rehabilitation - Millsboro",
    "address": "27324 Cordrey Lane, Millsboro, DE 19966",
    "phone": "(302) 934-3000",
    "rating": 3.9,
    "reviews": 25,
    "website": "https://www.cadiahealth.com/locations/cadia-rehabilitation-millsboro/",
    "category": "Gujarati-speaking Memory care units in Delaware",
    "description": "Offers dedicated memory care units designed to provide a safe setting for residents with advanced dementia",
    "hours": "Mon-Fri 9AM-6PM",
    "services": [
      "Gujarati-speaking Memory care units in Delaware consultation",
      "Professional service",
      "Quality guarantee"
    ],
    "social_links": {}
  },
  {
    "name": "Cadia Rehabilitation - Dover",
    "address": "1157 South Governors Ave, Dover, DE 19904",
    "phone": "(302) 674-0400",
    "rating": 4.2,
    "reviews": 25,
    "website": "https://www.cadiahealth.com/locations/cadia-rehabilitation-dover/",
    "category": "Gujarati-speaking Memory care units in Delaware",
    "description": "Provides dedicated memory care units in a safe and home-like environment with trained nursing staff",
    "hours": "Mon-Fri 9AM-6PM",
    "services": [
      "Gujarati-speaking Memory care units in Delaware consultation",
      "Professional service",
      "Quality guarantee"
    ],
    "social_links": {}
  },
  {
    "name": "Foulk Living",
    "address": "1212 Foulk Rd, Wilmington, DE 19803",
    "phone": "(302) 478-3700",
    "rating": 4.5,
    "reviews": 25,
    "website": "https://www.foulkliving.com/",
    "category": "Gujarati-speaking Memory care units in Delaware",
    "description": "Features the Heartfelt Connections\u2122 Memory Care Program for individuals with Alzheimer's and related dementias",
    "hours": "Mon-Fri 9AM-6PM",
    "services": [
      "Gujarati-speaking Memory care units in Delaware consultation",
      "Professional service",
      "Quality guarantee"
    ],
    "social_links": {}
  },
  {
    "name": "Lorelton",
    "address": "2200 West 4th Street, Wilmington, DE 19805",
    "phone": "(302) 655-3300",
    "rating": 4.4,
    "reviews": 25,
    "website": "https://www.lorelton.org/",
    "category": "Gujarati-speaking Memory care units in Delaware",
    "description": "Offers assisted living and memory care services in a supportive and engaging environment",
    "hours": "Mon-Fri 9AM-6PM",
    "services": [
      "Gujarati-speaking Memory care units in Delaware consultation",
      "Professional service",
      "Quality guarantee"
    ],
    "social_links": {}
  },
  {
    "name": "Harmony at Kent",
    "address": "145 W. Denneys Rd, Smyrna, DE 19977",
    "phone": "(302) 653-3000",
    "rating": 4.3,
    "reviews": 25,
    "website": "https://www.harmonyatkent.com/",
    "category": "Gujarati-speaking Memory care units in Delaware",
    "description": "A welcoming senior living community offering assisted living and memory care services",
    "hours": "Mon-Fri 9AM-6PM",
    "services": [
      "Gujarati-speaking Memory care units in Delaware consultation",
      "Professional service",
      "Quality guarantee"
    ],
    "social_links": {}
  },
  {
    "name": "Somerford Place",
    "address": "4175 Ogletown-Stanton Rd, Newark, DE 19713",
    "phone": "(302) 731-9000",
    "rating": 4.1,
    "reviews": 25,
    "website": "https://www.somerfordplace.com/",
    "category": "Gujarati-speaking Memory care units in Delaware",
    "description": "Provides memory care services with amenities like secure walking paths and home-like community rooms",
    "hours": "Mon-Fri 9AM-6PM",
    "services": [
      "Gujarati-speaking Memory care units in Delaware consultation",
      "Professional service",
      "Quality guarantee"
    ],
    "social_links": {}
  },
  {
    "name": "Asbury Ivy Gables",
    "address": "100 David's Way, Wilmington, DE 19803",
    "phone": "(302) 477-0700",
    "rating": 4.4,
    "reviews": 25,
    "website": "https://www.asbury.org/communities/ivy-gables/",
    "category": "Gujarati-speaking Memory care units in Delaware",
    "description": "Offers assisted living and memory care in a charming community with personalized support",
    "hours": "Mon-Fri 9AM-6PM",
    "services": [
      "Gujarati-speaking Memory care units in Delaware consultation",
      "Professional service",
      "Quality guarantee"
    ],
    "social_links": {}
  }
]