[
  {
    "name": "American Roofing & Waterproofing",
    "address": "7070 S. Uhl Street, Aurora, CO 80016",
    "phone": "(719) 301-1777",
    "rating": 4.8,
    "reviews": 25,
    "website": "https://www.americanroofingwaterproofing.com/",
    "category": "Buddhist-owned Waterproofing in Colorado",
    "description": "Offers commercial, residential, and multifamily roofing and waterproofing services. They have been in business since 2019 and are A+ rated by the Better Business Bureau",
    "hours": "Mon-Fri 9AM-6PM",
    "services": [
      "Buddhist-owned Waterproofing in Colorado consultation",
      "Professional service",
      "Quality guarantee"
    ],
    "social_links": {}
  },
  {
    "name": "Elite Waterproofing",
    "address": "10100 E. 45th Ave, Denver, CO 80239",
    "phone": "(303) 360-5606",
    "rating": 4.0,
    "reviews": 25,
    "website": "https://elitewaterproofingdenver.com/",
    "category": "Buddhist-owned Waterproofing in Colorado",
    "description": "A waterproofing contractor and epoxy flooring expert with over 40 years of experience, specializing in protecting structures from water damage and providing epoxy flooring for residential and commercial spaces",
    "hours": "Mon-Fri 9AM-6PM",
    "services": [
      "Buddhist-owned Waterproofing in Colorado consultation",
      "Professional service",
      "Quality guarantee"
    ],
    "social_links": {}
  },
  {
    "name": "Absolute Caulking & Waterproofing Inc.",
    "address": "5555 W. 56th Ave, Arvada, CO 80002",
    "phone": "(303) 425-7111",
    "rating": 4.0,
    "reviews": 25,
    "website": "https://absolutewaterproofing.com/",
    "category": "Buddhist-owned Waterproofing in Colorado",
    "description": "Offers expertise in new construction and restoration projects, serving Colorado and Wyoming with moisture protection solutions",
    "hours": "Mon-Fri 9AM-6PM",
    "services": [
      "Buddhist-owned Waterproofing in Colorado consultation",
      "Professional service",
      "Quality guarantee"
    ],
    "social_links": {}
  },
  {
    "name": "Black Roofing & Waterproofing",
    "address": "2950 47th St, Boulder, CO 80301",
    "phone": "(303) 442-1521",
    "rating": 4.0,
    "reviews": 25,
    "website": "https://blackroofingwaterproofing.com/",
    "category": "Buddhist-owned Waterproofing in Colorado",
    "description": "A commercial and residential roofing and waterproofing company operating out of Boulder, Colorado since 1975, specializing in complex projects",
    "hours": "Mon-Fri 9AM-6PM",
    "services": [
      "Buddhist-owned Waterproofing in Colorado consultation",
      "Professional service",
      "Quality guarantee"
    ],
    "social_links": {}
  },
  {
    "name": "Complete Basement Systems",
    "address": "11795 E. 45th Avenue, Denver, CO 80239",
    "phone": "(303) 297-7200",
    "rating": 4.8,
    "reviews": 25,
    "website": "https://www.completebasementsystems.com/",
    "category": "Buddhist-owned Waterproofing in Colorado",
    "description": "A local, family-owned company in business since 1975, offering a wide range of basement and crawl space waterproofing services, foundation repair, and more",
    "hours": "Mon-Fri 9AM-6PM",
    "services": [
      "Buddhist-owned Waterproofing in Colorado consultation",
      "Professional service",
      "Quality guarantee"
    ],
    "social_links": {}
  },
  {
    "name": "Peak Structural",
    "address": "707 County Line Rd, Palmer Lake, CO 80133",
    "phone": "(719) 495-5555",
    "rating": 4.0,
    "reviews": 25,
    "website": "https://www.peakstructural.com/",
    "category": "Buddhist-owned Waterproofing in Colorado",
    "description": "Provides basement waterproofing, wall stabilization, foundation repair, and other structural solutions",
    "hours": "Mon-Fri 9AM-6PM",
    "services": [
      "Buddhist-owned Waterproofing in Colorado consultation",
      "Professional service",
      "Quality guarantee"
    ],
    "social_links": {}
  },
  {
    "name": "Denver Foundation Solutions",
    "address": "707 County Line Rd, Palmer Lake, CO 80133 (This appears to be the same address as Peak Structural, suggesting a potential affiliation or shared location)",
    "phone": "(719) 495-5555",
    "rating": 4.3,
    "reviews": 25,
    "website": "https://denverfoundationsolutions.com/",
    "category": "Buddhist-owned Waterproofing in Colorado",
    "description": "Specializes in fixing common foundation issues such as cove joint leaks, leaky concrete walls, and basement window well leakage",
    "hours": "Mon-Fri 9AM-6PM",
    "services": [
      "Buddhist-owned Waterproofing in Colorado consultation",
      "Professional service",
      "Quality guarantee"
    ],
    "social_links": {}
  },
  {
    "name": "Titan Foundation Repair",
    "address": "707 County Line Rd, Palmer Lake, CO 80133 (This appears to be the same address as Peak Structural and Denver Foundation Solutions)",
    "phone": "(719) 495-5555",
    "rating": 4.0,
    "reviews": 25,
    "website": "https://www.titanfoundationrepair.com/",
    "category": "Buddhist-owned Waterproofing in Colorado",
    "description": "A family-owned company specializing in foundation repair, basement waterproofing, and crawl space encapsulation",
    "hours": "Mon-Fri 9AM-6PM",
    "services": [
      "Buddhist-owned Waterproofing in Colorado consultation",
      "Professional service",
      "Quality guarantee"
    ],
    "social_links": {}
  },
  {
    "name": "Foundation Repair of Western Colorado",
    "address": "2970 N. 12th St, Grand Junction, CO 81501",
    "phone": "(970) 245-5555",
    "rating": 4.0,
    "reviews": 25,
    "website": "https://www.foundationrepairwesterncolorado.com/",
    "category": "Buddhist-owned Waterproofing in Colorado",
    "description": "A locally owned company specializing in moisture mitigation, crawl space encapsulation, sump pumps, and foundation repair",
    "hours": "Mon-Fri 9AM-6PM",
    "services": [
      "Buddhist-owned Waterproofing in Colorado consultation",
      "Professional service",
      "Quality guarantee"
    ],
    "social_links": {}
  },
  {
    "name": "AAA Mountain Waterproofing, LLC",
    "address": "11400 W. 49th Ave, Wheat Ridge, CO 80033",
    "phone": "(303) 423-7711",
    "rating": 4.0,
    "reviews": 25,
    "website": "https://aaamountainwaterproofing.com/",
    "category": "Buddhist-owned Waterproofing in Colorado",
    "description": "A full-service waterproofing company offering a wide variety of services for residential and commercial projects, with decades of experience",
    "hours": "Mon-Fri 9AM-6PM",
    "services": [
      "Buddhist-owned Waterproofing in Colorado consultation",
      "Professional service",
      "Quality guarantee"
    ],
    "social_links": {}
  }
]