[
  {
    "name": "Bugatti's Ultra Lounge",
    "address": "340 Glensprings Drive, Springdale, OH 45246",
    "phone": "513-407-3859",
    "rating": 4.0,
    "reviews": 25,
    "website": "https://www.google.com/maps/search/Bugatti's+Ultra+Lounge+in+Ohio",
    "category": "African-American-owned Pubs in Ohio",
    "description": "Offers good food, an extensive cocktail menu, and great vibes, making it a fantastic choice for a night out",
    "hours": "Mon-Fri 9AM-6PM",
    "services": [
      "African-American-owned Pubs in Ohio consultation",
      "Professional service",
      "Quality guarantee"
    ],
    "social_links": {}
  },
  {
    "name": "Copa Lounge",
    "address": "1517 Vine Street, Cincinnati, OH 45202",
    "phone": "513-818-5058",
    "rating": 4.0,
    "reviews": 25,
    "website": "https://www.google.com/maps/search/Copa+Lounge+in+Ohio",
    "category": "African-American-owned Pubs in Ohio",
    "description": "Described as Cincinnati's premier Black lounge, it offers a sexy Friday night scene and a flavorful brunch",
    "hours": "Mon-Fri 9AM-6PM",
    "services": [
      "African-American-owned Pubs in Ohio consultation",
      "Professional service",
      "Quality guarantee"
    ],
    "social_links": {}
  },
  {
    "name": "Good Brothas Bar and Grill",
    "address": "6700 Savannah Avenue, Cincinnati, OH 45239",
    "phone": "",
    "rating": 4.0,
    "reviews": 25,
    "website": "https://www.google.com/maps/search/Good+Brothas+Bar+and+Grill+in+Ohio",
    "category": "African-American-owned Pubs in Ohio",
    "description": "This African American-owned bar serves happy hour deals, affordable food, and offers entertainment",
    "hours": "Mon-Fri 9AM-6PM",
    "services": [
      "African-American-owned Pubs in Ohio consultation",
      "Professional service",
      "Quality guarantee"
    ],
    "social_links": {}
  },
  {
    "name": "KickbacksCincy",
    "address": "8087 Vine Street, Hartwell, OH 45216",
    "phone": "513-832-2365",
    "rating": 4.0,
    "reviews": 25,
    "website": "https://www.google.com/maps/search/KickbacksCincy+in+Ohio",
    "category": "African-American-owned Pubs in Ohio",
    "description": "This spot offers wings, tacos, whiting, and fries, and is a bustling spot to catch NFL games",
    "hours": "Mon-Fri 9AM-6PM",
    "services": [
      "African-American-owned Pubs in Ohio consultation",
      "Professional service",
      "Quality guarantee"
    ],
    "social_links": {}
  },
  {
    "name": "Nostalgia Wine and Jazz Lounge",
    "address": "1432 Vine Street, Cincinnati, OH 45202",
    "phone": "513-381-1300",
    "rating": 4.0,
    "reviews": 25,
    "website": "https://www.google.com/maps/search/Nostalgia+Wine+and+Jazz+Lounge+in+Ohio",
    "category": "African-American-owned Pubs in Ohio",
    "description": "This intimate lounge features live jazz, R&B, hip-hop, and soul music, and offers over 40 wines by the glass and bottle",
    "hours": "Mon-Fri 9AM-6PM",
    "services": [
      "African-American-owned Pubs in Ohio consultation",
      "Professional service",
      "Quality guarantee"
    ],
    "social_links": {}
  },
  {
    "name": "Out The Way Bar & Grill",
    "address": "4880 Union Centre Pavilion, West Chester, OH 45069",
    "phone": "513-889-4538",
    "rating": 4.0,
    "reviews": 25,
    "website": "https://www.google.com/maps/search/Out+The+Way+Bar+&+Grill+in+Ohio",
    "category": "African-American-owned Pubs in Ohio",
    "description": "Located north of Cincinnati, this bar hosts music artist showcases on Sundays and is perfect for music lovers",
    "hours": "Mon-Fri 9AM-6PM",
    "services": [
      "African-American-owned Pubs in Ohio consultation",
      "Professional service",
      "Quality guarantee"
    ],
    "social_links": {}
  },
  {
    "name": "Pike 2 Bar and Grill",
    "address": "10010 Springfield Pike, Woodlawn, OH 45215",
    "phone": "513-938-7453",
    "rating": 4.0,
    "reviews": 25,
    "website": "https://www.google.com/maps/search/Pike+2+Bar+and+Grill+in+Ohio",
    "category": "African-American-owned Pubs in Ohio",
    "description": "This bar offers classic bar food, live music, bingo, and special events. It also features an outdoor patio with TVs and a projector",
    "hours": "Mon-Fri 9AM-6PM",
    "services": [
      "African-American-owned Pubs in Ohio consultation",
      "Professional service",
      "Quality guarantee"
    ],
    "social_links": {}
  },
  {
    "name": "The Classic Lounge",
    "address": "Not specified in search results",
    "phone": "",
    "rating": 4.0,
    "reviews": 25,
    "website": "https://www.google.com/maps/search/The+Classic+Lounge+in+Ohio",
    "category": "African-American-owned Pubs in Ohio",
    "description": "A laid-back bar offering happy-hour specials and bar bites, plus dancing and live entertainment",
    "hours": "Mon-Fri 9AM-6PM",
    "services": [
      "African-American-owned Pubs in Ohio consultation",
      "Professional service",
      "Quality guarantee"
    ],
    "social_links": {}
  },
  {
    "name": "THIS IS IT DRINKS & BBQ",
    "address": "302 North Detroit Avenue, Toledo, OH 43604",
    "phone": "",
    "rating": 4.0,
    "reviews": 25,
    "website": "https://www.google.com/maps/search/THIS+IS+IT+DRINKS+&+BBQ+in+Ohio",
    "category": "African-American-owned Pubs in Ohio",
    "description": "This bar and entertainment venue offers a unique experience with high-energy music, delicious food, and drinks in a safe and inviting space",
    "hours": "Mon-Fri 9AM-6PM",
    "services": [
      "African-American-owned Pubs in Ohio consultation",
      "Professional service",
      "Quality guarantee"
    ],
    "social_links": {}
  },
  {
    "name": "Bar 29",
    "address": "4040 Reading Road, Avondale, OH 45229",
    "phone": "513-429-4044",
    "rating": 4.0,
    "reviews": 25,
    "website": "https://www.google.com/maps/search/Bar+29+in+Ohio",
    "category": "African-American-owned Pubs in Ohio",
    "description": "Offers happy hour specials daily and is a place to catch Bengals games",
    "hours": "Mon-Fri 9AM-6PM",
    "services": [
      "African-American-owned Pubs in Ohio consultation",
      "Professional service",
      "Quality guarantee"
    ],
    "social_links": {}
  }
]