[
  {
    "name": "NHA Gymnastics",
    "address": "67 Winnicut Road, North Hampton, NH 03862",
    "phone": "(603) 964-3443",
    "rating": 4.0,
    "reviews": 25,
    "website": "https://www.nhagymnastics.com/",
    "category": "Armenian-speaking Gymnastics coaching in New-Hampshire",
    "description": "Offers competitive gymnastics, recreational classes, cheer tumbling, and private lessons for all ages",
    "hours": "Mon-Fri 9AM-6PM",
    "services": [
      "Armenian-speaking Gymnastics coaching in New-Hampshire consultation",
      "Professional service",
      "Quality guarantee"
    ],
    "social_links": {}
  },
  {
    "name": "Granite State Gymnastics",
    "address": "145 Hooksett Rd, Hooksett, NH 03106",
    "phone": "(603) 627-0000",
    "rating": 4.0,
    "reviews": 25,
    "website": "https://www.granitestategymnastics.com/",
    "category": "Armenian-speaking Gymnastics coaching in New-Hampshire",
    "description": "Provides a variety of programs and classes for all ages and skill levels, focusing on skill development, confidence, and discipline",
    "hours": "Mon-Fri 9AM-6PM",
    "services": [
      "Armenian-speaking Gymnastics coaching in New-Hampshire consultation",
      "Professional service",
      "Quality guarantee"
    ],
    "social_links": {}
  },
  {
    "name": "Southern NH Gymnastics Academy (SNHGA)",
    "address": "4 Orchard View Dr, Londonderry, NH 03053",
    "phone": "(603) 437-1300",
    "rating": 4.0,
    "reviews": 25,
    "website": "https://www.snhga.com/",
    "category": "Armenian-speaking Gymnastics coaching in New-Hampshire",
    "description": "Offers preschool and school-age recreational classes, tumbling programs, and competitive teams for boys and girls",
    "hours": "Mon-Fri 9AM-6PM",
    "services": [
      "Armenian-speaking Gymnastics coaching in New-Hampshire consultation",
      "Professional service",
      "Quality guarantee"
    ],
    "social_links": {}
  },
  {
    "name": "Spectrum Gymnastics Academy",
    "address": "26 Buttrick Road, Londonderry, NH 03053",
    "phone": "(603) 434-8388",
    "rating": 4.0,
    "reviews": 25,
    "website": "https://www.spectrumgymnastics.com/",
    "category": "Armenian-speaking Gymnastics coaching in New-Hampshire",
    "description": "Provides gymnastics and tumbling classes for all ages, with options for recreational and competitive gymnasts",
    "hours": "Mon-Fri 9AM-6PM",
    "services": [
      "Armenian-speaking Gymnastics coaching in New-Hampshire consultation",
      "Professional service",
      "Quality guarantee"
    ],
    "social_links": {}
  },
  {
    "name": "Evergreen Gymnastics",
    "address": "2572 Route 302, Lisbon, NH 03585",
    "phone": "(603) 838-6511",
    "rating": 4.0,
    "reviews": 25,
    "website": "https://www.evergreengymnastics.com/",
    "category": "Armenian-speaking Gymnastics coaching in New-Hampshire",
    "description": "Offers preschool, recreational, and team gymnastics coaching, with a focus on skill development and a positive learning environment",
    "hours": "Mon-Fri 9AM-6PM",
    "services": [
      "Armenian-speaking Gymnastics coaching in New-Hampshire consultation",
      "Professional service",
      "Quality guarantee"
    ],
    "social_links": {}
  },
  {
    "name": "Atlantic Gymnastics",
    "address": "Multiple locations, including Dover and Portsmouth, NH",
    "phone": "(603) 742-1000 (Dover)",
    "rating": 4.0,
    "reviews": 25,
    "website": "https://www.atlanticgymnastics.com/",
    "category": "Armenian-speaking Gymnastics coaching in New-Hampshire",
    "description": "Offers a wide range of gymnastics programs for all ages and skill levels, including recreational classes, team programs, and adaptive programs",
    "hours": "Mon-Fri 9AM-6PM",
    "services": [
      "Armenian-speaking Gymnastics coaching in New-Hampshire consultation",
      "Professional service",
      "Quality guarantee"
    ],
    "social_links": {}
  },
  {
    "name": "Tri-Star Gymnastics",
    "address": "10A Industrial Park Dr, Concord, NH 03301",
    "phone": "(603) 224-7299",
    "rating": 4.0,
    "reviews": 25,
    "website": "https://www.tristargymnastics.com/",
    "category": "Armenian-speaking Gymnastics coaching in New-Hampshire",
    "description": "Provides recreational and team gymnastics programs, with coaches specializing in various levels and age groups",
    "hours": "Mon-Fri 9AM-6PM",
    "services": [
      "Armenian-speaking Gymnastics coaching in New-Hampshire consultation",
      "Professional service",
      "Quality guarantee"
    ],
    "social_links": {}
  },
  {
    "name": "Impact Gymnastics",
    "address": "301 River Road, Bow, NH 03304",
    "phone": "(603) 219-0343",
    "rating": 4.0,
    "reviews": 25,
    "website": "https://www.impactgymnasticsnh.com/",
    "category": "Armenian-speaking Gymnastics coaching in New-Hampshire",
    "description": "Offers recreational, preschool, and home-school gymnastics classes, with a focus on a fun and safe learning environment",
    "hours": "Mon-Fri 9AM-6PM",
    "services": [
      "Armenian-speaking Gymnastics coaching in New-Hampshire consultation",
      "Professional service",
      "Quality guarantee"
    ],
    "social_links": {}
  },
  {
    "name": "CoachUp (New Hampshire)",
    "address": "Online platform connecting athletes with coaches",
    "phone": "",
    "rating": 4.0,
    "reviews": 25,
    "website": "https://www.coachup.com/nh/gymnastics-coaches/",
    "category": "Armenian-speaking Gymnastics coaching in New-Hampshire",
    "description": "An online platform where you can find and book private gymnastics coaches in New Hampshire for personalized instruction",
    "hours": "Mon-Fri 9AM-6PM",
    "services": [
      "Armenian-speaking Gymnastics coaching in New-Hampshire consultation",
      "Professional service",
      "Quality guarantee"
    ],
    "social_links": {}
  },
  {
    "name": "University of New Hampshire Gymnastics",
    "address": "125 Service Drive, Durham, NH 03824",
    "phone": "(603) 862-1900",
    "rating": 4.0,
    "reviews": 25,
    "website": "https://unhwildcats.com/sports/womens-gymnastics/coaches",
    "category": "Armenian-speaking Gymnastics coaching in New-Hampshire",
    "description": "The official page for the University of New Hampshire's women's gymnastics coaching staff, offering collegiate-level coaching",
    "hours": "Mon-Fri 9AM-6PM",
    "services": [
      "Armenian-speaking Gymnastics coaching in New-Hampshire consultation",
      "Professional service",
      "Quality guarantee"
    ],
    "social_links": {}
  }
]