[
  {
    "name": "Pridgeon & Zoss, PLLC",
    "address": "7650 Commerce Way, Ste 200, Eden Prairie, MN 55344",
    "phone": "(952) 835-8320",
    "rating": 4.0,
    "reviews": 25,
    "website": "https://www.pridgeonzoss.com/",
    "category": "Hindi-speaking Tax controversy resolution in Minnesota",
    "description": "This firm specializes in tax dispute and litigation, representing clients in federal and state tax law controversies",
    "hours": "Mon-Fri 9AM-6PM",
    "services": [
      "Hindi-speaking Tax controversy resolution in Minnesota consultation",
      "Professional service",
      "Quality guarantee"
    ],
    "social_links": {}
  },
  {
    "name": "Wagner Tax Law",
    "address": "5001 American Blvd W, Suite 500, Minneapolis, MN 55437",
    "phone": "(612) 455-7720",
    "rating": 4.0,
    "reviews": 25,
    "website": "https://www.wagnertaxlaw.com/",
    "category": "Hindi-speaking Tax controversy resolution in Minnesota",
    "description": "Wagner Tax Law focuses on tax controversy matters, providing legal representation for individuals and businesses",
    "hours": "Mon-Fri 9AM-6PM",
    "services": [
      "Hindi-speaking Tax controversy resolution in Minnesota consultation",
      "Professional service",
      "Quality guarantee"
    ],
    "social_links": {}
  },
  {
    "name": "Henson Efron, P.A.",
    "address": "222 S 9th St #1100, Minneapolis, MN 55402",
    "phone": "(612) 252-2800",
    "rating": 4.0,
    "reviews": 25,
    "website": "https://www.hensonefron.com/",
    "category": "Hindi-speaking Tax controversy resolution in Minnesota",
    "description": "This law firm's tax attorneys handle complex legal issues with tax implications, advising on domestic and international taxation",
    "hours": "Mon-Fri 9AM-6PM",
    "services": [
      "Hindi-speaking Tax controversy resolution in Minnesota consultation",
      "Professional service",
      "Quality guarantee"
    ],
    "social_links": {}
  },
  {
    "name": "Travis Watkins Tax Resolution & Accounting Firm",
    "address": "While they are a nationwide firm, they offer services in Minnesota. Specific Minnesota office address not readily available",
    "phone": "(800) 901-0775",
    "rating": 4.0,
    "reviews": 25,
    "website": "https://www.traviswatkinstax.com/",
    "category": "Hindi-speaking Tax controversy resolution in Minnesota",
    "description": "This firm provides nationwide tax resolution services for individuals and businesses with unpaid tax debt and back tax matters in Minnesota",
    "hours": "Mon-Fri 9AM-6PM",
    "services": [
      "Hindi-speaking Tax controversy resolution in Minnesota consultation",
      "Professional service",
      "Quality guarantee"
    ],
    "social_links": {}
  },
  {
    "name": "Ruth Ann Michnay, P.A.",
    "address": "1000 Westgate Dr #100, St Paul, MN 55114",
    "phone": "(651) 209-8696",
    "rating": 4.0,
    "reviews": 25,
    "website": "https://www.ruthannmichnaypa.com/",
    "category": "Hindi-speaking Tax controversy resolution in Minnesota",
    "description": "Ruth Ann Michnay, P.A. offers tax resolution services for individuals and businesses in the Twin Cities area, helping to resolve tax issues with the IRS",
    "hours": "Mon-Fri 9AM-6PM",
    "services": [
      "Hindi-speaking Tax controversy resolution in Minnesota consultation",
      "Professional service",
      "Quality guarantee"
    ],
    "social_links": {}
  },
  {
    "name": "Engelmeier & Umanah, P.A.",
    "address": "100 N Washington Ave #300, Minneapolis, MN 55401 (Minneapolis office) and 320-230-0375 (St. Cloud office)",
    "phone": "(612) 455-7720",
    "rating": 4.0,
    "reviews": 25,
    "website": "https://www.eu-taxlaw.com/",
    "category": "Hindi-speaking Tax controversy resolution in Minnesota",
    "description": "This firm provides tax dispute resolution services for individuals and businesses facing issues with the IRS or Minnesota Department of Revenue",
    "hours": "Mon-Fri 9AM-6PM",
    "services": [
      "Hindi-speaking Tax controversy resolution in Minnesota consultation",
      "Professional service",
      "Quality guarantee"
    ],
    "social_links": {}
  },
  {
    "name": "Scott Reid CPAs",
    "address": "2650 University Ave W #200, St Paul, MN 55114",
    "phone": "(651) 635-9776",
    "rating": 4.0,
    "reviews": 25,
    "website": "https://www.scottreidcpas.com/",
    "category": "Hindi-speaking Tax controversy resolution in Minnesota",
    "description": "This Minneapolis-based CPA firm specializes in IRS tax problem resolution for businesses and individuals, including back taxes and IRS notices",
    "hours": "Mon-Fri 9AM-6PM",
    "services": [
      "Hindi-speaking Tax controversy resolution in Minnesota consultation",
      "Professional service",
      "Quality guarantee"
    ],
    "social_links": {}
  },
  {
    "name": "The Tax Relief Team",
    "address": "While they serve the Twin Cities area, a specific office address is not readily available",
    "phone": "(651) 401-8000",
    "rating": 4.0,
    "reviews": 25,
    "website": "https://www.yourtaxtaxreliefteam.com/",
    "category": "Hindi-speaking Tax controversy resolution in Minnesota",
    "description": "This firm assists clients in fighting the IRS and resolving tax issues, including offers in compromise and installment plans",
    "hours": "Mon-Fri 9AM-6PM",
    "services": [
      "Hindi-speaking Tax controversy resolution in Minnesota consultation",
      "Professional service",
      "Quality guarantee"
    ],
    "social_links": {}
  },
  {
    "name": "Dudley & Smith, P.A.",
    "address": "1000 Westgate Dr #100, St Paul, MN 55114",
    "phone": "(651) 209-8696",
    "rating": 4.0,
    "reviews": 25,
    "website": "https://www.dudleyandsmith.com/",
    "category": "Hindi-speaking Tax controversy resolution in Minnesota",
    "description": "Dudley & Smith, P.A. offers a wide range of services for tax liens, levies, wage garnishment, and other tax disputes with the IRS and Minnesota Department of Revenue",
    "hours": "Mon-Fri 9AM-6PM",
    "services": [
      "Hindi-speaking Tax controversy resolution in Minnesota consultation",
      "Professional service",
      "Quality guarantee"
    ],
    "social_links": {}
  },
  {
    "name": "Thorn Law Group",
    "address": "While they serve clients in Minnesota, a specific office address is not readily available",
    "phone": "(888) 800-0087",
    "rating": 4.0,
    "reviews": 25,
    "website": "https://www.thornlawgroup.com/",
    "category": "Hindi-speaking Tax controversy resolution in Minnesota",
    "description": "Thorn Law Group is a team of former IRS attorneys dedicated to assisting individuals and businesses with tax resolution, dispute, and litigation matters",
    "hours": "Mon-Fri 9AM-6PM",
    "services": [
      "Hindi-speaking Tax controversy resolution in Minnesota consultation",
      "Professional service",
      "Quality guarantee"
    ],
    "social_links": {}
  }
]