[
  {
    "name": "Independent Alarm",
    "address": "1000 Lincoln Ave, Holbrook, NY 11741 (This is their Long Island location, but they serve NJ)",
    "phone": "(800) 545-0055",
    "rating": 4.9,
    "reviews": 25,
    "website": "https://www.independentalarm.com/",
    "category": "Arabic-speaking Alarm systems in New-Jersey",
    "description": "Offers security systems, fire alarm systems, camera systems, and more, serving residential, commercial, and industrial customers",
    "hours": "Mon-Fri 9AM-6PM",
    "services": [
      "Arabic-speaking Alarm systems in New-Jersey consultation",
      "Professional service",
      "Quality guarantee"
    ],
    "social_links": {}
  },
  {
    "name": "GuardMe Security",
    "address": "1000 Lincoln Ave, Holbrook, NY 11741 (This is their Long Island location, but they serve NJ)",
    "phone": "(800) 545-0055",
    "rating": 4.0,
    "reviews": 25,
    "website": "https://guardmesecurity.com/",
    "category": "Arabic-speaking Alarm systems in New-Jersey",
    "description": "Provides cutting-edge smart security systems for homes and businesses, including burglar alarms and CCTV surveillance",
    "hours": "Mon-Fri 9AM-6PM",
    "services": [
      "Arabic-speaking Alarm systems in New-Jersey consultation",
      "Professional service",
      "Quality guarantee"
    ],
    "social_links": {}
  },
  {
    "name": "Accurate Alarm Systems",
    "address": "123 W. Passaic St., Rochelle Park, NJ 07662",
    "phone": "(201) 843-1110",
    "rating": 4.0,
    "reviews": 25,
    "website": "https://www.accuratealarmnj.com/",
    "category": "Arabic-speaking Alarm systems in New-Jersey",
    "description": "Offers reliable protection for homes and businesses with tailored security systems, serving Bergen, Morris, and Passaic counties",
    "hours": "Mon-Fri 9AM-6PM",
    "services": [
      "Arabic-speaking Alarm systems in New-Jersey consultation",
      "Professional service",
      "Quality guarantee"
    ],
    "social_links": {}
  },
  {
    "name": "New Jersey Fire & Security Alarm Company",
    "address": "1300 Route 71, Spring Lake Heights, NJ 07762",
    "phone": "(732) 449-2111",
    "rating": 4.0,
    "reviews": 25,
    "website": "https://www.njfireandsecurity.com/",
    "category": "Arabic-speaking Alarm systems in New-Jersey",
    "description": "Provides customizable and scalable home security and automation solutions, serving Monmouth, Middlesex, and surrounding counties",
    "hours": "Mon-Fri 9AM-6PM",
    "services": [
      "Arabic-speaking Alarm systems in New-Jersey consultation",
      "Professional service",
      "Quality guarantee"
    ],
    "social_links": {}
  },
  {
    "name": "GeoArm Security",
    "address": "11750 SW 104th St, Miami, FL 33176 (This is their Florida headquarters, but they serve NJ)",
    "phone": "(877) 443-6276",
    "rating": 4.0,
    "reviews": 25,
    "website": "https://www.geoarm.com/",
    "category": "Arabic-speaking Alarm systems in New-Jersey",
    "description": "Offers no-contract, professional 24/7 alarm monitoring, DIY interactive security, automation, and video surveillance services",
    "hours": "Mon-Fri 9AM-6PM",
    "services": [
      "Arabic-speaking Alarm systems in New-Jersey consultation",
      "Professional service",
      "Quality guarantee"
    ],
    "social_links": {}
  },
  {
    "name": "North East Security Systems",
    "address": "153 Franklin Ave, Midland Park, NJ 07432",
    "phone": "(201) 444-2444",
    "rating": 4.0,
    "reviews": 25,
    "website": "https://www.nesecurity.com/",
    "category": "Arabic-speaking Alarm systems in New-Jersey",
    "description": "Installs and monitors state-of-the-art home and business alarm systems, also offering home automation solutions",
    "hours": "Mon-Fri 9AM-6PM",
    "services": [
      "Arabic-speaking Alarm systems in New-Jersey consultation",
      "Professional service",
      "Quality guarantee"
    ],
    "social_links": {}
  },
  {
    "name": "Atlantic Security & Fire",
    "address": "1000 Lincoln Ave, Holbrook, NY 11741 (This is their Long Island location, but they serve NJ)",
    "phone": "(800) 545-0055",
    "rating": 4.9,
    "reviews": 25,
    "website": "https://www.atlanticsecurity.com/",
    "category": "Arabic-speaking Alarm systems in New-Jersey",
    "description": "Provides reliable and professional security solutions for homes and offices, with a focus on exceptional customer service",
    "hours": "Mon-Fri 9AM-6PM",
    "services": [
      "Arabic-speaking Alarm systems in New-Jersey consultation",
      "Professional service",
      "Quality guarantee"
    ],
    "social_links": {}
  },
  {
    "name": "Effective Alarm Systems, Inc.",
    "address": "140 Kearny Ave, Kearny, NJ 07032",
    "phone": "(201) 998-0890",
    "rating": 4.0,
    "reviews": 25,
    "website": "https://effectivealarms.com/",
    "category": "Arabic-speaking Alarm systems in New-Jersey",
    "description": "Offers competitive prices and excellent services for alarm systems, with knowledgeable and friendly staff",
    "hours": "Mon-Fri 9AM-6PM",
    "services": [
      "Arabic-speaking Alarm systems in New-Jersey consultation",
      "Professional service",
      "Quality guarantee"
    ],
    "social_links": {}
  },
  {
    "name": "OSA Systems, LLC.",
    "address": "1000 Lincoln Ave, Holbrook, NY 11741 (This is their Long Island location, but they serve NJ)",
    "phone": "(800) 545-0055",
    "rating": 4.0,
    "reviews": 25,
    "website": "https://osasystems.com/",
    "category": "Arabic-speaking Alarm systems in New-Jersey",
    "description": "Provides high-quality, reliable security and fire alarms, with over 20 years of expertise in the industry",
    "hours": "Mon-Fri 9AM-6PM",
    "services": [
      "Arabic-speaking Alarm systems in New-Jersey consultation",
      "Professional service",
      "Quality guarantee"
    ],
    "social_links": {}
  },
  {
    "name": "All American Alarm Systems",
    "address": "1000 Lincoln Ave, Holbrook, NY 11741 (This is their Long Island location, but they serve NJ)",
    "phone": "(800) 545-0055",
    "rating": 4.0,
    "reviews": 25,
    "website": "https://www.allamericanalarms.com/",
    "category": "Arabic-speaking Alarm systems in New-Jersey",
    "description": "A full-service systems integrator specializing in fire alarm, security systems, access control, and CCTV",
    "hours": "Mon-Fri 9AM-6PM",
    "services": [
      "Arabic-speaking Alarm systems in New-Jersey consultation",
      "Professional service",
      "Quality guarantee"
    ],
    "social_links": {}
  }
]