[
  {
    "name": "Bare Medical Spa + Laser Center",
    "address": "102 S Champlain St, Burlington, VT 05401",
    "phone": "(802) 861-3351",
    "rating": 4.8,
    "reviews": 25,
    "website": "https://baremedicalspa.com/",
    "category": "Armenian-speaking Skin tightening in Vermont",
    "description": "Offers a variety of aesthetic and wellness treatments, including skin tightening procedures like Morpheus8. They are voted the #1 medical spa in Vermont for four years",
    "hours": "Mon-Fri 9AM-6PM",
    "services": [
      "Armenian-speaking Skin tightening in Vermont consultation",
      "Professional service",
      "Quality guarantee"
    ],
    "social_links": {}
  },
  {
    "name": "Radiance Medical Aesthetics and Wellness Spa",
    "address": "1055 Williston Rd, Suite 201, Williston, VT 05495",
    "phone": "(802) 310-2333",
    "rating": 4.9,
    "reviews": 25,
    "website": "https://www.radiancemedicalaesthetics.com/",
    "category": "Armenian-speaking Skin tightening in Vermont",
    "description": "A leading skin rejuvenation center offering various treatments for skin concerns, including skin tightening",
    "hours": "Mon-Fri 9AM-6PM",
    "services": [
      "Armenian-speaking Skin tightening in Vermont consultation",
      "Professional service",
      "Quality guarantee"
    ],
    "social_links": {}
  },
  {
    "name": "Vida Medical Spa",
    "address": "144 Washington St, Barre, VT 05641",
    "phone": "(802) 476-5000",
    "rating": 4.8,
    "reviews": 25,
    "website": "https://vidamedicalspa.com/",
    "category": "Armenian-speaking Skin tightening in Vermont",
    "description": "A full-service medical and wellness spa offering treatments for aging skin, rejuvenation, and more, including options that can contribute to skin tightening",
    "hours": "Mon-Fri 9AM-6PM",
    "services": [
      "Armenian-speaking Skin tightening in Vermont consultation",
      "Professional service",
      "Quality guarantee"
    ],
    "social_links": {}
  },
  {
    "name": "Dorset Street Dermatology",
    "address": "1055 Dorset St, Suite 100, South Burlington, VT 05403",
    "phone": "(802) 660-8808",
    "rating": 4.8,
    "reviews": 25,
    "website": "https://www.dorsetstreetdermatology.com/",
    "category": "Armenian-speaking Skin tightening in Vermont",
    "description": "Offers comprehensive dermatological care, including medical, surgical, and cosmetic dermatology services, with a medical spa backed by dermatology",
    "hours": "Mon-Fri 9AM-6PM",
    "services": [
      "Armenian-speaking Skin tightening in Vermont consultation",
      "Professional service",
      "Quality guarantee"
    ],
    "social_links": {}
  },
  {
    "name": "Mountain Lake Plastic Surgery",
    "address": "1605 Williston Rd, Suite 202, South Burlington, VT 05403",
    "phone": "(802) 658-9400",
    "rating": 4.9,
    "reviews": 25,
    "website": "https://www.mountainlakeplasticsurgery.com/",
    "category": "Armenian-speaking Skin tightening in Vermont",
    "description": "Provides plastic surgery services with a focus on natural results, including procedures that can address skin laxity",
    "hours": "Mon-Fri 9AM-6PM",
    "services": [
      "Armenian-speaking Skin tightening in Vermont consultation",
      "Professional service",
      "Quality guarantee"
    ],
    "social_links": {}
  },
  {
    "name": "Northern Vermont Dermatology",
    "address": "100 St. Albans Bay Rd, St. Albans, VT 05478",
    "phone": "(802) 524-1000",
    "rating": 4.7,
    "reviews": 25,
    "website": "https://www.northernvtderm.com/",
    "category": "Armenian-speaking Skin tightening in Vermont",
    "description": "A dermatology practice offering a range of skin treatments and services",
    "hours": "Mon-Fri 9AM-6PM",
    "services": [
      "Armenian-speaking Skin tightening in Vermont consultation",
      "Professional service",
      "Quality guarantee"
    ],
    "social_links": {}
  },
  {
    "name": "Skin Deep Medical Aesthetics",
    "address": "21 Carmichael St, Essex Junction, VT 05452",
    "phone": "(802) 310-7007",
    "rating": 4.9,
    "reviews": 25,
    "website": "https://www.skindeepmedicalaesthetics.com/",
    "category": "Armenian-speaking Skin tightening in Vermont",
    "description": "Offers cosmetic procedures and treatments, including injectables and laser services, which can contribute to skin tightening",
    "hours": "Mon-Fri 9AM-6PM",
    "services": [
      "Armenian-speaking Skin tightening in Vermont consultation",
      "Professional service",
      "Quality guarantee"
    ],
    "social_links": {}
  },
  {
    "name": "LIFT Medical",
    "address": "1246 US-5, St Johnsbury, VT 05819",
    "phone": "(802) 748-1700",
    "rating": 4.9,
    "reviews": 25,
    "website": "https://liftmedical.com/",
    "category": "Armenian-speaking Skin tightening in Vermont",
    "description": "Specializes in non-invasive radio frequency treatments for skin tightening and body contouring",
    "hours": "Mon-Fri 9AM-6PM",
    "services": [
      "Armenian-speaking Skin tightening in Vermont consultation",
      "Professional service",
      "Quality guarantee"
    ],
    "social_links": {}
  },
  {
    "name": "La Bella Derma",
    "address": "100 Winooski Falls Way, Suite 103, Winooski, VT 05404",
    "phone": "(802) 399-4130",
    "rating": 4.9,
    "reviews": 25,
    "website": "https://www.labelladerma.com/",
    "category": "Armenian-speaking Skin tightening in Vermont",
    "description": "Offers specialized body treatments, including RF skin tightening, to address concerns like loose skin",
    "hours": "Mon-Fri 9AM-6PM",
    "services": [
      "Armenian-speaking Skin tightening in Vermont consultation",
      "Professional service",
      "Quality guarantee"
    ],
    "social_links": {}
  },
  {
    "name": "Glow Aesthetics Medical Spa",
    "address": "41 IDX Drive, Suite 230, South Burlington, VT 05403",
    "phone": "(802) 338-9599",
    "rating": 4.9,
    "reviews": 25,
    "website": "https://glowmedspavt.com/",
    "category": "Armenian-speaking Skin tightening in Vermont",
    "description": "Provides a range of facial and body treatments, including those that can improve skin texture and firmness",
    "hours": "Mon-Fri 9AM-6PM",
    "services": [
      "Armenian-speaking Skin tightening in Vermont consultation",
      "Professional service",
      "Quality guarantee"
    ],
    "social_links": {}
  }
]