[
  {
    "name": "Springfield Strength and Conditioning",
    "address": "Behind Hurts Donuts Intergalactic Headquarters, Springfield, MO",
    "phone": "",
    "rating": 4.0,
    "reviews": 25,
    "website": "https://www.springfieldstrengthandconditioning.com/",
    "category": "African-American-owned 24-hour fitness centers in Missouri",
    "description": "Offers 24-hour key fob access for members",
    "hours": "Mon-Fri 9AM-6PM",
    "services": [
      "African-American-owned 24-hour fitness centers in Missouri consultation",
      "Professional service",
      "Quality guarantee"
    ],
    "social_links": {}
  },
  {
    "name": "Anytime Fitness (Columbia)",
    "address": "1207 N. Providence Rd Suite 101, Columbia, MO 65203",
    "phone": "(573) 442-4444",
    "rating": 4.5,
    "reviews": 25,
    "website": "https://www.anytimefitness.com/gyms/2996/columbia-mo-65203/",
    "category": "African-American-owned 24-hour fitness centers in Missouri",
    "description": "Locally owned and operated 24-hour gym offering personalized coaching",
    "hours": "Mon-Fri 9AM-6PM",
    "services": [
      "African-American-owned 24-hour fitness centers in Missouri consultation",
      "Professional service",
      "Quality guarantee"
    ],
    "social_links": {}
  },
  {
    "name": "Anytime Fitness (Springfield)",
    "address": "3147 W Republic Rd, Springfield, MO 65807",
    "phone": "(417) 889-0044",
    "rating": 4.5,
    "reviews": 25,
    "website": "https://www.anytimefitness.com/gyms/3000/springfield-mo-65807/",
    "category": "African-American-owned 24-hour fitness centers in Missouri",
    "description": "Locally owned and operated 24-hour gym offering personalized coaching",
    "hours": "Mon-Fri 9AM-6PM",
    "services": [
      "African-American-owned 24-hour fitness centers in Missouri consultation",
      "Professional service",
      "Quality guarantee"
    ],
    "social_links": {}
  },
  {
    "name": "Anytime Fitness (St. Louis)",
    "address": "10233 Watson Rd, St. Louis, MO 63127",
    "phone": "(314) 965-0044",
    "rating": 4.0,
    "reviews": 25,
    "website": "https://www.anytimefitness.com/gyms/3001/st-louis-mo-63127/",
    "category": "African-American-owned 24-hour fitness centers in Missouri",
    "description": "Locally owned and operated 24-hour gym offering personalized coaching",
    "hours": "Mon-Fri 9AM-6PM",
    "services": [
      "African-American-owned 24-hour fitness centers in Missouri consultation",
      "Professional service",
      "Quality guarantee"
    ],
    "social_links": {}
  },
  {
    "name": "Gymology 24/7",
    "address": "Multiple locations in Springfield, MO (specific addresses not provided in search results)",
    "phone": "",
    "rating": 4.0,
    "reviews": 25,
    "website": "https://gymology247.com/",
    "category": "African-American-owned 24-hour fitness centers in Missouri",
    "description": "Offers 24/7 access, premium equipment, and a welcoming atmosphere",
    "hours": "Mon-Fri 9AM-6PM",
    "services": [
      "African-American-owned 24-hour fitness centers in Missouri consultation",
      "Professional service",
      "Quality guarantee"
    ],
    "social_links": {}
  },
  {
    "name": "Snap Fitness (Springfield)",
    "address": "3659 E Sunshine St, Springfield, MO 65809",
    "phone": "(417) 889-7627",
    "rating": 4.5,
    "reviews": 25,
    "website": "https://www.snapfitness.com/us/gyms/springfield-mo/3230/",
    "category": "African-American-owned 24-hour fitness centers in Missouri",
    "description": "Offers 24/7 gym access, cardio & strength equipment, and functional training",
    "hours": "Mon-Fri 9AM-6PM",
    "services": [
      "African-American-owned 24-hour fitness centers in Missouri consultation",
      "Professional service",
      "Quality guarantee"
    ],
    "social_links": {}
  },
  {
    "name": "HOTWORX (Columbia)",
    "address": "1005 E Broadway Ste 102, Columbia, MO 65201",
    "phone": "(573) 442-4689",
    "rating": 4.5,
    "reviews": 25,
    "website": "https://www.hotworx.net/studio/columbia-mo/",
    "category": "African-American-owned 24-hour fitness centers in Missouri",
    "description": "A 24-hour infrared fitness studio offering various workout sessions",
    "hours": "Mon-Fri 9AM-6PM",
    "services": [
      "African-American-owned 24-hour fitness centers in Missouri consultation",
      "Professional service",
      "Quality guarantee"
    ],
    "social_links": {}
  },
  {
    "name": "Ambassador Club Fitness",
    "address": "10015 N Ambassador Dr. Suite #203, Kansas City, MO 64154",
    "phone": "(816) 888-5000",
    "rating": 4.5,
    "reviews": 25,
    "website": "https://www.ambassadorclubfitness.com/",
    "category": "African-American-owned 24-hour fitness centers in Missouri",
    "description": "Locally owned and operated with 24-hour gym access",
    "hours": "Mon-Fri 9AM-6PM",
    "services": [
      "African-American-owned 24-hour fitness centers in Missouri consultation",
      "Professional service",
      "Quality guarantee"
    ],
    "social_links": {}
  },
  {
    "name": "Metro KC Fitness",
    "address": "Multiple locations in Kansas City, MO and KS (e.g., 320 E. 12th St, Kansas City, MO 64106)",
    "phone": "(816) 531-7000",
    "rating": 4.5,
    "reviews": 25,
    "website": "https://www.metrokcfitness.com/",
    "category": "African-American-owned 24-hour fitness centers in Missouri",
    "description": "Offers 24/7 access to multiple locations with expert coaching and a supportive community",
    "hours": "Mon-Fri 9AM-6PM",
    "services": [
      "African-American-owned 24-hour fitness centers in Missouri consultation",
      "Professional service",
      "Quality guarantee"
    ],
    "social_links": {}
  },
  {
    "name": "Flex Fitness Gym",
    "address": "1019 Swift Ave, North Kansas City, MO 64116",
    "phone": "(816) 471-3539",
    "rating": 4.5,
    "reviews": 25,
    "website": "https://www.flexfitnesskc.com/",
    "category": "African-American-owned 24-hour fitness centers in Missouri",
    "description": "Open 24/7 with high-quality equipment and a motivating atmosphere",
    "hours": "Mon-Fri 9AM-6PM",
    "services": [
      "African-American-owned 24-hour fitness centers in Missouri consultation",
      "Professional service",
      "Quality guarantee"
    ],
    "social_links": {}
  }
]