[
  {
    "name": "Construction Plus",
    "address": "P.O. Box 4344, Meridian, MS 39304",
    "phone": "601-938-5769",
    "rating": 4.0,
    "reviews": 25,
    "website": "https://www.google.com/maps/search/Construction+Plus+in+Mississippi",
    "category": "African-American-owned Landscape renovation in Mississippi",
    "description": "Specializes in site prep, excavation, and drainage",
    "hours": "Mon-Fri 9AM-6PM",
    "services": [
      "African-American-owned Landscape renovation in Mississippi consultation",
      "Professional service",
      "Quality guarantee"
    ],
    "social_links": {}
  },
  {
    "name": "C & O Dirt Service",
    "address": "P.O. Box 191, Raleigh, MS 39153",
    "phone": "601-782-9015",
    "rating": 4.0,
    "reviews": 25,
    "website": "https://www.google.com/maps/search/C+&+O+Dirt+Service+in+Mississippi",
    "category": "African-American-owned Landscape renovation in Mississippi",
    "description": "Focuses on heavy construction and excavation work",
    "hours": "Mon-Fri 9AM-6PM",
    "services": [
      "African-American-owned Landscape renovation in Mississippi consultation",
      "Professional service",
      "Quality guarantee"
    ],
    "social_links": {}
  },
  {
    "name": "Davidson Hauling & Construction Inc.",
    "address": "P.O. Box 665, Meridian, MS 39342",
    "phone": "601-482-1815",
    "rating": 4.0,
    "reviews": 25,
    "website": "https://www.google.com/maps/search/Davidson+Hauling+&+Construction+Inc.+in+Mississippi",
    "category": "African-American-owned Landscape renovation in Mississippi",
    "description": "Offers site preparation, trucking, and material sales",
    "hours": "Mon-Fri 9AM-6PM",
    "services": [
      "African-American-owned Landscape renovation in Mississippi consultation",
      "Professional service",
      "Quality guarantee"
    ],
    "social_links": {}
  },
  {
    "name": "J & M Inc.",
    "address": "3219 Minnow Bucket Road, Toomsuba, MS 39364",
    "phone": "601-632-4534",
    "rating": 4.0,
    "reviews": 25,
    "website": "https://www.google.com/maps/search/J+&+M+Inc.+in+Mississippi",
    "category": "African-American-owned Landscape renovation in Mississippi",
    "description": "Provides excavation work",
    "hours": "Mon-Fri 9AM-6PM",
    "services": [
      "African-American-owned Landscape renovation in Mississippi consultation",
      "Professional service",
      "Quality guarantee"
    ],
    "social_links": {}
  },
  {
    "name": "Douglas Brothers Construction",
    "address": "P.O. Box 631, Moorehead, MS 38761",
    "phone": "662-246-5341",
    "rating": 4.0,
    "reviews": 25,
    "website": "https://www.google.com/maps/search/Douglas+Brothers+Construction+in+Mississippi",
    "category": "African-American-owned Landscape renovation in Mississippi",
    "description": "Involved in pipe, inlets, dirt excavation, and minor concrete work",
    "hours": "Mon-Fri 9AM-6PM",
    "services": [
      "African-American-owned Landscape renovation in Mississippi consultation",
      "Professional service",
      "Quality guarantee"
    ],
    "social_links": {}
  },
  {
    "name": "Midway Construction",
    "address": "P.O. Box 103, Delta City, MS 39061",
    "phone": "662-873-6747",
    "rating": 4.0,
    "reviews": 25,
    "website": "https://www.google.com/maps/search/Midway+Construction+in+Mississippi",
    "category": "African-American-owned Landscape renovation in Mississippi",
    "description": "Offers general construction services",
    "hours": "Mon-Fri 9AM-6PM",
    "services": [
      "African-American-owned Landscape renovation in Mississippi consultation",
      "Professional service",
      "Quality guarantee"
    ],
    "social_links": {}
  },
  {
    "name": "Roby Construction Company Inc.",
    "address": "703 Tallahatchie Street, Greenwood, MS 38930",
    "phone": "662-455-6655",
    "rating": 4.0,
    "reviews": 25,
    "website": "https://www.google.com/maps/search/Roby+Construction+Company+Inc.+in+Mississippi",
    "category": "African-American-owned Landscape renovation in Mississippi",
    "description": "Specializes in excavation work",
    "hours": "Mon-Fri 9AM-6PM",
    "services": [
      "African-American-owned Landscape renovation in Mississippi consultation",
      "Professional service",
      "Quality guarantee"
    ],
    "social_links": {}
  },
  {
    "name": "Townes Construction Co Inc.",
    "address": "16398 Hwy 8 West, Grenada, MS 38901",
    "phone": "662-226-4816",
    "rating": 4.0,
    "reviews": 25,
    "website": "https://www.google.com/maps/search/Townes+Construction+Co+Inc.+in+Mississippi",
    "category": "African-American-owned Landscape renovation in Mississippi",
    "description": "Provides grading, concrete work, and is a supplier of sand and gravel",
    "hours": "Mon-Fri 9AM-6PM",
    "services": [
      "African-American-owned Landscape renovation in Mississippi consultation",
      "Professional service",
      "Quality guarantee"
    ],
    "social_links": {}
  },
  {
    "name": "Interstate Landscaping of MS Inc.",
    "address": "20900 Hwy 15 N, Faulkner, MS 38629",
    "phone": "662-837-0079",
    "rating": 4.0,
    "reviews": 25,
    "website": "https://www.google.com/maps/search/Interstate+Landscaping+of+MS+Inc.+in+Mississippi",
    "category": "African-American-owned Landscape renovation in Mississippi",
    "description": "Offers seeding, sodding, erosion control, and minor concrete structures",
    "hours": "Mon-Fri 9AM-6PM",
    "services": [
      "African-American-owned Landscape renovation in Mississippi consultation",
      "Professional service",
      "Quality guarantee"
    ],
    "social_links": {}
  },
  {
    "name": "Tula Turf Inc.",
    "address": "14 County Road 466, Oxford, MS 38655",
    "phone": "662-234-0376",
    "rating": 4.0,
    "reviews": 25,
    "website": "https://www.google.com/maps/search/Tula+Turf+Inc.+in+Mississippi",
    "category": "African-American-owned Landscape renovation in Mississippi",
    "description": "Focuses on landscaping and erosion control",
    "hours": "Mon-Fri 9AM-6PM",
    "services": [
      "African-American-owned Landscape renovation in Mississippi consultation",
      "Professional service",
      "Quality guarantee"
    ],
    "social_links": {}
  }
]