[
  {
    "name": "Open Space: A Center for Community",
    "address": "11701 Old Seward Hwy, Anchorage, AK 99515, United States",
    "phone": "(907) 522-9642",
    "rating": 4.0,
    "reviews": 25,
    "website": "http://www.openspaceanchorage.com/",
    "category": "Atheist-owned Prenatal fitness in Alaska",
    "description": "Offers a variety of yoga classes, including prenatal yoga, in a welcoming environment",
    "hours": "Mon-Fri 9AM-6PM",
    "services": [
      "Atheist-owned Prenatal fitness in Alaska consultation",
      "Professional service",
      "Quality guarantee"
    ],
    "social_links": {}
  },
  {
    "name": "Southcentral Foundation - Nateya Building",
    "address": "4201 Tudor Centre Dr, Anchorage, AK 99508, United States",
    "phone": "(907) 729-6683",
    "rating": 4.0,
    "reviews": 25,
    "website": "https://www.southcentralfoundation.com/services/rehabilitation-therapies-exercise/",
    "category": "Atheist-owned Prenatal fitness in Alaska",
    "description": "Offers prenatal yoga classes focused on strength, flexibility, and relaxation for pregnancy",
    "hours": "Mon-Fri 9AM-6PM",
    "services": [
      "Atheist-owned Prenatal fitness in Alaska consultation",
      "Professional service",
      "Quality guarantee"
    ],
    "social_links": {}
  },
  {
    "name": "Heart Stream Yoga",
    "address": "1417 10th Ave, Fairbanks, AK 99701, United States",
    "phone": "(907) 474-8108",
    "rating": 4.0,
    "reviews": 25,
    "website": "http://www.heartstreanyoga.com/",
    "category": "Atheist-owned Prenatal fitness in Alaska",
    "description": "Provides various yoga classes, including prenatal yoga, with experienced instructors",
    "hours": "Mon-Fri 9AM-6PM",
    "services": [
      "Atheist-owned Prenatal fitness in Alaska consultation",
      "Professional service",
      "Quality guarantee"
    ],
    "social_links": {}
  },
  {
    "name": "Progressive Physical Therapy",
    "address": "432 S Alaska St, Palmer, AK 99645, United States",
    "phone": "(907) 748-0022",
    "rating": 4.0,
    "reviews": 25,
    "website": "https://www.pptalaska.com/",
    "category": "Atheist-owned Prenatal fitness in Alaska",
    "description": "Offers prenatal fitness and postpartum recovery guidance, including a video course",
    "hours": "Mon-Fri 9AM-6PM",
    "services": [
      "Atheist-owned Prenatal fitness in Alaska consultation",
      "Professional service",
      "Quality guarantee"
    ],
    "social_links": {}
  },
  {
    "name": "Alaska Fitness",
    "address": "5201 E Tudor Rd, Anchorage, AK 99507, United States",
    "phone": "(907) 337-9550",
    "rating": 3.8,
    "reviews": 25,
    "website": "http://www.thealaskaclub.com/",
    "category": "Atheist-owned Prenatal fitness in Alaska",
    "description": "A fitness club offering various classes, including yoga and pilates, suitable for different fitness levels",
    "hours": "Mon-Fri 9AM-6PM",
    "services": [
      "Atheist-owned Prenatal fitness in Alaska consultation",
      "Professional service",
      "Quality guarantee"
    ],
    "social_links": {}
  },
  {
    "name": "The Alaska Club Wasilla",
    "address": "1720 E Parks Hwy, Wasilla, AK 99654, United States",
    "phone": "(907) 376-3300",
    "rating": 3.6,
    "reviews": 25,
    "website": "http://www.thealaskaclub.com/",
    "category": "Atheist-owned Prenatal fitness in Alaska",
    "description": "A fitness center with a range of amenities and classes",
    "hours": "Mon-Fri 9AM-6PM",
    "services": [
      "Atheist-owned Prenatal fitness in Alaska consultation",
      "Professional service",
      "Quality guarantee"
    ],
    "social_links": {}
  },
  {
    "name": "The Alaska Club South",
    "address": "10931 O'Malley Centre Dr, Anchorage, AK 99515, United States",
    "phone": "(907) 344-6567",
    "rating": 3.8,
    "reviews": 25,
    "website": "http://www.thealaskaclub.com/",
    "category": "Atheist-owned Prenatal fitness in Alaska",
    "description": "Part of a larger fitness club chain, offering various fitness programs",
    "hours": "Mon-Fri 9AM-6PM",
    "services": [
      "Atheist-owned Prenatal fitness in Alaska consultation",
      "Professional service",
      "Quality guarantee"
    ],
    "social_links": {}
  },
  {
    "name": "The Alaska Club Eagle River",
    "address": "12001 Business Blvd, Eagle River, AK 99577, United States",
    "phone": "(907) 694-6677",
    "rating": 4.1,
    "reviews": 25,
    "website": "http://www.thealaskaclub.com/",
    "category": "Atheist-owned Prenatal fitness in Alaska",
    "description": "A fitness facility providing a variety of exercise options",
    "hours": "Mon-Fri 9AM-6PM",
    "services": [
      "Atheist-owned Prenatal fitness in Alaska consultation",
      "Professional service",
      "Quality guarantee"
    ],
    "social_links": {}
  },
  {
    "name": "Southside Strength and Fitness",
    "address": "11901 Industry Way bld A, Anchorage, AK 99515, United States",
    "phone": "(907) 771-9881",
    "rating": 4.8,
    "reviews": 25,
    "website": "http://www.southsidestrengthandfitness.com/",
    "category": "Atheist-owned Prenatal fitness in Alaska",
    "description": "A highly-rated gym offering strength and fitness training",
    "hours": "Mon-Fri 9AM-6PM",
    "services": [
      "Atheist-owned Prenatal fitness in Alaska consultation",
      "Professional service",
      "Quality guarantee"
    ],
    "social_links": {}
  },
  {
    "name": "Orangetheory Fitness",
    "address": "345 W 104th Ave, Anchorage, AK 99515, United States",
    "phone": "(907) 519-0077",
    "rating": 4.8,
    "reviews": 25,
    "website": "http://www.orangetheory.com/",
    "category": "Atheist-owned Prenatal fitness in Alaska",
    "description": "A fitness studio offering group workouts focused on heart rate-based training",
    "hours": "Mon-Fri 9AM-6PM",
    "services": [
      "Atheist-owned Prenatal fitness in Alaska consultation",
      "Professional service",
      "Quality guarantee"
    ],
    "social_links": {}
  }
]