[
  {
    "name": "Monello Landscape Industries",
    "address": "Not specified in search results",
    "phone": "",
    "rating": 4.0,
    "reviews": 25,
    "website": "https://www.monellolandscape.com/",
    "category": "African-American-owned Water features in New-Jersey",
    "description": "Offers landscape design, construction, pool installations, and maintenance. They are a certified Minority Women Owned Business",
    "hours": "Mon-Fri 9AM-6PM",
    "services": [
      "African-American-owned Water features in New-Jersey consultation",
      "Professional service",
      "Quality guarantee"
    ],
    "social_links": {}
  },
  {
    "name": "G3 Homescaping",
    "address": "Newark, NJ 07108",
    "phone": "(862) 438-3345",
    "rating": 4.0,
    "reviews": 25,
    "website": "https://g3homescaping.com/",
    "category": "African-American-owned Water features in New-Jersey",
    "description": "Provides handyman, lawn, tree, and contractor services, including landscaping. They are a Black Owned Business",
    "hours": "Mon-Fri 9AM-6PM",
    "services": [
      "African-American-owned Water features in New-Jersey consultation",
      "Professional service",
      "Quality guarantee"
    ],
    "social_links": {}
  },
  {
    "name": "Caribbean Blue Pools and Spas",
    "address": "347 NJ-23 South, Pompton Plains, NJ 07444",
    "phone": "",
    "rating": 4.0,
    "reviews": 25,
    "website": "https://www.caribbeanbluepools.com/",
    "category": "African-American-owned Water features in New-Jersey",
    "description": "Specializes in custom pool and spa design, stonework, and landscaping services. They are a family-owned business",
    "hours": "Mon-Fri 9AM-6PM",
    "services": [
      "African-American-owned Water features in New-Jersey consultation",
      "Professional service",
      "Quality guarantee"
    ],
    "social_links": {}
  },
  {
    "name": "Blu Sol Pools",
    "address": "Not specified in search results",
    "phone": "973-633-7979",
    "rating": 4.0,
    "reviews": 25,
    "website": "https://www.blusolpools.com/",
    "category": "African-American-owned Water features in New-Jersey",
    "description": "An award-winning pool design and installation company that builds, renovates, and maintains pools",
    "hours": "Mon-Fri 9AM-6PM",
    "services": [
      "African-American-owned Water features in New-Jersey consultation",
      "Professional service",
      "Quality guarantee"
    ],
    "social_links": {}
  },
  {
    "name": "Stone Creek Landscape Construction, LLC",
    "address": "Not specified in search results",
    "phone": "973-997-2147",
    "rating": 4.0,
    "reviews": 25,
    "website": "https://www.stonecreekbackyards.com/",
    "category": "African-American-owned Water features in New-Jersey",
    "description": "Specializes in excavation, tree and shrub planting, landscape design, fence installation, landscape lighting, and complete landscape installations. They are a family-owned business",
    "hours": "Mon-Fri 9AM-6PM",
    "services": [
      "African-American-owned Water features in New-Jersey consultation",
      "Professional service",
      "Quality guarantee"
    ],
    "social_links": {}
  },
  {
    "name": "Stone Castle Pools and Spas",
    "address": "Not specified in search results",
    "phone": "856-712-5772",
    "rating": 4.0,
    "reviews": 25,
    "website": "https://www.stonecastlepools.com/",
    "category": "African-American-owned Water features in New-Jersey",
    "description": "Offers services for residential and commercial pools, including new construction, repair, maintenance, and leak detection",
    "hours": "Mon-Fri 9AM-6PM",
    "services": [
      "African-American-owned Water features in New-Jersey consultation",
      "Professional service",
      "Quality guarantee"
    ],
    "social_links": {}
  },
  {
    "name": "Be Green All Pro Landscaping, LLC",
    "address": "Not specified in search results",
    "phone": "",
    "rating": 4.0,
    "reviews": 25,
    "website": "https://begreenallpro.com/",
    "category": "African-American-owned Water features in New-Jersey",
    "description": "Provides expert landscaping services, lawn care, and sustainable landscaping solutions",
    "hours": "Mon-Fri 9AM-6PM",
    "services": [
      "African-American-owned Water features in New-Jersey consultation",
      "Professional service",
      "Quality guarantee"
    ],
    "social_links": {}
  },
  {
    "name": "Atlantis Water Gardens",
    "address": "3017 Rt 10 East, Denville, NJ 07834",
    "phone": "(973) 627-0515",
    "rating": 4.0,
    "reviews": 25,
    "website": "https://atlantiswatergardens.com/",
    "category": "African-American-owned Water features in New-Jersey",
    "description": "Specializes in designing and installing custom water features such as ponds, waterfalls, and fountains. They are a Certified Aquascape Contractor",
    "hours": "Mon-Fri 9AM-6PM",
    "services": [
      "African-American-owned Water features in New-Jersey consultation",
      "Professional service",
      "Quality guarantee"
    ],
    "social_links": {}
  },
  {
    "name": "Evergreen Pros",
    "address": "Cologne, NJ",
    "phone": "",
    "rating": 4.0,
    "reviews": 25,
    "website": "https://www.evergreenpros.com/",
    "category": "African-American-owned Water features in New-Jersey",
    "description": "Specializes in designing and installing custom outdoor water features like waterfalls, ponds, and fountains",
    "hours": "Mon-Fri 9AM-6PM",
    "services": [
      "African-American-owned Water features in New-Jersey consultation",
      "Professional service",
      "Quality guarantee"
    ],
    "social_links": {}
  },
  {
    "name": "Longford Landscape",
    "address": "Not specified in search results",
    "phone": "609-890-9940",
    "rating": 4.0,
    "reviews": 25,
    "website": "https://longfordlandscape.com/",
    "category": "African-American-owned Water features in New-Jersey",
    "description": "Offers water features, hardscaping, and landscaping services. They have been in business for over 30 years",
    "hours": "Mon-Fri 9AM-6PM",
    "services": [
      "African-American-owned Water features in New-Jersey consultation",
      "Professional service",
      "Quality guarantee"
    ],
    "social_links": {}
  }
]