[
  {
    "name": "SWCA Environmental Consultants",
    "address": "3401 Candelaria Rd NE, Albuquerque, NM 87107",
    "phone": "(505) 344-3600",
    "rating": 4.0,
    "reviews": 25,
    "website": "https://www.swca.com/",
    "category": "Hispanic-owned Regulatory compliance in New-Mexico",
    "description": "Environmental consulting firm guiding clients through compliance with scientific expertise",
    "hours": "Mon-Fri 9AM-6PM",
    "services": [
      "Hispanic-owned Regulatory compliance in New-Mexico consultation",
      "Professional service",
      "Quality guarantee"
    ],
    "social_links": {}
  },
  {
    "name": "Barr Engineering Co.",
    "address": "320 Osuna Rd NE, Suite G-4, Albuquerque, NM 87107",
    "phone": "(505) 954-1570",
    "rating": 4.0,
    "reviews": 25,
    "website": "https://www.barr.com/",
    "category": "Hispanic-owned Regulatory compliance in New-Mexico",
    "description": "Offers integrated environmental and engineering services, including environmental compliance",
    "hours": "Mon-Fri 9AM-6PM",
    "services": [
      "Hispanic-owned Regulatory compliance in New-Mexico consultation",
      "Professional service",
      "Quality guarantee"
    ],
    "social_links": {}
  },
  {
    "name": "Adkins Consulting, Inc.",
    "address": "1111 Main Ave, Durango, CO 81301 (serves New Mexico)",
    "phone": "(970) 259-0966",
    "rating": 4.0,
    "reviews": 25,
    "website": "https://adkinsconsultinginc.com/",
    "category": "Hispanic-owned Regulatory compliance in New-Mexico",
    "description": "Environmental and archaeological consulting company providing permitting and regulatory services",
    "hours": "Mon-Fri 9AM-6PM",
    "services": [
      "Hispanic-owned Regulatory compliance in New-Mexico consultation",
      "Professional service",
      "Quality guarantee"
    ],
    "social_links": {}
  },
  {
    "name": "Summit Health, Safety, and Industrial Hygiene Services",
    "address": "1300 Mountain Rd NW, Albuquerque, NM 87104",
    "phone": "(505) 247-0101",
    "rating": 4.0,
    "reviews": 25,
    "website": "https://www.summitsafety.com/",
    "category": "Hispanic-owned Regulatory compliance in New-Mexico",
    "description": "Provides OSHA compliance consulting and safety management services",
    "hours": "Mon-Fri 9AM-6PM",
    "services": [
      "Hispanic-owned Regulatory compliance in New-Mexico consultation",
      "Professional service",
      "Quality guarantee"
    ],
    "social_links": {}
  },
  {
    "name": "Safety Counselling, Inc.",
    "address": "10000 Copper Ave NE, Albuquerque, NM 87123",
    "phone": "(505) 821-1111",
    "rating": 4.0,
    "reviews": 25,
    "website": "https://safetycounselling.com/",
    "category": "Hispanic-owned Regulatory compliance in New-Mexico",
    "description": "Offers safety consulting and training in New Mexico for over 48 years",
    "hours": "Mon-Fri 9AM-6PM",
    "services": [
      "Hispanic-owned Regulatory compliance in New-Mexico consultation",
      "Professional service",
      "Quality guarantee"
    ],
    "social_links": {}
  },
  {
    "name": "Britannia Environmental Consulting (BEC)",
    "address": "320 Osuna Rd NE, Suite G-4, Albuquerque, NM 87107",
    "phone": "(505) 954-1570",
    "rating": 4.0,
    "reviews": 25,
    "website": "https://www.britanniaenvironmental.com/",
    "category": "Hispanic-owned Regulatory compliance in New-Mexico",
    "description": "Environmental consulting firm providing water and environmental planning, management, and remediation services. They are a certified Woman-Owned Small Business",
    "hours": "Mon-Fri 9AM-6PM",
    "services": [
      "Hispanic-owned Regulatory compliance in New-Mexico consultation",
      "Professional service",
      "Quality guarantee"
    ],
    "social_links": {}
  },
  {
    "name": "Elite Compliance Services, LLC",
    "address": "PO Box 3521, Hobbs, NM 88241",
    "phone": "(575) 397-0595",
    "rating": 4.0,
    "reviews": 25,
    "website": "https://elitecomplianceservices.com/",
    "category": "Hispanic-owned Regulatory compliance in New-Mexico",
    "description": "Professional bookkeeping and compliance services, specializing in DOT compliance, bookkeeping, and income tax services",
    "hours": "Mon-Fri 9AM-6PM",
    "services": [
      "Hispanic-owned Regulatory compliance in New-Mexico consultation",
      "Professional service",
      "Quality guarantee"
    ],
    "social_links": {}
  },
  {
    "name": "Legacy Safety and Consulting",
    "address": "Multiple locations including Hobbs, NM",
    "phone": "(432) 352-5600 (Hobbs, NM)",
    "rating": 4.0,
    "reviews": 25,
    "website": "https://legacysafetyandconsulting.com/",
    "category": "Hispanic-owned Regulatory compliance in New-Mexico",
    "description": "Provides industrial safety solutions and consulting services",
    "hours": "Mon-Fri 9AM-6PM",
    "services": [
      "Hispanic-owned Regulatory compliance in New-Mexico consultation",
      "Professional service",
      "Quality guarantee"
    ],
    "social_links": {}
  },
  {
    "name": "New Mexico Taxation and Revenue Department - Audit and Compliance Division",
    "address": "Multiple district offices across New Mexico. The main contact is via the Tax Call Center",
    "phone": "1-866-285-2996",
    "rating": 4.0,
    "reviews": 25,
    "website": "https://www.tax.newmexico.gov/businesses/audit-and-compliance-division/",
    "category": "Hispanic-owned Regulatory compliance in New-Mexico",
    "description": "State agency ensuring compliance with tax programs through audits, issue resolution, and collection activities. Offers workshops, some in Spanish",
    "hours": "Mon-Fri 9AM-6PM",
    "services": [
      "Hispanic-owned Regulatory compliance in New-Mexico consultation",
      "Professional service",
      "Quality guarantee"
    ],
    "social_links": {}
  },
  {
    "name": "My RIA Lawyer",
    "address": "Serves New Mexico clients remotely",
    "phone": "(855) 954-4320",
    "rating": 4.0,
    "reviews": 25,
    "website": "https://myriawyer.com/new-mexico-ria-compliance/",
    "category": "Hispanic-owned Regulatory compliance in New-Mexico",
    "description": "Provides outsourced compliance services and legal solutions for SEC-registered investment advisors in New Mexico",
    "hours": "Mon-Fri 9AM-6PM",
    "services": [
      "Hispanic-owned Regulatory compliance in New-Mexico consultation",
      "Professional service",
      "Quality guarantee"
    ],
    "social_links": {}
  }
]