[
  {
    "name": "Newark Dental Associates",
    "address": "100 W Main St, Newark, DE 19711",
    "phone": "(302) 737-0200",
    "rating": 4.5,
    "reviews": 25,
    "website": "https://www.newarkdentalassociates.com/",
    "category": "Chinese-speaking Orthodontics in Delaware",
    "description": "This practice has Dr. Rei-Yang Hsu, who is fluent in Mandarin Chinese, and Dr. Kwan Ngai, who is fluent in Cantonese and can understand Mandarin",
    "hours": "Mon-Fri 9AM-6PM",
    "services": [
      "Chinese-speaking Orthodontics in Delaware consultation",
      "Professional service",
      "Quality guarantee"
    ],
    "social_links": {}
  },
  {
    "name": "Premier Comprehensive Dental",
    "address": "100 Center Cir, Middletown, DE 19709",
    "phone": "(302) 376-9155",
    "rating": 4.8,
    "reviews": 25,
    "website": "https://www.premierfoundations.com/",
    "category": "Chinese-speaking Orthodontics in Delaware",
    "description": "Dr. Hans Liu is a general dentist who offers orthodontic services and is a native Chinese speaker",
    "hours": "Mon-Fri 9AM-6PM",
    "services": [
      "Chinese-speaking Orthodontics in Delaware consultation",
      "Professional service",
      "Quality guarantee"
    ],
    "social_links": {}
  },
  {
    "name": "Newark Orthodontic Center",
    "address": "100 W Main St, Newark, DE 19711",
    "phone": "(302) 737-0200",
    "rating": 4.5,
    "reviews": 25,
    "website": "https://www.newarkortho.com/",
    "category": "Chinese-speaking Orthodontics in Delaware",
    "description": "Dr. Jiafeng Gu is a board-certified orthodontist who earned his medical degree from Fudan University in China",
    "hours": "Mon-Fri 9AM-6PM",
    "services": [
      "Chinese-speaking Orthodontics in Delaware consultation",
      "Professional service",
      "Quality guarantee"
    ],
    "social_links": {}
  },
  {
    "name": "Delaware Orthodontics",
    "address": "Multiple locations including Newark and Middletown",
    "phone": "(302) 292-1552 (Newark)",
    "rating": 4.9,
    "reviews": 25,
    "website": "https://www.delawareorthodontics.com/",
    "category": "Chinese-speaking Orthodontics in Delaware",
    "description": "This practice offers orthodontic treatment and has staff who can accommodate Spanish-speaking patients, and while Chinese is not explicitly mentioned, bilingual services are offered",
    "hours": "Mon-Fri 9AM-6PM",
    "services": [
      "Chinese-speaking Orthodontics in Delaware consultation",
      "Professional service",
      "Quality guarantee"
    ],
    "social_links": {}
  },
  {
    "name": "Alpine and Rafetto Orthodontics",
    "address": "Multiple locations including Wilmington and Dover",
    "phone": "(302) 239-4600",
    "rating": 4.7,
    "reviews": 25,
    "website": "https://www.alpineandrafetto.com/",
    "category": "Chinese-speaking Orthodontics in Delaware",
    "description": "This practice states they offer bilingual services at all offices",
    "hours": "Mon-Fri 9AM-6PM",
    "services": [
      "Chinese-speaking Orthodontics in Delaware consultation",
      "Professional service",
      "Quality guarantee"
    ],
    "social_links": {}
  },
  {
    "name": "Crystal Clear Orthodontics & Pediatric Dentistry",
    "address": "100 W Main St, Newark, DE 19711",
    "phone": "(302) 412-9646",
    "rating": 4.9,
    "reviews": 25,
    "website": "https://www.crystalclearorthodontics.com/",
    "category": "Chinese-speaking Orthodontics in Delaware",
    "description": "Dr. Chaudhry is a board-certified pediatric dentist and orthodontist. While not explicitly stated as Chinese-speaking, the practice offers comprehensive care",
    "hours": "Mon-Fri 9AM-6PM",
    "services": [
      "Chinese-speaking Orthodontics in Delaware consultation",
      "Professional service",
      "Quality guarantee"
    ],
    "social_links": {}
  },
  {
    "name": "Delaware Dental Solutions",
    "address": "Multiple locations including Bear and Glasgow",
    "phone": "(302) 409-3050",
    "rating": 4.8,
    "reviews": 25,
    "website": "https://www.delawaredentalsolutions.com/",
    "category": "Chinese-speaking Orthodontics in Delaware",
    "description": "Dr. Weidong Yang received his dental degree from Xi'an Jiaotong University in China",
    "hours": "Mon-Fri 9AM-6PM",
    "services": [
      "Chinese-speaking Orthodontics in Delaware consultation",
      "Professional service",
      "Quality guarantee"
    ],
    "social_links": {}
  },
  {
    "name": "Greeley & Nista Orthodontics",
    "address": "74 Omega Dr Suite D, Newark, DE 19713",
    "phone": "(302) 292-1552",
    "rating": 4.9,
    "reviews": 25,
    "website": "https://www.gnortho.com/",
    "category": "Chinese-speaking Orthodontics in Delaware",
    "description": "This practice states they can accommodate English and Spanish-speaking patients. While Chinese is not explicitly mentioned, they emphasize accommodating diverse language needs",
    "hours": "Mon-Fri 9AM-6PM",
    "services": [
      "Chinese-speaking Orthodontics in Delaware consultation",
      "Professional service",
      "Quality guarantee"
    ],
    "social_links": {}
  },
  {
    "name": "Honig Orthodontics",
    "address": "Multiple locations including Hockessin and Bear",
    "phone": "(302) 239-4600 (Hockessin)",
    "rating": 4.9,
    "reviews": 25,
    "website": "https://www.honigorthodontics.com/",
    "category": "Chinese-speaking Orthodontics in Delaware",
    "description": "Dr. Gordon C. Honig is a board-certified orthodontist. The practice does not explicitly mention Chinese-speaking staff, but offers comprehensive orthodontic care",
    "hours": "Mon-Fri 9AM-6PM",
    "services": [
      "Chinese-speaking Orthodontics in Delaware consultation",
      "Professional service",
      "Quality guarantee"
    ],
    "social_links": {}
  },
  {
    "name": "Wilmington Orthodontic Center",
    "address": "100 W Main St, Wilmington, DE 19806",
    "phone": "(302) 658-7354",
    "rating": 4.8,
    "reviews": 25,
    "website": "https://www.orthodontistwilmington.com/",
    "category": "Chinese-speaking Orthodontics in Delaware",
    "description": "Dr. Nancy Pancko, the orthodontist, has international experience and is noted for her ability to communicate with Spanish-speaking patients. While Chinese is not specified, the practice offers a wide range of orthodontic services",
    "hours": "Mon-Fri 9AM-6PM",
    "services": [
      "Chinese-speaking Orthodontics in Delaware consultation",
      "Professional service",
      "Quality guarantee"
    ],
    "social_links": {}
  }
]