[
  {
    "name": "Kaplan and Kaplan",
    "address": "146 Main St, Burlington, VT 05401",
    "phone": "(802) 862-1222",
    "rating": 4.0,
    "reviews": 25,
    "website": "https://www.kaplankaplan.com/",
    "category": "Baby-Boomer-owned Criminal defense in Vermont",
    "description": "This firm has a long-standing history in Vermont, founded in 1948 by a World War II veteran. They specialize in criminal defense, personal injury, and business litigation",
    "hours": "Mon-Fri 9AM-6PM",
    "services": [
      "Baby-Boomer-owned Criminal defense in Vermont consultation",
      "Professional service",
      "Quality guarantee"
    ],
    "social_links": {}
  },
  {
    "name": "Handy Law",
    "address": "159 N Winooski Ave, Burlington, VT 05401",
    "phone": "(802) 373-9201",
    "rating": 5.0,
    "reviews": 25,
    "website": "https://www.handylawvt.com/",
    "category": "Baby-Boomer-owned Criminal defense in Vermont",
    "description": "Handy Law is recognized as the highest Google-rated criminal defense law firm in Vermont, focusing on DUI, drug charges, domestic assault, fraud, and murder cases",
    "hours": "Mon-Fri 9AM-6PM",
    "services": [
      "Baby-Boomer-owned Criminal defense in Vermont consultation",
      "Professional service",
      "Quality guarantee"
    ],
    "social_links": {}
  },
  {
    "name": "Burke Law",
    "address": "1 Church St Suite 401, Burlington, VT 05401",
    "phone": "(802) 881-5001",
    "rating": 4.0,
    "reviews": 25,
    "website": "https://burkelawvt.com/",
    "category": "Baby-Boomer-owned Criminal defense in Vermont",
    "description": "Burke Law offers experienced representation in DUI defense, criminal defense, and expungements and sealings, emphasizing a personalized approach",
    "hours": "Mon-Fri 9AM-6PM",
    "services": [
      "Baby-Boomer-owned Criminal defense in Vermont consultation",
      "Professional service",
      "Quality guarantee"
    ],
    "social_links": {}
  },
  {
    "name": "Marsicovetere & Levine Law Group, P.C.",
    "address": "105 S Main St, White River Junction, VT 05001",
    "phone": "(802) 295-5353",
    "rating": 4.0,
    "reviews": 25,
    "website": "https://www.mllg-law.com/",
    "category": "Baby-Boomer-owned Criminal defense in Vermont",
    "description": "With over 30 years of experience, this firm provides legal representation in criminal defense, personal injury, family law, and probate law across Vermont and New Hampshire",
    "hours": "Mon-Fri 9AM-6PM",
    "services": [
      "Baby-Boomer-owned Criminal defense in Vermont consultation",
      "Professional service",
      "Quality guarantee"
    ],
    "social_links": {}
  },
  {
    "name": "Langrock, Sperry & Wool, LLP",
    "address": "158 South St, Middlebury, VT 05753",
    "phone": "(802) 388-6351",
    "rating": 4.0,
    "reviews": 25,
    "website": "https://www.langrock.com/",
    "category": "Baby-Boomer-owned Criminal defense in Vermont",
    "description": "This firm is listed as a top criminal defense law firm in Vermont, offering a wide range of legal services",
    "hours": "Mon-Fri 9AM-6PM",
    "services": [
      "Baby-Boomer-owned Criminal defense in Vermont consultation",
      "Professional service",
      "Quality guarantee"
    ],
    "social_links": {}
  },
  {
    "name": "Murdoch, Hughes, Twarog & Tarnelli, Attorneys at Law PC",
    "address": "100 Dorset St Suite 2A, South Burlington, VT 05403",
    "phone": "(802) 864-7100",
    "rating": 4.0,
    "reviews": 25,
    "website": "https://www.mhtpc.com/",
    "category": "Baby-Boomer-owned Criminal defense in Vermont",
    "description": "A listed criminal defense law firm in Vermont, they provide legal representation for various criminal matters",
    "hours": "Mon-Fri 9AM-6PM",
    "services": [
      "Baby-Boomer-owned Criminal defense in Vermont consultation",
      "Professional service",
      "Quality guarantee"
    ],
    "social_links": {}
  },
  {
    "name": "Jason J. Sawyer, Attorney and Counselor at Law",
    "address": "109 S Winooski Ave, Burlington, VT 05401",
    "phone": "(802) 864-3355",
    "rating": 4.0,
    "reviews": 25,
    "website": "https://www.jasonsawyerlaw.com/",
    "category": "Baby-Boomer-owned Criminal defense in Vermont",
    "description": "Jason Sawyer has extensive experience representing Vermonters in cases ranging from misdemeanors to serious felonies and has been a member of the Criminal Justice Act Panel for the District of Vermont since 2004",
    "hours": "Mon-Fri 9AM-6PM",
    "services": [
      "Baby-Boomer-owned Criminal defense in Vermont consultation",
      "Professional service",
      "Quality guarantee"
    ],
    "social_links": {}
  },
  {
    "name": "Albie Fox",
    "address": "100 Frost St, Brattleboro, VT 05301",
    "phone": "(802) 257-5550",
    "rating": 4.0,
    "reviews": 25,
    "website": "https://www.google.com/maps/search/Albie+Fox+in+Vermont",
    "category": "Baby-Boomer-owned Criminal defense in Vermont",
    "description": "Albie Fox is listed as one of the best criminal defense attorneys in Vermont",
    "hours": "Mon-Fri 9AM-6PM",
    "services": [
      "Baby-Boomer-owned Criminal defense in Vermont consultation",
      "Professional service",
      "Quality guarantee"
    ],
    "social_links": {}
  },
  {
    "name": "Mark A. Kaplan",
    "address": "1 Church St Suite 401, Burlington, VT 05401",
    "phone": "(802) 864-3355",
    "rating": 4.0,
    "reviews": 25,
    "website": "https://www.google.com/maps/search/Mark+A.+Kaplan+in+Vermont",
    "category": "Baby-Boomer-owned Criminal defense in Vermont",
    "description": "Mark A. Kaplan is listed as one of the best criminal defense attorneys in Vermont",
    "hours": "Mon-Fri 9AM-6PM",
    "services": [
      "Baby-Boomer-owned Criminal defense in Vermont consultation",
      "Professional service",
      "Quality guarantee"
    ],
    "social_links": {}
  },
  {
    "name": "William E. Kraham, Attorney and Counselor at Law",
    "address": "15 Grove St, Brattleboro, VT 05302",
    "phone": "(802) 258-2550",
    "rating": 4.0,
    "reviews": 25,
    "website": "https://www.vtlex.com/",
    "category": "Baby-Boomer-owned Criminal defense in Vermont",
    "description": "With over 34 years of experience, William E. Kraham focuses on preserving clients' rights in criminal defense, divorce, family law, and personal injury cases",
    "hours": "Mon-Fri 9AM-6PM",
    "services": [
      "Baby-Boomer-owned Criminal defense in Vermont consultation",
      "Professional service",
      "Quality guarantee"
    ],
    "social_links": {}
  }
]