[
  {
    "name": "Alderwood Endodontics",
    "address": "19020 33rd Ave W Ste 320, Lynnwood, WA 98036-4748",
    "phone": "(425) 774-4111",
    "rating": 4.0,
    "reviews": 25,
    "website": "http://www.alderwoodendo.com/",
    "category": "Chinese-speaking Endodontics in Washington",
    "description": "Dr. Grace Hsiao Wu practices here and speaks Chinese",
    "hours": "Mon-Fri 9AM-6PM",
    "services": [
      "Chinese-speaking Endodontics in Washington consultation",
      "Professional service",
      "Quality guarantee"
    ],
    "social_links": {}
  },
  {
    "name": "Lakeside Endodontics",
    "address": "10025 19th Ave SE, Everett, WA 98208-4275",
    "phone": "(425) 357-8747",
    "rating": 4.0,
    "reviews": 25,
    "website": "http://www.lakesideendo.com/",
    "category": "Chinese-speaking Endodontics in Washington",
    "description": "Dr. Shahin Etemadi practices here and speaks Taiwanese. Dr. Stephanie Chen also practices here and speaks Mandarin",
    "hours": "Mon-Fri 9AM-6PM",
    "services": [
      "Chinese-speaking Endodontics in Washington consultation",
      "Professional service",
      "Quality guarantee"
    ],
    "social_links": {}
  },
  {
    "name": "Martha Lake Dental Center",
    "address": "1233 164th St SW Ste H, Lynnwood, WA 98087-8193",
    "phone": "(425) 745-3456",
    "rating": 4.0,
    "reviews": 25,
    "website": "http://www.marthalakedental.com/",
    "category": "Chinese-speaking Endodontics in Washington",
    "description": "Dr. James Liu practices here and speaks Mandarin",
    "hours": "Mon-Fri 9AM-6PM",
    "services": [
      "Chinese-speaking Endodontics in Washington consultation",
      "Professional service",
      "Quality guarantee"
    ],
    "social_links": {}
  },
  {
    "name": "Peak Endodontics",
    "address": "Multiple locations, including Covington and Federal Way",
    "phone": "(253) 838-0300 (Federal Way)",
    "rating": 4.0,
    "reviews": 25,
    "website": "http://www.peakendo.com/",
    "category": "Chinese-speaking Endodontics in Washington",
    "description": "Dr. James Cheng-I Lin and Dr. Hsuan Hsia practice here. Dr. Lin speaks Mandarin, and Dr. Hsia speaks Mandarin",
    "hours": "Mon-Fri 9AM-6PM",
    "services": [
      "Chinese-speaking Endodontics in Washington consultation",
      "Professional service",
      "Quality guarantee"
    ],
    "social_links": {}
  },
  {
    "name": "Vancouver Endodontics",
    "address": "801 NE 99th St, Vancouver, WA 98685",
    "phone": "(360) 695-4400",
    "rating": 4.0,
    "reviews": 25,
    "website": "http://www.vancouverendo.com/",
    "category": "Chinese-speaking Endodontics in Washington",
    "description": "Dr. Chao Shen practices here",
    "hours": "Mon-Fri 9AM-6PM",
    "services": [
      "Chinese-speaking Endodontics in Washington consultation",
      "Professional service",
      "Quality guarantee"
    ],
    "social_links": {}
  },
  {
    "name": "Renton Modern Dentistry",
    "address": "1500 Rainier Ave S, Renton, WA 98057",
    "phone": "(425) 271-0400",
    "rating": 4.0,
    "reviews": 25,
    "website": "http://www.rentonmoderndentistry.com/",
    "category": "Chinese-speaking Endodontics in Washington",
    "description": "Dr. Yen-Tung Chen practices here and is an endodontist",
    "hours": "Mon-Fri 9AM-6PM",
    "services": [
      "Chinese-speaking Endodontics in Washington consultation",
      "Professional service",
      "Quality guarantee"
    ],
    "social_links": {}
  },
  {
    "name": "Tacoma Smiles Dentistry",
    "address": "1005 S 72nd St, Tacoma, WA 98408",
    "phone": "(253) 473-0000",
    "rating": 4.0,
    "reviews": 25,
    "website": "http://www.tacomasmilesdentistry.com/",
    "category": "Chinese-speaking Endodontics in Washington",
    "description": "Dr. Hsuan \"Scott\" Hsia practices here and is an endodontist",
    "hours": "Mon-Fri 9AM-6PM",
    "services": [
      "Chinese-speaking Endodontics in Washington consultation",
      "Professional service",
      "Quality guarantee"
    ],
    "social_links": {}
  },
  {
    "name": "Endodontics Seattle",
    "address": "509 Olive Way, Suite 1633, Seattle, WA 98101",
    "phone": "(206) 624-8313",
    "rating": 4.0,
    "reviews": 25,
    "website": "http://www.seattle-endo.com/",
    "category": "Chinese-speaking Endodontics in Washington",
    "description": "Dr. Michael Kang and Dr. David Kang practice here",
    "hours": "Mon-Fri 9AM-6PM",
    "services": [
      "Chinese-speaking Endodontics in Washington consultation",
      "Professional service",
      "Quality guarantee"
    ],
    "social_links": {}
  },
  {
    "name": "Willamette Dental Group - Seattle North",
    "address": "10700 Meridian Ave N, Seattle, WA 98133",
    "phone": "(206) 364-4000",
    "rating": 4.0,
    "reviews": 25,
    "website": "http://www.willamettedental.com/locations/seattle-north/",
    "category": "Chinese-speaking Endodontics in Washington",
    "description": "Dr. Hong Li practices here and speaks Mandarin",
    "hours": "Mon-Fri 9AM-6PM",
    "services": [
      "Chinese-speaking Endodontics in Washington consultation",
      "Professional service",
      "Quality guarantee"
    ],
    "social_links": {}
  },
  {
    "name": "Endodontics Northwest",
    "address": "Multiple locations in Seattle and Edmonds",
    "phone": "(206) 525-1515 (Northgate)",
    "rating": 4.0,
    "reviews": 25,
    "website": "http://www.endo-nw.com/",
    "category": "Chinese-speaking Endodontics in Washington",
    "description": "Dr. Maryam Aminian practices here",
    "hours": "Mon-Fri 9AM-6PM",
    "services": [
      "Chinese-speaking Endodontics in Washington consultation",
      "Professional service",
      "Quality guarantee"
    ],
    "social_links": {}
  }
]