[
  {
    "name": "VVS Financial Services",
    "address": "Philadelphia, PA",
    "phone": "775-277-7752",
    "rating": 4.0,
    "reviews": 25,
    "website": "https://www.google.com/maps/search/VVS+Financial+Services+in+Pennsylvania",
    "category": "Asian-owned Tax planning in Pennsylvania",
    "description": "Offers accounting and tax return preparation services",
    "hours": "Mon-Fri 9AM-6PM",
    "services": [
      "Asian-owned Tax planning in Pennsylvania consultation",
      "Professional service",
      "Quality guarantee"
    ],
    "social_links": {}
  },
  {
    "name": "Trident Financial Consultants",
    "address": "Philadelphia, PA and Pittsburgh, PA",
    "phone": "310-912-7663",
    "rating": 4.0,
    "reviews": 25,
    "website": "https://www.google.com/maps/search/Trident+Financial+Consultants+in+Pennsylvania",
    "category": "Asian-owned Tax planning in Pennsylvania",
    "description": "Provides financial consulting services",
    "hours": "Mon-Fri 9AM-6PM",
    "services": [
      "Asian-owned Tax planning in Pennsylvania consultation",
      "Professional service",
      "Quality guarantee"
    ],
    "social_links": {}
  },
  {
    "name": "NSKT Global",
    "address": "Serving Philadelphia, PA",
    "phone": "318-722-2221",
    "rating": 4.0,
    "reviews": 25,
    "website": "https://www.google.com/maps/search/NSKT+Global+in+Pennsylvania",
    "category": "Asian-owned Tax planning in Pennsylvania",
    "description": "Offers accounting services and more",
    "hours": "Mon-Fri 9AM-6PM",
    "services": [
      "Asian-owned Tax planning in Pennsylvania consultation",
      "Professional service",
      "Quality guarantee"
    ],
    "social_links": {}
  },
  {
    "name": "Adhvya",
    "address": "Philadelphia, PA and serving Allentown, PA and Bethlehem, PA",
    "phone": "848-225-8847",
    "rating": 4.0,
    "reviews": 25,
    "website": "https://www.google.com/maps/search/Adhvya+in+Pennsylvania",
    "category": "Asian-owned Tax planning in Pennsylvania",
    "description": "A professional accounting and tax services firm",
    "hours": "Mon-Fri 9AM-6PM",
    "services": [
      "Asian-owned Tax planning in Pennsylvania consultation",
      "Professional service",
      "Quality guarantee"
    ],
    "social_links": {}
  },
  {
    "name": "Manage My Taxes Inc",
    "address": "Serving the Philadelphia Area",
    "phone": "773-886-1257",
    "rating": 4.0,
    "reviews": 25,
    "website": "https://www.google.com/maps/search/Manage+My+Taxes+Inc+in+Pennsylvania",
    "category": "Asian-owned Tax planning in Pennsylvania",
    "description": "Provides online and professional tax preparation, small business consulting, and incorporation services",
    "hours": "Mon-Fri 9AM-6PM",
    "services": [
      "Asian-owned Tax planning in Pennsylvania consultation",
      "Professional service",
      "Quality guarantee"
    ],
    "social_links": {}
  },
  {
    "name": "Gram Tax & Accounting",
    "address": "(Not explicitly provided in search results, but mentioned in a list of \"Best Asian Owned Accountants\")",
    "phone": "",
    "rating": 4.9,
    "reviews": 25,
    "website": "https://www.google.com/maps/search/Gram+Tax+&+Accounting+in+Pennsylvania",
    "category": "Asian-owned Tax planning in Pennsylvania",
    "description": "Specializes in accounting services, tax preparation, and bookkeeping, with a focus on tax planning and financial advisory",
    "hours": "Mon-Fri 9AM-6PM",
    "services": [
      "Asian-owned Tax planning in Pennsylvania consultation",
      "Professional service",
      "Quality guarantee"
    ],
    "social_links": {}
  },
  {
    "name": "SmartBean\u00ae Bookkeeping",
    "address": "(Not explicitly provided in search results, but mentioned in a list of \"Best Asian Owned Accountants\")",
    "phone": "",
    "rating": 5.0,
    "reviews": 25,
    "website": "https://www.google.com/maps/search/SmartBean\u00ae+Bookkeeping+in+Pennsylvania",
    "category": "Asian-owned Tax planning in Pennsylvania",
    "description": "Provides comprehensive bookkeeping and financial services",
    "hours": "Mon-Fri 9AM-6PM",
    "services": [
      "Asian-owned Tax planning in Pennsylvania consultation",
      "Professional service",
      "Quality guarantee"
    ],
    "social_links": {}
  },
  {
    "name": "Samatva Wealth Management LLC",
    "address": "Serving Pittsburgh, PA",
    "phone": "213-444-5613",
    "rating": 4.0,
    "reviews": 25,
    "website": "https://www.google.com/maps/search/Samatva+Wealth+Management+LLC+in+Pennsylvania",
    "category": "Asian-owned Tax planning in Pennsylvania",
    "description": "Offers international tax consulting services",
    "hours": "Mon-Fri 9AM-6PM",
    "services": [
      "Asian-owned Tax planning in Pennsylvania consultation",
      "Professional service",
      "Quality guarantee"
    ],
    "social_links": {}
  },
  {
    "name": "Kumar Accountancy CPA",
    "address": "Pittsburgh, PA",
    "phone": "732-355-3277",
    "rating": 4.0,
    "reviews": 25,
    "website": "https://www.google.com/maps/search/Kumar+Accountancy+CPA+in+Pennsylvania",
    "category": "Asian-owned Tax planning in Pennsylvania",
    "description": "A CPA firm offering tax services",
    "hours": "Mon-Fri 9AM-6PM",
    "services": [
      "Asian-owned Tax planning in Pennsylvania consultation",
      "Professional service",
      "Quality guarantee"
    ],
    "social_links": {}
  },
  {
    "name": "Asian Bank",
    "address": "1023 Race Street 2nd Floor, Philadelphia, PA 19107",
    "phone": "",
    "rating": 4.0,
    "reviews": 25,
    "website": "https://www.google.com/maps/search/Asian+Bank+in+Pennsylvania",
    "category": "Asian-owned Tax planning in Pennsylvania",
    "description": "A community bank serving individuals, organizations, and small businesses with personal and commercial financial products and services. While not exclusively a tax planning firm, they offer financial products and services that can support tax-related financial decisions",
    "hours": "Mon-Fri 9AM-6PM",
    "services": [
      "Asian-owned Tax planning in Pennsylvania consultation",
      "Professional service",
      "Quality guarantee"
    ],
    "social_links": {}
  }
]