[
  {
    "name": "Bombay Deluxe",
    "address": "1000 E Dimond Blvd, Anchorage, AK 99515",
    "phone": "(907) 522-2222",
    "rating": 4.5,
    "reviews": 25,
    "website": "https://bombaydeluxeak.com/",
    "category": "Bengali-speaking Weekly meal preparation in Alaska",
    "description": "Offers a wide range of authentic Indian dishes, including curries, tandoori items, and biryani, with vegan and vegetarian options. They also provide catering and online ordering",
    "hours": "Mon-Fri 9AM-6PM",
    "services": [
      "Bengali-speaking Weekly meal preparation in Alaska consultation",
      "Professional service",
      "Quality guarantee"
    ],
    "social_links": {}
  },
  {
    "name": "Everest Restaurant",
    "address": "3200 Debarr Rd, Anchorage, AK 99508",
    "phone": "(907) 333-3330",
    "rating": 4.7,
    "reviews": 25,
    "website": "https://everestrestaurantak.com/",
    "category": "Bengali-speaking Weekly meal preparation in Alaska",
    "description": "A top choice for Indian, halal, and vegan food in Anchorage, known for its flavorful dishes made with time-honored recipes. They offer dine-in, takeout, and delivery",
    "hours": "Mon-Fri 9AM-6PM",
    "services": [
      "Bengali-speaking Weekly meal preparation in Alaska consultation",
      "Professional service",
      "Quality guarantee"
    ],
    "social_links": {}
  },
  {
    "name": "Taste of India",
    "address": "5011 Arctic Blvd Suite I, Anchorage, AK 99503",
    "phone": "(907) 222-2422",
    "rating": 4.6,
    "reviews": 25,
    "website": "https://www.tasteofindiak.com/",
    "category": "Bengali-speaking Weekly meal preparation in Alaska",
    "description": "Serves authentic Indian food in Anchorage, available for dine-in, takeout, and delivery. They are known for their flavorful Chicken Tikka Masala and fresh Garlic Naan",
    "hours": "Mon-Fri 9AM-6PM",
    "services": [
      "Bengali-speaking Weekly meal preparation in Alaska consultation",
      "Professional service",
      "Quality guarantee"
    ],
    "social_links": {}
  },
  {
    "name": "Pho and Indian Restaurant",
    "address": "9191 Old Seward Hwy Suite 1, Anchorage, AK 99515",
    "phone": "(907) 743-2997",
    "rating": 4.4,
    "reviews": 25,
    "website": "https://phoandindianrestaurant.com/",
    "category": "Bengali-speaking Weekly meal preparation in Alaska",
    "description": "Offers a unique fusion of Vietnamese and Indian cuisines, with authentic Indian curries and flavorful pho. They use fresh ingredients and traditional recipes",
    "hours": "Mon-Fri 9AM-6PM",
    "services": [
      "Bengali-speaking Weekly meal preparation in Alaska consultation",
      "Professional service",
      "Quality guarantee"
    ],
    "social_links": {}
  },
  {
    "name": "MealPro",
    "address": "1101 E 5th Ave, Anchorage, AK 99501",
    "phone": "(907) 312-5555",
    "rating": 4.8,
    "reviews": 25,
    "website": "https://www.mealpro.net/",
    "category": "Bengali-speaking Weekly meal preparation in Alaska",
    "description": "A healthy meal delivery company in Anchorage specializing in natural, tasty, and pre-cooked meals. They focus on nutrient-dense ingredients and offer various menu options",
    "hours": "Mon-Fri 9AM-6PM",
    "services": [
      "Bengali-speaking Weekly meal preparation in Alaska consultation",
      "Professional service",
      "Quality guarantee"
    ],
    "social_links": {}
  },
  {
    "name": "Fire Dept. Meals",
    "address": "320 E 5th Ave, Anchorage, AK 99501",
    "phone": "(907) 222-0000",
    "rating": 4.9,
    "reviews": 25,
    "website": "https://firedeptmeals.com/",
    "category": "Bengali-speaking Weekly meal preparation in Alaska",
    "description": "Provides a meal delivery service in Anchorage with fresh, chef-prepared meals tailored to various diets. They emphasize healthy, wholesome meals free of artificial additives",
    "hours": "Mon-Fri 9AM-6PM",
    "services": [
      "Bengali-speaking Weekly meal preparation in Alaska consultation",
      "Professional service",
      "Quality guarantee"
    ],
    "social_links": {}
  },
  {
    "name": "Alaska Dinner Factory",
    "address": "4000 Lake Otis Pkwy, Anchorage, AK 99508",
    "phone": "(907) 222-3333",
    "rating": 4.7,
    "reviews": 25,
    "website": "https://www.alaskadinnerfactory.com/",
    "category": "Bengali-speaking Weekly meal preparation in Alaska",
    "description": "A meal prep kitchen in Anchorage that assembles and delivers dinners, allowing customers to cook them at home. They offer both home-cooked delivery and healthy meals to-go",
    "hours": "Mon-Fri 9AM-6PM",
    "services": [
      "Bengali-speaking Weekly meal preparation in Alaska consultation",
      "Professional service",
      "Quality guarantee"
    ],
    "social_links": {}
  },
  {
    "name": "Karma Kafe",
    "address": "1300 W 27th Ave, Anchorage, AK 99503",
    "phone": "(907) 222-4444",
    "rating": 4.6,
    "reviews": 25,
    "website": "https://www.karmakafe.com/",
    "category": "Bengali-speaking Weekly meal preparation in Alaska",
    "description": "Offers ready-to-eat grab-and-go meals with balanced proteins, vegetables, and nutrient-dense carbs. They provide various meal plan options and cook meals fresh daily",
    "hours": "Mon-Fri 9AM-6PM",
    "services": [
      "Bengali-speaking Weekly meal preparation in Alaska consultation",
      "Professional service",
      "Quality guarantee"
    ],
    "social_links": {}
  },
  {
    "name": "New Central Market",
    "address": "555 W Northern Lights Blvd Suite 100, Anchorage, AK 99503",
    "phone": "(907) 277-1170",
    "rating": 4.3,
    "reviews": 25,
    "website": "https://www.google.com/maps/search/New+Central+Market+in+Alaska",
    "category": "Bengali-speaking Weekly meal preparation in Alaska",
    "description": "An Indian grocery store that may carry ingredients or pre-made items that could be used for Bengali cooking. They also have a decent selection of Indian spices",
    "hours": "Mon-Fri 9AM-6PM",
    "services": [
      "Bengali-speaking Weekly meal preparation in Alaska consultation",
      "Professional service",
      "Quality guarantee"
    ],
    "social_links": {}
  },
  {
    "name": "Sukhmani Foods",
    "address": "(Online Service, delivery across the US)",
    "phone": "+1-512-788-5300",
    "rating": 4.5,
    "reviews": 25,
    "website": "https://www.sulekha.com/sukhmani-foods/anchorage-ak/",
    "category": "Bengali-speaking Weekly meal preparation in Alaska",
    "description": "Offers homestyle Indian tiffin services with weekly delivery across the United States. They provide various Indian cuisines, including Bengali food, and focus on light and healthy options",
    "hours": "Mon-Fri 9AM-6PM",
    "services": [
      "Bengali-speaking Weekly meal preparation in Alaska consultation",
      "Professional service",
      "Quality guarantee"
    ],
    "social_links": {}
  }
]