[
  {
    "name": "SunCommon",
    "address": "443 North Main Street, Waterbury, VT 05676",
    "phone": "(802) 859-3384",
    "rating": 4.8,
    "reviews": 25,
    "website": "https://suncommon.com/",
    "category": "Central-American-owned Solar panel installation in Vermont",
    "description": "SunCommon is a leading solar installer in Vermont, known for its commitment to making solar energy accessible and affordable. They offer comprehensive services from consultation to installation and maintenance",
    "hours": "Mon-Fri 9AM-6PM",
    "services": [
      "Central-American-owned Solar panel installation in Vermont consultation",
      "Professional service",
      "Quality guarantee"
    ],
    "social_links": {}
  },
  {
    "name": "Green Mountain Solar",
    "address": "102 South Main Street, Suite 101, St. Albans, VT 05478 (and other locations)",
    "phone": "(802) 383-1014",
    "rating": 4.7,
    "reviews": 25,
    "website": "https://www.greenmountainsolar.com/",
    "category": "Central-American-owned Solar panel installation in Vermont",
    "description": "Green Mountain Solar is an award-winning company that provides high-quality solar installations with industry-leading warranties. They focus on personalized service and helping Vermonters save money and reduce their carbon footprint",
    "hours": "Mon-Fri 9AM-6PM",
    "services": [
      "Central-American-owned Solar panel installation in Vermont consultation",
      "Professional service",
      "Quality guarantee"
    ],
    "social_links": {}
  },
  {
    "name": "Catamount Solar",
    "address": "1459 US-2, Montpelier, VT 05602",
    "phone": "(802) 223-7500",
    "rating": 4.9,
    "reviews": 25,
    "website": "https://catamountsolar.com/",
    "category": "Central-American-owned Solar panel installation in Vermont",
    "description": "Catamount Solar is a local, member-owned worker's cooperative specializing in affordable, high-quality solar power system design and installation. They are known for their skilled installers and commitment to the community",
    "hours": "Mon-Fri 9AM-6PM",
    "services": [
      "Central-American-owned Solar panel installation in Vermont consultation",
      "Professional service",
      "Quality guarantee"
    ],
    "social_links": {}
  },
  {
    "name": "Blue Raven Solar",
    "address": "While a national company, they serve Vermont. Specific Vermont office address may vary",
    "phone": "1-866-427-2583",
    "rating": 4.7,
    "reviews": 25,
    "website": "https://blueravensolar.com/",
    "category": "Central-American-owned Solar panel installation in Vermont",
    "description": "Blue Raven Solar is recognized for its trustworthy reputation and in-house financing options, offering a comprehensive solar installation experience",
    "hours": "Mon-Fri 9AM-6PM",
    "services": [
      "Central-American-owned Solar panel installation in Vermont consultation",
      "Professional service",
      "Quality guarantee"
    ],
    "social_links": {}
  },
  {
    "name": "Venture Solar",
    "address": "While a national company, they serve Vermont. Specific Vermont office address may vary",
    "phone": "(855) 757-0000",
    "rating": 4.8,
    "reviews": 25,
    "website": "https://venturesolar.com/",
    "category": "Central-American-owned Solar panel installation in Vermont",
    "description": "Venture Solar is noted for high-quality workmanship and good customer support, providing solar panel systems and installation services",
    "hours": "Mon-Fri 9AM-6PM",
    "services": [
      "Central-American-owned Solar panel installation in Vermont consultation",
      "Professional service",
      "Quality guarantee"
    ],
    "social_links": {}
  },
  {
    "name": "Solar Energy World",
    "address": "While a national company, they serve Vermont. Specific Vermont office address may vary",
    "phone": "(866) 854-0000",
    "rating": 4.4,
    "reviews": 25,
    "website": "https://www.solarenergyworld.com/",
    "category": "Central-American-owned Solar panel installation in Vermont",
    "description": "Solar Energy World is an East Coast installer known for its comprehensive solar panel services and strong warranty coverage",
    "hours": "Mon-Fri 9AM-6PM",
    "services": [
      "Central-American-owned Solar panel installation in Vermont consultation",
      "Professional service",
      "Quality guarantee"
    ],
    "social_links": {}
  },
  {
    "name": "Sunrun",
    "address": "While a national company, they serve Vermont. Specific Vermont office address may vary",
    "phone": "(855) 478-6786",
    "rating": 4.9,
    "reviews": 25,
    "website": "https://www.sunrun.com/",
    "category": "Central-American-owned Solar panel installation in Vermont",
    "description": "Sunrun is a leading solar leasing company that offers a variety of financing options and an easy solar installation process, making solar accessible to many homeowners",
    "hours": "Mon-Fri 9AM-6PM",
    "services": [
      "Central-American-owned Solar panel installation in Vermont consultation",
      "Professional service",
      "Quality guarantee"
    ],
    "social_links": {}
  },
  {
    "name": "Palmetto Energy",
    "address": "While a multi-state company, they serve Vermont. Specific Vermont office address may vary",
    "phone": "(855) 335-0150",
    "rating": 4.7,
    "reviews": 25,
    "website": "https://www.palmetto.com/",
    "category": "Central-American-owned Solar panel installation in Vermont",
    "description": "Palmetto Energy is a leading solar company focused on making clean energy accessible and easy for homeowners across the United States, including Vermont",
    "hours": "Mon-Fri 9AM-6PM",
    "services": [
      "Central-American-owned Solar panel installation in Vermont consultation",
      "Professional service",
      "Quality guarantee"
    ],
    "social_links": {}
  },
  {
    "name": "NuWatt Energy",
    "address": "1550 Shelburne Rd, Shelburne, VT 05482",
    "phone": "(802) 747-0577",
    "rating": 4.8,
    "reviews": 25,
    "website": "https://nuwattenergy.com/",
    "category": "Central-American-owned Solar panel installation in Vermont",
    "description": "NuWatt Energy strives to empower clients by offering genuine energy independence and enhanced efficiency through solar solutions",
    "hours": "Mon-Fri 9AM-6PM",
    "services": [
      "Central-American-owned Solar panel installation in Vermont consultation",
      "Professional service",
      "Quality guarantee"
    ],
    "social_links": {}
  },
  {
    "name": "HB Energy Solutions",
    "address": "113 Industrial Park Rd, Springfield, VT 05156",
    "phone": "(802) 885-3900",
    "rating": 4.6,
    "reviews": 25,
    "website": "https://hb-energy.com/",
    "category": "Central-American-owned Solar panel installation in Vermont",
    "description": "HB Energy Solutions provides comprehensive energy services, including solar panel installation, with a focus on quality and customer satisfaction",
    "hours": "Mon-Fri 9AM-6PM",
    "services": [
      "Central-American-owned Solar panel installation in Vermont consultation",
      "Professional service",
      "Quality guarantee"
    ],
    "social_links": {}
  }
]