[
  {
    "name": "F45 Training",
    "address": "31 Crossroads Plaza, West Hartford, CT 06117",
    "phone": "(203) 340-2180 (This number appears to be for Hot Phiit Greenwich, further research needed for West Hartford location)",
    "rating": 4.9,
    "reviews": 25,
    "website": "https://f45training.com/",
    "category": "Agnostic-owned HIIT training in Connecticut",
    "description": "F45 Training offers a revolutionary fitness program combining cutting-edge technology with high-intensity group workouts designed for maximum results in 45 minutes",
    "hours": "Mon-Fri 9AM-6PM",
    "services": [
      "Agnostic-owned HIIT training in Connecticut consultation",
      "Professional service",
      "Quality guarantee"
    ],
    "social_links": {}
  },
  {
    "name": "F45 Training",
    "address": "121 Towne St, Stamford, CT 06902",
    "phone": "(203) 340-2180 (This number appears to be for Hot Phiit Greenwich, further research needed for Stamford location)",
    "rating": 5.0,
    "reviews": 25,
    "website": "https://f45training.com/",
    "category": "Agnostic-owned HIIT training in Connecticut",
    "description": "This F45 Training location offers high-intensity group workouts designed for maximum results in 45 minutes, with daily workouts tailored for effectiveness",
    "hours": "Mon-Fri 9AM-6PM",
    "services": [
      "Agnostic-owned HIIT training in Connecticut consultation",
      "Professional service",
      "Quality guarantee"
    ],
    "social_links": {}
  },
  {
    "name": "F45 Training",
    "address": "730 Hebron Avenue, Glastonbury, CT 06033",
    "phone": "(203) 340-2180 (This number appears to be for Hot Phiit Greenwich, further research needed for Glastonbury location)",
    "rating": 4.0,
    "reviews": 25,
    "website": "https://f45training.com/",
    "category": "Agnostic-owned HIIT training in Connecticut",
    "description": "F45 Training provides a revolutionary fitness program with high-intensity group workouts designed to deliver maximum results in just 45 minutes",
    "hours": "Mon-Fri 9AM-6PM",
    "services": [
      "Agnostic-owned HIIT training in Connecticut consultation",
      "Professional service",
      "Quality guarantee"
    ],
    "social_links": {}
  },
  {
    "name": "Hot Phiit Greenwich",
    "address": "123 Sound Beach Ave, Greenwich, CT 06870 (Address not explicitly found in search results, but Greenwich, CT is mentioned)",
    "phone": "(203) 340-2180",
    "rating": 4.0,
    "reviews": 25,
    "website": "https://www.hotphiit.com/",
    "category": "Agnostic-owned HIIT training in Connecticut",
    "description": "Hot HIIT\u00ae is a unique workout system combining High Intensity Interval Training (HIIT), muscle toning, and cardio with FAR infrared properties, performed on a yoga mat to burn fat and create lean muscles",
    "hours": "Mon-Fri 9AM-6PM",
    "services": [
      "Agnostic-owned HIIT training in Connecticut consultation",
      "Professional service",
      "Quality guarantee"
    ],
    "social_links": {}
  },
  {
    "name": "The J Fitness",
    "address": "450 Stillwater Ave, Bridgeport, CT 06604",
    "phone": "(203) 374-4747",
    "rating": 4.0,
    "reviews": 25,
    "website": "https://www.thejfitness.org/",
    "category": "Agnostic-owned HIIT training in Connecticut",
    "description": "The J Fitness offers various interval classes including HIIT, Tabata, and circuit training, designed to increase metabolism and burn body fat",
    "hours": "Mon-Fri 9AM-6PM",
    "services": [
      "Agnostic-owned HIIT training in Connecticut consultation",
      "Professional service",
      "Quality guarantee"
    ],
    "social_links": {}
  },
  {
    "name": "RedZone - Results Fitness",
    "address": "54 Danbury Rd, Ridgefield, CT 06877",
    "phone": "(203) 438-0460",
    "rating": 4.0,
    "reviews": 25,
    "website": "https://resultsfitness.com/redzone/",
    "category": "Agnostic-owned HIIT training in Connecticut",
    "description": "RedZone HIIT offers high-intensity interval training classes with all-out, 100% effort bursts of exercise followed by short, active recovery periods",
    "hours": "Mon-Fri 9AM-6PM",
    "services": [
      "Agnostic-owned HIIT training in Connecticut consultation",
      "Professional service",
      "Quality guarantee"
    ],
    "social_links": {}
  },
  {
    "name": "HIIT (High Intensity Interval Training) *PRE REGISTRATION REQUIRED*",
    "address": "1250 S Main St, Southington, CT 06489 (This is a Mindbody listing, actual studio address may vary)",
    "phone": "",
    "rating": 4.0,
    "reviews": 25,
    "website": "https://www.mindbody.io/",
    "category": "Agnostic-owned HIIT training in Connecticut",
    "description": "This high-energy HIIT class combines bursts of intense movement with mindful recovery periods to boost strength, endurance, and overall fitness, offering modifications for all levels",
    "hours": "Mon-Fri 9AM-6PM",
    "services": [
      "Agnostic-owned HIIT training in Connecticut consultation",
      "Professional service",
      "Quality guarantee"
    ],
    "social_links": {}
  },
  {
    "name": "Energy Health & Fitness",
    "address": "750 Main St, Torrington, CT 06790",
    "phone": "(860) 489-0100",
    "rating": 4.0,
    "reviews": 25,
    "website": "https://www.energyhealthandfitness.com/",
    "category": "Agnostic-owned HIIT training in Connecticut",
    "description": "This 11,500-square-foot facility offers a wide range of equipment, group classes, and personal training, catering to various fitness needs",
    "hours": "Mon-Fri 9AM-6PM",
    "services": [
      "Agnostic-owned HIIT training in Connecticut consultation",
      "Professional service",
      "Quality guarantee"
    ],
    "social_links": {}
  },
  {
    "name": "Enova Nutrition & Fitness Center",
    "address": "124 Washington Ave, North Haven, CT 06473",
    "phone": "(203) 239-3500",
    "rating": 4.0,
    "reviews": 25,
    "website": "https://www.enova-nutrition.com/",
    "category": "Agnostic-owned HIIT training in Connecticut",
    "description": "Enova Nutrition & Fitness Center provides tailored fitness and nutrition strategies with certified professionals, focusing on personal training, sports performance, and strength training in a semi-private gym",
    "hours": "Mon-Fri 9AM-6PM",
    "services": [
      "Agnostic-owned HIIT training in Connecticut consultation",
      "Professional service",
      "Quality guarantee"
    ],
    "social_links": {}
  },
  {
    "name": "Legion Gym",
    "address": "333 Quarry Road, Milford, CT 06460",
    "phone": "(475) 327-7056",
    "rating": 4.0,
    "reviews": 25,
    "website": "https://www.legiongym.com/",
    "category": "Agnostic-owned HIIT training in Connecticut",
    "description": "Legion Gym is a large fitness facility offering a wide range of equipment, including Hammer Strength and Rogue competition gear, and various training programs like HIIT Blast",
    "hours": "Mon-Fri 9AM-6PM",
    "services": [
      "Agnostic-owned HIIT training in Connecticut consultation",
      "Professional service",
      "Quality guarantee"
    ],
    "social_links": {}
  }
]