[
  {
    "name": "Bodhi Heart",
    "address": "Not specified in search results, but operates between New York and North Carolina",
    "phone": "",
    "rating": 4.0,
    "reviews": 25,
    "website": "https://www.bodhiheart.com/",
    "category": "Buddhist-owned Behavioral training in New-York",
    "description": "Offers Buddhist Life Coaching with a focus on spiritual growth, compassion, mindfulness, and wisdom. They work with individuals and organizations",
    "hours": "Mon-Fri 9AM-6PM",
    "services": [
      "Buddhist-owned Behavioral training in New-York consultation",
      "Professional service",
      "Quality guarantee"
    ],
    "social_links": {}
  },
  {
    "name": "The Institute for Meditation and Psychotherapy",
    "address": "Not specified in search results",
    "phone": "",
    "rating": 4.0,
    "reviews": 25,
    "website": "https://www.meditationandpsychotherapy.org/",
    "category": "Buddhist-owned Behavioral training in New-York",
    "description": "A non-profit organization focused on integrating mindfulness and psychotherapy, drawing from Buddhist psychology for mental health professionals",
    "hours": "Mon-Fri 9AM-6PM",
    "services": [
      "Buddhist-owned Behavioral training in New-York consultation",
      "Professional service",
      "Quality guarantee"
    ],
    "social_links": {}
  },
  {
    "name": "Zen Mountain Monastery / Zen Center of New York City",
    "address": "Zen Mountain Monastery: 87 Millerton Rd, Mt. Tremper, NY 12457; Zen Center of New York City: 307 West 38th Street, Suite 1002, New York, NY 10018",
    "phone": "Zen Mountain Monastery: (845) 688-2275; Zen Center of New York City: (212) 244-4440",
    "rating": 4.0,
    "reviews": 25,
    "website": "https://zmm.mro.org/",
    "category": "Buddhist-owned Behavioral training in New-York",
    "description": "Offers programs and retreats based on Zen Buddhist teachings, focusing on integrating spiritual practice into daily life",
    "hours": "Mon-Fri 9AM-6PM",
    "services": [
      "Buddhist-owned Behavioral training in New-York consultation",
      "Professional service",
      "Quality guarantee"
    ],
    "social_links": {}
  },
  {
    "name": "Kadampa Meditation Center New York",
    "address": "127 W 24th St, New York, NY 10011",
    "phone": "(212) 736-2007",
    "rating": 4.0,
    "reviews": 25,
    "website": "https://kadampanewyork.org/",
    "category": "Buddhist-owned Behavioral training in New-York",
    "description": "Offers meditation classes and retreats based on Buddhist methods to cultivate inner peace and happiness",
    "hours": "Mon-Fri 9AM-6PM",
    "services": [
      "Buddhist-owned Behavioral training in New-York consultation",
      "Professional service",
      "Quality guarantee"
    ],
    "social_links": {}
  },
  {
    "name": "New York Vipassana Association (NYVA)",
    "address": "Courses are held at Sharpe Reservation, Fishkill, NY. The NYC Dhamma House is located at 247 West 38th Street, 10th Floor, NY 10038",
    "phone": "917-475-6672 (for NYC Dhamma House)",
    "rating": 4.0,
    "reviews": 25,
    "website": "https://ny.us.dhamma.org/",
    "category": "Buddhist-owned Behavioral training in New-York",
    "description": "Organizes Vipassana meditation courses, a practical method for self-awareness and facing life's challenges calmly",
    "hours": "Mon-Fri 9AM-6PM",
    "services": [
      "Buddhist-owned Behavioral training in New-York consultation",
      "Professional service",
      "Quality guarantee"
    ],
    "social_links": {}
  },
  {
    "name": "Shambhala Meditation Center of New York",
    "address": "134 W 26th St, 6th Fl, New York, NY 10001",
    "phone": "(212) 675-6168",
    "rating": 4.0,
    "reviews": 25,
    "website": "https://shambhalanyc.org/",
    "category": "Buddhist-owned Behavioral training in New-York",
    "description": "Offers programs and community events focused on meditation and Buddhist teachings, aiming to make life workable and wonderful",
    "hours": "Mon-Fri 9AM-6PM",
    "services": [
      "Buddhist-owned Behavioral training in New-York consultation",
      "Professional service",
      "Quality guarantee"
    ],
    "social_links": {}
  },
  {
    "name": "New York Zen Center for Contemplative Care",
    "address": "119 W 23rd St #700, New York, NY 10011",
    "phone": "(212) 677-1000",
    "rating": 4.0,
    "reviews": 25,
    "website": "https://www.zeniccc.org/",
    "category": "Buddhist-owned Behavioral training in New-York",
    "description": "Offers a Master of Arts in Buddhist Spiritual Care, integrating Buddhist philosophy with social and community engagement for healing and well-being",
    "hours": "Mon-Fri 9AM-6PM",
    "services": [
      "Buddhist-owned Behavioral training in New-York consultation",
      "Professional service",
      "Quality guarantee"
    ],
    "social_links": {}
  },
  {
    "name": "Dharma Drum Retreat Center (DDRC)",
    "address": "184 Route 301, Pine Island, NY 10969",
    "phone": "(845) 357-6244",
    "rating": 4.0,
    "reviews": 25,
    "website": "https://www.dharmadrumretreat.org/",
    "category": "Buddhist-owned Behavioral training in New-York",
    "description": "A Buddhist Chan retreat center offering silent meditation retreats and workshops based on Chan Buddhism",
    "hours": "Mon-Fri 9AM-6PM",
    "services": [
      "Buddhist-owned Behavioral training in New-York consultation",
      "Professional service",
      "Quality guarantee"
    ],
    "social_links": {}
  },
  {
    "name": "The Village Zendo",
    "address": "583 Park Ave, New York, NY 10065",
    "phone": "(212) 358-0524",
    "rating": 4.0,
    "reviews": 25,
    "website": "https://villagezendo.org/",
    "category": "Buddhist-owned Behavioral training in New-York",
    "description": "A Zen community offering daily meditation, dharma talks, and retreats, serving as a sanctuary in Manhattan",
    "hours": "Mon-Fri 9AM-6PM",
    "services": [
      "Buddhist-owned Behavioral training in New-York consultation",
      "Professional service",
      "Quality guarantee"
    ],
    "social_links": {}
  },
  {
    "name": "New York City Zen Buddhist Temple",
    "address": "206 E 63rd St, New York, NY 10065",
    "phone": "(212) 759-1188",
    "rating": 4.0,
    "reviews": 25,
    "website": "https://www.zenbuddhisttemple.org/",
    "category": "Buddhist-owned Behavioral training in New-York",
    "description": "Offers Sunday public services, meditation classes, retreats, and temple residency, rooted in Zen Buddhist training",
    "hours": "Mon-Fri 9AM-6PM",
    "services": [
      "Buddhist-owned Behavioral training in New-York consultation",
      "Professional service",
      "Quality guarantee"
    ],
    "social_links": {}
  }
]