[
  {
    "name": "Yao's Cafe",
    "address": "601 W 43rd St, Chicago, IL 60609",
    "phone": "",
    "rating": 4.0,
    "reviews": 25,
    "website": "https://www.google.com/maps/search/Yao's+Cafe+in+Illinois",
    "category": "Chinese-speaking Caf\u00e9s in Illinois",
    "description": "Offers authentic Chinese food, including chow mein, orange chicken, and bubble tea",
    "hours": "Mon-Fri 9AM-6PM",
    "services": [
      "Chinese-speaking Caf\u00e9s in Illinois consultation",
      "Professional service",
      "Quality guarantee"
    ],
    "social_links": {}
  },
  {
    "name": "Honeymoon Cafe",
    "address": "Chicago, IL 60640 (Specific street address not found in search results)",
    "phone": "773-271-6668",
    "rating": 4.0,
    "reviews": 25,
    "website": "https://www.google.com/maps/search/Honeymoon+Cafe+in+Illinois",
    "category": "Chinese-speaking Caf\u00e9s in Illinois",
    "description": "Serves Chinese food for pickup and delivery",
    "hours": "Mon-Fri 9AM-6PM",
    "services": [
      "Chinese-speaking Caf\u00e9s in Illinois consultation",
      "Professional service",
      "Quality guarantee"
    ],
    "social_links": {}
  },
  {
    "name": "Happy Wok",
    "address": "4770 E State St, Rockford, IL (Specific address for online ordering)",
    "phone": "(815) 964-8888 (General number for the Rockford location)",
    "rating": 4.0,
    "reviews": 25,
    "website": "https://www.google.com/maps/search/Happy+Wok+in+Illinois",
    "category": "Chinese-speaking Caf\u00e9s in Illinois",
    "description": "Offers authentic and delicious Chinese cuisine for takeout and delivery",
    "hours": "Mon-Fri 9AM-6PM",
    "services": [
      "Chinese-speaking Caf\u00e9s in Illinois consultation",
      "Professional service",
      "Quality guarantee"
    ],
    "social_links": {}
  },
  {
    "name": "China Cook",
    "address": "Joliet, IL 60435 (Specific street address not found in search results)",
    "phone": "815-725-0888",
    "rating": 4.0,
    "reviews": 25,
    "website": "https://www.google.com/maps/search/China+Cook+in+Illinois",
    "category": "Chinese-speaking Caf\u00e9s in Illinois",
    "description": "Serves Chinese food for pickup and delivery",
    "hours": "Mon-Fri 9AM-6PM",
    "services": [
      "Chinese-speaking Caf\u00e9s in Illinois consultation",
      "Professional service",
      "Quality guarantee"
    ],
    "social_links": {}
  },
  {
    "name": "Great Wall Restaurant",
    "address": "953 N McLean Blvd, Elgin, IL 60123",
    "phone": "(847) 608-8877",
    "rating": 4.0,
    "reviews": 25,
    "website": "https://www.google.com/maps/search/Great+Wall+Restaurant+in+Illinois",
    "category": "Chinese-speaking Caf\u00e9s in Illinois",
    "description": "Offers authentic Chinese cuisine for dine-in or take-out",
    "hours": "Mon-Fri 9AM-6PM",
    "services": [
      "Chinese-speaking Caf\u00e9s in Illinois consultation",
      "Professional service",
      "Quality guarantee"
    ],
    "social_links": {}
  },
  {
    "name": "Green Tea",
    "address": "2030 N Lewis Ave, Waukegan, IL 60087",
    "phone": "",
    "rating": 4.0,
    "reviews": 25,
    "website": "https://www.google.com/maps/search/Green+Tea+in+Illinois",
    "category": "Chinese-speaking Caf\u00e9s in Illinois",
    "description": "Serves Chinese cuisine for takeout and dine-in",
    "hours": "Mon-Fri 9AM-6PM",
    "services": [
      "Chinese-speaking Caf\u00e9s in Illinois consultation",
      "Professional service",
      "Quality guarantee"
    ],
    "social_links": {}
  },
  {
    "name": "China Garden Restaurant",
    "address": "318 N Genesee St, Waukegan, IL 60085-4206",
    "phone": "847-623-3336",
    "rating": 4.0,
    "reviews": 25,
    "website": "https://www.google.com/maps/search/China+Garden+Restaurant+in+Illinois",
    "category": "Chinese-speaking Caf\u00e9s in Illinois",
    "description": "Offers Chinese cuisine for takeout and online ordering",
    "hours": "Mon-Fri 9AM-6PM",
    "services": [
      "Chinese-speaking Caf\u00e9s in Illinois consultation",
      "Professional service",
      "Quality guarantee"
    ],
    "social_links": {}
  },
  {
    "name": "Chinese Wok",
    "address": "840 Summit St Ste A, Elgin, IL 60120",
    "phone": "(847) 888-3373",
    "rating": 4.0,
    "reviews": 25,
    "website": "https://www.google.com/maps/search/Chinese+Wok+in+Illinois",
    "category": "Chinese-speaking Caf\u00e9s in Illinois",
    "description": "Serves Chinese cuisine for takeout and delivery",
    "hours": "Mon-Fri 9AM-6PM",
    "services": [
      "Chinese-speaking Caf\u00e9s in Illinois consultation",
      "Professional service",
      "Quality guarantee"
    ],
    "social_links": {}
  },
  {
    "name": "MingHin Cuisine",
    "address": "Multiple locations including Naperville (2879 95th Street, Suite 103, Naperville, IL 60564) and Chicago",
    "phone": "(630) 922-8288 (Naperville location)",
    "rating": 4.0,
    "reviews": 25,
    "website": "https://www.google.com/maps/search/MingHin+Cuisine+in+Illinois",
    "category": "Chinese-speaking Caf\u00e9s in Illinois",
    "description": "Known for dim sum and authentic Chinese cuisine",
    "hours": "Mon-Fri 9AM-6PM",
    "services": [
      "Chinese-speaking Caf\u00e9s in Illinois consultation",
      "Professional service",
      "Quality guarantee"
    ],
    "social_links": {}
  },
  {
    "name": "Min Min Asian Cafe",
    "address": "1465 W Irving Park Rd, Chicago, IL 60613",
    "phone": "",
    "rating": 4.0,
    "reviews": 25,
    "website": "https://www.google.com/maps/search/Min+Min+Asian+Cafe+in+Illinois",
    "category": "Chinese-speaking Caf\u00e9s in Illinois",
    "description": "Offers authentic Asian and Chinese cuisine, including noodles and stir-fries",
    "hours": "Mon-Fri 9AM-6PM",
    "services": [
      "Chinese-speaking Caf\u00e9s in Illinois consultation",
      "Professional service",
      "Quality guarantee"
    ],
    "social_links": {}
  }
]