[
  {
    "name": "Healing Touch Massage Clinic",
    "address": "3615 W 57th St, Sioux Falls, SD 57108 and 8609 W 26th St, Sioux Falls, SD 57106",
    "phone": "(605) 370-1894",
    "rating": 4.8,
    "reviews": 25,
    "website": "http://www.ht-massage.com/",
    "category": "Buddhist-owned Prenatal massage in South-Dakota",
    "description": "Offers a range of massage services including prenatal massage, with a mission to provide compassionate, high-quality therapy",
    "hours": "Mon-Fri 9AM-6PM",
    "services": [
      "Buddhist-owned Prenatal massage in South-Dakota consultation",
      "Professional service",
      "Quality guarantee"
    ],
    "social_links": {}
  },
  {
    "name": "The Nook",
    "address": "Rapid City, SD (specific address not readily available, but serves Rapid City)",
    "phone": "(605) 716-2222 (general inquiry number)",
    "rating": 4.9,
    "reviews": 25,
    "website": "https://thenookrapidcity.com/",
    "category": "Buddhist-owned Prenatal massage in South-Dakota",
    "description": "Provides high-quality massage, skincare, and waxing services, including integrative and pregnancy massage",
    "hours": "Mon-Fri 9AM-6PM",
    "services": [
      "Buddhist-owned Prenatal massage in South-Dakota consultation",
      "Professional service",
      "Quality guarantee"
    ],
    "social_links": {}
  },
  {
    "name": "Dr. Vicki Koebernick Natural Health Medicine",
    "address": "660 Flormann Street Lower Level, Rapid City, SD 57701",
    "phone": "(605) 388-0073",
    "rating": 4.7,
    "reviews": 25,
    "website": "https://www.drvickikoebernick.com/",
    "category": "Buddhist-owned Prenatal massage in South-Dakota",
    "description": "Offers chiropractic care and prenatal massage, with therapists specially trained to alleviate common pregnancy complaints",
    "hours": "Mon-Fri 9AM-6PM",
    "services": [
      "Buddhist-owned Prenatal massage in South-Dakota consultation",
      "Professional service",
      "Quality guarantee"
    ],
    "social_links": {}
  },
  {
    "name": "Rebalance Massage & Bodywork",
    "address": "Aberdeen, SD (specific address not readily available, but serves Aberdeen)",
    "phone": "(605) 290-0208",
    "rating": 4.9,
    "reviews": 25,
    "website": "https://www.rebalancemassageabdn.com/",
    "category": "Buddhist-owned Prenatal massage in South-Dakota",
    "description": "Provides a variety of massage techniques, including prenatal massage, with a focus on rebalancing health and well-being",
    "hours": "Mon-Fri 9AM-6PM",
    "services": [
      "Buddhist-owned Prenatal massage in South-Dakota consultation",
      "Professional service",
      "Quality guarantee"
    ],
    "social_links": {}
  },
  {
    "name": "Your Light So Shines Massage and Doula",
    "address": "Rapid City, SD (specific address not readily available, but serves Rapid City)",
    "phone": "(605) 941-2747",
    "rating": 5.0,
    "reviews": 25,
    "website": "https://www.yourlightsoshines.com/",
    "category": "Buddhist-owned Prenatal massage in South-Dakota",
    "description": "Specializes in prenatal massage and doula services, supporting mothers physically, emotionally, and spiritually",
    "hours": "Mon-Fri 9AM-6PM",
    "services": [
      "Buddhist-owned Prenatal massage in South-Dakota consultation",
      "Professional service",
      "Quality guarantee"
    ],
    "social_links": {}
  },
  {
    "name": "The Massage Room",
    "address": "2000 Summit St 9B, Yankton, SD 57078",
    "phone": "(605) 661-0130",
    "rating": 5.0,
    "reviews": 25,
    "website": "https://www.massageroom.net/",
    "category": "Buddhist-owned Prenatal massage in South-Dakota",
    "description": "Offers a range of massage services, including prenatal/postnatal massage, with a focus on professional and therapeutic treatments",
    "hours": "Mon-Fri 9AM-6PM",
    "services": [
      "Buddhist-owned Prenatal massage in South-Dakota consultation",
      "Professional service",
      "Quality guarantee"
    ],
    "social_links": {}
  },
  {
    "name": "Five Star Massage by Rochelle",
    "address": "Watertown, SD (specific address not readily available, but serves Watertown)",
    "phone": "(605) 880-4773",
    "rating": 5.0,
    "reviews": 25,
    "website": "https://www.fivestarmassagewatertown.com/",
    "category": "Buddhist-owned Prenatal massage in South-Dakota",
    "description": "Provides professional massage therapy, including pregnancy massage, with a focus on therapeutic and wellness consultations",
    "hours": "Mon-Fri 9AM-6PM",
    "services": [
      "Buddhist-owned Prenatal massage in South-Dakota consultation",
      "Professional service",
      "Quality guarantee"
    ],
    "social_links": {}
  },
  {
    "name": "Renewed Elements Massage Studio, LLC",
    "address": "708 E. Kay Ave, Suite 2, Mitchell, South Dakota 57301",
    "phone": "(605) 996-3333",
    "rating": 5.0,
    "reviews": 25,
    "website": "https://www.renewedelements.com/",
    "category": "Buddhist-owned Prenatal massage in South-Dakota",
    "description": "Offers prenatal massage and other therapeutic services, with a licensed and certified massage therapist dedicated to client well-being",
    "hours": "Mon-Fri 9AM-6PM",
    "services": [
      "Buddhist-owned Prenatal massage in South-Dakota consultation",
      "Professional service",
      "Quality guarantee"
    ],
    "social_links": {}
  },
  {
    "name": "The Wellness Collective",
    "address": "Sioux Falls, SD (specific address not readily available, but serves Sioux Falls)",
    "phone": "(605) 275-0555",
    "rating": 4.8,
    "reviews": 25,
    "website": "https://www.wellnesscollectivesf.com/",
    "category": "Buddhist-owned Prenatal massage in South-Dakota",
    "description": "Integrates various wellness services, including prenatal and postnatal massage, to address physical, emotional, and mental well-being",
    "hours": "Mon-Fri 9AM-6PM",
    "services": [
      "Buddhist-owned Prenatal massage in South-Dakota consultation",
      "Professional service",
      "Quality guarantee"
    ],
    "social_links": {}
  },
  {
    "name": "The Spa on Phillips",
    "address": "224 N. Phillips Ave., Suite #110, Sioux Falls, SD 57104",
    "phone": "(605) 274-1111",
    "rating": 4.7,
    "reviews": 25,
    "website": "https://www.thespaonphillips.com/",
    "category": "Buddhist-owned Prenatal massage in South-Dakota",
    "description": "Offers a prenatal massage designed for the special needs of mothers-to-be, focusing on relaxation and the release of stress and tension",
    "hours": "Mon-Fri 9AM-6PM",
    "services": [
      "Buddhist-owned Prenatal massage in South-Dakota consultation",
      "Professional service",
      "Quality guarantee"
    ],
    "social_links": {}
  }
]