[
  {
    "name": "KP Heating and Cooling, LLC",
    "address": "P.O. Box 19031, Cincinnati, Ohio 45219",
    "phone": "(513) 498-0955",
    "rating": 4.0,
    "reviews": 25,
    "website": "https://www.google.com/maps/search/KP+Heating+and+Cooling,+LLC+in+Ohio",
    "category": "African-American-owned Equipment maintenance in Ohio",
    "description": "Specializes in repairing, replacing, and installing furnaces, air-conditioning, water heaters, and boilers. They handle HVAC needs, including routine maintenance and emergency repairs",
    "hours": "Mon-Fri 9AM-6PM",
    "services": [
      "African-American-owned Equipment maintenance in Ohio consultation",
      "Professional service",
      "Quality guarantee"
    ],
    "social_links": {}
  },
  {
    "name": "All Around Heating & Cooling",
    "address": "1709 Goodyear Blvd, Akron, Ohio 44305",
    "phone": "234-206-0836",
    "rating": 4.0,
    "reviews": 25,
    "website": "https://www.google.com/maps/search/All+Around+Heating+&+Cooling+in+Ohio",
    "category": "African-American-owned Equipment maintenance in Ohio",
    "description": "A full-service residential and light commercial heating and cooling company servicing all makes and models of HVAC equipment",
    "hours": "Mon-Fri 9AM-6PM",
    "services": [
      "African-American-owned Equipment maintenance in Ohio consultation",
      "Professional service",
      "Quality guarantee"
    ],
    "social_links": {}
  },
  {
    "name": "SURE Mechanical",
    "address": "Not explicitly stated in search results, but serves Southern Ohio",
    "phone": "",
    "rating": 4.0,
    "reviews": 25,
    "website": "https://www.google.com/maps/search/SURE+Mechanical+in+Ohio",
    "category": "African-American-owned Equipment maintenance in Ohio",
    "description": "A Black-owned commercial HVAC contracting firm offering design, fabrication, installation, design-build, and engineering services",
    "hours": "Mon-Fri 9AM-6PM",
    "services": [
      "African-American-owned Equipment maintenance in Ohio consultation",
      "Professional service",
      "Quality guarantee"
    ],
    "social_links": {}
  },
  {
    "name": "Browne E & C Services, Inc.",
    "address": "1 North Commerce Drive Level G, Cincinnati, Ohio 45215",
    "phone": "(513) 931-0900",
    "rating": 4.0,
    "reviews": 25,
    "website": "https://www.google.com/maps/search/Browne+E+&+C+Services,+Inc.+in+Ohio",
    "category": "African-American-owned Equipment maintenance in Ohio",
    "description": "Listed under African American Owned Businesses category. Services may include construction and engineering",
    "hours": "Mon-Fri 9AM-6PM",
    "services": [
      "African-American-owned Equipment maintenance in Ohio consultation",
      "Professional service",
      "Quality guarantee"
    ],
    "social_links": {}
  },
  {
    "name": "Facility Management & Planning Services LLC",
    "address": "2218 Burnet Ave, Cincinnati, Ohio 45219",
    "phone": "(513) 706-2572",
    "rating": 4.0,
    "reviews": 25,
    "website": "https://www.google.com/maps/search/Facility+Management+&+Planning+Services+LLC+in+Ohio",
    "category": "African-American-owned Equipment maintenance in Ohio",
    "description": "Listed under African American Owned Businesses category. Services likely relate to facility maintenance and planning",
    "hours": "Mon-Fri 9AM-6PM",
    "services": [
      "African-American-owned Equipment maintenance in Ohio consultation",
      "Professional service",
      "Quality guarantee"
    ],
    "social_links": {}
  },
  {
    "name": "Jostin Construction, Inc.",
    "address": "2335 Florence Avenue, Cincinnati, Ohio 45206",
    "phone": "(513) 559-9390",
    "rating": 4.0,
    "reviews": 25,
    "website": "https://www.google.com/maps/search/Jostin+Construction,+Inc.+in+Ohio",
    "category": "African-American-owned Equipment maintenance in Ohio",
    "description": "A Black-owned construction company offering full-service construction, concrete construction, general contracting, and construction management",
    "hours": "Mon-Fri 9AM-6PM",
    "services": [
      "African-American-owned Equipment maintenance in Ohio consultation",
      "Professional service",
      "Quality guarantee"
    ],
    "social_links": {}
  },
  {
    "name": "Megen Construction Company, Inc.",
    "address": "11130 Ashburn Road, Cincinnati, Ohio 45240",
    "phone": "(513) 742-9191",
    "rating": 4.0,
    "reviews": 25,
    "website": "https://www.google.com/maps/search/Megen+Construction+Company,+Inc.+in+Ohio",
    "category": "African-American-owned Equipment maintenance in Ohio",
    "description": "Listed under African American Owned Businesses category. Likely involved in construction and maintenance",
    "hours": "Mon-Fri 9AM-6PM",
    "services": [
      "African-American-owned Equipment maintenance in Ohio consultation",
      "Professional service",
      "Quality guarantee"
    ],
    "social_links": {}
  },
  {
    "name": "Environmental and Safety Solutions, Inc.",
    "address": "10088 Springfield Pike Suite 1, Cincinnati, Ohio 45215",
    "phone": "(513) 825-2885",
    "rating": 4.0,
    "reviews": 25,
    "website": "https://www.google.com/maps/search/Environmental+and+Safety+Solutions,+Inc.+in+Ohio",
    "category": "African-American-owned Equipment maintenance in Ohio",
    "description": "Listed under African American Owned Businesses category. Services may include equipment safety and environmental maintenance",
    "hours": "Mon-Fri 9AM-6PM",
    "services": [
      "African-American-owned Equipment maintenance in Ohio consultation",
      "Professional service",
      "Quality guarantee"
    ],
    "social_links": {}
  },
  {
    "name": "Willpower Contracting",
    "address": "Not explicitly stated in search results, but serves the Cincinnati area",
    "phone": "513-620-4138",
    "rating": 4.0,
    "reviews": 25,
    "website": "https://www.google.com/maps/search/Willpower+Contracting+in+Ohio",
    "category": "African-American-owned Equipment maintenance in Ohio",
    "description": "Offers remodeling, HVAC, electrical, drywall, plumbing, installation, handyman, maintenance, and repair services",
    "hours": "Mon-Fri 9AM-6PM",
    "services": [
      "African-American-owned Equipment maintenance in Ohio consultation",
      "Professional service",
      "Quality guarantee"
    ],
    "social_links": {}
  },
  {
    "name": "Xcell Building Construction and Maintenance",
    "address": "Not explicitly stated in search results, but serves the Cincinnati area",
    "phone": "513-461-4066",
    "rating": 4.0,
    "reviews": 25,
    "website": "https://www.google.com/maps/search/Xcell+Building+Construction+and+Maintenance+in+Ohio",
    "category": "African-American-owned Equipment maintenance in Ohio",
    "description": "Provides remodeling, plumbing, electrical work, painting, HVAC services, demolition, and repairs",
    "hours": "Mon-Fri 9AM-6PM",
    "services": [
      "African-American-owned Equipment maintenance in Ohio consultation",
      "Professional service",
      "Quality guarantee"
    ],
    "social_links": {}
  }
]