[
  {
    "name": "Signature Plastic Surgery & Dermatology",
    "address": "9220 W. Russell Road, Suite 100, Las Vegas, NV 89148",
    "phone": "(702) 778-5170",
    "rating": 4.8,
    "reviews": 25,
    "website": "https://www.signatureplasticsurgerylv.com/",
    "category": "Chinese-American-owned Plastic surgery in Nevada",
    "description": "Offers a range of aesthetic procedures for the face, breast, and body, with a focus on rejuvenation and natural-looking results",
    "hours": "Mon-Fri 9AM-6PM",
    "services": [
      "Chinese-American-owned Plastic surgery in Nevada consultation",
      "Professional service",
      "Quality guarantee"
    ],
    "social_links": {}
  },
  {
    "name": "Platinum Plastic Surgery",
    "address": "7710 W. Sahara Ave, Las Vegas, NV 89117",
    "phone": "(702) 470-2000",
    "rating": 4.9,
    "reviews": 25,
    "website": "https://www.platinumpast.com/",
    "category": "Chinese-American-owned Plastic surgery in Nevada",
    "description": "Specializes in various plastic surgery procedures, including Asian eyelid surgery, with an emphasis on achieving desired aesthetic goals and patient satisfaction",
    "hours": "Mon-Fri 9AM-6PM",
    "services": [
      "Chinese-American-owned Plastic surgery in Nevada consultation",
      "Professional service",
      "Quality guarantee"
    ],
    "social_links": {}
  },
  {
    "name": "Smith Plastic Surgery",
    "address": "7650 W. Sahara Ave, Las Vegas, NV 89117",
    "phone": "(702) 880-5550",
    "rating": 4.5,
    "reviews": 25,
    "website": "https://www.smithplasticsurgery.com/",
    "category": "Chinese-American-owned Plastic surgery in Nevada",
    "description": "Offers a wide array of surgical and non-surgical cosmetic treatments with a focus on patient experience and achieving world-class results",
    "hours": "Mon-Fri 9AM-6PM",
    "services": [
      "Chinese-American-owned Plastic surgery in Nevada consultation",
      "Professional service",
      "Quality guarantee"
    ],
    "social_links": {}
  },
  {
    "name": "VIP Plastic Surgery",
    "address": "2779 Sunridge Heights Pkwy, Henderson, NV 89052",
    "phone": "(702) 470-2000",
    "rating": 4.9,
    "reviews": 25,
    "website": "https://www.vipplasticsurgery.com/",
    "category": "Chinese-American-owned Plastic surgery in Nevada",
    "description": "Provides a range of aesthetic plastic surgery and non-surgical procedures, aiming to deliver exceptional care and personalized results",
    "hours": "Mon-Fri 9AM-6PM",
    "services": [
      "Chinese-American-owned Plastic surgery in Nevada consultation",
      "Professional service",
      "Quality guarantee"
    ],
    "social_links": {}
  },
  {
    "name": "Herte Center for Cosmetic Surgery",
    "address": "3101 N. Tenaya Way, Suite 100, Las Vegas, NV 89128",
    "phone": "(702) 732-9600",
    "rating": 4.0,
    "reviews": 25,
    "website": "https://www.hertecenter.com/",
    "category": "Chinese-American-owned Plastic surgery in Nevada",
    "description": "Offers facial rejuvenation, breast surgery, and body sculpting treatments with a commitment to safety, privacy, and personalized care",
    "hours": "Mon-Fri 9AM-6PM",
    "services": [
      "Chinese-American-owned Plastic surgery in Nevada consultation",
      "Professional service",
      "Quality guarantee"
    ],
    "social_links": {}
  },
  {
    "name": "Plastic Surgery Vegas",
    "address": "9220 W. Russell Road, Suite 100, Las Vegas, NV 89148",
    "phone": "(702) 507-3400",
    "rating": 4.0,
    "reviews": 25,
    "website": "https://www.plasticsurgeryvegas.com/",
    "category": "Chinese-American-owned Plastic surgery in Nevada",
    "description": "Provides comprehensive plastic surgery and dermatological care, with a team of experienced and board-certified practitioners",
    "hours": "Mon-Fri 9AM-6PM",
    "services": [
      "Chinese-American-owned Plastic surgery in Nevada consultation",
      "Professional service",
      "Quality guarantee"
    ],
    "social_links": {}
  },
  {
    "name": "Cara Plastic Surgery",
    "address": "7330 Smoke Ranch Road, Las Vegas, NV 89128",
    "phone": "(702) 507-3400",
    "rating": 4.0,
    "reviews": 25,
    "website": "https://caraplasticsurgery.com/",
    "category": "Chinese-American-owned Plastic surgery in Nevada",
    "description": "Offers compassionate, personalized care for a range of aesthetic treatments, with a focus on natural, transformative results",
    "hours": "Mon-Fri 9AM-6PM",
    "services": [
      "Chinese-American-owned Plastic surgery in Nevada consultation",
      "Professional service",
      "Quality guarantee"
    ],
    "social_links": {}
  },
  {
    "name": "Hankins and Sohn Plastic Surgery",
    "address": "7330 Smoke Ranch Road, Las Vegas, NV 89128",
    "phone": "(702) 259-4000",
    "rating": 4.0,
    "reviews": 25,
    "website": "https://www.hankinsandsohn.com/",
    "category": "Chinese-American-owned Plastic surgery in Nevada",
    "description": "Provides plastic surgery services with a focus on patient well-being, regaining body image, and achieving results that exceed expectations",
    "hours": "Mon-Fri 9AM-6PM",
    "services": [
      "Chinese-American-owned Plastic surgery in Nevada consultation",
      "Professional service",
      "Quality guarantee"
    ],
    "social_links": {}
  },
  {
    "name": "Dr. Christopher Costa (Platinum Plastic Surgery)",
    "address": "7710 W. Sahara Ave, Las Vegas, NV 89117",
    "phone": "(702) 470-2000",
    "rating": 4.8,
    "reviews": 25,
    "website": "https://www.platinumpast.com/",
    "category": "Chinese-American-owned Plastic surgery in Nevada",
    "description": "A board-certified plastic surgeon specializing in various procedures, including Asian eyelid surgery, and known for achieving excellent results",
    "hours": "Mon-Fri 9AM-6PM",
    "services": [
      "Chinese-American-owned Plastic surgery in Nevada consultation",
      "Professional service",
      "Quality guarantee"
    ],
    "social_links": {}
  },
  {
    "name": "Dr. Mehdi Sina (Facial Plastic Surgeon)",
    "address": "(Address not specified in search results, but mentioned in Las Vegas)",
    "phone": "",
    "rating": 5.0,
    "reviews": 25,
    "website": "https://www.google.com/maps/search/Dr.+Mehdi+Sina+(Facial+Plastic+Surgeon)+in+Nevada",
    "category": "Chinese-American-owned Plastic surgery in Nevada",
    "description": "A facial plastic surgeon with a strong reputation for lip filler and other facial procedures, with patients traveling from out of state for his services",
    "hours": "Mon-Fri 9AM-6PM",
    "services": [
      "Chinese-American-owned Plastic surgery in Nevada consultation",
      "Professional service",
      "Quality guarantee"
    ],
    "social_links": {}
  }
]