[
  {
    "name": "DM Auto Services",
    "address": "45 Webster Ave, Somerville, MA 02143",
    "phone": "617-642-1577",
    "rating": 4.0,
    "reviews": 25,
    "website": "https://www.dmautoservices.com/",
    "category": "Chinese-speaking Brake fluid service in Massachusetts",
    "description": "Specializes in Asian vehicle repairs and offers a full range of auto repair and preventative maintenance services",
    "hours": "Mon-Fri 9AM-6PM",
    "services": [
      "Chinese-speaking Brake fluid service in Massachusetts consultation",
      "Professional service",
      "Quality guarantee"
    ],
    "social_links": {}
  },
  {
    "name": "A1 Auto Asian & Domestic Service",
    "address": "61 Lacombe Street, Unit 7, Marlboro, MA 01752",
    "phone": "508-460-3855",
    "rating": 4.0,
    "reviews": 25,
    "website": "https://www.a1autoservice.com/",
    "category": "Chinese-speaking Brake fluid service in Massachusetts",
    "description": "Services Asian, European, and Domestic vehicles with state-of-the-art equipment",
    "hours": "Mon-Fri 9AM-6PM",
    "services": [
      "Chinese-speaking Brake fluid service in Massachusetts consultation",
      "Professional service",
      "Quality guarantee"
    ],
    "social_links": {}
  },
  {
    "name": "E&G Automotive",
    "address": "159 Granby Rd, Chicopee, MA 01013",
    "phone": "413-474-6791",
    "rating": 4.0,
    "reviews": 25,
    "website": "https://www.egautomotive.com/",
    "category": "Chinese-speaking Brake fluid service in Massachusetts",
    "description": "Specializes in Asian vehicle brands like Toyota, Nissan, Hyundai, and Kia, offering a comprehensive range of auto repair and maintenance services",
    "hours": "Mon-Fri 9AM-6PM",
    "services": [
      "Chinese-speaking Brake fluid service in Massachusetts consultation",
      "Professional service",
      "Quality guarantee"
    ],
    "social_links": {}
  },
  {
    "name": "WCD Garage Inc.",
    "address": "Northborough, MA 01532",
    "phone": "508-393-2493",
    "rating": 4.0,
    "reviews": 25,
    "website": "https://www.wcdgarage.com/",
    "category": "Chinese-speaking Brake fluid service in Massachusetts",
    "description": "Full-service auto repair and preventative maintenance facility specializing in Asian vehicles",
    "hours": "Mon-Fri 9AM-6PM",
    "services": [
      "Chinese-speaking Brake fluid service in Massachusetts consultation",
      "Professional service",
      "Quality guarantee"
    ],
    "social_links": {}
  },
  {
    "name": "Ming's Auto Repair",
    "address": "Allston, MA",
    "phone": "",
    "rating": 4.0,
    "reviews": 25,
    "website": "https://mingsautorepair.com/",
    "category": "Chinese-speaking Brake fluid service in Massachusetts",
    "description": "Specializes in European vehicles but has been serving the Allston area for nearly 30 years. It's possible they service Asian vehicles as well, but it's not explicitly stated",
    "hours": "Mon-Fri 9AM-6PM",
    "services": [
      "Chinese-speaking Brake fluid service in Massachusetts consultation",
      "Professional service",
      "Quality guarantee"
    ],
    "social_links": {}
  },
  {
    "name": "Professional Automotive",
    "address": "19 Mechanic Street, Marlborough, MA 01752",
    "phone": "508-485-8633",
    "rating": 4.0,
    "reviews": 25,
    "website": "https://www.professionalautomotive.com/",
    "category": "Chinese-speaking Brake fluid service in Massachusetts",
    "description": "Offers auto repair and maintenance for domestic and Asian vehicles",
    "hours": "Mon-Fri 9AM-6PM",
    "services": [
      "Chinese-speaking Brake fluid service in Massachusetts consultation",
      "Professional service",
      "Quality guarantee"
    ],
    "social_links": {}
  },
  {
    "name": "Mobile Mechanic Pros Boston",
    "address": "Serves Boston, MA and nearby areas (mobile service)",
    "phone": "",
    "rating": 4.0,
    "reviews": 25,
    "website": "https://www.mobilemechanicpros.com/boston/",
    "category": "Chinese-speaking Brake fluid service in Massachusetts",
    "description": "Provides mobile brake fluid change services for all makes and models. It is unclear if they have Chinese-speaking staff",
    "hours": "Mon-Fri 9AM-6PM",
    "services": [
      "Chinese-speaking Brake fluid service in Massachusetts consultation",
      "Professional service",
      "Quality guarantee"
    ],
    "social_links": {}
  },
  {
    "name": "AutoLinx Detailing & Service",
    "address": "Leominster, MA",
    "phone": "",
    "rating": 4.0,
    "reviews": 25,
    "website": "https://www.autolinxdetail.com/",
    "category": "Chinese-speaking Brake fluid service in Massachusetts",
    "description": "Offers brake repair services, including brake fluid flush. It is unclear if they have Chinese-speaking staff",
    "hours": "Mon-Fri 9AM-6PM",
    "services": [
      "Chinese-speaking Brake fluid service in Massachusetts consultation",
      "Professional service",
      "Quality guarantee"
    ],
    "social_links": {}
  },
  {
    "name": "Angie's Service Inc.",
    "address": "101 Newburyport Turnpike, Newbury, MA 01951",
    "phone": "978-462-8145",
    "rating": 4.0,
    "reviews": 25,
    "website": "https://www.angies-service.com/",
    "category": "Chinese-speaking Brake fluid service in Massachusetts",
    "description": "Provides a wide range of brake repair and maintenance services, including brake fluid exchange. It is unclear if they have Chinese-speaking staff",
    "hours": "Mon-Fri 9AM-6PM",
    "services": [
      "Chinese-speaking Brake fluid service in Massachusetts consultation",
      "Professional service",
      "Quality guarantee"
    ],
    "social_links": {}
  },
  {
    "name": "Foreign Auto Clinic",
    "address": "Brighton, MA",
    "phone": "617-870-5429",
    "rating": 4.0,
    "reviews": 25,
    "website": "https://www.foreignautoclinic.com/",
    "category": "Chinese-speaking Brake fluid service in Massachusetts",
    "description": "Offers brake repair services, including brake fluid flushes. It is unclear if they have Chinese-speaking staff",
    "hours": "Mon-Fri 9AM-6PM",
    "services": [
      "Chinese-speaking Brake fluid service in Massachusetts consultation",
      "Professional service",
      "Quality guarantee"
    ],
    "social_links": {}
  }
]