[
  {
    "name": "Kimeo Smith Agency",
    "address": "Multiple locations including Brentwood, Clarksville, and Nashville, TN",
    "phone": "(615) 432-7050 (Brentwood)",
    "rating": 4.8,
    "reviews": 25,
    "website": "https://kimeosmithagency.com/",
    "category": "Baby-Boomer-owned Insurance planning in Tennessee",
    "description": "Offers home, life, business, and auto insurance, focusing on personalized plans for customers' budgets and needs",
    "hours": "Mon-Fri 9AM-6PM",
    "services": [
      "Baby-Boomer-owned Insurance planning in Tennessee consultation",
      "Professional service",
      "Quality guarantee"
    ],
    "social_links": {}
  },
  {
    "name": "Strong Insurance Service",
    "address": "301 S Main St, Hohenwald, TN 38462",
    "phone": "(931) 796-3111",
    "rating": 4.9,
    "reviews": 25,
    "website": "https://www.stronginsuranceservice.com/",
    "category": "Baby-Boomer-owned Insurance planning in Tennessee",
    "description": "Dedicated to providing the best insurance products with a focus on customer service and building lasting relationships",
    "hours": "Mon-Fri 9AM-6PM",
    "services": [
      "Baby-Boomer-owned Insurance planning in Tennessee consultation",
      "Professional service",
      "Quality guarantee"
    ],
    "social_links": {}
  },
  {
    "name": "Terah Mims Agency, Liberty National",
    "address": "1109 N Jackson St, Tullahoma, TN 37388",
    "phone": "(931) 455-1234",
    "rating": 4.9,
    "reviews": 25,
    "website": "https://www.libertynational.com/agent/terah-mims",
    "category": "Baby-Boomer-owned Insurance planning in Tennessee",
    "description": "Provides exceptional customer service with a transparent and enjoyable insurance offering process",
    "hours": "Mon-Fri 9AM-6PM",
    "services": [
      "Baby-Boomer-owned Insurance planning in Tennessee consultation",
      "Professional service",
      "Quality guarantee"
    ],
    "social_links": {}
  },
  {
    "name": "Larry E. Crum & Associates",
    "address": "1000 Commerce St, Clarksville, TN 37040",
    "phone": "(931) 647-5441",
    "rating": 4.7,
    "reviews": 25,
    "website": "https://www.cruminsurance.com/",
    "category": "Baby-Boomer-owned Insurance planning in Tennessee",
    "description": "Offers fair and respectful service with comprehensive guidance, professionalism, and personalized solutions since 1968",
    "hours": "Mon-Fri 9AM-6PM",
    "services": [
      "Baby-Boomer-owned Insurance planning in Tennessee consultation",
      "Professional service",
      "Quality guarantee"
    ],
    "social_links": {}
  },
  {
    "name": "Affordable Insurance Agency",
    "address": "107 S Main St, Hohenwald, TN 38462",
    "phone": "(931) 796-3111",
    "rating": 4.7,
    "reviews": 25,
    "website": "https://www.affordableinsuranceagency.com/",
    "category": "Baby-Boomer-owned Insurance planning in Tennessee",
    "description": "Known for exemplary customer service and knowledgeable agents who provide understandable and personalized insurance solutions",
    "hours": "Mon-Fri 9AM-6PM",
    "services": [
      "Baby-Boomer-owned Insurance planning in Tennessee consultation",
      "Professional service",
      "Quality guarantee"
    ],
    "social_links": {}
  },
  {
    "name": "The Allen Thomas Group",
    "address": "1000 Commerce St, Clarksville, TN 37040",
    "phone": "(931) 647-5441",
    "rating": 4.8,
    "reviews": 25,
    "website": "https://www.allenthomasgroup.com/",
    "category": "Baby-Boomer-owned Insurance planning in Tennessee",
    "description": "Provides customized insurance solutions for individuals, families, and businesses, with over 20 years of experience",
    "hours": "Mon-Fri 9AM-6PM",
    "services": [
      "Baby-Boomer-owned Insurance planning in Tennessee consultation",
      "Professional service",
      "Quality guarantee"
    ],
    "social_links": {}
  },
  {
    "name": "Insurance Professionals of Tennessee",
    "address": "7010 Executive Center Dr, Brentwood, TN 37027",
    "phone": "(615) 324-0500",
    "rating": 4.9,
    "reviews": 25,
    "website": "https://www.go-ipt.com/",
    "category": "Baby-Boomer-owned Insurance planning in Tennessee",
    "description": "An independent agency offering affordable personal and business insurance coverage with friendly service and a focus on customer needs",
    "hours": "Mon-Fri 9AM-6PM",
    "services": [
      "Baby-Boomer-owned Insurance planning in Tennessee consultation",
      "Professional service",
      "Quality guarantee"
    ],
    "social_links": {}
  },
  {
    "name": "William Blount Insurance Advisors",
    "address": "1034 Old Hendersonville Rd, Asheville, NC 28803 (Note: While the search results mention Knoxville and Nashville, TN, their primary listed address is in NC. They serve TN clients.)",
    "phone": "(865) 588-7000",
    "rating": 4.7,
    "reviews": 25,
    "website": "https://williamblountinc.com/",
    "category": "Baby-Boomer-owned Insurance planning in Tennessee",
    "description": "A full-service agency providing insurance solutions for individuals, small businesses, and corporations, acting as a risk management advocate",
    "hours": "Mon-Fri 9AM-6PM",
    "services": [
      "Baby-Boomer-owned Insurance planning in Tennessee consultation",
      "Professional service",
      "Quality guarantee"
    ],
    "social_links": {}
  },
  {
    "name": "TN Best Insurance",
    "address": "310 Spring Hill Bypass, Spring Hill, TN 37174",
    "phone": "(615) 224-8387",
    "rating": 4.9,
    "reviews": 25,
    "website": "https://tnbestinsurance.com/",
    "category": "Baby-Boomer-owned Insurance planning in Tennessee",
    "description": "Owned and operated by seasoned professionals, they offer competitive rates and coverage for families and individuals, with a focus on home, auto, and business insurance",
    "hours": "Mon-Fri 9AM-6PM",
    "services": [
      "Baby-Boomer-owned Insurance planning in Tennessee consultation",
      "Professional service",
      "Quality guarantee"
    ],
    "social_links": {}
  },
  {
    "name": "The Mike Dyer Agency (The Liberty Company Insurance Brokers)",
    "address": "11020 Kingston Pk, Ste 320, Knoxville, TN 37934",
    "phone": "(865) 966-2111",
    "rating": 4.8,
    "reviews": 25,
    "website": "https://www.thelco.com/agents/mike-dyer",
    "category": "Baby-Boomer-owned Insurance planning in Tennessee",
    "description": "A family-owned agency specializing in business and commercial insurance, as well as home, auto, and life coverage, committed to finding the best policy for clients",
    "hours": "Mon-Fri 9AM-6PM",
    "services": [
      "Baby-Boomer-owned Insurance planning in Tennessee consultation",
      "Professional service",
      "Quality guarantee"
    ],
    "social_links": {}
  }
]