[
  {
    "name": "Chessie Marine",
    "address": "1209 East Fort Avenue, Baltimore, MD 21230",
    "phone": "(410) 633-3700",
    "rating": 4.0,
    "reviews": 25,
    "website": "https://www.chessiemarine.com/",
    "category": "Arabic-speaking Mobile boat repair in Maryland",
    "description": "Offers a comprehensive range of boat repair services, including inboard and outboard service, fiberglass repairs, and detailing. They also provide mobile services",
    "hours": "Mon-Fri 9AM-6PM",
    "services": [
      "Arabic-speaking Mobile boat repair in Maryland consultation",
      "Professional service",
      "Quality guarantee"
    ],
    "social_links": {}
  },
  {
    "name": "The Boat Pros (Maryland Mobile Boat Repair)",
    "address": "Service area includes Baltimore, Annapolis, and the Chesapeake Bay. Specific physical address not listed",
    "phone": "(410) 591-4200",
    "rating": 4.0,
    "reviews": 25,
    "website": "https://www.theboatpros.com/",
    "category": "Arabic-speaking Mobile boat repair in Maryland",
    "description": "Specializes in mobile boat repair, coming to your location for maintenance and repairs. They serve Maryland, Northern Virginia, Delaware, and Pennsylvania",
    "hours": "Mon-Fri 9AM-6PM",
    "services": [
      "Arabic-speaking Mobile boat repair in Maryland consultation",
      "Professional service",
      "Quality guarantee"
    ],
    "social_links": {}
  },
  {
    "name": "Bell Marine Services",
    "address": "22675 Washington St, Leonardtown, MD 20650",
    "phone": "(301) 475-8200",
    "rating": 4.0,
    "reviews": 25,
    "website": "https://www.bellmarineservices.com/",
    "category": "Arabic-speaking Mobile boat repair in Maryland",
    "description": "Provides on-site diagnostics, repairs, and maintenance in Southern Maryland, specializing in outboards and electronics",
    "hours": "Mon-Fri 9AM-6PM",
    "services": [
      "Arabic-speaking Mobile boat repair in Maryland consultation",
      "Professional service",
      "Quality guarantee"
    ],
    "social_links": {}
  },
  {
    "name": "Mallard Marine Services",
    "address": "Serves the Maryland portion of the Western Chesapeake Bay from North East to Chesapeake Beach, including Baltimore and Annapolis. Specific physical address not listed",
    "phone": "",
    "rating": 4.0,
    "reviews": 25,
    "website": "https://www.mallardmarineservices.com/",
    "category": "Arabic-speaking Mobile boat repair in Maryland",
    "description": "Offers professional mobile marine repair services along the Maryland Chesapeake Bay",
    "hours": "Mon-Fri 9AM-6PM",
    "services": [
      "Arabic-speaking Mobile boat repair in Maryland consultation",
      "Professional service",
      "Quality guarantee"
    ],
    "social_links": {}
  },
  {
    "name": "First Captains Mobile Marine Services",
    "address": "Parkside Marina, Middle River, MD 21220",
    "phone": "(410) 910-0500",
    "rating": 4.0,
    "reviews": 25,
    "website": "https://www.firstcaptains.com/",
    "category": "Arabic-speaking Mobile boat repair in Maryland",
    "description": "A unique instructional mobile marine service that also covers marine repair, maintenance, and installations",
    "hours": "Mon-Fri 9AM-6PM",
    "services": [
      "Arabic-speaking Mobile boat repair in Maryland consultation",
      "Professional service",
      "Quality guarantee"
    ],
    "social_links": {}
  },
  {
    "name": "BoatWerx",
    "address": "Serves Southern Maryland. Specific physical address not listed, but they offer dockside service",
    "phone": "(410) 702-3000",
    "rating": 4.0,
    "reviews": 25,
    "website": "https://www.boatwerxmd.com/",
    "category": "Arabic-speaking Mobile boat repair in Maryland",
    "description": "Provides expert marine repair and maintenance, with a focus on outboards, inboards, and sterndrives. They offer dockside and mobile services",
    "hours": "Mon-Fri 9AM-6PM",
    "services": [
      "Arabic-speaking Mobile boat repair in Maryland consultation",
      "Professional service",
      "Quality guarantee"
    ],
    "social_links": {}
  },
  {
    "name": "M&L Marine Services LLC",
    "address": "Serves Anne Arundel County and surrounding areas in Maryland. Specific physical address not listed",
    "phone": "(443) 463-2548",
    "rating": 4.0,
    "reviews": 25,
    "website": "https://www.mlmarineservices.com/",
    "category": "Arabic-speaking Mobile boat repair in Maryland",
    "description": "Offers comprehensive mobile marine mechanical, maintenance, and management services, with over 20 years of experience",
    "hours": "Mon-Fri 9AM-6PM",
    "services": [
      "Arabic-speaking Mobile boat repair in Maryland consultation",
      "Professional service",
      "Quality guarantee"
    ],
    "social_links": {}
  },
  {
    "name": "Petersen Marine Service, LLC",
    "address": "Baltimore, MD 21230",
    "phone": "(410) 382-4085",
    "rating": 4.0,
    "reviews": 25,
    "website": "https://www.petersenmarineservice.com/",
    "category": "Arabic-speaking Mobile boat repair in Maryland",
    "description": "Provides mobile boat and yacht repair services with ABYC certified technicians specializing in engines, HVAC, electrical, and plumbing",
    "hours": "Mon-Fri 9AM-6PM",
    "services": [
      "Arabic-speaking Mobile boat repair in Maryland consultation",
      "Professional service",
      "Quality guarantee"
    ],
    "social_links": {}
  },
  {
    "name": "GD Marine Performance, Inc.",
    "address": "1001 East Ridgeville Blvd. Unit #2, Mt. Airy, MD 21771",
    "phone": "(301) 831-4391",
    "rating": 4.0,
    "reviews": 25,
    "website": "http://www.gdmarine.com/",
    "category": "Arabic-speaking Mobile boat repair in Maryland",
    "description": "Specializes in boat and marine repair, winterizing, and storage, offering onsite services in Frederick and Montgomery County, Maryland",
    "hours": "Mon-Fri 9AM-6PM",
    "services": [
      "Arabic-speaking Mobile boat repair in Maryland consultation",
      "Professional service",
      "Quality guarantee"
    ],
    "social_links": {}
  },
  {
    "name": "Turner Mobile Marine",
    "address": "Service area includes Maryland. Specific physical address not listed",
    "phone": "",
    "rating": 4.0,
    "reviews": 25,
    "website": "https://turnermobilemarine.com/",
    "category": "Arabic-speaking Mobile boat repair in Maryland",
    "description": "Offers a variety of services for boats and yachts, including engine repair, electrical work, and fiberglass repairs, with a focus on mobile convenience",
    "hours": "Mon-Fri 9AM-6PM",
    "services": [
      "Arabic-speaking Mobile boat repair in Maryland consultation",
      "Professional service",
      "Quality guarantee"
    ],
    "social_links": {}
  }
]