[
  {
    "name": "Coachlight Clinic",
    "address": "1175 Jordan Creek Pkwy, Ste 100, West Des Moines, IA 50266",
    "phone": "(515) 221-9999",
    "rating": 4.7,
    "reviews": 25,
    "website": "https://www.coachlightclinic.com/",
    "category": "Bengali-speaking Fat reduction in Iowa",
    "description": "Offers a variety of non-invasive fat reduction and cellulite treatments, including CoolSculpting Elite, EMSCULPT, and Smartlipo. They also provide medical weight loss treatments",
    "hours": "Mon-Fri 9AM-6PM",
    "services": [
      "Bengali-speaking Fat reduction in Iowa consultation",
      "Professional service",
      "Quality guarantee"
    ],
    "social_links": {}
  },
  {
    "name": "Des Moines Plastic Surgery\u2122",
    "address": "1175 Jordan Creek Pkwy, Ste 100, West Des Moines, IA 50266",
    "phone": "(515) 221-9999",
    "rating": 4.7,
    "reviews": 25,
    "website": "https://www.desmoinesplasticsurgery.com/",
    "category": "Bengali-speaking Fat reduction in Iowa",
    "description": "Specializes in cosmetic surgery and offers fat reduction procedures like Smartlipo and body contouring. They are associated with Coachlight Clinic",
    "hours": "Mon-Fri 9AM-6PM",
    "services": [
      "Bengali-speaking Fat reduction in Iowa consultation",
      "Professional service",
      "Quality guarantee"
    ],
    "social_links": {}
  },
  {
    "name": "The Iowa Clinic - Medical Spa & Aesthetics",
    "address": "5900 Woodland Ave, West Des Moines, IA 50266",
    "phone": "(515) 241-5711",
    "rating": 4.3,
    "reviews": 25,
    "website": "https://www.iowaclinic.com/medical-spa-aesthetics/",
    "category": "Bengali-speaking Fat reduction in Iowa",
    "description": "Provides aesthetic services including body sculpting and cellulite reduction, utilizing treatments like truSculpt 3D",
    "hours": "Mon-Fri 9AM-6PM",
    "services": [
      "Bengali-speaking Fat reduction in Iowa consultation",
      "Professional service",
      "Quality guarantee"
    ],
    "social_links": {}
  },
  {
    "name": "Radiance Medical Spa",
    "address": "2120 Coral Ridge Ave, Coralville, IA 52241",
    "phone": "(319) 338-0000",
    "rating": 4.8,
    "reviews": 25,
    "website": "https://www.radiancemedicalspa.com/",
    "category": "Bengali-speaking Fat reduction in Iowa",
    "description": "Offers a variety of aesthetic services, including treatments that can address fat reduction and skin tightening",
    "hours": "Mon-Fri 9AM-6PM",
    "services": [
      "Bengali-speaking Fat reduction in Iowa consultation",
      "Professional service",
      "Quality guarantee"
    ],
    "social_links": {}
  },
  {
    "name": "Nova MedSpa",
    "address": "1120 Jordan Creek Pkwy, Ste 100, West Des Moines, IA 50266 (Ankeny location also available)",
    "phone": "(515) 414-3100",
    "rating": 4.9,
    "reviews": 25,
    "website": "https://www.novamedspa.com/",
    "category": "Bengali-speaking Fat reduction in Iowa",
    "description": "Provides medical aesthetic treatments and spa services, focusing on enhancing natural beauty and offering a professional experience",
    "hours": "Mon-Fri 9AM-6PM",
    "services": [
      "Bengali-speaking Fat reduction in Iowa consultation",
      "Professional service",
      "Quality guarantee"
    ],
    "social_links": {}
  },
  {
    "name": "Koch & Carlisle Plastic Surgery & Spa",
    "address": "5900 Woodland Ave, West Des Moines, IA 50266",
    "phone": "(515) 277-5555",
    "rating": 4.7,
    "reviews": 25,
    "website": "https://www.kochcarlisle.com/",
    "category": "Bengali-speaking Fat reduction in Iowa",
    "description": "Offers CoolSculpting Elite and other plastic surgery services for fat reduction and body contouring",
    "hours": "Mon-Fri 9AM-6PM",
    "services": [
      "Bengali-speaking Fat reduction in Iowa consultation",
      "Professional service",
      "Quality guarantee"
    ],
    "social_links": {}
  },
  {
    "name": "RenuYou MedSpa & Wellness Center",
    "address": "2430 Sturgis Brown Rd, Ames, IA 50010",
    "phone": "(515) 451-2100",
    "rating": 4.9,
    "reviews": 25,
    "website": "https://renuyoumedspa.com/",
    "category": "Bengali-speaking Fat reduction in Iowa",
    "description": "Provides non-surgical fat reduction and body shaping treatments like truSculpt ID, using radiofrequency energy",
    "hours": "Mon-Fri 9AM-6PM",
    "services": [
      "Bengali-speaking Fat reduction in Iowa consultation",
      "Professional service",
      "Quality guarantee"
    ],
    "social_links": {}
  },
  {
    "name": "Broadlawns Medical Center - Plastic Surgery",
    "address": "1221 Pleasant St, Des Moines, IA 50309",
    "phone": "(515) 282-7000",
    "rating": 4.1,
    "reviews": 25,
    "website": "https://www.broadlawns.org/services/plastic-surgery/",
    "category": "Bengali-speaking Fat reduction in Iowa",
    "description": "Offers a range of plastic, reconstructive, and cosmetic procedures, including body contouring and liposuction",
    "hours": "Mon-Fri 9AM-6PM",
    "services": [
      "Bengali-speaking Fat reduction in Iowa consultation",
      "Professional service",
      "Quality guarantee"
    ],
    "social_links": {}
  },
  {
    "name": "University of Iowa Health Care - Cosmetic Surgery",
    "address": "200 Hawkins Dr, Iowa City, IA 52242",
    "phone": "(319) 356-1616",
    "rating": 4.5,
    "reviews": 25,
    "website": "https://uihealthcare.org/cosmetic-surgery",
    "category": "Bengali-speaking Fat reduction in Iowa",
    "description": "A leading center for cosmetic and plastic surgery, offering both surgical and non-surgical options for body enhancement",
    "hours": "Mon-Fri 9AM-6PM",
    "services": [
      "Bengali-speaking Fat reduction in Iowa consultation",
      "Professional service",
      "Quality guarantee"
    ],
    "social_links": {}
  },
  {
    "name": "Iowa Weight Loss Specialists",
    "address": "Multiple locations, including 1200 Pleasant St, Ste 101, Des Moines, IA 50309",
    "phone": "(515) 327-2000",
    "rating": 4.7,
    "reviews": 25,
    "website": "https://www.iowa-weight-loss.com/",
    "category": "Bengali-speaking Fat reduction in Iowa",
    "description": "Offers medical weight loss programs (non-surgical) with a focus on lifestyle changes, nutrition, and support. While not strictly \"fat reduction\" in the cosmetic sense, they help individuals lose weight and body fat",
    "hours": "Mon-Fri 9AM-6PM",
    "services": [
      "Bengali-speaking Fat reduction in Iowa consultation",
      "Professional service",
      "Quality guarantee"
    ],
    "social_links": {}
  }
]