[
  {
    "name": "KCraft Insurance Agency",
    "address": "3333 S Wadsworth Blvd, Suite 333, Lakewood, CO 80227",
    "phone": "303-526-1455",
    "rating": 4.0,
    "reviews": 25,
    "website": "https://www.kcraftins.com/",
    "category": "Catholic-owned Casualty insurance in Colorado",
    "description": "KCraft Insurance Agency is run by Catholic professionals dedicated to providing insurance protection",
    "hours": "Mon-Fri 9AM-6PM",
    "services": [
      "Catholic-owned Casualty insurance in Colorado consultation",
      "Professional service",
      "Quality guarantee"
    ],
    "social_links": {}
  },
  {
    "name": "Catholic Charities of Central Colorado",
    "address": "228 North Cascade Ave, Colorado Springs, CO 80903 (Main Office)",
    "phone": "(719) 636-2344",
    "rating": 4.0,
    "reviews": 25,
    "website": "https://www.ccharitiescc.org/",
    "category": "Catholic-owned Casualty insurance in Colorado",
    "description": "While primarily a social service organization, they offer counseling and therapeutic services that may involve insurance",
    "hours": "Mon-Fri 9AM-6PM",
    "services": [
      "Catholic-owned Casualty insurance in Colorado consultation",
      "Professional service",
      "Quality guarantee"
    ],
    "social_links": {}
  },
  {
    "name": "Catholic Financial Life",
    "address": "1100 W. Wells Street, Milwaukee, WI 53233 (Headquarters)",
    "phone": "1-800-927-2547",
    "rating": 4.0,
    "reviews": 25,
    "website": "https://www.catholicfinanciallife.org/",
    "category": "Catholic-owned Casualty insurance in Colorado",
    "description": "A fraternal organization offering life insurance and annuity products, licensed in Colorado",
    "hours": "Mon-Fri 9AM-6PM",
    "services": [
      "Catholic-owned Casualty insurance in Colorado consultation",
      "Professional service",
      "Quality guarantee"
    ],
    "social_links": {}
  },
  {
    "name": "Catholic Order of Foresters",
    "address": "320 Huntington Commons, P.O. Box 3012, Rolling Meadows, IL 60008-2247 (Headquarters)",
    "phone": "800-552-0145",
    "rating": 4.0,
    "reviews": 25,
    "website": "https://www.catholicforester.org/",
    "category": "Catholic-owned Casualty insurance in Colorado",
    "description": "Offers life insurance and annuity products that align with Catholic principles",
    "hours": "Mon-Fri 9AM-6PM",
    "services": [
      "Catholic-owned Casualty insurance in Colorado consultation",
      "Professional service",
      "Quality guarantee"
    ],
    "social_links": {}
  },
  {
    "name": "Knights of Columbus",
    "address": "Multiple agents throughout Colorado. For example, Andrew Wheaton Agency in Lakewood, CO",
    "phone": "303-427-5056 (Lakewood, CO office)",
    "rating": 4.0,
    "reviews": 25,
    "website": "https://www.kofc.org/",
    "category": "Catholic-owned Casualty insurance in Colorado",
    "description": "Provides a range of insurance products including life, disability, and long-term care insurance, as well as retirement annuities",
    "hours": "Mon-Fri 9AM-6PM",
    "services": [
      "Catholic-owned Casualty insurance in Colorado consultation",
      "Professional service",
      "Quality guarantee"
    ],
    "social_links": {}
  },
  {
    "name": "Archdiocese of Denver Risk Management and Property/Casualty Trust",
    "address": "1300 S. Potomac Street, Suite 100, Denver, CO 80246",
    "phone": "303-298-9056",
    "rating": 4.0,
    "reviews": 25,
    "website": "https://archden.org/mission-support/risk-management/",
    "category": "Catholic-owned Casualty insurance in Colorado",
    "description": "Administers property and casualty insurance for the Archdiocese and related organizations",
    "hours": "Mon-Fri 9AM-6PM",
    "services": [
      "Catholic-owned Casualty insurance in Colorado consultation",
      "Professional service",
      "Quality guarantee"
    ],
    "social_links": {}
  },
  {
    "name": "Catholic Mutual Group",
    "address": "400 E. Van Buren Street, Suite 300, Phoenix, AZ 85004 (Regional Office)",
    "phone": "602-264-5100",
    "rating": 4.0,
    "reviews": 25,
    "website": "https://www.catholicmutual.org/",
    "category": "Catholic-owned Casualty insurance in Colorado",
    "description": "Provides property/casualty coverage and related services to Catholic Dioceses and institutions",
    "hours": "Mon-Fri 9AM-6PM",
    "services": [
      "Catholic-owned Casualty insurance in Colorado consultation",
      "Professional service",
      "Quality guarantee"
    ],
    "social_links": {}
  },
  {
    "name": "Catholic Vantage Insurance Agency",
    "address": "Information not readily available for a specific Colorado location. Operates under Banc Insurance Agency (BIA)",
    "phone": "",
    "rating": 4.0,
    "reviews": 25,
    "website": "https://www.catholicvantage.com/",
    "category": "Catholic-owned Casualty insurance in Colorado",
    "description": "Offers special insurance rates negotiated with various insurance companies for members",
    "hours": "Mon-Fri 9AM-6PM",
    "services": [
      "Catholic-owned Casualty insurance in Colorado consultation",
      "Professional service",
      "Quality guarantee"
    ],
    "social_links": {}
  },
  {
    "name": "First Catholic Slovak Ladies Association (FCSLA Life)",
    "address": "20715 Lakeshore Blvd, Euclid, OH 44123 (Headquarters)",
    "phone": "800-552-0145",
    "rating": 4.0,
    "reviews": 25,
    "website": "https://www.fcsla.org/",
    "category": "Catholic-owned Casualty insurance in Colorado",
    "description": "Offers life insurance and annuity products",
    "hours": "Mon-Fri 9AM-6PM",
    "services": [
      "Catholic-owned Casualty insurance in Colorado consultation",
      "Professional service",
      "Quality guarantee"
    ],
    "social_links": {}
  },
  {
    "name": "Catholic Family Fraternal of Texas (KJZT)",
    "address": "1700 S. Lamar Blvd, Austin, TX 78704 (State Office)",
    "phone": "888-253-2338",
    "rating": 4.0,
    "reviews": 25,
    "website": "https://kjzt.org/",
    "category": "Catholic-owned Casualty insurance in Colorado",
    "description": "A fraternal benefit society offering life insurance and annuities, with a focus on supporting Catholic traditions and community service. While primarily serving Texas, their services may extend to other areas or they may have affiliated agents",
    "hours": "Mon-Fri 9AM-6PM",
    "services": [
      "Catholic-owned Casualty insurance in Colorado consultation",
      "Professional service",
      "Quality guarantee"
    ],
    "social_links": {}
  }
]