[
  {
    "name": "The Hitch Corner",
    "address": "5425 S Broadway, Littleton, CO 80121",
    "phone": "(303) 797-3233",
    "rating": 4.8,
    "reviews": 25,
    "website": "https://www.hitchcorner.com/",
    "category": "Central-American-owned Hitch installation in Colorado",
    "description": "A family-owned business with over 50 years of experience, specializing in trailer hitches, truck accessories, and RV solutions. They offer professional installation and a lifetime warranty",
    "hours": "Mon-Fri 9AM-6PM",
    "services": [
      "Central-American-owned Hitch installation in Colorado consultation",
      "Professional service",
      "Quality guarantee"
    ],
    "social_links": {}
  },
  {
    "name": "Autoplex Restyling Centers",
    "address": "Multiple locations including:",
    "phone": "(303) 237-9872 (Lakewood), (970) 224-4479 (Loveland), (303) 684-0843 (Longmont)",
    "rating": 4.0,
    "reviews": 25,
    "website": "https://www.autoplexrestyling.com/",
    "category": "Central-American-owned Hitch installation in Colorado",
    "description": "Offers professional trailer hitch, 5th wheel, and gooseneck hitch installation with competitive pricing. They also provide a wide range of towing accessories",
    "hours": "Mon-Fri 9AM-6PM",
    "services": [
      "Central-American-owned Hitch installation in Colorado consultation",
      "Professional service",
      "Quality guarantee"
    ],
    "social_links": {}
  },
  {
    "name": "K C Truck Performance Center",
    "address": "2380 Naegele Rd, Colorado Springs, CO 80906",
    "phone": "(719) 577-9605",
    "rating": 4.0,
    "reviews": 25,
    "website": "https://kctruckperformance.com/",
    "category": "Central-American-owned Hitch installation in Colorado",
    "description": "Provides professional installation for most trailer hitch types, as well as lift kits and other truck accessories",
    "hours": "Mon-Fri 9AM-6PM",
    "services": [
      "Central-American-owned Hitch installation in Colorado consultation",
      "Professional service",
      "Quality guarantee"
    ],
    "social_links": {}
  },
  {
    "name": "Lampert Hitch",
    "address": "6170 W 58th Ave, Arvada, CO 80002",
    "phone": "(303) 422-7050",
    "rating": 4.0,
    "reviews": 25,
    "website": "https://lamperthitch.com/",
    "category": "Central-American-owned Hitch installation in Colorado",
    "description": "In business since 1955, they offer trailer hitches, snow removal products, and RV services. They have a comprehensive inventory and provide fast, reliable service",
    "hours": "Mon-Fri 9AM-6PM",
    "services": [
      "Central-American-owned Hitch installation in Colorado consultation",
      "Professional service",
      "Quality guarantee"
    ],
    "social_links": {}
  },
  {
    "name": "Jazz It Up Truck & Auto Accessories",
    "address": "7000 E Iliff Ave, Denver, CO 80224",
    "phone": "(303) 750-2100",
    "rating": 4.0,
    "reviews": 25,
    "website": "https://jazzitup.com/",
    "category": "Central-American-owned Hitch installation in Colorado",
    "description": "Offers a wide variety of trailer hitch options for cars, trucks, and SUVs, along with professional installation and advice on towing needs. They also install fifth wheel and gooseneck hitches",
    "hours": "Mon-Fri 9AM-6PM",
    "services": [
      "Central-American-owned Hitch installation in Colorado consultation",
      "Professional service",
      "Quality guarantee"
    ],
    "social_links": {}
  },
  {
    "name": "U-Haul Moving & Storage at Academy Blvd",
    "address": "4370 N Academy Blvd, Colorado Springs, CO 80907",
    "phone": "(719) 591-1011",
    "rating": 4.0,
    "reviews": 25,
    "website": "https://www.uhaul.com/",
    "category": "Central-American-owned Hitch installation in Colorado",
    "description": "Offers a large selection of trailer hitches and towing accessories with installation services. They provide a lifetime hitch warranty for $5 when installed by them",
    "hours": "Mon-Fri 9AM-6PM",
    "services": [
      "Central-American-owned Hitch installation in Colorado consultation",
      "Professional service",
      "Quality guarantee"
    ],
    "social_links": {}
  },
  {
    "name": "U-Haul at Alameda Ave",
    "address": "1200 W Alameda Ave, Denver, CO 80223",
    "phone": "(303) 777-1234",
    "rating": 4.0,
    "reviews": 25,
    "website": "https://www.uhaul.com/",
    "category": "Central-American-owned Hitch installation in Colorado",
    "description": "Provides trailer hitch and installation services, offering a lifetime unlimited hitch warranty for $5 with their installation",
    "hours": "Mon-Fri 9AM-6PM",
    "services": [
      "Central-American-owned Hitch installation in Colorado consultation",
      "Professional service",
      "Quality guarantee"
    ],
    "social_links": {}
  },
  {
    "name": "U-Haul Moving & Storage at Chambers & I-70",
    "address": "11000 E I-70 Frontage Rd, Denver, CO 80239",
    "phone": "(303) 373-0800",
    "rating": 4.0,
    "reviews": 25,
    "website": "https://www.uhaul.com/",
    "category": "Central-American-owned Hitch installation in Colorado",
    "description": "Offers trailer hitch and installation services, including a lifetime unlimited hitch warranty for $5 with their installation",
    "hours": "Mon-Fri 9AM-6PM",
    "services": [
      "Central-American-owned Hitch installation in Colorado consultation",
      "Professional service",
      "Quality guarantee"
    ],
    "social_links": {}
  },
  {
    "name": "etrailer.com (Installer Network)",
    "address": "762 Clark Pl, Colorado Springs, CO 80915 (This is a listed installer, not etrailer's direct location)",
    "phone": "(719) 434-1829 (for the listed installer)",
    "rating": 4.0,
    "reviews": 25,
    "website": "https://www.etrailer.com/",
    "category": "Central-American-owned Hitch installation in Colorado",
    "description": "etrailer.com connects customers with local installers for various towing accessories, including gooseneck and fifth wheel hitches. They specialize in custom-fit trailer wiring harnesses as well",
    "hours": "Mon-Fri 9AM-6PM",
    "services": [
      "Central-American-owned Hitch installation in Colorado consultation",
      "Professional service",
      "Quality guarantee"
    ],
    "social_links": {}
  },
  {
    "name": "D & E Sales",
    "address": "Mulberry Street, Fort Collins, CO (Specific address not provided in search results)",
    "phone": "",
    "rating": 4.0,
    "reviews": 25,
    "website": "https://www.google.com/maps/search/D+&+E+Sales+in+Colorado",
    "category": "Central-American-owned Hitch installation in Colorado",
    "description": "A local business in Fort Collins recommended for hitch installation services",
    "hours": "Mon-Fri 9AM-6PM",
    "services": [
      "Central-American-owned Hitch installation in Colorado consultation",
      "Professional service",
      "Quality guarantee"
    ],
    "social_links": {}
  }
]