[
  {
    "name": "Public Storage",
    "address": "Multiple locations across Florida (e.g., 1376 NW 107th Ave, Miami, FL 33172)",
    "phone": "1-833-741-0742",
    "rating": 4.0,
    "reviews": 25,
    "website": "https://www.publicstorage.com/",
    "category": "Bengali-speaking Self-storage in Florida",
    "description": "A large national chain offering a wide variety of unit sizes, climate-controlled options, and online rental services",
    "hours": "Mon-Fri 9AM-6PM",
    "services": [
      "Bengali-speaking Self-storage in Florida consultation",
      "Professional service",
      "Quality guarantee"
    ],
    "social_links": {}
  },
  {
    "name": "Extra Space Storage",
    "address": "Numerous locations throughout Florida (e.g., 1300 W 49th St, Hialeah, FL 33012)",
    "phone": "1-855-777-0441",
    "rating": 4.2,
    "reviews": 25,
    "website": "https://www.extraspace.com/",
    "category": "Bengali-speaking Self-storage in Florida",
    "description": "Offers a broad range of storage solutions, including climate-controlled units, drive-up access, and vehicle storage, with a strong online presence",
    "hours": "Mon-Fri 9AM-6PM",
    "services": [
      "Bengali-speaking Self-storage in Florida consultation",
      "Professional service",
      "Quality guarantee"
    ],
    "social_links": {}
  },
  {
    "name": "CubeSmart",
    "address": "Multiple facilities across Florida (e.g., 2545 NW 20th St, Miami, FL 33142)",
    "phone": "1-877-282-3768",
    "rating": 4.3,
    "reviews": 25,
    "website": "https://www.cubesmart.com/",
    "category": "Bengali-speaking Self-storage in Florida",
    "description": "Provides secure and convenient self-storage options with features like climate control, 24-hour video recording, and easy online rental",
    "hours": "Mon-Fri 9AM-6PM",
    "services": [
      "Bengali-speaking Self-storage in Florida consultation",
      "Professional service",
      "Quality guarantee"
    ],
    "social_links": {}
  },
  {
    "name": "U-Haul Moving & Storage",
    "address": "Many locations in Florida (e.g., 6150 W 20th Ave, Hialeah, FL 33016)",
    "phone": "1-800-468-4285",
    "rating": 3.8,
    "reviews": 25,
    "website": "https://www.uhaul.com/",
    "category": "Bengali-speaking Self-storage in Florida",
    "description": "Known for moving services, U-Haul also offers a wide network of storage facilities with various unit sizes and climate-controlled options",
    "hours": "Mon-Fri 9AM-6PM",
    "services": [
      "Bengali-speaking Self-storage in Florida consultation",
      "Professional service",
      "Quality guarantee"
    ],
    "social_links": {}
  },
  {
    "name": "Store Space Self Storage",
    "address": "Several locations in Florida (e.g., 1517 E Fowler Ave, Tampa, FL 33612)",
    "phone": "1-833-786-7368",
    "rating": 4.5,
    "reviews": 25,
    "website": "https://www.storespace.com/",
    "category": "Bengali-speaking Self-storage in Florida",
    "description": "Offers a variety of storage unit sizes and amenities, with a focus on clean facilities and customer service, including online rentals",
    "hours": "Mon-Fri 9AM-6PM",
    "services": [
      "Bengali-speaking Self-storage in Florida consultation",
      "Professional service",
      "Quality guarantee"
    ],
    "social_links": {}
  },
  {
    "name": "Life Storage",
    "address": "Numerous facilities across Florida (e.g., 102 N 20th St, Tampa, FL 33605)",
    "phone": "1-855-543-3786",
    "rating": 4.1,
    "reviews": 25,
    "website": "https://www.lifestorage.com/",
    "category": "Bengali-speaking Self-storage in Florida",
    "description": "Provides a wide range of storage unit sizes, climate-controlled options, and convenient access, with a strong online platform for rentals",
    "hours": "Mon-Fri 9AM-6PM",
    "services": [
      "Bengali-speaking Self-storage in Florida consultation",
      "Professional service",
      "Quality guarantee"
    ],
    "social_links": {}
  },
  {
    "name": "Storage King USA",
    "address": "Multiple locations in Florida (e.g., 6648 Youngerman Circle, Jacksonville, FL 32244)",
    "phone": "1-844-874-4333",
    "rating": 4.0,
    "reviews": 25,
    "website": "https://www.storagekingusa.com/",
    "category": "Bengali-speaking Self-storage in Florida",
    "description": "Offers secure storage solutions with features like climate control, video surveillance, and various unit sizes, serving both personal and business needs",
    "hours": "Mon-Fri 9AM-6PM",
    "services": [
      "Bengali-speaking Self-storage in Florida consultation",
      "Professional service",
      "Quality guarantee"
    ],
    "social_links": {}
  },
  {
    "name": "Prime Storage",
    "address": "Several locations in Florida (e.g., 1000 Hialeah Drive, Hialeah, FL 33010)",
    "phone": "1-844-746-3786",
    "rating": 4.4,
    "reviews": 25,
    "website": "https://www.primestorage.com/",
    "category": "Bengali-speaking Self-storage in Florida",
    "description": "Provides a range of storage options, including climate-controlled units and vehicle storage, with a focus on customer service and convenience",
    "hours": "Mon-Fri 9AM-6PM",
    "services": [
      "Bengali-speaking Self-storage in Florida consultation",
      "Professional service",
      "Quality guarantee"
    ],
    "social_links": {}
  },
  {
    "name": "iStorage",
    "address": "Multiple facilities in Florida (e.g., 6401 NW 120th Ln, Alachua, FL 32615)",
    "phone": "1-855-447-7263",
    "rating": 4.0,
    "reviews": 25,
    "website": "https://www.istorage.com/",
    "category": "Bengali-speaking Self-storage in Florida",
    "description": "Offers secure storage solutions with climate control, advanced security features, and various unit sizes, including options for vehicle storage",
    "hours": "Mon-Fri 9AM-6PM",
    "services": [
      "Bengali-speaking Self-storage in Florida consultation",
      "Professional service",
      "Quality guarantee"
    ],
    "social_links": {}
  },
  {
    "name": "Metro Self Storage",
    "address": "Multiple locations in Florida (e.g., 7500 W Colonial Drive, Orlando, FL 32808)",
    "phone": "1-800-466-3876",
    "rating": 4.1,
    "reviews": 25,
    "website": "https://www.metroselfstorage.com/",
    "category": "Bengali-speaking Self-storage in Florida",
    "description": "Provides a variety of storage unit sizes, climate-controlled options, and convenient access, with a focus on security and customer satisfaction",
    "hours": "Mon-Fri 9AM-6PM",
    "services": [
      "Bengali-speaking Self-storage in Florida consultation",
      "Professional service",
      "Quality guarantee"
    ],
    "social_links": {}
  }
]