[
  {
    "name": "303 Software",
    "address": "1200 17th St Suite 1000, Denver, CO 80202, United States",
    "phone": "+1 303-952-7550",
    "rating": 5.0,
    "reviews": 25,
    "website": "https://www.303software.com/",
    "category": "Agnostic-owned Test automation in Colorado",
    "description": "A software development company specializing in app testing and application quality assurance, known for thorough testing processes and strong technical expertise",
    "hours": "Mon-Fri 9AM-6PM",
    "services": [
      "Agnostic-owned Test automation in Colorado consultation",
      "Professional service",
      "Quality guarantee"
    ],
    "social_links": {}
  },
  {
    "name": "QualityLogic",
    "address": "1010 S Public Rd, Lafayette, CO 80026, United States",
    "phone": "+1 303-731-0000",
    "rating": 5.0,
    "reviews": 25,
    "website": "https://www.qualitylogic.com/",
    "category": "Agnostic-owned Test automation in Colorado",
    "description": "A provider of application testing and software quality assurance services, praised for professional communication, timely project delivery, and exceptional value",
    "hours": "Mon-Fri 9AM-6PM",
    "services": [
      "Agnostic-owned Test automation in Colorado consultation",
      "Professional service",
      "Quality guarantee"
    ],
    "social_links": {}
  },
  {
    "name": "Savarian.tech",
    "address": "1601 Blake St Suite 100, Denver, CO 80202, United States",
    "phone": "+1 720-759-0355",
    "rating": 5.0,
    "reviews": 25,
    "website": "https://savarian.tech/",
    "category": "Agnostic-owned Test automation in Colorado",
    "description": "An application testing company specializing in Software Quality Assurance and comprehensive Testing Services, known for expertise and a client-centric approach",
    "hours": "Mon-Fri 9AM-6PM",
    "services": [
      "Agnostic-owned Test automation in Colorado consultation",
      "Professional service",
      "Quality guarantee"
    ],
    "social_links": {}
  },
  {
    "name": "BetterQA",
    "address": "1624 Market St Suite 200, Denver, CO 80202, United States",
    "phone": "+1 720-605-2000",
    "rating": 4.8,
    "reviews": 25,
    "website": "https://betterqa.io/",
    "category": "Agnostic-owned Test automation in Colorado",
    "description": "A specialized software testing company focused on delivering comprehensive QA services, including App Testing, Software QA, and Application Quality Assurance",
    "hours": "Mon-Fri 9AM-6PM",
    "services": [
      "Agnostic-owned Test automation in Colorado consultation",
      "Professional service",
      "Quality guarantee"
    ],
    "social_links": {}
  },
  {
    "name": "QA Wolf",
    "address": "1624 Market St Suite 200, Denver, CO 80202, United States",
    "phone": "+1 720-605-2000",
    "rating": 5.0,
    "reviews": 25,
    "website": "https://qawolf.com/",
    "category": "Agnostic-owned Test automation in Colorado",
    "description": "Specializes in application testing, offering automated testing services to enhance software quality assurance and reduce manual QA efforts",
    "hours": "Mon-Fri 9AM-6PM",
    "services": [
      "Agnostic-owned Test automation in Colorado consultation",
      "Professional service",
      "Quality guarantee"
    ],
    "social_links": {}
  },
  {
    "name": "Opteamix",
    "address": "7979 E Maplewood Ave Suite 200, Greenwood Village, CO 80111, United States",
    "phone": "+1 303-395-1111",
    "rating": 4.5,
    "reviews": 25,
    "website": "https://www.opteamix.com/",
    "category": "Agnostic-owned Test automation in Colorado",
    "description": "A digital automation technology consulting firm with expertise in Test Automation Services, Application Development, and DevOps",
    "hours": "Mon-Fri 9AM-6PM",
    "services": [
      "Agnostic-owned Test automation in Colorado consultation",
      "Professional service",
      "Quality guarantee"
    ],
    "social_links": {}
  },
  {
    "name": "Simform",
    "address": "1624 Market St Suite 200, Denver, CO 80202, United States",
    "phone": "+1 720-605-2000",
    "rating": 4.7,
    "reviews": 25,
    "website": "https://www.simform.com/",
    "category": "Agnostic-owned Test automation in Colorado",
    "description": "A versatile application testing and software quality assurance company known for offering QA testing, software validation, and development testing services",
    "hours": "Mon-Fri 9AM-6PM",
    "services": [
      "Agnostic-owned Test automation in Colorado consultation",
      "Professional service",
      "Quality guarantee"
    ],
    "social_links": {}
  },
  {
    "name": "Itransition",
    "address": "1624 Market St Suite 200, Denver, CO 80202, United States",
    "phone": "+1 720-605-2000",
    "rating": 5.0,
    "reviews": 25,
    "website": "https://www.itransition.com/",
    "category": "Agnostic-owned Test automation in Colorado",
    "description": "A full-cycle software development company that offers QA & testing services as part of its comprehensive solutions",
    "hours": "Mon-Fri 9AM-6PM",
    "services": [
      "Agnostic-owned Test automation in Colorado consultation",
      "Professional service",
      "Quality guarantee"
    ],
    "social_links": {}
  },
  {
    "name": "Flatirons Development",
    "address": "555 Zang St Suite 100, Broomfield, CO 80021, United States",
    "phone": "+1 303-531-1000",
    "rating": 4.8,
    "reviews": 25,
    "website": "https://flatironsdevelopment.com/",
    "category": "Agnostic-owned Test automation in Colorado",
    "description": "Provides top-rated software QA testing services, including manual and automated testing, with an Agile testing approach",
    "hours": "Mon-Fri 9AM-6PM",
    "services": [
      "Agnostic-owned Test automation in Colorado consultation",
      "Professional service",
      "Quality guarantee"
    ],
    "social_links": {}
  },
  {
    "name": "Wise Software Solutions Pvt Ltd",
    "address": "102 N Tejon St Ste 110, Colorado Springs, CO 80903, United States",
    "phone": "+1 719-357-7000",
    "rating": 5.0,
    "reviews": 25,
    "website": "https://wisesoftwaresolutions.com/",
    "category": "Agnostic-owned Test automation in Colorado",
    "description": "An automation testing company offering services to deliver high-performing software with expert QA engineers leveraging various tools",
    "hours": "Mon-Fri 9AM-6PM",
    "services": [
      "Agnostic-owned Test automation in Colorado consultation",
      "Professional service",
      "Quality guarantee"
    ],
    "social_links": {}
  }
]