[
  {
    "name": "Bon Secours Physical Therapy at the Bon Secours Training Center",
    "address": "2401 W. Leigh Street, Suite 110, Richmond, VA 23220",
    "phone": "(804) 325-8812",
    "rating": 4.0,
    "reviews": 25,
    "website": "https://www.bonsecours.org/services/rehabilitation-therapy/physical-therapy",
    "category": "Catholic-owned Physical therapy in Virginia",
    "description": "Part of Bon Secours St. Mary's Hospital, offering comprehensive outpatient therapy",
    "hours": "Mon-Fri 9AM-6PM",
    "services": [
      "Catholic-owned Physical therapy in Virginia consultation",
      "Professional service",
      "Quality guarantee"
    ],
    "social_links": {}
  },
  {
    "name": "Bon Secours Physical Therapy at Westchester",
    "address": "611 Watkins Centre Parkway, Suite 300, Midlothian, VA 23114",
    "phone": "(804) 325-8822",
    "rating": 4.0,
    "reviews": 25,
    "website": "https://www.bonsecours.org/services/rehabilitation-therapy/physical-therapy",
    "category": "Catholic-owned Physical therapy in Virginia",
    "description": "Part of Bon Secours St. Francis Medical Center, providing high-quality care",
    "hours": "Mon-Fri 9AM-6PM",
    "services": [
      "Catholic-owned Physical therapy in Virginia consultation",
      "Professional service",
      "Quality guarantee"
    ],
    "social_links": {}
  },
  {
    "name": "Bon Secours Physical Therapy at Patterson Avenue",
    "address": "9600 Patterson Avenue, Richmond, VA 23229",
    "phone": "(804) 285-6818",
    "rating": 4.0,
    "reviews": 25,
    "website": "https://www.bonsecours.org/services/rehabilitation-therapy/physical-therapy",
    "category": "Catholic-owned Physical therapy in Virginia",
    "description": "A part of Bon Secours St. Mary's Hospital, offering convenient appointment times",
    "hours": "Mon-Fri 9AM-6PM",
    "services": [
      "Catholic-owned Physical therapy in Virginia consultation",
      "Professional service",
      "Quality guarantee"
    ],
    "social_links": {}
  },
  {
    "name": "Bon Secours Rappahannock General Hospital Outpatient Rehabilitation",
    "address": "43 William B. Graham Court, Kilmarnock, VA 22482",
    "phone": "(804) 435-8501",
    "rating": 4.0,
    "reviews": 25,
    "website": "https://www.bonsecours.org/services/rehabilitation-therapy/physical-therapy",
    "category": "Catholic-owned Physical therapy in Virginia",
    "description": "Offers outpatient rehabilitation services as part of Bon Secours",
    "hours": "Mon-Fri 9AM-6PM",
    "services": [
      "Catholic-owned Physical therapy in Virginia consultation",
      "Professional service",
      "Quality guarantee"
    ],
    "social_links": {}
  },
  {
    "name": "Bon Secours Richmond Community Hospital Physical Therapy",
    "address": "1500 North 28th St., Richmond, VA 23223",
    "phone": "(804) 225-1732",
    "rating": 4.0,
    "reviews": 25,
    "website": "https://www.bonsecours.org/services/rehabilitation-therapy/physical-therapy",
    "category": "Catholic-owned Physical therapy in Virginia",
    "description": "Provides physical therapy services within Bon Secours Richmond Community Hospital",
    "hours": "Mon-Fri 9AM-6PM",
    "services": [
      "Catholic-owned Physical therapy in Virginia consultation",
      "Professional service",
      "Quality guarantee"
    ],
    "social_links": {}
  },
  {
    "name": "Richmond Hope Therapy Center",
    "address": "4900 Dominion Blvd., Glen Allen, VA 23060",
    "phone": "(804) 747-HOPE (4673)",
    "rating": 4.0,
    "reviews": 25,
    "website": "https://www.bonsecours.org/services/rehabilitation-therapy/physical-therapy",
    "category": "Catholic-owned Physical therapy in Virginia",
    "description": "Associated with Bon Secours Richmond Community Hospital, offering therapy services",
    "hours": "Mon-Fri 9AM-6PM",
    "services": [
      "Catholic-owned Physical therapy in Virginia consultation",
      "Professional service",
      "Quality guarantee"
    ],
    "social_links": {}
  },
  {
    "name": "Catholic Charities of the Diocese of Arlington Mother of Mercy Free Medical Clinic - Manassas",
    "address": "9380 Forestwood Lane, Unit B, Manassas, VA 20110",
    "phone": "(703) 335-2779",
    "rating": 4.0,
    "reviews": 25,
    "website": "https://www.arlingtondiocese.org/catholic-charities/clinics/manassas/",
    "category": "Catholic-owned Physical therapy in Virginia",
    "description": "Offers physical therapy as part of its services for those in need",
    "hours": "Mon-Fri 9AM-6PM",
    "services": [
      "Catholic-owned Physical therapy in Virginia consultation",
      "Professional service",
      "Quality guarantee"
    ],
    "social_links": {}
  },
  {
    "name": "Catholic Charities of the Diocese of Arlington Mother of Mercy Free Medical Clinic - Woodbridge",
    "address": "13900 Church Hill Drive, Woodbridge, VA 22191",
    "phone": "",
    "rating": 4.0,
    "reviews": 25,
    "website": "https://www.arlingtondiocese.org/catholic-charities/clinics/woodbridge/",
    "category": "Catholic-owned Physical therapy in Virginia",
    "description": "Provides various medical services, which may include physical therapy referrals or services",
    "hours": "Mon-Fri 9AM-6PM",
    "services": [
      "Catholic-owned Physical therapy in Virginia consultation",
      "Professional service",
      "Quality guarantee"
    ],
    "social_links": {}
  },
  {
    "name": "Arlington Free Clinic",
    "address": "2921 11th Street South, Arlington, VA 22204",
    "phone": "(703) 979-1400",
    "rating": 4.0,
    "reviews": 25,
    "website": "https://arlingtonfreeclinic.org/",
    "category": "Catholic-owned Physical therapy in Virginia",
    "description": "Offers physical therapy onsite as part of its comprehensive care. While not explicitly Catholic-owned, it serves a diverse population and is a charitable organization",
    "hours": "Mon-Fri 9AM-6PM",
    "services": [
      "Catholic-owned Physical therapy in Virginia consultation",
      "Professional service",
      "Quality guarantee"
    ],
    "social_links": {}
  },
  {
    "name": "Physical Therapy Clinic \u2013 St. Paul",
    "address": "16431 Wise Street, St. Paul, VA 24283",
    "phone": "",
    "rating": 4.0,
    "reviews": 25,
    "website": "https://www.balladhealth.org/services/rehabilitation-services",
    "category": "Catholic-owned Physical therapy in Virginia",
    "description": "Part of Ballad Health, this clinic offers physical therapy services. The name \"St. Paul\" may indicate a religious affiliation, but it's not explicitly Catholic-owned",
    "hours": "Mon-Fri 9AM-6PM",
    "services": [
      "Catholic-owned Physical therapy in Virginia consultation",
      "Professional service",
      "Quality guarantee"
    ],
    "social_links": {}
  }
]