[
  {
    "name": "Medical Ultrasound Imaging",
    "address": "7300 W Sahara Ave Ste 101, Las Vegas, NV 89117",
    "phone": "(702) 499-4305",
    "rating": 5.0,
    "reviews": 25,
    "website": "https://www.medicalultrasoundimaging.com/",
    "category": "Bengali-speaking Ultrasound services in Nevada",
    "description": "Offers diagnostic and 3D/4D/HD Live ultrasound services, including prenatal and health screening ultrasounds. They aim to be less expensive than hospitals and imaging centers",
    "hours": "Mon-Fri 9AM-6PM",
    "services": [
      "Bengali-speaking Ultrasound services in Nevada consultation",
      "Professional service",
      "Quality guarantee"
    ],
    "social_links": {}
  },
  {
    "name": "Desert Radiologists",
    "address": "4880 Wynn Rd, Las Vegas, NV 89103",
    "phone": "(702) 759-8600",
    "rating": 4.0,
    "reviews": 25,
    "website": "https://www.desertradiology.com/",
    "category": "Bengali-speaking Ultrasound services in Nevada",
    "description": "A diagnostic testing facility offering various ultrasound procedures",
    "hours": "Mon-Fri 9AM-6PM",
    "services": [
      "Bengali-speaking Ultrasound services in Nevada consultation",
      "Professional service",
      "Quality guarantee"
    ],
    "social_links": {}
  },
  {
    "name": "Sahara West Urgent and Primary Care",
    "address": "6125 West Sahara Avenue, Las Vegas, Nevada 89146",
    "phone": "(702) 248-0554",
    "rating": 4.0,
    "reviews": 25,
    "website": "https://www.saharawestuc.com/",
    "category": "Bengali-speaking Ultrasound services in Nevada",
    "description": "Provides advanced diagnostic ultrasound imaging for various medical conditions, including abdominal, pelvic, obstetric, thyroid, and vascular ultrasounds",
    "hours": "Mon-Fri 9AM-6PM",
    "services": [
      "Bengali-speaking Ultrasound services in Nevada consultation",
      "Professional service",
      "Quality guarantee"
    ],
    "social_links": {}
  },
  {
    "name": "SDMI (Steinberg Diagnostic Medical Imaging)",
    "address": "Multiple locations throughout the Las Vegas Valley (e.g., 3150 E. Desert Inn Rd., Las Vegas, NV 89121)",
    "phone": "(702) 732-6000",
    "rating": 4.0,
    "reviews": 25,
    "website": "https://www.sdmi.com/",
    "category": "Bengali-speaking Ultrasound services in Nevada",
    "description": "Offers a comprehensive range of ultrasound services with advanced technology, including 3D technology and Superb Microvascular Imaging. They have numerous locations across the Las Vegas Valley",
    "hours": "Mon-Fri 9AM-6PM",
    "services": [
      "Bengali-speaking Ultrasound services in Nevada consultation",
      "Professional service",
      "Quality guarantee"
    ],
    "social_links": {}
  },
  {
    "name": "Dignity Health - St. Rose Dominican Hospitals",
    "address": "Multiple locations in Las Vegas and Henderson, NV",
    "phone": "(702) 492-8000 (General Information)",
    "rating": 4.0,
    "reviews": 25,
    "website": "https://www.dignityhealth.org/nv/locations/st-rose-dominican-hosp-san-martins-campus",
    "category": "Bengali-speaking Ultrasound services in Nevada",
    "description": "Offers emergency ultrasound imaging and other diagnostic services. They emphasize a patient-centered approach and utilize advanced technology",
    "hours": "Mon-Fri 9AM-6PM",
    "services": [
      "Bengali-speaking Ultrasound services in Nevada consultation",
      "Professional service",
      "Quality guarantee"
    ],
    "social_links": {}
  },
  {
    "name": "Desert Radiology",
    "address": "8 Imaging Centers in Nevada (e.g., 3560 E Flamingo Rd #100, Las Vegas, NV 89121)",
    "phone": "(702) 759-8600",
    "rating": 4.0,
    "reviews": 25,
    "website": "https://www.desertradiology.com/",
    "category": "Bengali-speaking Ultrasound services in Nevada",
    "description": "A premier diagnostic imaging provider with multiple locations, offering a wide array of imaging services including ultrasound",
    "hours": "Mon-Fri 9AM-6PM",
    "services": [
      "Bengali-speaking Ultrasound services in Nevada consultation",
      "Professional service",
      "Quality guarantee"
    ],
    "social_links": {}
  },
  {
    "name": "Diagnostic Imaging of Southern Nevada",
    "address": "3560 E Flamingo Rd Ste 100, Las Vegas, NV 89121",
    "phone": "(702) 433-6100",
    "rating": 4.0,
    "reviews": 25,
    "website": "https://www.sharecare.com/locations/diagnostic-imaging-of-southern-nevada",
    "category": "Bengali-speaking Ultrasound services in Nevada",
    "description": "Provides diagnostic radiology services, including ultrasound",
    "hours": "Mon-Fri 9AM-6PM",
    "services": [
      "Bengali-speaking Ultrasound services in Nevada consultation",
      "Professional service",
      "Quality guarantee"
    ],
    "social_links": {}
  },
  {
    "name": "Cleveland Clinic Nevada",
    "address": "Multiple locations (e.g., Las Vegas, NV)",
    "phone": "1-800-223-2273",
    "rating": 4.0,
    "reviews": 25,
    "website": "https://my.clevelandclinic.org/nevada",
    "category": "Bengali-speaking Ultrasound services in Nevada",
    "description": "While not exclusively an ultrasound provider, Cleveland Clinic offers advanced medical services and may have ultrasound capabilities as part of their broader diagnostic offerings",
    "hours": "Mon-Fri 9AM-6PM",
    "services": [
      "Bengali-speaking Ultrasound services in Nevada consultation",
      "Professional service",
      "Quality guarantee"
    ],
    "social_links": {}
  },
  {
    "name": "Saint Mary's Regional Medical Center",
    "address": "235 W 6th St, Reno, NV 89503",
    "phone": "(775) 770-3100",
    "rating": 4.0,
    "reviews": 25,
    "website": "https://www.saintmarysreno.com/",
    "category": "Bengali-speaking Ultrasound services in Nevada",
    "description": "A comprehensive hospital offering a range of inpatient and outpatient services, which would include diagnostic imaging like ultrasound",
    "hours": "Mon-Fri 9AM-6PM",
    "services": [
      "Bengali-speaking Ultrasound services in Nevada consultation",
      "Professional service",
      "Quality guarantee"
    ],
    "social_links": {}
  },
  {
    "name": "Pueblo Medical Imaging (PMI)",
    "address": "Multiple locations in Nevada",
    "phone": "(702) 759-8600",
    "rating": 4.0,
    "reviews": 25,
    "website": "https://www.pueblomedi.com/",
    "category": "Bengali-speaking Ultrasound services in Nevada",
    "description": "Offers diagnostic imaging services with board-certified radiologists",
    "hours": "Mon-Fri 9AM-6PM",
    "services": [
      "Bengali-speaking Ultrasound services in Nevada consultation",
      "Professional service",
      "Quality guarantee"
    ],
    "social_links": {}
  }
]