[
  {
    "name": "Bankers Factoring",
    "address": "While a specific street address in Alaska is not provided, they serve the Anchorage area",
    "phone": "(866) 577-2292",
    "rating": 4.0,
    "reviews": 25,
    "website": "https://www.bankersfactoring.com/",
    "category": "Black-owned Invoice factoring in Alaska",
    "description": "Offers non-recourse invoice factoring and purchase order financing programs, providing immediate capital and flexible credit facilities",
    "hours": "Mon-Fri 9AM-6PM",
    "services": [
      "Black-owned Invoice factoring in Alaska consultation",
      "Professional service",
      "Quality guarantee"
    ],
    "social_links": {}
  },
  {
    "name": "Scale Funding",
    "address": "Operates in Alaska, but a specific street address is not provided",
    "phone": "(800) 705-4570",
    "rating": 4.0,
    "reviews": 25,
    "website": "https://scalefunding.com/alaska-factoring-company/",
    "category": "Black-owned Invoice factoring in Alaska",
    "description": "Provides invoice factoring and accounts receivable financing with fast approvals, same-day funding, and flexible programs for various industries",
    "hours": "Mon-Fri 9AM-6PM",
    "services": [
      "Black-owned Invoice factoring in Alaska consultation",
      "Professional service",
      "Quality guarantee"
    ],
    "social_links": {}
  },
  {
    "name": "Porter Capital",
    "address": "Serves businesses in Anchorage, Juneau, and Fairbanks, Alaska. A specific street address is not provided",
    "phone": "(800) 211-2050",
    "rating": 4.0,
    "reviews": 25,
    "website": "https://portercapital.com/invoice-factoring/alaska-invoice-factoring/",
    "category": "Black-owned Invoice factoring in Alaska",
    "description": "Offers tailored funding solutions including invoice factoring and accounts receivable financing with credit lines ranging from $25K to $25M",
    "hours": "Mon-Fri 9AM-6PM",
    "services": [
      "Black-owned Invoice factoring in Alaska consultation",
      "Professional service",
      "Quality guarantee"
    ],
    "social_links": {}
  },
  {
    "name": "Merchant Fund Express",
    "address": "Serves Kodiak, Alaska. A specific street address is not provided",
    "phone": "(800) 622-4516",
    "rating": 4.0,
    "reviews": 25,
    "website": "https://www.merchantfundexpress.com/invoice-factoring-kodiak-alaska/",
    "category": "Black-owned Invoice factoring in Alaska",
    "description": "Provides invoice factoring with fast approval (within 24 hours) and funding in 1-3 business days for businesses in Kodiak",
    "hours": "Mon-Fri 9AM-6PM",
    "services": [
      "Black-owned Invoice factoring in Alaska consultation",
      "Professional service",
      "Quality guarantee"
    ],
    "social_links": {}
  },
  {
    "name": "Business Factors & Finance",
    "address": "Has offices throughout the U.S. and Canada, and serves the Fairbanks region. A specific Alaska street address is not provided",
    "phone": "(800) 672-3844",
    "rating": 4.0,
    "reviews": 25,
    "website": "https://businessfactors.com/fairbanks-factoring-companies-alaska/",
    "category": "Black-owned Invoice factoring in Alaska",
    "description": "Offers invoice factoring services to small and medium-sized enterprises, providing working capital within 24 to 48 hours of approval",
    "hours": "Mon-Fri 9AM-6PM",
    "services": [
      "Black-owned Invoice factoring in Alaska consultation",
      "Professional service",
      "Quality guarantee"
    ],
    "social_links": {}
  },
  {
    "name": "Orange Commercial Credit",
    "address": "Serves Anchorage, Alaska. A specific street address is not provided",
    "phone": "(877) 672-3731",
    "rating": 4.0,
    "reviews": 25,
    "website": "https://www.orangecommercialcredit.com/anchorage-receivable-factoring-companies/",
    "category": "Black-owned Invoice factoring in Alaska",
    "description": "Provides receivable factoring programs with over 40 years of experience, offering online access and free back-office support",
    "hours": "Mon-Fri 9AM-6PM",
    "services": [
      "Black-owned Invoice factoring in Alaska consultation",
      "Professional service",
      "Quality guarantee"
    ],
    "social_links": {}
  },
  {
    "name": "Capstone Corporate Funding",
    "address": "While not specific to Alaska, they offer a Minority Funding Program",
    "phone": "(855) 422-7866",
    "rating": 4.0,
    "reviews": 25,
    "website": "https://capstonecf.com/minority-owned-business-funding/",
    "category": "Black-owned Invoice factoring in Alaska",
    "description": "Specializes in invoice factoring for minority-owned businesses (MWBEs) to provide financing tools for growth",
    "hours": "Mon-Fri 9AM-6PM",
    "services": [
      "Black-owned Invoice factoring in Alaska consultation",
      "Professional service",
      "Quality guarantee"
    ],
    "social_links": {}
  }
]