[
  {
    "name": "Critter Control of Dover",
    "address": "1430 Old North Rd, Dover, DE 19904",
    "phone": "(302) 503-5969",
    "rating": 4.0,
    "reviews": 25,
    "website": "https://www.crittercontrol.com/locations/delaware/dover",
    "category": "Catholic-owned Wildlife removal in Delaware",
    "description": "Offers humane wildlife removal and control services for various nuisance animals",
    "hours": "Mon-Fri 9AM-6PM",
    "services": [
      "Catholic-owned Wildlife removal in Delaware consultation",
      "Professional service",
      "Quality guarantee"
    ],
    "social_links": {}
  },
  {
    "name": "Critter Control of Southern Delaware",
    "address": "21313 Sterling Ave, Georgetown, DE 19947",
    "phone": "(302) 497-4632",
    "rating": 4.0,
    "reviews": 25,
    "website": "https://www.crittercontrol.com/locations/delaware/southern-delaware",
    "category": "Catholic-owned Wildlife removal in Delaware",
    "description": "Provides wildlife control and removal services for residential and commercial clients in Southern Delaware",
    "hours": "Mon-Fri 9AM-6PM",
    "services": [
      "Catholic-owned Wildlife removal in Delaware consultation",
      "Professional service",
      "Quality guarantee"
    ],
    "social_links": {}
  },
  {
    "name": "Vance Wildlife Removal",
    "address": "1101 N Dupont Hwy, Milford, DE 19963 (This is a general service area, specific office address not provided)",
    "phone": "(302) 824-4231",
    "rating": 4.0,
    "reviews": 25,
    "website": "https://vance-wildlife-removal.business.site/",
    "category": "Catholic-owned Wildlife removal in Delaware",
    "description": "Locally owned and operated nuisance wildlife company serving Delaware and Maryland",
    "hours": "Mon-Fri 9AM-6PM",
    "services": [
      "Catholic-owned Wildlife removal in Delaware consultation",
      "Professional service",
      "Quality guarantee"
    ],
    "social_links": {}
  },
  {
    "name": "Bay Area Wildlife Solutions",
    "address": "1003 N DuPont Hwy, Milford, DE 19963 (This is a general service area, specific office address not provided)",
    "phone": "(302) 497-4632",
    "rating": 4.0,
    "reviews": 25,
    "website": "https://bayareawildlifesolutions.com/",
    "category": "Catholic-owned Wildlife removal in Delaware",
    "description": "Professional wildlife control and critter removal services in Maryland and Delaware",
    "hours": "Mon-Fri 9AM-6PM",
    "services": [
      "Catholic-owned Wildlife removal in Delaware consultation",
      "Professional service",
      "Quality guarantee"
    ],
    "social_links": {}
  },
  {
    "name": "Wilmington Animal Attic",
    "address": "1003 N DuPont Hwy, Milford, DE 19963 (This is a general service area, specific office address not provided)",
    "phone": "(302) 725-0184",
    "rating": 4.0,
    "reviews": 25,
    "website": "https://www.wilmingtonanimalattic.com/",
    "category": "Catholic-owned Wildlife removal in Delaware",
    "description": "Full-service wildlife removal company in Wilmington, DE, specializing in rodent control and attic services",
    "hours": "Mon-Fri 9AM-6PM",
    "services": [
      "Catholic-owned Wildlife removal in Delaware consultation",
      "Professional service",
      "Quality guarantee"
    ],
    "social_links": {}
  },
  {
    "name": "JEM Pest Solutions",
    "address": "1003 N DuPont Hwy, Milford, DE 19963 (This is a general service area, specific office address not provided)",
    "phone": "(302) 772-6552",
    "rating": 4.0,
    "reviews": 25,
    "website": "https://www.jempestsolutions.com/",
    "category": "Catholic-owned Wildlife removal in Delaware",
    "description": "Offers expert wildlife control services, including humane trapping and exclusion techniques",
    "hours": "Mon-Fri 9AM-6PM",
    "services": [
      "Catholic-owned Wildlife removal in Delaware consultation",
      "Professional service",
      "Quality guarantee"
    ],
    "social_links": {}
  },
  {
    "name": "Xceptional Wildlife Removal",
    "address": "1003 N DuPont Hwy, Milford, DE 19963 (This is a general service area, specific office address not provided)",
    "phone": "(302) 772-6552",
    "rating": 4.0,
    "reviews": 25,
    "website": "https://www.xceptionalwildliferemoval.com/",
    "category": "Catholic-owned Wildlife removal in Delaware",
    "description": "Provides professional wildlife removal and control services, specializing in attic restoration and home sealing",
    "hours": "Mon-Fri 9AM-6PM",
    "services": [
      "Catholic-owned Wildlife removal in Delaware consultation",
      "Professional service",
      "Quality guarantee"
    ],
    "social_links": {}
  },
  {
    "name": "Delaware Wildlife Control and Animal Removal",
    "address": "Various locations throughout Delaware, specific office address not provided",
    "phone": "(302) 772-6552",
    "rating": 4.0,
    "reviews": 25,
    "website": "https://www.delawarewildlifecontrol.com/",
    "category": "Catholic-owned Wildlife removal in Delaware",
    "description": "Offers professional wildlife removal and control services, including bat control, raccoon removal, and snake removal",
    "hours": "Mon-Fri 9AM-6PM",
    "services": [
      "Catholic-owned Wildlife removal in Delaware consultation",
      "Professional service",
      "Quality guarantee"
    ],
    "social_links": {}
  },
  {
    "name": "Delaware Wildlife Removal & Trapping",
    "address": "Various locations throughout Delaware, specific office address not provided",
    "phone": "(302) 757-3404",
    "rating": 4.0,
    "reviews": 25,
    "website": "https://www.delawarewildliferemoval.com/",
    "category": "Catholic-owned Wildlife removal in Delaware",
    "description": "Specializes in wildlife removal, trapping, damage repairs, and prevention for attics and other areas",
    "hours": "Mon-Fri 9AM-6PM",
    "services": [
      "Catholic-owned Wildlife removal in Delaware consultation",
      "Professional service",
      "Quality guarantee"
    ],
    "social_links": {}
  },
  {
    "name": "Wild Things Wildlife",
    "address": "Servicing New Castle County, Delaware, and surrounding areas. Specific office address not provided",
    "phone": "(302) 757-3404",
    "rating": 4.0,
    "reviews": 25,
    "website": "https://wildthingswildlife.com/",
    "category": "Catholic-owned Wildlife removal in Delaware",
    "description": "Offers wildlife removal, repairs, and prevention services for homes and businesses",
    "hours": "Mon-Fri 9AM-6PM",
    "services": [
      "Catholic-owned Wildlife removal in Delaware consultation",
      "Professional service",
      "Quality guarantee"
    ],
    "social_links": {}
  }
]