[
  {
    "name": "Lee's General Landscaping",
    "address": "Seattle, WA",
    "phone": "(206) 715-0773",
    "rating": 4.8,
    "reviews": 25,
    "website": "https://www.leesgeneralandscaping.com/",
    "category": "Chinese-speaking Drought-resistant landscaping in Washington",
    "description": "Offers drought-tolerant landscaping, xeriscaping, native plant selection, and efficient irrigation systems",
    "hours": "Mon-Fri 9AM-6PM",
    "services": [
      "Chinese-speaking Drought-resistant landscaping in Washington consultation",
      "Professional service",
      "Quality guarantee"
    ],
    "social_links": {}
  },
  {
    "name": "Nasim Landscape",
    "address": "8516 Canyon Rd E, Tacoma, WA 98445",
    "phone": "(253) 988-0165",
    "rating": 4.0,
    "reviews": 25,
    "website": "https://www.nasimlandscape.com/",
    "category": "Chinese-speaking Drought-resistant landscaping in Washington",
    "description": "Provides sustainable landscaping solutions, including water management techniques and drought-tolerant plants",
    "hours": "Mon-Fri 9AM-6PM",
    "services": [
      "Chinese-speaking Drought-resistant landscaping in Washington consultation",
      "Professional service",
      "Quality guarantee"
    ],
    "social_links": {}
  },
  {
    "name": "ONA Landscaping",
    "address": "Sequim, WA",
    "phone": "",
    "rating": 4.0,
    "reviews": 25,
    "website": "https://www.onalandscaping.com/",
    "category": "Chinese-speaking Drought-resistant landscaping in Washington",
    "description": "Focuses on custom drought-tolerant landscape design and installation, using sustainable practices",
    "hours": "Mon-Fri 9AM-6PM",
    "services": [
      "Chinese-speaking Drought-resistant landscaping in Washington consultation",
      "Professional service",
      "Quality guarantee"
    ],
    "social_links": {}
  },
  {
    "name": "Frontier Landscaping",
    "address": "Vancouver, WA",
    "phone": "(360) 574-8979",
    "rating": 4.0,
    "reviews": 25,
    "website": "https://www.frontierlandscaping.com/",
    "category": "Chinese-speaking Drought-resistant landscaping in Washington",
    "description": "Specializes in water-smart landscapes, including xeriscaping and drought-resistant plants, serving Vancouver, WA, and Clark County",
    "hours": "Mon-Fri 9AM-6PM",
    "services": [
      "Chinese-speaking Drought-resistant landscaping in Washington consultation",
      "Professional service",
      "Quality guarantee"
    ],
    "social_links": {}
  },
  {
    "name": "Earthdance Organics LLC",
    "address": "5036 Hyada Blvd NE, Tacoma, WA 98422",
    "phone": "(253) 202-8490",
    "rating": 4.0,
    "reviews": 25,
    "website": "https://www.earthdanceorganics.com/",
    "category": "Chinese-speaking Drought-resistant landscaping in Washington",
    "description": "Provides sustainable landscape design, low-impact construction, and organic land care services",
    "hours": "Mon-Fri 9AM-6PM",
    "services": [
      "Chinese-speaking Drought-resistant landscaping in Washington consultation",
      "Professional service",
      "Quality guarantee"
    ],
    "social_links": {}
  },
  {
    "name": "Wolf & Sons Lawn and Landscaping",
    "address": "North Tacoma, WA",
    "phone": "(253) 525-2460",
    "rating": 4.0,
    "reviews": 25,
    "website": "https://wolfandsonstacoma.com/",
    "category": "Chinese-speaking Drought-resistant landscaping in Washington",
    "description": "Offers comprehensive landscape design services, including selecting low-maintenance native plants and installing water-efficient irrigation systems",
    "hours": "Mon-Fri 9AM-6PM",
    "services": [
      "Chinese-speaking Drought-resistant landscaping in Washington consultation",
      "Professional service",
      "Quality guarantee"
    ],
    "social_links": {}
  },
  {
    "name": "Olympic Landscape Design",
    "address": "Tacoma, WA",
    "phone": "",
    "rating": 4.0,
    "reviews": 25,
    "website": "https://www.olympictacoma.com/",
    "category": "Chinese-speaking Drought-resistant landscaping in Washington",
    "description": "Provides landscape design, construction, and sprinkler services with expertise in sustainable landscapes and native plants",
    "hours": "Mon-Fri 9AM-6PM",
    "services": [
      "Chinese-speaking Drought-resistant landscaping in Washington consultation",
      "Professional service",
      "Quality guarantee"
    ],
    "social_links": {}
  },
  {
    "name": "Carlin's Construction & Landscape",
    "address": "P.O. BOX 65452, University Place WA, 98464",
    "phone": "(253) 564-9392",
    "rating": 4.0,
    "reviews": 25,
    "website": "https://www.carlinsconstruction.com/",
    "category": "Chinese-speaking Drought-resistant landscaping in Washington",
    "description": "Offers a range of landscape services, including design, hardscapes, and irrigation, with a mention of capturing the essence of traditional Chinese gardens",
    "hours": "Mon-Fri 9AM-6PM",
    "services": [
      "Chinese-speaking Drought-resistant landscaping in Washington consultation",
      "Professional service",
      "Quality guarantee"
    ],
    "social_links": {}
  },
  {
    "name": "Gardenculture Design",
    "address": "Seattle, WA",
    "phone": "(206) 355-7242",
    "rating": 4.0,
    "reviews": 25,
    "website": "https://www.gardenculturedesign.com/",
    "category": "Chinese-speaking Drought-resistant landscaping in Washington",
    "description": "Provides landscape design services, specializing in low-maintenance and low-water-use shrubs, perennials, and grasses",
    "hours": "Mon-Fri 9AM-6PM",
    "services": [
      "Chinese-speaking Drought-resistant landscaping in Washington consultation",
      "Professional service",
      "Quality guarantee"
    ],
    "social_links": {}
  },
  {
    "name": "Sage Design by Martha",
    "address": "Seattle, WA",
    "phone": "",
    "rating": 4.0,
    "reviews": 25,
    "website": "https://www.google.com/maps/search/Sage+Design+by+Martha+in+Washington",
    "category": "Chinese-speaking Drought-resistant landscaping in Washington",
    "description": "Offers residential design, installation, and maintenance, featuring lush gardens and hardscapes for four-season interest, drought tolerance, and ease of maintenance",
    "hours": "Mon-Fri 9AM-6PM",
    "services": [
      "Chinese-speaking Drought-resistant landscaping in Washington consultation",
      "Professional service",
      "Quality guarantee"
    ],
    "social_links": {}
  }
]