[
  {
    "name": "24 Hour Fitness - Lakewood Sport",
    "address": "12039 W. Alameda Parkway, Lakewood, CO 80228",
    "phone": "(303) 988-2444",
    "rating": 4.0,
    "reviews": 25,
    "website": "https://www.24hourfitness.com/gyms/lakewood-co/lakewood-sport",
    "category": "African-American-owned 24-hour fitness centers in Colorado",
    "description": "Offers studio classes, innovative training programs, and ample workout space",
    "hours": "Mon-Fri 9AM-6PM",
    "services": [
      "African-American-owned 24-hour fitness centers in Colorado consultation",
      "Professional service",
      "Quality guarantee"
    ],
    "social_links": {}
  },
  {
    "name": "Anytime Fitness - Boulder",
    "address": "2690 Valmont Rd, Boulder, CO 80302",
    "phone": "(303) 539-9334",
    "rating": 4.0,
    "reviews": 25,
    "website": "https://www.anytimefitness.com/gyms/2776/boulder-co/",
    "category": "African-American-owned 24-hour fitness centers in Colorado",
    "description": "Locally owned and operated, offering a supportive community and 24/7 access to over 5,500 locations globally",
    "hours": "Mon-Fri 9AM-6PM",
    "services": [
      "African-American-owned 24-hour fitness centers in Colorado consultation",
      "Professional service",
      "Quality guarantee"
    ],
    "social_links": {}
  },
  {
    "name": "Anytime Fitness - Aurora",
    "address": "5458 S Parker Rd, Aurora, CO 80015",
    "phone": "(303) 617-0100",
    "rating": 4.0,
    "reviews": 25,
    "website": "https://www.anytimefitness.com/gyms/2775/aurora-co/",
    "category": "African-American-owned 24-hour fitness centers in Colorado",
    "description": "Locally owned and operated, providing a supportive community and 24/7 access",
    "hours": "Mon-Fri 9AM-6PM",
    "services": [
      "African-American-owned 24-hour fitness centers in Colorado consultation",
      "Professional service",
      "Quality guarantee"
    ],
    "social_links": {}
  },
  {
    "name": "Chuze Fitness - Thornton",
    "address": "650 E 102nd Ave, Thornton, CO 80229",
    "phone": "(720) 548-5091",
    "rating": 4.0,
    "reviews": 25,
    "website": "https://www.chuzefitness.com/locations/thornton/",
    "category": "African-American-owned 24-hour fitness centers in Colorado",
    "description": "Offers a world-class facility with a variety of membership plans, classes, and amenities",
    "hours": "Mon-Fri 9AM-6PM",
    "services": [
      "African-American-owned 24-hour fitness centers in Colorado consultation",
      "Professional service",
      "Quality guarantee"
    ],
    "social_links": {}
  },
  {
    "name": "Gold's Gym - Thornton",
    "address": "550 E. Thornton Parkway, Suite 210, Thornton, CO, 80229",
    "phone": "(720) 667-1727",
    "rating": 4.0,
    "reviews": 25,
    "website": "https://www.goldsgym.com/thornton-colorado/",
    "category": "African-American-owned 24-hour fitness centers in Colorado",
    "description": "Offers world-class trainers, cutting-edge equipment, and results-driven programs for strength, performance, and wellness",
    "hours": "Mon-Fri 9AM-6PM",
    "services": [
      "African-American-owned 24-hour fitness centers in Colorado consultation",
      "Professional service",
      "Quality guarantee"
    ],
    "social_links": {}
  },
  {
    "name": "Iron Works Fitness - Boulder",
    "address": "4849 Pearl East Cir #100, Boulder, CO 80301",
    "phone": "(303) 539-9334",
    "rating": 4.0,
    "reviews": 25,
    "website": "https://www.ironworksfitness.com/",
    "category": "African-American-owned 24-hour fitness centers in Colorado",
    "description": "Boulder's premier private membership adult fitness center with 24-hour FOB access",
    "hours": "Mon-Fri 9AM-6PM",
    "services": [
      "African-American-owned 24-hour fitness centers in Colorado consultation",
      "Professional service",
      "Quality guarantee"
    ],
    "social_links": {}
  },
  {
    "name": "VASA Fitness - Thornton",
    "address": "1420 E 104th Ave, Thornton, CO 80233",
    "phone": "(303) 255-8272",
    "rating": 4.0,
    "reviews": 25,
    "website": "https://vasafitness.com/gyms/thornton/",
    "category": "African-American-owned 24-hour fitness centers in Colorado",
    "description": "Offers various membership tiers with access to clubs, premium amenities, and group classes",
    "hours": "Mon-Fri 9AM-6PM",
    "services": [
      "African-American-owned 24-hour fitness centers in Colorado consultation",
      "Professional service",
      "Quality guarantee"
    ],
    "social_links": {}
  },
  {
    "name": "X Gym Colorado Fitness Center",
    "address": "Not specified in search results, but serves Thornton, CO",
    "phone": "",
    "rating": 4.0,
    "reviews": 25,
    "website": "https://www.google.com/maps/search/X+Gym+Colorado+Fitness+Center+in+Colorado",
    "category": "African-American-owned 24-hour fitness centers in Colorado",
    "description": "Claims to be leaders in personal training in Northern Denver with true 24/7 access for members",
    "hours": "Mon-Fri 9AM-6PM",
    "services": [
      "African-American-owned 24-hour fitness centers in Colorado consultation",
      "Professional service",
      "Quality guarantee"
    ],
    "social_links": {}
  },
  {
    "name": "AlphaGainz LLC - Colorado Springs",
    "address": "Not specified in search results, but located in Colorado Springs",
    "phone": "",
    "rating": 4.0,
    "reviews": 25,
    "website": "https://www.google.com/maps/search/AlphaGainz+LLC+-+Colorado+Springs+in+Colorado",
    "category": "African-American-owned 24-hour fitness centers in Colorado",
    "description": "A 24-hour gym focused on dedicated athletes who train with purpose",
    "hours": "Mon-Fri 9AM-6PM",
    "services": [
      "African-American-owned 24-hour fitness centers in Colorado consultation",
      "Professional service",
      "Quality guarantee"
    ],
    "social_links": {}
  },
  {
    "name": "FIT 365 - Colorado Springs",
    "address": "Not specified in search results, but located in downtown Colorado Springs",
    "phone": "",
    "rating": 4.0,
    "reviews": 25,
    "website": "https://www.google.com/maps/search/FIT+365+-+Colorado+Springs+in+Colorado",
    "category": "African-American-owned 24-hour fitness centers in Colorado",
    "description": "Offers exclusive 24/7 accessibility in a welcoming, low-traffic space",
    "hours": "Mon-Fri 9AM-6PM",
    "services": [
      "African-American-owned 24-hour fitness centers in Colorado consultation",
      "Professional service",
      "Quality guarantee"
    ],
    "social_links": {}
  }
]