[
  {
    "name": "TWO MEN AND A TRUCK",
    "address": "8136 E 48th St, Tulsa, OK 74145",
    "phone": "(918) 445-0500",
    "rating": 4.78,
    "reviews": 25,
    "website": "https://twomenandatruck.com/mover/tulsa-ok",
    "category": "Asian-owned Moving protection plans in Oklahoma",
    "description": "Offers a comprehensive range of moving services, including full-service and interstate moves, piano moving, and safe transportation. They also provide packing and unpacking options",
    "hours": "Mon-Fri 9AM-6PM",
    "services": [
      "Asian-owned Moving protection plans in Oklahoma consultation",
      "Professional service",
      "Quality guarantee"
    ],
    "social_links": {}
  },
  {
    "name": "All My Sons Moving & Storage",
    "address": "1401 S. Milt Phillips Ave, Oklahoma City, OK 73129",
    "phone": "(405) 358-4396",
    "rating": 4.62,
    "reviews": 25,
    "website": "https://www.allmysons.com/oklahoma-city/",
    "category": "Asian-owned Moving protection plans in Oklahoma",
    "description": "Provides local, long-distance, and international residential and commercial moving services. They offer packing, unpacking, and crating services",
    "hours": "Mon-Fri 9AM-6PM",
    "services": [
      "Asian-owned Moving protection plans in Oklahoma consultation",
      "Professional service",
      "Quality guarantee"
    ],
    "social_links": {}
  },
  {
    "name": "College Hunks Hauling Junk & Moving",
    "address": "11212 E. 51st St, Tulsa, OK 74146",
    "phone": "(918) 806-0000",
    "rating": 4.52,
    "reviews": 25,
    "website": "https://www.collegehunkshaulingjunk.com/locations/tulsa/",
    "category": "Asian-owned Moving protection plans in Oklahoma",
    "description": "Offers local and long-distance residential moving, office moving, packing, unpacking, and labor-only services. They have a strong online review score",
    "hours": "Mon-Fri 9AM-6PM",
    "services": [
      "Asian-owned Moving protection plans in Oklahoma consultation",
      "Professional service",
      "Quality guarantee"
    ],
    "social_links": {}
  },
  {
    "name": "Bigger Better Movers",
    "address": "7601 W. Reno Ave, Oklahoma City, OK 73127",
    "phone": "(405) 812-2000",
    "rating": 4.5,
    "reviews": 25,
    "website": "https://biggerbettermoving.com/",
    "category": "Asian-owned Moving protection plans in Oklahoma",
    "description": "A locally owned and operated moving company offering competitive pricing and excellent service. They provide an online claim service for damaged belongings",
    "hours": "Mon-Fri 9AM-6PM",
    "services": [
      "Asian-owned Moving protection plans in Oklahoma consultation",
      "Professional service",
      "Quality guarantee"
    ],
    "social_links": {}
  },
  {
    "name": "Sherpa Moving and Storage",
    "address": "10400 N. May Ave, Oklahoma City, OK 73120",
    "phone": "(405) 844-0000",
    "rating": 4.66,
    "reviews": 25,
    "website": "https://sherpamoving.com/",
    "category": "Asian-owned Moving protection plans in Oklahoma",
    "description": "Offers local and long-distance moving services, with a focus on providing a stress-free moving experience",
    "hours": "Mon-Fri 9AM-6PM",
    "services": [
      "Asian-owned Moving protection plans in Oklahoma consultation",
      "Professional service",
      "Quality guarantee"
    ],
    "social_links": {}
  },
  {
    "name": "2 Fellas & A Big Vehicle Moving Company",
    "address": "1501 S. Meridian Ave, Oklahoma City, OK 73108",
    "phone": "(405) 342-7444",
    "rating": 4.58,
    "reviews": 25,
    "website": "https://www.2fellas.com/",
    "category": "Asian-owned Moving protection plans in Oklahoma",
    "description": "Provides residential and commercial moving services, with an emphasis on careful handling of belongings",
    "hours": "Mon-Fri 9AM-6PM",
    "services": [
      "Asian-owned Moving protection plans in Oklahoma consultation",
      "Professional service",
      "Quality guarantee"
    ],
    "social_links": {}
  },
  {
    "name": "Strong Brothers Movers",
    "address": "1201 N. Meridian Ave, Oklahoma City, OK 73107",
    "phone": "(405) 445-0110",
    "rating": 4.0,
    "reviews": 25,
    "website": "https://strongbrothersmovers.com/",
    "category": "Asian-owned Moving protection plans in Oklahoma",
    "description": "Offers moving insurance options and emphasizes taking precautions to protect possessions. They explain different types of moving insurance",
    "hours": "Mon-Fri 9AM-6PM",
    "services": [
      "Asian-owned Moving protection plans in Oklahoma consultation",
      "Professional service",
      "Quality guarantee"
    ],
    "social_links": {}
  },
  {
    "name": "On Call Moving",
    "address": "1001 SW 74th St, Oklahoma City, OK 73139",
    "phone": "(405) 586-5243",
    "rating": 4.0,
    "reviews": 25,
    "website": "https://oncallmoving.com/",
    "category": "Asian-owned Moving protection plans in Oklahoma",
    "description": "Provides professional residential and commercial moving services with transparent, flat-fee pricing. They offer packing supplies and delivery services",
    "hours": "Mon-Fri 9AM-6PM",
    "services": [
      "Asian-owned Moving protection plans in Oklahoma consultation",
      "Professional service",
      "Quality guarantee"
    ],
    "social_links": {}
  },
  {
    "name": "Thunder Moving",
    "address": "4000 NW 10th St, Oklahoma City, OK 73107",
    "phone": "(405) 757-5354",
    "rating": 4.0,
    "reviews": 25,
    "website": "https://thundermoving.com/",
    "category": "Asian-owned Moving protection plans in Oklahoma",
    "description": "A local, family-owned company offering licensed and insured moving services. They emphasize making the moving experience smooth and worry-free",
    "hours": "Mon-Fri 9AM-6PM",
    "services": [
      "Asian-owned Moving protection plans in Oklahoma consultation",
      "Professional service",
      "Quality guarantee"
    ],
    "social_links": {}
  },
  {
    "name": "Able Movers",
    "address": "1100 S. Meridian Ave, Oklahoma City, OK 73108",
    "phone": "(405) 896-0000",
    "rating": 4.0,
    "reviews": 25,
    "website": "https://ablemovers.com/",
    "category": "Asian-owned Moving protection plans in Oklahoma",
    "description": "An Oklahoma family-owned business offering exact quotes with no hidden fees. They are fully insured for customer protection",
    "hours": "Mon-Fri 9AM-6PM",
    "services": [
      "Asian-owned Moving protection plans in Oklahoma consultation",
      "Professional service",
      "Quality guarantee"
    ],
    "social_links": {}
  }
]