[
  {
    "name": "Greene's Tire & Auto",
    "address": "715 Ridgewood Rd, Ridgeland, MS 39157",
    "phone": "(601) 957-0201",
    "rating": 4.0,
    "reviews": 25,
    "website": "https://www.google.com/maps/search/Greene's+Tire+&+Auto+in+Mississippi",
    "category": "Chinese-speaking Rotor replacement in Mississippi",
    "description": "Provides brake rotor replacement services",
    "hours": "Mon-Fri 9AM-6PM",
    "services": [
      "Chinese-speaking Rotor replacement in Mississippi consultation",
      "Professional service",
      "Quality guarantee"
    ],
    "social_links": {}
  },
  {
    "name": "Dependable Auto Repair",
    "address": "Information not available in search results. (Located in Gulfport, MS)",
    "phone": "",
    "rating": 4.0,
    "reviews": 25,
    "website": "https://www.google.com/maps/search/Dependable+Auto+Repair+in+Mississippi",
    "category": "Chinese-speaking Rotor replacement in Mississippi",
    "description": "Offers top-tier auto repair services",
    "hours": "Mon-Fri 9AM-6PM",
    "services": [
      "Chinese-speaking Rotor replacement in Mississippi consultation",
      "Professional service",
      "Quality guarantee"
    ],
    "social_links": {}
  },
  {
    "name": "Covington Service Center",
    "address": "Information not available in search results. (Located in Tupelo, MS)",
    "phone": "",
    "rating": 4.0,
    "reviews": 25,
    "website": "https://www.google.com/maps/search/Covington+Service+Center+in+Mississippi",
    "category": "Chinese-speaking Rotor replacement in Mississippi",
    "description": "Provides brake repair and replacement services, including rotors",
    "hours": "Mon-Fri 9AM-6PM",
    "services": [
      "Chinese-speaking Rotor replacement in Mississippi consultation",
      "Professional service",
      "Quality guarantee"
    ],
    "social_links": {}
  },
  {
    "name": "Mac's Tire Center",
    "address": "Information not available in search results. (Serves Tupelo, MS, New Albany, MS, Fulton, MS)",
    "phone": "",
    "rating": 4.0,
    "reviews": 25,
    "website": "https://www.google.com/maps/search/Mac's+Tire+Center+in+Mississippi",
    "category": "Chinese-speaking Rotor replacement in Mississippi",
    "description": "Provides brake repair services, including rotor replacement",
    "hours": "Mon-Fri 9AM-6PM",
    "services": [
      "Chinese-speaking Rotor replacement in Mississippi consultation",
      "Professional service",
      "Quality guarantee"
    ],
    "social_links": {}
  },
  {
    "name": "Oxford Auto Care",
    "address": "1431 N Lamar Blvd, Oxford, MS 38655",
    "phone": "662-234-1775",
    "rating": 4.0,
    "reviews": 25,
    "website": "https://www.google.com/maps/search/Oxford+Auto+Care+in+Mississippi",
    "category": "Chinese-speaking Rotor replacement in Mississippi",
    "description": "Offers brake repair services, including rotor resurfacing and replacement",
    "hours": "Mon-Fri 9AM-6PM",
    "services": [
      "Chinese-speaking Rotor replacement in Mississippi consultation",
      "Professional service",
      "Quality guarantee"
    ],
    "social_links": {}
  },
  {
    "name": "Madison Motor Werks",
    "address": "Information not available in search results. (Located in Jackson, MS)",
    "phone": "601 853 2277",
    "rating": 4.0,
    "reviews": 25,
    "website": "https://www.google.com/maps/search/Madison+Motor+Werks+in+Mississippi",
    "category": "Chinese-speaking Rotor replacement in Mississippi",
    "description": "Provides a wide range of repair services for automotive brake systems, including rotor servicing",
    "hours": "Mon-Fri 9AM-6PM",
    "services": [
      "Chinese-speaking Rotor replacement in Mississippi consultation",
      "Professional service",
      "Quality guarantee"
    ],
    "social_links": {}
  },
  {
    "name": "Holton Import Service, Inc.",
    "address": "204 I 55 Trace Dr, Ridgeland, MS 39157",
    "phone": "601-853-3328",
    "rating": 4.0,
    "reviews": 25,
    "website": "https://www.google.com/maps/search/Holton+Import+Service,+Inc.+in+Mississippi",
    "category": "Chinese-speaking Rotor replacement in Mississippi",
    "description": "Offers reliable auto repair services, including brakes",
    "hours": "Mon-Fri 9AM-6PM",
    "services": [
      "Chinese-speaking Rotor replacement in Mississippi consultation",
      "Professional service",
      "Quality guarantee"
    ],
    "social_links": {}
  },
  {
    "name": "Import Tech",
    "address": "Information not available in search results. (Located in Meridian, MS)",
    "phone": "(601) 483-1492",
    "rating": 4.0,
    "reviews": 25,
    "website": "https://www.google.com/maps/search/Import+Tech+in+Mississippi",
    "category": "Chinese-speaking Rotor replacement in Mississippi",
    "description": "Leading import auto repair shop offering brake repairs",
    "hours": "Mon-Fri 9AM-6PM",
    "services": [
      "Chinese-speaking Rotor replacement in Mississippi consultation",
      "Professional service",
      "Quality guarantee"
    ],
    "social_links": {}
  },
  {
    "name": "European Auto Repair",
    "address": "291 US-51, Suite E12 Ridgeland, MS 39157",
    "phone": "(601) 856-6992",
    "rating": 4.0,
    "reviews": 25,
    "website": "https://www.google.com/maps/search/European+Auto+Repair+in+Mississippi",
    "category": "Chinese-speaking Rotor replacement in Mississippi",
    "description": "Offers general mechanical repairs, including brakes",
    "hours": "Mon-Fri 9AM-6PM",
    "services": [
      "Chinese-speaking Rotor replacement in Mississippi consultation",
      "Professional service",
      "Quality guarantee"
    ],
    "social_links": {}
  },
  {
    "name": "Thompson Auto Repair",
    "address": "1001 15th St, Meridian, MS 39301",
    "phone": "",
    "rating": 4.0,
    "reviews": 25,
    "website": "https://www.google.com/maps/search/Thompson+Auto+Repair+in+Mississippi",
    "category": "Chinese-speaking Rotor replacement in Mississippi",
    "description": "Offers comprehensive auto repair services",
    "hours": "Mon-Fri 9AM-6PM",
    "services": [
      "Chinese-speaking Rotor replacement in Mississippi consultation",
      "Professional service",
      "Quality guarantee"
    ],
    "social_links": {}
  }
]