[
  {
    "name": "Elmahaba Center",
    "address": "3211 West End Ave, Nashville, TN 37203",
    "phone": "(615) 933-0000",
    "rating": 4.8,
    "reviews": 25,
    "website": "https://elmahaba.org/",
    "category": "Arabic-speaking Health clubs in Tennessee",
    "description": "A non-profit organization serving Arabic-speaking immigrants in Nashville, offering community support and resources. While not a health club, they are a central hub for the Arabic-speaking community",
    "hours": "Mon-Fri 9AM-6PM",
    "services": [
      "Arabic-speaking Health clubs in Tennessee consultation",
      "Professional service",
      "Quality guarantee"
    ],
    "social_links": {}
  },
  {
    "name": "Siloam Health",
    "address": "5401 Hillsboro Rd, Nashville, TN 37215",
    "phone": "(615) 298-5500",
    "rating": 4.5,
    "reviews": 25,
    "website": "https://siloamhealth.org/",
    "category": "Arabic-speaking Health clubs in Tennessee",
    "description": "Provides affordable healthcare with Arabic-speaking interpreters available. They focus on health and wellness for all communities",
    "hours": "Mon-Fri 9AM-6PM",
    "services": [
      "Arabic-speaking Health clubs in Tennessee consultation",
      "Professional service",
      "Quality guarantee"
    ],
    "social_links": {}
  },
  {
    "name": "Catholic Charities of Tennessee's Gym",
    "address": "2806 McGavock Pike, Nashville, TN 37214",
    "phone": "(615) 345-1000",
    "rating": 4.0,
    "reviews": 25,
    "website": "https://www.cctenn.org/",
    "category": "Arabic-speaking Health clubs in Tennessee",
    "description": "While not exclusively an Arabic-speaking health club, Catholic Charities often provides community services that may include fitness-related activities or have staff who can assist diverse populations",
    "hours": "Mon-Fri 9AM-6PM",
    "services": [
      "Arabic-speaking Health clubs in Tennessee consultation",
      "Professional service",
      "Quality guarantee"
    ],
    "social_links": {}
  },
  {
    "name": "Armor Fitness",
    "address": "1633 W Main St, STE 400, Lebanon, TN 37087",
    "phone": "(615) 440-1111",
    "rating": 5.0,
    "reviews": 25,
    "website": "https://armorfitnesstn.com/",
    "category": "Arabic-speaking Health clubs in Tennessee",
    "description": "A small group fitness gym offering heart rate-based workouts. They emphasize a safe and welcoming environment",
    "hours": "Mon-Fri 9AM-6PM",
    "services": [
      "Arabic-speaking Health clubs in Tennessee consultation",
      "Professional service",
      "Quality guarantee"
    ],
    "social_links": {}
  },
  {
    "name": "Sports Village Fitness",
    "address": "1735 West Main Street, Lebanon, TN 37087",
    "phone": "(615) 444-2000",
    "rating": 4.0,
    "reviews": 25,
    "website": "https://www.sports-village.net/",
    "category": "Arabic-speaking Health clubs in Tennessee",
    "description": "A comprehensive fitness center with a weight room, group classes, pools, and more",
    "hours": "Mon-Fri 9AM-6PM",
    "services": [
      "Arabic-speaking Health clubs in Tennessee consultation",
      "Professional service",
      "Quality guarantee"
    ],
    "social_links": {}
  },
  {
    "name": "Anytime Fitness",
    "address": "Multiple locations across Tennessee (e.g., 1000 Medical Center Dr, Ste 100, Nashville, TN 37203)",
    "phone": "Varies by location (e.g., (615) 320-0001 for the Nashville location)",
    "rating": 4.5,
    "reviews": 25,
    "website": "https://www.anytimefitness.com/",
    "category": "Arabic-speaking Health clubs in Tennessee",
    "description": "A large chain with many locations. While not specifically Arabic-speaking, they offer 24/7 access and a wide range of equipment. It's possible some locations may have Arabic-speaking staff",
    "hours": "Mon-Fri 9AM-6PM",
    "services": [
      "Arabic-speaking Health clubs in Tennessee consultation",
      "Professional service",
      "Quality guarantee"
    ],
    "social_links": {}
  },
  {
    "name": "YMCA of Middle Tennessee",
    "address": "Multiple locations across Middle Tennessee (e.g., 1000 Gleaves St, Nashville, TN 37203)",
    "phone": "Varies by location (e.g., (615) 321-5424 for the Downtown Nashville YMCA)",
    "rating": 4.5,
    "reviews": 25,
    "website": "https://ymcamidtn.org/",
    "category": "Arabic-speaking Health clubs in Tennessee",
    "description": "Offers various fitness programs, classes, and facilities. YMCAs often serve diverse communities and may have multilingual staff or resources",
    "hours": "Mon-Fri 9AM-6PM",
    "services": [
      "Arabic-speaking Health clubs in Tennessee consultation",
      "Professional service",
      "Quality guarantee"
    ],
    "social_links": {}
  },
  {
    "name": "Planet Fitness",
    "address": "Multiple locations across Tennessee (e.g., 2070 N Mt Juliet Rd, Mt Juliet, TN 37122)",
    "phone": "Varies by location (e.g., (615) 754-3500 for the Mt Juliet location)",
    "rating": 4.0,
    "reviews": 25,
    "website": "https://www.planetfitness.com/",
    "category": "Arabic-speaking Health clubs in Tennessee",
    "description": "A large, affordable fitness chain. While not specialized, their widespread presence means there's a higher chance of finding diverse staff or members",
    "hours": "Mon-Fri 9AM-6PM",
    "services": [
      "Arabic-speaking Health clubs in Tennessee consultation",
      "Professional service",
      "Quality guarantee"
    ],
    "social_links": {}
  },
  {
    "name": "Orangetheory Fitness",
    "address": "Multiple locations across Tennessee (e.g., 2000 Mallory Ln, Ste 120, Franklin, TN 37067)",
    "phone": "Varies by location (e.g., (615) 656-8444 for the Franklin location)",
    "rating": 5.0,
    "reviews": 25,
    "website": "https://www.orangetheory.com/",
    "category": "Arabic-speaking Health clubs in Tennessee",
    "description": "Offers high-intensity interval training classes. Their focus on community and personalized coaching might extend to accommodating various language speakers",
    "hours": "Mon-Fri 9AM-6PM",
    "services": [
      "Arabic-speaking Health clubs in Tennessee consultation",
      "Professional service",
      "Quality guarantee"
    ],
    "social_links": {}
  },
  {
    "name": "Gold's Gym",
    "address": "Multiple locations across Tennessee (e.g., 7033 Nolensville Rd, Ste 100, Nolensville, TN 37135)",
    "phone": "Varies by location (e.g., (615) 776-1111 for the Nolensville location)",
    "rating": 4.0,
    "reviews": 25,
    "website": "https://www.goldsgym.com/",
    "category": "Arabic-speaking Health clubs in Tennessee",
    "description": "A well-known gym chain offering a wide range of equipment and classes. Similar to other large chains, there's a possibility of finding Arabic-speaking staff",
    "hours": "Mon-Fri 9AM-6PM",
    "services": [
      "Arabic-speaking Health clubs in Tennessee consultation",
      "Professional service",
      "Quality guarantee"
    ],
    "social_links": {}
  }
]