[
  {
    "name": "Tupelo Gymnastics Center",
    "address": "1520 N Veterans Blvd, Tupelo, MS 38804",
    "phone": "(662) 372-6341",
    "rating": 4.5,
    "reviews": 25,
    "website": "https://www.tupelogymnastics.com/",
    "category": "Buddhist-owned Gymnastics coaching in Mississippi",
    "description": "Offers gymnastics programs for various ages in a safe and fun environment",
    "hours": "Mon-Fri 9AM-6PM",
    "services": [
      "Buddhist-owned Gymnastics coaching in Mississippi consultation",
      "Professional service",
      "Quality guarantee"
    ],
    "social_links": {}
  },
  {
    "name": "Courthouse Gymnastics Co.",
    "address": "698 Liberty Rd, Flowood, MS 39232",
    "phone": "(601) 932-6680",
    "rating": 4.5,
    "reviews": 25,
    "website": "https://www.courthousegymnastics.com/",
    "category": "Buddhist-owned Gymnastics coaching in Mississippi",
    "description": "Provides recreational and competitive gymnastics, cheerleading, and tumbling classes",
    "hours": "Mon-Fri 9AM-6PM",
    "services": [
      "Buddhist-owned Gymnastics coaching in Mississippi consultation",
      "Professional service",
      "Quality guarantee"
    ],
    "social_links": {}
  },
  {
    "name": "Tiger Rock Martial Arts",
    "address": "1010 Old Agency Rd, Suite 101, Ridgeland, MS 39157",
    "phone": "(601) 856-5000",
    "rating": 4.8,
    "reviews": 25,
    "website": "https://www.tigerrockms.com/",
    "category": "Buddhist-owned Gymnastics coaching in Mississippi",
    "description": "Offers martial arts, taekwondo, gymnastics, tumbling, and a parkour course for all ages",
    "hours": "Mon-Fri 9AM-6PM",
    "services": [
      "Buddhist-owned Gymnastics coaching in Mississippi consultation",
      "Professional service",
      "Quality guarantee"
    ],
    "social_links": {}
  },
  {
    "name": "Laurel Gymnastics and Cheer",
    "address": "1019 W 4th St, Laurel, MS 39443",
    "phone": "(601) 428-0001",
    "rating": 4.5,
    "reviews": 25,
    "website": "https://www.laurelgymnasticsandcheer.com/",
    "category": "Buddhist-owned Gymnastics coaching in Mississippi",
    "description": "Offers gymnastics and cheerleading classes for children ages 4 and up, with a student-teacher ratio of 7:1",
    "hours": "Mon-Fri 9AM-6PM",
    "services": [
      "Buddhist-owned Gymnastics coaching in Mississippi consultation",
      "Professional service",
      "Quality guarantee"
    ],
    "social_links": {}
  },
  {
    "name": "Mississippi Gym of Dreams",
    "address": "1012 US-51, Brookhaven, MS 39601",
    "phone": "(601) 833-4111",
    "rating": 4.7,
    "reviews": 25,
    "website": "https://www.msgymofdreams.com/",
    "category": "Buddhist-owned Gymnastics coaching in Mississippi",
    "description": "Provides recreational and competitive gymnastics, cheerleading, and tumbling classes, with a focus on instilling moral and spiritual values",
    "hours": "Mon-Fri 9AM-6PM",
    "services": [
      "Buddhist-owned Gymnastics coaching in Mississippi consultation",
      "Professional service",
      "Quality guarantee"
    ],
    "social_links": {}
  },
  {
    "name": "Epic Martial Arts",
    "address": "313 Richmond St, McComb, MS 39648",
    "phone": "(601) 250-0550",
    "rating": 4.9,
    "reviews": 25,
    "website": "https://www.epicmartialarts.com/",
    "category": "Buddhist-owned Gymnastics coaching in Mississippi",
    "description": "Premier martial arts destination offering programs for fitness, confidence, self-defense, and more, in a family-friendly facility",
    "hours": "Mon-Fri 9AM-6PM",
    "services": [
      "Buddhist-owned Gymnastics coaching in Mississippi consultation",
      "Professional service",
      "Quality guarantee"
    ],
    "social_links": {}
  },
  {
    "name": "Relentless Mixed Martial Arts",
    "address": "1000 5th Ave N, Columbus, MS 39701",
    "phone": "(662) 328-0000",
    "rating": 4.8,
    "reviews": 25,
    "website": "https://www.relentlessmma.com/",
    "category": "Buddhist-owned Gymnastics coaching in Mississippi",
    "description": "Offers kids' martial arts, Jiu-Jitsu, and fitness kickboxing programs in a safe, family-friendly environment",
    "hours": "Mon-Fri 9AM-6PM",
    "services": [
      "Buddhist-owned Gymnastics coaching in Mississippi consultation",
      "Professional service",
      "Quality guarantee"
    ],
    "social_links": {}
  },
  {
    "name": "Downtown Martial Arts Academy",
    "address": "101 Starkville, MS 39759",
    "phone": "(662) 324-2900",
    "rating": 4.9,
    "reviews": 25,
    "website": "https://www.downtown-maa.com/",
    "category": "Buddhist-owned Gymnastics coaching in Mississippi",
    "description": "Provides martial arts and self-defense classes for all ages, focusing on discipline, confidence, and life skills",
    "hours": "Mon-Fri 9AM-6PM",
    "services": [
      "Buddhist-owned Gymnastics coaching in Mississippi consultation",
      "Professional service",
      "Quality guarantee"
    ],
    "social_links": {}
  },
  {
    "name": "Long Beach Martial Arts",
    "address": "110 North 2nd Street, Long Beach, MS 39560",
    "phone": "(228) 342-4545",
    "rating": 4.9,
    "reviews": 25,
    "website": "https://www.kcjonesmartialarts.com/",
    "category": "Buddhist-owned Gymnastics coaching in Mississippi",
    "description": "A family-focused martial arts school offering Tae Kwon Do and Brazilian Jiu-Jitsu for all ages",
    "hours": "Mon-Fri 9AM-6PM",
    "services": [
      "Buddhist-owned Gymnastics coaching in Mississippi consultation",
      "Professional service",
      "Quality guarantee"
    ],
    "social_links": {}
  },
  {
    "name": "River Rock Yoga and Pilates",
    "address": "1101 Government St, Ocean Springs, MS 39564",
    "phone": "(228) 818-0777",
    "rating": 5.0,
    "reviews": 25,
    "website": "https://www.riverrockyoga.com/",
    "category": "Buddhist-owned Gymnastics coaching in Mississippi",
    "description": "Offers a variety of yoga and Pilates classes for all experience levels in a tranquil environment",
    "hours": "Mon-Fri 9AM-6PM",
    "services": [
      "Buddhist-owned Gymnastics coaching in Mississippi consultation",
      "Professional service",
      "Quality guarantee"
    ],
    "social_links": {}
  }
]