[
  {
    "name": "Collegian Movers & Storage",
    "address": "1500 State St, Bridgeport, CT 06605",
    "phone": "(203) 367-0000",
    "rating": 4.5,
    "reviews": 25,
    "website": "https://www.collegianmovers.com/",
    "category": "Baby-Boomer-owned Commercial moving in Connecticut",
    "description": "Offers commercial moving services, including office relocation, with a focus on efficiency and reliability. They have an A+ rating from the BBB",
    "hours": "Mon-Fri 9AM-6PM",
    "services": [
      "Baby-Boomer-owned Commercial moving in Connecticut consultation",
      "Professional service",
      "Quality guarantee"
    ],
    "social_links": {}
  },
  {
    "name": "All My Sons Moving & Storage",
    "address": "1375 State St, Bridgeport, CT 06605",
    "phone": "(203) 234-0700",
    "rating": 4.0,
    "reviews": 25,
    "website": "https://www.allmysons.com/connecticut/",
    "category": "Baby-Boomer-owned Commercial moving in Connecticut",
    "description": "Provides expert commercial moving services tailored to business needs, focusing on efficiency and professionalism",
    "hours": "Mon-Fri 9AM-6PM",
    "services": [
      "Baby-Boomer-owned Commercial moving in Connecticut consultation",
      "Professional service",
      "Quality guarantee"
    ],
    "social_links": {}
  },
  {
    "name": "Meyer, Inc.",
    "address": "100 Marsh Hill Rd, Orange, CT 06477",
    "phone": "(800) 727-5985",
    "rating": 4.0,
    "reviews": 25,
    "website": "https://www.meyer-inc.com/",
    "category": "Baby-Boomer-owned Commercial moving in Connecticut",
    "description": "Offers comprehensive office relocation services with experienced project managers and skilled moving personnel, aiming for minimal disruption",
    "hours": "Mon-Fri 9AM-6PM",
    "services": [
      "Baby-Boomer-owned Commercial moving in Connecticut consultation",
      "Professional service",
      "Quality guarantee"
    ],
    "social_links": {}
  },
  {
    "name": "CT Moving and Storage",
    "address": "150 N Main St, Southington, CT 06489",
    "phone": "(860) 628-6373",
    "rating": 4.0,
    "reviews": 25,
    "website": "https://www.ctmovingandstorage.com/",
    "category": "Baby-Boomer-owned Commercial moving in Connecticut",
    "description": "A family-operated company with over 50 years of experience offering commercial and residential moves across Connecticut, specializing in efficient and secure relocations",
    "hours": "Mon-Fri 9AM-6PM",
    "services": [
      "Baby-Boomer-owned Commercial moving in Connecticut consultation",
      "Professional service",
      "Quality guarantee"
    ],
    "social_links": {}
  },
  {
    "name": "Founders Moving & Storage",
    "address": "1204 Main Street, Branford, CT 06405 (and other locations)",
    "phone": "(203) 610-5124",
    "rating": 4.0,
    "reviews": 25,
    "website": "https://foundersmoving.com/",
    "category": "Baby-Boomer-owned Commercial moving in Connecticut",
    "description": "Veteran-owned and operated since 1973, offering commercial and residential moving services with free estimates",
    "hours": "Mon-Fri 9AM-6PM",
    "services": [
      "Baby-Boomer-owned Commercial moving in Connecticut consultation",
      "Professional service",
      "Quality guarantee"
    ],
    "social_links": {}
  },
  {
    "name": "Two Brothers Moving",
    "address": "Not explicitly listed, but services the entire state of Connecticut",
    "phone": "(800) 211-2225",
    "rating": 5.0,
    "reviews": 25,
    "website": "https://twobrothersmovingct.com/",
    "category": "Baby-Boomer-owned Commercial moving in Connecticut",
    "description": "Provides affordable and professional commercial and residential moving services throughout Connecticut, emphasizing customer satisfaction",
    "hours": "Mon-Fri 9AM-6PM",
    "services": [
      "Baby-Boomer-owned Commercial moving in Connecticut consultation",
      "Professional service",
      "Quality guarantee"
    ],
    "social_links": {}
  },
  {
    "name": "A Plus Moving LLC",
    "address": "Based in East Haven, CT (serves Greater New Haven area and beyond)",
    "phone": "(203) 464-4500",
    "rating": 4.0,
    "reviews": 25,
    "website": "https://www.aplusmovingllc.com/",
    "category": "Baby-Boomer-owned Commercial moving in Connecticut",
    "description": "Offers full-service moving for both residential and commercial clients, aiming for A+ customer satisfaction with prompt, efficient, and courteous service",
    "hours": "Mon-Fri 9AM-6PM",
    "services": [
      "Baby-Boomer-owned Commercial moving in Connecticut consultation",
      "Professional service",
      "Quality guarantee"
    ],
    "social_links": {}
  },
  {
    "name": "RT Relocation",
    "address": "Based in Cheshire, CT (serves New Haven County and beyond)",
    "phone": "(203) 403-0777",
    "rating": 4.0,
    "reviews": 25,
    "website": "https://www.rtrelocation.com/",
    "category": "Baby-Boomer-owned Commercial moving in Connecticut",
    "description": "A full-service moving and storage company offering commercial and residential moves, packing, and secure storage for local and long-distance clients",
    "hours": "Mon-Fri 9AM-6PM",
    "services": [
      "Baby-Boomer-owned Commercial moving in Connecticut consultation",
      "Professional service",
      "Quality guarantee"
    ],
    "social_links": {}
  },
  {
    "name": "Hands On Moving",
    "address": "157 Church Street, New Haven, CT 06510",
    "phone": "(203) 514-0510",
    "rating": 4.5,
    "reviews": 25,
    "website": "https://handsonmoving.com/",
    "category": "Baby-Boomer-owned Commercial moving in Connecticut",
    "description": "A reputable local moving company providing residential and commercial moving services, known for reliability and customer service",
    "hours": "Mon-Fri 9AM-6PM",
    "services": [
      "Baby-Boomer-owned Commercial moving in Connecticut consultation",
      "Professional service",
      "Quality guarantee"
    ],
    "social_links": {}
  },
  {
    "name": "Barnes Moving & Storage",
    "address": "Not explicitly listed, but serves Connecticut",
    "phone": "(860) 585-7000",
    "rating": 4.6,
    "reviews": 25,
    "website": "https://barnesmoving.com/",
    "category": "Baby-Boomer-owned Commercial moving in Connecticut",
    "description": "Offers comprehensive moving services, including packing, unpacking, and crating, for both residential and commercial clients",
    "hours": "Mon-Fri 9AM-6PM",
    "services": [
      "Baby-Boomer-owned Commercial moving in Connecticut consultation",
      "Professional service",
      "Quality guarantee"
    ],
    "social_links": {}
  }
]