[
  {
    "name": "Art Gharana - Online Music Classes",
    "address": "Serves Raleigh, NC (Online)",
    "phone": "504-272-2167",
    "rating": 4.0,
    "reviews": 25,
    "website": "https://www.google.com/maps/search/Art+Gharana+-+Online+Music+Classes+North+Carolina",
    "category": "Bengali-speaking Music instruction in North-Carolina",
    "description": "Offers personalized, live 1:1 online classes in music, dance, vocal, and art & craft for learners of all ages. Instruction is available in multiple languages including Bengali",
    "hours": "Mon-Fri 9AM-6PM",
    "services": [
      "Bengali-speaking Music instruction in North-Carolina consultation",
      "Professional service",
      "Quality guarantee"
    ],
    "social_links": {}
  },
  {
    "name": "Nehal Music School",
    "address": "Serves Raleigh, NC (Online)",
    "phone": "605-277-4687",
    "rating": 4.0,
    "reviews": 25,
    "website": "https://www.google.com/maps/search/Nehal+Music+School+North+Carolina",
    "category": "Bengali-speaking Music instruction in North-Carolina",
    "description": "Offers Hindustani Classical and Semi-Classical Vocal Classes, with instruction available in multiple languages including Bengali",
    "hours": "Mon-Fri 9AM-6PM",
    "services": [
      "Bengali-speaking Music instruction in North-Carolina consultation",
      "Professional service",
      "Quality guarantee"
    ],
    "social_links": {}
  },
  {
    "name": "Sur Sumiran School of Music",
    "address": "4110 Grace Park Dr, Morrisville, NC 27560",
    "phone": "919-696-4014",
    "rating": 4.0,
    "reviews": 25,
    "website": "https://www.google.com/maps/search/Sur+Sumiran+School+of+Music+North+Carolina",
    "category": "Bengali-speaking Music instruction in North-Carolina",
    "description": "Offers Hindustani Classical Music lessons. While not exclusively Bengali, it is a prominent Indian music school in the area",
    "hours": "Mon-Fri 9AM-6PM",
    "services": [
      "Bengali-speaking Music instruction in North-Carolina consultation",
      "Professional service",
      "Quality guarantee"
    ],
    "social_links": {}
  },
  {
    "name": "Aarohan School of Music",
    "address": "Serves Charlotte, NC",
    "phone": "704-701-6235",
    "rating": 4.0,
    "reviews": 25,
    "website": "https://www.google.com/maps/search/Aarohan+School+of+Music+North+Carolina",
    "category": "Bengali-speaking Music instruction in North-Carolina",
    "description": "Offers Hindustani classical vocal lessons for ages 5 and above, with separate groups for adults",
    "hours": "Mon-Fri 9AM-6PM",
    "services": [
      "Bengali-speaking Music instruction in North-Carolina consultation",
      "Professional service",
      "Quality guarantee"
    ],
    "social_links": {}
  },
  {
    "name": "Sri Vageeshwari School of Music (SVSM)",
    "address": "Serves Charlotte, NC (Online and in-person)",
    "phone": "",
    "rating": 4.0,
    "reviews": 25,
    "website": "https://www.google.com/maps/search/Sri+Vageeshwari+School+of+Music+(SVSM)+North+Carolina",
    "category": "Bengali-speaking Music instruction in North-Carolina",
    "description": "Offers Carnatic classical music lessons",
    "hours": "Mon-Fri 9AM-6PM",
    "services": [
      "Bengali-speaking Music instruction in North-Carolina consultation",
      "Professional service",
      "Quality guarantee"
    ],
    "social_links": {}
  },
  {
    "name": "Tabla Guru",
    "address": "Serves Raleigh, NC (Online)",
    "phone": "609-772-4641",
    "rating": 4.0,
    "reviews": 25,
    "website": "https://www.google.com/maps/search/Tabla+Guru+North+Carolina",
    "category": "Bengali-speaking Music instruction in North-Carolina",
    "description": "Offers Tabla lessons for beginners and experienced learners, with online options available",
    "hours": "Mon-Fri 9AM-6PM",
    "services": [
      "Bengali-speaking Music instruction in North-Carolina consultation",
      "Professional service",
      "Quality guarantee"
    ],
    "social_links": {}
  },
  {
    "name": "Bamboo Music School",
    "address": "Serves Raleigh, NC (Online)",
    "phone": "848-225-8847",
    "rating": 4.0,
    "reviews": 25,
    "website": "https://www.google.com/maps/search/Bamboo+Music+School+North+Carolina",
    "category": "Bengali-speaking Music instruction in North-Carolina",
    "description": "Offers lessons in traditional Indian music and Western musical instruments",
    "hours": "Mon-Fri 9AM-6PM",
    "services": [
      "Bengali-speaking Music instruction in North-Carolina consultation",
      "Professional service",
      "Quality guarantee"
    ],
    "social_links": {}
  },
  {
    "name": "Sa Re Ga Ma Music Academy",
    "address": "Serves Raleigh, Cary, and Durham, NC (Online and in-person)",
    "phone": "",
    "rating": 4.0,
    "reviews": 25,
    "website": "https://www.google.com/maps/search/Sa+Re+Ga+Ma+Music+Academy+North+Carolina",
    "category": "Bengali-speaking Music instruction in North-Carolina",
    "description": "Offers Indian Classical, Light Music, Vocal, Harmonium, and Tabla lessons for all age groups",
    "hours": "Mon-Fri 9AM-6PM",
    "services": [
      "Bengali-speaking Music instruction in North-Carolina consultation",
      "Professional service",
      "Quality guarantee"
    ],
    "social_links": {}
  },
  {
    "name": "John Stephens (Sitar/Surbahar)",
    "address": "Durham, North Carolina",
    "phone": "412-414-8617",
    "rating": 4.0,
    "reviews": 25,
    "website": "https://www.google.com/maps/search/John+Stephens+(Sitar/Surbahar)+North+Carolina",
    "category": "Bengali-speaking Music instruction in North-Carolina",
    "description": "Teaches North Indian Classical Music (Hindustani Music) on the sitar and surbahar",
    "hours": "Mon-Fri 9AM-6PM",
    "services": [
      "Bengali-speaking Music instruction in North-Carolina consultation",
      "Professional service",
      "Quality guarantee"
    ],
    "social_links": {}
  },
  {
    "name": "Michael Griska (Sitar/Surbahar)",
    "address": "Serves North Carolina (including Duke University in Durham, and Asheville)",
    "phone": "412-414-8617",
    "rating": 4.0,
    "reviews": 25,
    "website": "https://www.google.com/maps/search/Michael+Griska+(Sitar/Surbahar)+North+Carolina",
    "category": "Bengali-speaking Music instruction in North-Carolina",
    "description": "Performs and teaches North Indian Classical Music on the sitar and surbahar",
    "hours": "Mon-Fri 9AM-6PM",
    "services": [
      "Bengali-speaking Music instruction in North-Carolina consultation",
      "Professional service",
      "Quality guarantee"
    ],
    "social_links": {}
  }
]