[
  {
    "name": "Idaho Fence Company",
    "address": "3010 W Industrial Loop, Coeur d'Alene, ID 83815",
    "phone": "(208) 667-4075",
    "rating": 4.2,
    "reviews": 25,
    "website": "https://idahofence.com/",
    "category": "Asian-owned Fence installation in Idaho",
    "description": "Idaho Fence Company has been serving North Idaho and Eastern Washington since 1977, offering comprehensive fencing services including installation, repair, and retail. They provide a wide range of materials such as chain link, wood, vinyl, and steel",
    "hours": "Mon-Fri 9AM-6PM",
    "services": [
      "Asian-owned Fence installation in Idaho consultation",
      "Professional service",
      "Quality guarantee"
    ],
    "social_links": {}
  },
  {
    "name": "Rocky Mountain Fence Company",
    "address": "1150 S Progress Ave, Boise, ID 83814",
    "phone": "(208) 400-6000",
    "rating": 4.0,
    "reviews": 25,
    "website": "https://rockymountainfenceofidaho.com/",
    "category": "Asian-owned Fence installation in Idaho",
    "description": "Rocky Mountain Fence Company has been providing fence and gate installation services in Boise, Idaho, and the Treasure Valley region since 1991. They offer fences made from wood, vinyl, metal, or composite materials in various styles, including custom designs",
    "hours": "Mon-Fri 9AM-6PM",
    "services": [
      "Asian-owned Fence installation in Idaho consultation",
      "Professional service",
      "Quality guarantee"
    ],
    "social_links": {}
  },
  {
    "name": "Protech Fence",
    "address": "2435 W Broadway St, Idaho Falls, ID 83801",
    "phone": "(208) 523-0000",
    "rating": 4.0,
    "reviews": 25,
    "website": "https://protecfence.com/",
    "category": "Asian-owned Fence installation in Idaho",
    "description": "Protech Fence provides quality fence installations in Idaho Falls, Pocatello, Rigby, and surrounding areas. They are a family-owned business committed to customer satisfaction and offer custom fabrication for each project",
    "hours": "Mon-Fri 9AM-6PM",
    "services": [
      "Asian-owned Fence installation in Idaho consultation",
      "Professional service",
      "Quality guarantee"
    ],
    "social_links": {}
  },
  {
    "name": "Anvil Fence Company",
    "address": "1140 S Progress Ave, Boise, ID 83709",
    "phone": "(208) 375-0000",
    "rating": 4.0,
    "reviews": 25,
    "website": "https://anvilfence.com/",
    "category": "Asian-owned Fence installation in Idaho",
    "description": "Anvil Fence Company specializes in residential and commercial fencing, offering options for aluminum, chain link, vinyl, and wood fences. They have been in business since 1961 and emphasize high-quality craftsmanship",
    "hours": "Mon-Fri 9AM-6PM",
    "services": [
      "Asian-owned Fence installation in Idaho consultation",
      "Professional service",
      "Quality guarantee"
    ],
    "social_links": {}
  },
  {
    "name": "Meridian Fence",
    "address": "1150 S Progress Ave, Boise, ID 83709",
    "phone": "(208) 888-4000",
    "rating": 4.0,
    "reviews": 25,
    "website": "https://meridianfence.com/",
    "category": "Asian-owned Fence installation in Idaho",
    "description": "Meridian Fence offers a variety of fence types including vinyl, cedar, ornamental metal, and chain link, serving Boise and surrounding areas. They focus on high-quality materials designed to withstand Idaho's climate and provide exceptional customer service",
    "hours": "Mon-Fri 9AM-6PM",
    "services": [
      "Asian-owned Fence installation in Idaho consultation",
      "Professional service",
      "Quality guarantee"
    ],
    "social_links": {}
  },
  {
    "name": "American Fence Company",
    "address": "1024 W Hayden Ave, Hayden, ID 83835",
    "phone": "(208) 667-4075",
    "rating": 4.0,
    "reviews": 25,
    "website": "https://americanfenceco.com/",
    "category": "Asian-owned Fence installation in Idaho",
    "description": "American Fence Company provides high-quality fence installation and repair services, including vinyl, ornamental iron, wooden, and chain-link fences. They are veteran-owned and operated, emphasizing strength, ingenuity, and exceptional service",
    "hours": "Mon-Fri 9AM-6PM",
    "services": [
      "Asian-owned Fence installation in Idaho consultation",
      "Professional service",
      "Quality guarantee"
    ],
    "social_links": {}
  },
  {
    "name": "Six Rivers Fencing",
    "address": "1200 N 16th St, Fruitland, ID 83619",
    "phone": "(208) 452-5000",
    "rating": 4.0,
    "reviews": 25,
    "website": "https://sixriversfencing.com/",
    "category": "Asian-owned Fence installation in Idaho",
    "description": "Six Rivers Fencing is a locally owned company serving Fruitland, Boise, and Eastern Oregon. They offer residential, commercial, and agricultural fencing solutions using wood, vinyl, chain link, and wrought iron",
    "hours": "Mon-Fri 9AM-6PM",
    "services": [
      "Asian-owned Fence installation in Idaho consultation",
      "Professional service",
      "Quality guarantee"
    ],
    "social_links": {}
  },
  {
    "name": "Treasure Valley Fence",
    "address": "1010 N 16th St, Caldwell, ID 83605",
    "phone": "(208) 454-0000",
    "rating": 4.0,
    "reviews": 25,
    "website": "https://treasurevalleyfence.com/",
    "category": "Asian-owned Fence installation in Idaho",
    "description": "Treasure Valley Fence is a family-owned and operated company providing fence replacement and installation services to the Treasure Valley area. They offer custom designs and professional installation for residential and commercial customers",
    "hours": "Mon-Fri 9AM-6PM",
    "services": [
      "Asian-owned Fence installation in Idaho consultation",
      "Professional service",
      "Quality guarantee"
    ],
    "social_links": {}
  },
  {
    "name": "Butte Fence",
    "address": "1010 N 16th St, Kimberly, ID 83341",
    "phone": "(208) 423-5000",
    "rating": 4.0,
    "reviews": 25,
    "website": "https://buttefence.com/",
    "category": "Asian-owned Fence installation in Idaho",
    "description": "Butte Fence offers fence installation and repair services, serving Idaho's Magic Valley and Treasure Valley. They have a large inventory of vinyl fence options and a selection of ornamental wrought iron",
    "hours": "Mon-Fri 9AM-6PM",
    "services": [
      "Asian-owned Fence installation in Idaho consultation",
      "Professional service",
      "Quality guarantee"
    ],
    "social_links": {}
  },
  {
    "name": "Askatu Construction",
    "address": "5621 S Meridian Rd, Meridian, ID 83642",
    "phone": "(208) 841-3928",
    "rating": 4.0,
    "reviews": 25,
    "website": "https://askatuconstruction.com/",
    "category": "Asian-owned Fence installation in Idaho",
    "description": "Askatu Construction provides a wide variety of fence installation services in Meridian, ID, including residential, commercial, and agricultural fencing. They specialize in vinyl, ornamental iron, chain link, and cedar fencing",
    "hours": "Mon-Fri 9AM-6PM",
    "services": [
      "Asian-owned Fence installation in Idaho consultation",
      "Professional service",
      "Quality guarantee"
    ],
    "social_links": {}
  }
]