[
  {
    "name": "Virginia Weight and Wellness",
    "address": "10777 Main St, Fairfax, VA 22030",
    "phone": "(703) 865-6490",
    "rating": 4.8,
    "reviews": 25,
    "website": "https://virginiaweightandwellness.com/",
    "category": "Asian-owned Fat reduction in Virginia",
    "description": "Offers individualized medical weight loss programs focusing on sustainable results and overall health improvement",
    "hours": "Mon-Fri 9AM-6PM",
    "services": [
      "Asian-owned Fat reduction in Virginia consultation",
      "Professional service",
      "Quality guarantee"
    ],
    "social_links": {}
  },
  {
    "name": "Aura Medspa",
    "address": "207 N Maple Ave, Vienna, VA 22180",
    "phone": "(703) 910-5000",
    "rating": 4.9,
    "reviews": 25,
    "website": "https://auramedspa.com/",
    "category": "Asian-owned Fat reduction in Virginia",
    "description": "A premier aesthetics clinic offering a range of treatments, including those for body contouring and fat reduction",
    "hours": "Mon-Fri 9AM-6PM",
    "services": [
      "Asian-owned Fat reduction in Virginia consultation",
      "Professional service",
      "Quality guarantee"
    ],
    "social_links": {}
  },
  {
    "name": "Nova Physician Wellness Center",
    "address": "3903 Fair Ridge Dr #209, Fairfax, VA 22033",
    "phone": "(703) 865-6490",
    "rating": 4.7,
    "reviews": 25,
    "website": "https://novaphysicianwellness.com/",
    "category": "Asian-owned Fat reduction in Virginia",
    "description": "Specializes in obesity medicine and offers personalized weight loss plans with a holistic approach",
    "hours": "Mon-Fri 9AM-6PM",
    "services": [
      "Asian-owned Fat reduction in Virginia consultation",
      "Professional service",
      "Quality guarantee"
    ],
    "social_links": {}
  },
  {
    "name": "BeLite Weight Loss Clinic Fairfax",
    "address": "10521 Main St, Fairfax, VA 22030",
    "phone": "(703) 591-1100",
    "rating": 4.6,
    "reviews": 25,
    "website": "https://belite.com/locations/fairfax-weight-loss-clinic/",
    "category": "Asian-owned Fat reduction in Virginia",
    "description": "Offers medical weight loss solutions, including prescription medications and personalized plans",
    "hours": "Mon-Fri 9AM-6PM",
    "services": [
      "Asian-owned Fat reduction in Virginia consultation",
      "Professional service",
      "Quality guarantee"
    ],
    "social_links": {}
  },
  {
    "name": "Evexia Medspa",
    "address": "1500 Cornerside Blvd, McLean, VA 22102",
    "phone": "(703) 650-0777",
    "rating": 4.8,
    "reviews": 25,
    "website": "https://evexiamedspa.com/",
    "category": "Asian-owned Fat reduction in Virginia",
    "description": "Provides a comprehensive weight loss management program combining medical techniques, nutrition, and support",
    "hours": "Mon-Fri 9AM-6PM",
    "services": [
      "Asian-owned Fat reduction in Virginia consultation",
      "Professional service",
      "Quality guarantee"
    ],
    "social_links": {}
  },
  {
    "name": "NRV Medical Weight Loss & Wellness",
    "address": "2030 Wilderness Rd, Dublin, VA 24084",
    "phone": "(540) 629-3751",
    "rating": 4.9,
    "reviews": 25,
    "website": "https://nrvmedicalweightloss.com/",
    "category": "Asian-owned Fat reduction in Virginia",
    "description": "A weight loss clinic focused on effective medical weight loss and overall wellness, offering various treatment modalities",
    "hours": "Mon-Fri 9AM-6PM",
    "services": [
      "Asian-owned Fat reduction in Virginia consultation",
      "Professional service",
      "Quality guarantee"
    ],
    "social_links": {}
  },
  {
    "name": "King Spa Virginia",
    "address": "7753 Sudley Rd, Manassas, VA 20109",
    "phone": "(703) 910-5400",
    "rating": 4.5,
    "reviews": 25,
    "website": "https://kingspava.com/",
    "category": "Asian-owned Fat reduction in Virginia",
    "description": "A Korean day spa offering traditional Korean treatments, including saunas and body scrubs, which can contribute to detoxification and well-being",
    "hours": "Mon-Fri 9AM-6PM",
    "services": [
      "Asian-owned Fat reduction in Virginia consultation",
      "Professional service",
      "Quality guarantee"
    ],
    "social_links": {}
  },
  {
    "name": "NU Body Weight Loss & Aesthetics",
    "address": "455 S Independence Blvd Suite 101, Virginia Beach, VA 23456",
    "phone": "(757) 227-1000",
    "rating": 4.7,
    "reviews": 25,
    "website": "https://nubodyweightloss.com/",
    "category": "Asian-owned Fat reduction in Virginia",
    "description": "Offers medical spa treatments, body contouring, and nutrition management for weight loss and overall wellness",
    "hours": "Mon-Fri 9AM-6PM",
    "services": [
      "Asian-owned Fat reduction in Virginia consultation",
      "Professional service",
      "Quality guarantee"
    ],
    "social_links": {}
  },
  {
    "name": "House of Bloom Medical Aesthetics",
    "address": "10157 Bristow Rd, Bristow, VA 20136",
    "phone": "(571) 353-0400",
    "rating": 4.9,
    "reviews": 25,
    "website": "https://houseofbloommed.com/",
    "category": "Asian-owned Fat reduction in Virginia",
    "description": "A boutique med spa offering medical weight loss, Botox, laser treatments, and other aesthetic and wellness services",
    "hours": "Mon-Fri 9AM-6PM",
    "services": [
      "Asian-owned Fat reduction in Virginia consultation",
      "Professional service",
      "Quality guarantee"
    ],
    "social_links": {}
  },
  {
    "name": "Dr. Vo-Nguyen (Kybella Chin Fat Reduction)",
    "address": "4501 John Marr Dr #300, Annandale, VA 22003",
    "phone": "(703) 544-1900",
    "rating": 4.9,
    "reviews": 25,
    "website": "https://www.drvfacialplastics.com/kybella-chin-fat-reduction-northern-virginia/",
    "category": "Asian-owned Fat reduction in Virginia",
    "description": "Specializes in facial plastic surgery and offers Kybella injections for non-surgical chin fat reduction",
    "hours": "Mon-Fri 9AM-6PM",
    "services": [
      "Asian-owned Fat reduction in Virginia consultation",
      "Professional service",
      "Quality guarantee"
    ],
    "social_links": {}
  }
]