[
  {
    "name": "KC Can Compost",
    "address": "3119 Terrace Street, Kansas City, MO 64111 (Serves the Kansas City region)",
    "phone": "(816) 701-4000",
    "rating": 4.0,
    "reviews": 25,
    "website": "https://kccompost.org/",
    "category": "Armenian-speaking Composting services in Kansas",
    "description": "A nonprofit organization that collects organic waste for composting and provides job training for individuals facing employment barriers",
    "hours": "Mon-Fri 9AM-6PM",
    "services": [
      "Armenian-speaking Composting services in Kansas consultation",
      "Professional service",
      "Quality guarantee"
    ],
    "social_links": {}
  },
  {
    "name": "Compost Collective KC",
    "address": "PO Box 300991, Kansas City, MO 64130 (Serves the Kansas City metro area, including parts of Kansas)",
    "phone": "(816) 281-7871",
    "rating": 4.0,
    "reviews": 25,
    "website": "https://compostcollectivekc.com/",
    "category": "Armenian-speaking Composting services in Kansas",
    "description": "Offers curbside composting services for food waste, turning it into compost for local farms and gardens",
    "hours": "Mon-Fri 9AM-6PM",
    "services": [
      "Armenian-speaking Composting services in Kansas consultation",
      "Professional service",
      "Quality guarantee"
    ],
    "social_links": {}
  },
  {
    "name": "Nudge Compost",
    "address": "424 South Dellrose Street, Wichita, KS 67218",
    "phone": "(785) 979-5537",
    "rating": 4.0,
    "reviews": 25,
    "website": "https://www.nudgecompost.com/",
    "category": "Armenian-speaking Composting services in Kansas",
    "description": "Provides food scrap pick-up services for homes and businesses in the Wichita area, aiming to reduce food waste sent to landfills",
    "hours": "Mon-Fri 9AM-6PM",
    "services": [
      "Armenian-speaking Composting services in Kansas consultation",
      "Professional service",
      "Quality guarantee"
    ],
    "social_links": {}
  },
  {
    "name": "Kansas Compost",
    "address": "10727 E. 39th St S, Derby, KS 67037",
    "phone": "(316) 570-3087",
    "rating": 4.0,
    "reviews": 25,
    "website": "https://www.wichitaridingacademy.com/kansas-compost",
    "category": "Armenian-speaking Composting services in Kansas",
    "description": "Offers bagged and bulk compost and arbor chips, with delivery available. Their compost is made from equine manure and hay",
    "hours": "Mon-Fri 9AM-6PM",
    "services": [
      "Armenian-speaking Composting services in Kansas consultation",
      "Professional service",
      "Quality guarantee"
    ],
    "social_links": {}
  },
  {
    "name": "City of Lawrence Compost Facility",
    "address": "1420 E. 11th Street, Lawrence, KS 66044",
    "phone": "(785) 832-3000",
    "rating": 4.0,
    "reviews": 25,
    "website": "https://lawrenceks.gov/swm/compost/",
    "category": "Armenian-speaking Composting services in Kansas",
    "description": "A facility where Lawrence residents can drop off yard waste and pick up compost and woodchips",
    "hours": "Mon-Fri 9AM-6PM",
    "services": [
      "Armenian-speaking Composting services in Kansas consultation",
      "Professional service",
      "Quality guarantee"
    ],
    "social_links": {}
  },
  {
    "name": "Missouri Organic Recycling",
    "address": "Multiple locations in the Kansas City Metro area, including 2827 S 12th Street, Kansas City, KS 66102",
    "phone": "(816) 296-9144",
    "rating": 4.0,
    "reviews": 25,
    "website": "https://www.missouriorganic.com/",
    "category": "Armenian-speaking Composting services in Kansas",
    "description": "Manufactures premium topsoil blends, compost, and mulch from recycled organic waste materials. They also offer drop-off locations for yard waste",
    "hours": "Mon-Fri 9AM-6PM",
    "services": [
      "Armenian-speaking Composting services in Kansas consultation",
      "Professional service",
      "Quality guarantee"
    ],
    "social_links": {}
  },
  {
    "name": "Full Circle Sustainability",
    "address": "(Serves Lawrence and Topeka, with a bin swap location in Lawrence)",
    "phone": "",
    "rating": 4.0,
    "reviews": 25,
    "website": "https://fullcirclesustainability.org/",
    "category": "Armenian-speaking Composting services in Kansas",
    "description": "Offers a bin swap program in partnership with Compost Collective KC for food waste recycling, serving Lawrence and Topeka",
    "hours": "Mon-Fri 9AM-6PM",
    "services": [
      "Armenian-speaking Composting services in Kansas consultation",
      "Professional service",
      "Quality guarantee"
    ],
    "social_links": {}
  },
  {
    "name": "Topeka Biomass Facility (Garick)",
    "address": "(Serves Topeka and surrounding areas)",
    "phone": "",
    "rating": 4.0,
    "reviews": 25,
    "website": "https://www.garick.com/topeka-biomass-facility",
    "category": "Armenian-speaking Composting services in Kansas",
    "description": "Specializes in sustainable mulch, soil, and compost production, serving Kansas and surrounding areas",
    "hours": "Mon-Fri 9AM-6PM",
    "services": [
      "Armenian-speaking Composting services in Kansas consultation",
      "Professional service",
      "Quality guarantee"
    ],
    "social_links": {}
  },
  {
    "name": "KANZA ORGANICS",
    "address": "Retail Location: 1500 S. Broadway Blvd, Salina, KS 67401. Wholesale Location: 600 S. Lightville Rd, Salina, KS 67401",
    "phone": "(785) 825-2818",
    "rating": 4.0,
    "reviews": 25,
    "website": "https://www.kanzaorganics.com/",
    "category": "Armenian-speaking Composting services in Kansas",
    "description": "A family-owned business that turns yard waste into compost and wood mulches, also retailing and wholesaling mulch and rock",
    "hours": "Mon-Fri 9AM-6PM",
    "services": [
      "Armenian-speaking Composting services in Kansas consultation",
      "Professional service",
      "Quality guarantee"
    ],
    "social_links": {}
  },
  {
    "name": "City of Hays Compost Site",
    "address": "South of E. 13th on General Custer Road, Hays, KS 67601",
    "phone": "(785) 628-7350 (Public Works Department Solid Waste Division)",
    "rating": 4.0,
    "reviews": 25,
    "website": "https://haysusa.com/297/Compost-Yard-Waste",
    "category": "Armenian-speaking Composting services in Kansas",
    "description": "A site where residents can take yard waste free of charge and obtain free compost year-round",
    "hours": "Mon-Fri 9AM-6PM",
    "services": [
      "Armenian-speaking Composting services in Kansas consultation",
      "Professional service",
      "Quality guarantee"
    ],
    "social_links": {}
  }
]