[
  {
    "name": "Innovative Dermatology",
    "address": "2000 Limestone Rd, Wilmington, DE 19808",
    "phone": "(302) 633-1900",
    "rating": 4.8,
    "reviews": 25,
    "website": "https://www.innovativedermatology.com/",
    "category": "Chinese-speaking Chemical peels in Delaware",
    "description": "Offers a range of medical, cosmetic, and surgical dermatology services, including chemical peels, performed by a board-certified dermatologist",
    "hours": "Mon-Fri 9AM-6PM",
    "services": [
      "Chinese-speaking Chemical peels in Delaware consultation",
      "Professional service",
      "Quality guarantee"
    ],
    "social_links": {}
  },
  {
    "name": "Premier Spa & Laser Center",
    "address": "100 Center Dr, Newark, DE 19713",
    "phone": "(302) 304-7000",
    "rating": 4.7,
    "reviews": 25,
    "website": "https://premierspaandlaser.com/",
    "category": "Chinese-speaking Chemical peels in Delaware",
    "description": "A medical spa offering a combination of traditional spa services and medical aesthetic treatments, including chemical peels",
    "hours": "Mon-Fri 9AM-6PM",
    "services": [
      "Chinese-speaking Chemical peels in Delaware consultation",
      "Professional service",
      "Quality guarantee"
    ],
    "social_links": {}
  },
  {
    "name": "CK Skin Spa",
    "address": "1601 Concord Pike, Wilmington, DE 19803",
    "phone": "(302) 407-7777",
    "rating": 4.9,
    "reviews": 25,
    "website": "https://ckskinspa.com/",
    "category": "Chinese-speaking Chemical peels in Delaware",
    "description": "Offers various professional chemical peel treatments to address concerns like acne scarring, fine lines, and hyperpigmentation",
    "hours": "Mon-Fri 9AM-6PM",
    "services": [
      "Chinese-speaking Chemical peels in Delaware consultation",
      "Professional service",
      "Quality guarantee"
    ],
    "social_links": {}
  },
  {
    "name": "Lux Medspa",
    "address": "5165 West Woodmill Dr, Ste 12, Wilmington, DE 19808",
    "phone": "(302) 907-9078",
    "rating": 4.8,
    "reviews": 25,
    "website": "https://www.luxmed-spa.com/",
    "category": "Chinese-speaking Chemical peels in Delaware",
    "description": "Provides professional-grade chemical peels tailored to address fine lines, acne, sun damage, and uneven tone",
    "hours": "Mon-Fri 9AM-6PM",
    "services": [
      "Chinese-speaking Chemical peels in Delaware consultation",
      "Professional service",
      "Quality guarantee"
    ],
    "social_links": {}
  },
  {
    "name": "Gillespie Med Spa",
    "address": "111 W 10th St, Wilmington, DE 19801",
    "phone": "(302) 544-5750",
    "rating": 4.6,
    "reviews": 25,
    "website": "https://gillespiemedspa.com/",
    "category": "Chinese-speaking Chemical peels in Delaware",
    "description": "Offers a range of aesthetic and wellness services, including medical-grade chemical peels",
    "hours": "Mon-Fri 9AM-6PM",
    "services": [
      "Chinese-speaking Chemical peels in Delaware consultation",
      "Professional service",
      "Quality guarantee"
    ],
    "social_links": {}
  },
  {
    "name": "Monarch Wellness Center",
    "address": "2601 Annand Dr, Suite 17, Wilmington, DE 19808",
    "phone": "(302) 407-0070",
    "rating": 4.7,
    "reviews": 25,
    "website": "https://monarchwellness.com/",
    "category": "Chinese-speaking Chemical peels in Delaware",
    "description": "Specializes in ZO Skin Health chemical peels, offering personalized treatments for various skin concerns",
    "hours": "Mon-Fri 9AM-6PM",
    "services": [
      "Chinese-speaking Chemical peels in Delaware consultation",
      "Professional service",
      "Quality guarantee"
    ],
    "social_links": {}
  },
  {
    "name": "Beaute Enhanced Medical Spa",
    "address": "482 Middletown Warwick Road, Middletown, DE 19709",
    "phone": "(302) 376-3777",
    "rating": 4.9,
    "reviews": 25,
    "website": "https://beauteenhanced.com/",
    "category": "Chinese-speaking Chemical peels in Delaware",
    "description": "Provides a range of advanced aesthetic and wellness services, including chemical peels",
    "hours": "Mon-Fri 9AM-6PM",
    "services": [
      "Chinese-speaking Chemical peels in Delaware consultation",
      "Professional service",
      "Quality guarantee"
    ],
    "social_links": {}
  },
  {
    "name": "Cape Henlopen Dermatology, P.A.",
    "address": "1645 Savannah Rd, Lewes, DE 19958",
    "phone": "(302) 645-8200",
    "rating": 4.8,
    "reviews": 25,
    "website": "https://www.capehenlopendermatology.com/",
    "category": "Chinese-speaking Chemical peels in Delaware",
    "description": "Offers medical, surgical, and cosmetic dermatology services, including facial peels",
    "hours": "Mon-Fri 9AM-6PM",
    "services": [
      "Chinese-speaking Chemical peels in Delaware consultation",
      "Professional service",
      "Quality guarantee"
    ],
    "social_links": {}
  },
  {
    "name": "Burke Dermatology",
    "address": "1016 S Governors Ave, Dover, DE 19904",
    "phone": "(302) 678-3434",
    "rating": 4.7,
    "reviews": 25,
    "website": "https://www.burkedermatology.com/",
    "category": "Chinese-speaking Chemical peels in Delaware",
    "description": "Provides comprehensive dermatologic care with expertise in both medical and cosmetic dermatology, including chemical peels",
    "hours": "Mon-Fri 9AM-6PM",
    "services": [
      "Chinese-speaking Chemical peels in Delaware consultation",
      "Professional service",
      "Quality guarantee"
    ],
    "social_links": {}
  },
  {
    "name": "First State Med Spa",
    "address": "100 Center Dr, Newark, DE 19713",
    "phone": "(302) 440-4480",
    "rating": 4.9,
    "reviews": 25,
    "website": "https://firststatemedspa.com/",
    "category": "Chinese-speaking Chemical peels in Delaware",
    "description": "A medical spa offering various aesthetic treatments, including chemical peels, with a focus on personalized care",
    "hours": "Mon-Fri 9AM-6PM",
    "services": [
      "Chinese-speaking Chemical peels in Delaware consultation",
      "Professional service",
      "Quality guarantee"
    ],
    "social_links": {}
  }
]