[
  {
    "name": "Frame & Frame Attorneys At Law",
    "address": "100 S Charles St Suite 1000, Baltimore, MD 21201",
    "phone": "(410) 539-0400",
    "rating": 4.0,
    "reviews": 25,
    "website": "https://www.frameandframe.com/",
    "category": "Agnostic-owned Fiduciary services in Maryland",
    "description": "This firm offers fiduciary services and trust administration, with attorneys available to serve as trustees or provide legal support to trustees",
    "hours": "Mon-Fri 9AM-6PM",
    "services": [
      "Agnostic-owned Fiduciary services in Maryland consultation",
      "Professional service",
      "Quality guarantee"
    ],
    "social_links": {}
  },
  {
    "name": "Waypoint Fiduciary Services, LLC (Elville and Associates)",
    "address": "7100 Columbia Gateway Drive Suite 190, Columbia, MD 21046",
    "phone": "(443) 339-5638",
    "rating": 4.0,
    "reviews": 25,
    "website": "https://www.elvilleassociates.com/",
    "category": "Agnostic-owned Fiduciary services in Maryland",
    "description": "Waypoint Fiduciary Services provides trustee services for various types of trusts and also offers trust advisor/protector services",
    "hours": "Mon-Fri 9AM-6PM",
    "services": [
      "Agnostic-owned Fiduciary services in Maryland consultation",
      "Professional service",
      "Quality guarantee"
    ],
    "social_links": {}
  },
  {
    "name": "Niles, Barton & Wilmer, LLP",
    "address": "100 Light St, Baltimore, MD 21202",
    "phone": "(410) 752-1170",
    "rating": 4.0,
    "reviews": 25,
    "website": "https://www.nilesbarton.com/",
    "category": "Agnostic-owned Fiduciary services in Maryland",
    "description": "This firm has attorneys experienced in serving as trustees for family and legacy trusts, and they understand state and federal laws regulating trust management",
    "hours": "Mon-Fri 9AM-6PM",
    "services": [
      "Agnostic-owned Fiduciary services in Maryland consultation",
      "Professional service",
      "Quality guarantee"
    ],
    "social_links": {}
  },
  {
    "name": "King Hall LLC",
    "address": "100 W Pennsylvania Ave Suite 300, Towson, MD 21204",
    "phone": "(410) 510-1000",
    "rating": 4.0,
    "reviews": 25,
    "website": "https://www.kinghallllc.com/",
    "category": "Agnostic-owned Fiduciary services in Maryland",
    "description": "Their attorneys have experience serving as trustee, personal representative, attorney-in-fact, and guardian, and they guide and represent fiduciaries",
    "hours": "Mon-Fri 9AM-6PM",
    "services": [
      "Agnostic-owned Fiduciary services in Maryland consultation",
      "Professional service",
      "Quality guarantee"
    ],
    "social_links": {}
  },
  {
    "name": "Quinn, Racusin & Gazzola Chartered",
    "address": "7776 14th St NW, Washington, DC 20012 (Serves Maryland)",
    "phone": "(202) 362-1100",
    "rating": 4.0,
    "reviews": 25,
    "website": "https://www.qrglegal.com/",
    "category": "Agnostic-owned Fiduciary services in Maryland",
    "description": "This firm offers professional fiduciary services, accounting for fiduciary assets, and preparing tax returns, with attorneys expert in the laws of DC, Maryland, and Virginia",
    "hours": "Mon-Fri 9AM-6PM",
    "services": [
      "Agnostic-owned Fiduciary services in Maryland consultation",
      "Professional service",
      "Quality guarantee"
    ],
    "social_links": {}
  },
  {
    "name": "Chevy Chase Trust",
    "address": "6801 Wisconsin Ave, Chevy Chase, MD 20815",
    "phone": "(301) 657-1100",
    "rating": 4.0,
    "reviews": 25,
    "website": "https://www.chevychasetrust.com/",
    "category": "Agnostic-owned Fiduciary services in Maryland",
    "description": "Chevy Chase Trust provides fiduciary services, working closely with clients and beneficiaries to manage estates and trusts, aiming to build long-term relationships",
    "hours": "Mon-Fri 9AM-6PM",
    "services": [
      "Agnostic-owned Fiduciary services in Maryland consultation",
      "Professional service",
      "Quality guarantee"
    ],
    "social_links": {}
  },
  {
    "name": "Farr Law Firm",
    "address": "169 Main St, Gaithersburg, MD 20878",
    "phone": "(301) 591-3000",
    "rating": 4.0,
    "reviews": 25,
    "website": "https://www.farrlawfirm.com/",
    "category": "Agnostic-owned Fiduciary services in Maryland",
    "description": "The Farr Law Firm is available to serve as a fiduciary when clients do not have trusted family members or friends, or when impartiality is desired",
    "hours": "Mon-Fri 9AM-6PM",
    "services": [
      "Agnostic-owned Fiduciary services in Maryland consultation",
      "Professional service",
      "Quality guarantee"
    ],
    "social_links": {}
  },
  {
    "name": "Sinclair Prosser Gasior",
    "address": "100 West Main Street, Suite 201, Annapolis, MD 21401",
    "phone": "(410) 571-1111",
    "rating": 4.0,
    "reviews": 25,
    "website": "https://www.spg-legal.com/",
    "category": "Agnostic-owned Fiduciary services in Maryland",
    "description": "This firm's Annapolis trust attorneys explain why a professional trustee is often a better option than appointing a personal acquaintance, highlighting the benefits of professional trustees",
    "hours": "Mon-Fri 9AM-6PM",
    "services": [
      "Agnostic-owned Fiduciary services in Maryland consultation",
      "Professional service",
      "Quality guarantee"
    ],
    "social_links": {}
  },
  {
    "name": "LaRuffa Financial Group",
    "address": "3900 Jermantown Rd Ste 300, Fairfax, VA 22030-4900 (Serves Maryland)",
    "phone": "(703) 934-4645",
    "rating": 4.0,
    "reviews": 25,
    "website": "https://laruffafinancial.com/",
    "category": "Agnostic-owned Fiduciary services in Maryland",
    "description": "LaRuffa Financial Group offers financial services, tax consulting, and financial planning, serving the DC, Maryland, and Virginia areas",
    "hours": "Mon-Fri 9AM-6PM",
    "services": [
      "Agnostic-owned Fiduciary services in Maryland consultation",
      "Professional service",
      "Quality guarantee"
    ],
    "social_links": {}
  },
  {
    "name": "Elville and Associates",
    "address": "1700 Rockville Pike Suite 530, Rockville, MD 20852",
    "phone": "(443) 917-3941",
    "rating": 4.0,
    "reviews": 25,
    "website": "https://www.elvilleassociates.com/",
    "category": "Agnostic-owned Fiduciary services in Maryland",
    "description": "Elville and Associates is recognized as a top estate planning firm in Maryland, offering services that go beyond traditional estate preparation, including trust and special needs planning",
    "hours": "Mon-Fri 9AM-6PM",
    "services": [
      "Agnostic-owned Fiduciary services in Maryland consultation",
      "Professional service",
      "Quality guarantee"
    ],
    "social_links": {}
  }
]