[
  {
    "name": "Hartfield Complete Services LLC",
    "address": "11954 Narcoossee Rd 2-185, Orlando FL 32832",
    "phone": "(407) 751-8221",
    "rating": 4.0,
    "reviews": 25,
    "website": "https://www.google.com/maps/search/Hartfield+Complete+Services+LLC+in+Florida",
    "category": "African-American-owned Real estate appraisal in Florida",
    "description": "Listed as a real estate service by the African American Chamber of Commerce of Central Florida",
    "hours": "Mon-Fri 9AM-6PM",
    "services": [
      "African-American-owned Real estate appraisal in Florida consultation",
      "Professional service",
      "Quality guarantee"
    ],
    "social_links": {}
  },
  {
    "name": "Christopher Baker Team, Keller Williams Advantage III Realty",
    "address": "9161 Narcoossee Rd 107, Orlando FL 32827",
    "phone": "(407) 233-0812",
    "rating": 4.0,
    "reviews": 25,
    "website": "https://www.google.com/maps/search/Christopher+Baker+Team,+Keller+Williams+Advantage+III+Realty+in+Florida",
    "category": "African-American-owned Real estate appraisal in Florida",
    "description": "Listed as a real estate service by the African American Chamber of Commerce of Central Florida",
    "hours": "Mon-Fri 9AM-6PM",
    "services": [
      "African-American-owned Real estate appraisal in Florida consultation",
      "Professional service",
      "Quality guarantee"
    ],
    "social_links": {}
  },
  {
    "name": "Graybill Realty & Associates, LLC.",
    "address": "2295 South Hiawassee Road #318, Orlando FL 32835",
    "phone": "(407) 276-2865",
    "rating": 4.0,
    "reviews": 25,
    "website": "https://www.google.com/maps/search/Graybill+Realty+&+Associates,+LLC.+in+Florida",
    "category": "African-American-owned Real estate appraisal in Florida",
    "description": "Listed as a real estate service by the African American Chamber of Commerce of Central Florida",
    "hours": "Mon-Fri 9AM-6PM",
    "services": [
      "African-American-owned Real estate appraisal in Florida consultation",
      "Professional service",
      "Quality guarantee"
    ],
    "social_links": {}
  },
  {
    "name": "Milestone Family Realty LLC",
    "address": "7157 Narcoossee Road #1299, Orlando FL 32822",
    "phone": "(689) 265-3683",
    "rating": 4.0,
    "reviews": 25,
    "website": "https://www.google.com/maps/search/Milestone+Family+Realty+LLC+in+Florida",
    "category": "African-American-owned Real estate appraisal in Florida",
    "description": "Listed as a real estate service by the African American Chamber of Commerce of Central Florida",
    "hours": "Mon-Fri 9AM-6PM",
    "services": [
      "African-American-owned Real estate appraisal in Florida consultation",
      "Professional service",
      "Quality guarantee"
    ],
    "social_links": {}
  },
  {
    "name": "Florida Real Estate Properties LLC",
    "address": "2484 W. State Road 434, Longwood FL 32808",
    "phone": "(407) 234-4680",
    "rating": 4.0,
    "reviews": 25,
    "website": "https://www.google.com/maps/search/Florida+Real+Estate+Properties+LLC+in+Florida",
    "category": "African-American-owned Real estate appraisal in Florida",
    "description": "Listed as a real estate service by the African American Chamber of Commerce of Central Florida",
    "hours": "Mon-Fri 9AM-6PM",
    "services": [
      "African-American-owned Real estate appraisal in Florida consultation",
      "Professional service",
      "Quality guarantee"
    ],
    "social_links": {}
  },
  {
    "name": "Elevated Funding, LLC",
    "address": "4401 Real CT, Orlando FL 32808",
    "phone": "(407) 807-9702",
    "rating": 4.0,
    "reviews": 25,
    "website": "https://www.google.com/maps/search/Elevated+Funding,+LLC+in+Florida",
    "category": "African-American-owned Real estate appraisal in Florida",
    "description": "Listed as a real estate service by the African American Chamber of Commerce of Central Florida",
    "hours": "Mon-Fri 9AM-6PM",
    "services": [
      "African-American-owned Real estate appraisal in Florida consultation",
      "Professional service",
      "Quality guarantee"
    ],
    "social_links": {}
  },
  {
    "name": "Brantley & Assoc Real Estate Appraisal Corp.",
    "address": "PO Box 12505, Pensacola, FL 32591",
    "phone": "850.433.5075",
    "rating": 4.0,
    "reviews": 25,
    "website": "https://www.google.com/maps/search/Brantley+&+Assoc+Real+Estate+Appraisal+Corp.+in+Florida",
    "category": "African-American-owned Real estate appraisal in Florida",
    "description": "Mentioned as a minority vendor in a list of approved appraisers",
    "hours": "Mon-Fri 9AM-6PM",
    "services": [
      "African-American-owned Real estate appraisal in Florida consultation",
      "Professional service",
      "Quality guarantee"
    ],
    "social_links": {}
  },
  {
    "name": "Florida Real Estate Advisors, Inc.",
    "address": "5802 Hoffner Avenue, Suite 701, Orlando, FL 32822",
    "phone": "321.438.3231",
    "rating": 4.0,
    "reviews": 25,
    "website": "https://www.google.com/maps/search/Florida+Real+Estate+Advisors,+Inc.+in+Florida",
    "category": "African-American-owned Real estate appraisal in Florida",
    "description": "Mentioned as a minority vendor in a list of approved appraisers",
    "hours": "Mon-Fri 9AM-6PM",
    "services": [
      "African-American-owned Real estate appraisal in Florida consultation",
      "Professional service",
      "Quality guarantee"
    ],
    "social_links": {}
  },
  {
    "name": "Coastal Real Estate Group, Inc.",
    "address": "6618 Gulf Drive, Panama City Beach, FL 32408",
    "phone": "850.230.3668",
    "rating": 4.0,
    "reviews": 25,
    "website": "https://www.google.com/maps/search/Coastal+Real+Estate+Group,+Inc.+in+Florida",
    "category": "African-American-owned Real estate appraisal in Florida",
    "description": "Mentioned as a minority vendor in a list of approved appraisers",
    "hours": "Mon-Fri 9AM-6PM",
    "services": [
      "African-American-owned Real estate appraisal in Florida consultation",
      "Professional service",
      "Quality guarantee"
    ],
    "social_links": {}
  },
  {
    "name": "Chandler & Assoc. of Panama City, Inc.",
    "address": "11 W 23rd ST, BLDG D, Panama City, FL 32405",
    "phone": "850.769.9455",
    "rating": 4.0,
    "reviews": 25,
    "website": "https://www.google.com/maps/search/Chandler+&+Assoc.+of+Panama+City,+Inc.+in+Florida",
    "category": "African-American-owned Real estate appraisal in Florida",
    "description": "Mentioned as a minority vendor in a list of approved appraisers",
    "hours": "Mon-Fri 9AM-6PM",
    "services": [
      "African-American-owned Real estate appraisal in Florida consultation",
      "Professional service",
      "Quality guarantee"
    ],
    "social_links": {}
  }
]