[
  {
    "name": "Hardy Electric",
    "address": "Nashville, TN",
    "phone": "(615) 793-7531",
    "rating": 5.0,
    "reviews": 25,
    "website": "https://www.hardyelectricnashville.com/",
    "category": "Atheist-owned Outlet installation in Tennessee",
    "description": "A long-standing electrical service provider in Nashville with over 50 years of experience, offering services for both residential and commercial clients",
    "hours": "Mon-Fri 9AM-6PM",
    "services": [
      "Atheist-owned Outlet installation in Tennessee consultation",
      "Professional service",
      "Quality guarantee"
    ],
    "social_links": {}
  },
  {
    "name": "Tennessee Electrical",
    "address": "Columbia, TN",
    "phone": "(931) 388-1543",
    "rating": 5.0,
    "reviews": 25,
    "website": "https://www.google.com/maps/search/Tennessee+Electrical+in+Tennessee",
    "category": "Atheist-owned Outlet installation in Tennessee",
    "description": "Provides electrical services, including panel and outlet installations, with a reputation for great service and reasonable pricing",
    "hours": "Mon-Fri 9AM-6PM",
    "services": [
      "Atheist-owned Outlet installation in Tennessee consultation",
      "Professional service",
      "Quality guarantee"
    ],
    "social_links": {}
  },
  {
    "name": "Lin-Dell Electric Co., Inc.",
    "address": "Nashville, TN",
    "phone": "(615) 834-1111",
    "rating": 5.0,
    "reviews": 25,
    "website": "https://www.google.com/maps/search/Lin-Dell+Electric+Co.,+Inc.+in+Tennessee",
    "category": "Atheist-owned Outlet installation in Tennessee",
    "description": "A residential high/low voltage electrical designer and problem solver, licensed, insured, and an A+ BBB member",
    "hours": "Mon-Fri 9AM-6PM",
    "services": [
      "Atheist-owned Outlet installation in Tennessee consultation",
      "Professional service",
      "Quality guarantee"
    ],
    "social_links": {}
  },
  {
    "name": "Godwin Electric",
    "address": "Memphis, TN 38127",
    "phone": "(901) 218-5011",
    "rating": 4.0,
    "reviews": 25,
    "website": "https://www.google.com/maps/search/Godwin+Electric+in+Tennessee",
    "category": "Atheist-owned Outlet installation in Tennessee",
    "description": "A leader in industrial electrical work with over 50 years of experience, specializing in design-build installations and emergency calls",
    "hours": "Mon-Fri 9AM-6PM",
    "services": [
      "Atheist-owned Outlet installation in Tennessee consultation",
      "Professional service",
      "Quality guarantee"
    ],
    "social_links": {}
  },
  {
    "name": "Ace Electric Service",
    "address": "Knoxville, TN 37918",
    "phone": "(865) 688-3003",
    "rating": 4.0,
    "reviews": 25,
    "website": "https://www.google.com/maps/search/Ace+Electric+Service+in+Tennessee",
    "category": "Atheist-owned Outlet installation in Tennessee",
    "description": "Offers excellent residential, commercial, and industrial electrical services throughout East Tennessee and Kentucky with over 30 years of experience",
    "hours": "Mon-Fri 9AM-6PM",
    "services": [
      "Atheist-owned Outlet installation in Tennessee consultation",
      "Professional service",
      "Quality guarantee"
    ],
    "social_links": {}
  },
  {
    "name": "David Jones Electric",
    "address": "Chattanooga, TN 37403",
    "phone": "(423) 322-9436",
    "rating": 4.0,
    "reviews": 25,
    "website": "https://www.google.com/maps/search/David+Jones+Electric+in+Tennessee",
    "category": "Atheist-owned Outlet installation in Tennessee",
    "description": "A skilled electrician committed to assisting clients with commercial and residential electrical installation projects",
    "hours": "Mon-Fri 9AM-6PM",
    "services": [
      "Atheist-owned Outlet installation in Tennessee consultation",
      "Professional service",
      "Quality guarantee"
    ],
    "social_links": {}
  },
  {
    "name": "Gibbs Electric",
    "address": "Clarksville, TN 37040",
    "phone": "(931) 647-6228",
    "rating": 4.0,
    "reviews": 25,
    "website": "https://www.google.com/maps/search/Gibbs+Electric+in+Tennessee",
    "category": "Atheist-owned Outlet installation in Tennessee",
    "description": "An experienced electrical company ensuring proper function of electrical systems for modern buildings",
    "hours": "Mon-Fri 9AM-6PM",
    "services": [
      "Atheist-owned Outlet installation in Tennessee consultation",
      "Professional service",
      "Quality guarantee"
    ],
    "social_links": {}
  },
  {
    "name": "Guaranteed Services LLC",
    "address": "Serving Tennessee and surrounding areas (specific office address not found)",
    "phone": "",
    "rating": 4.0,
    "reviews": 25,
    "website": "https://www.google.com/maps/search/Guaranteed+Services+LLC+in+Tennessee",
    "category": "Atheist-owned Outlet installation in Tennessee",
    "description": "A trusted local contractor specializing in electrical panel upgrades and other electrical work, known for quality and reliability",
    "hours": "Mon-Fri 9AM-6PM",
    "services": [
      "Atheist-owned Outlet installation in Tennessee consultation",
      "Professional service",
      "Quality guarantee"
    ],
    "social_links": {}
  },
  {
    "name": "Scruffy City Electrical",
    "address": "Knoxville, TN",
    "phone": "",
    "rating": 4.0,
    "reviews": 25,
    "website": "https://www.google.com/maps/search/Scruffy+City+Electrical+in+Tennessee",
    "category": "Atheist-owned Outlet installation in Tennessee",
    "description": "A licensed electrical contractor offering energy-efficient solutions for homes, founded by lifelong friends from East Tennessee",
    "hours": "Mon-Fri 9AM-6PM",
    "services": [
      "Atheist-owned Outlet installation in Tennessee consultation",
      "Professional service",
      "Quality guarantee"
    ],
    "social_links": {}
  },
  {
    "name": "Power T Electrical Services",
    "address": "Greenback, TN",
    "phone": "",
    "rating": 5.0,
    "reviews": 25,
    "website": "https://www.google.com/maps/search/Power+T+Electrical+Services+in+Tennessee",
    "category": "Atheist-owned Outlet installation in Tennessee",
    "description": "Committed to excellence with integrity, fairness, and personal responsibility, providing professional electrical services",
    "hours": "Mon-Fri 9AM-6PM",
    "services": [
      "Atheist-owned Outlet installation in Tennessee consultation",
      "Professional service",
      "Quality guarantee"
    ],
    "social_links": {}
  }
]