[
  {
    "name": "Diverse Facility Solutions",
    "address": "1000 E. 142nd Street, Alsip, IL 60803",
    "phone": "(708) 385-1000",
    "rating": 4.5,
    "reviews": 25,
    "website": "https://www.diversefacilitysolutions.com/",
    "category": "Agnostic-owned Facility management in Illinois",
    "description": "Offers janitorial, maintenance, and facility management services for various clients, including educational institutions, airports, and office buildings",
    "hours": "Mon-Fri 9AM-6PM",
    "services": [
      "Agnostic-owned Facility management in Illinois consultation",
      "Professional service",
      "Quality guarantee"
    ],
    "social_links": {}
  },
  {
    "name": "United Service Companies",
    "address": "1550 S. Indiana Ave, Chicago, IL 60605",
    "phone": "(800) 248-8558",
    "rating": 4.0,
    "reviews": 25,
    "website": "https://www.unitedhq.com/",
    "category": "Agnostic-owned Facility management in Illinois",
    "description": "Provides a comprehensive suite of facility maintenance solutions including janitorial, security, hospitality staffing, and convention maintenance",
    "hours": "Mon-Fri 9AM-6PM",
    "services": [
      "Agnostic-owned Facility management in Illinois consultation",
      "Professional service",
      "Quality guarantee"
    ],
    "social_links": {}
  },
  {
    "name": "ABM Facility Maintenance Solutions",
    "address": "Multiple locations throughout Illinois, including Chicago",
    "phone": "(866) 622-5617",
    "rating": 3.8,
    "reviews": 25,
    "website": "https://www.abm.com/locations/illinois/",
    "category": "Agnostic-owned Facility management in Illinois",
    "description": "Offers a wide range of building maintenance solutions, engineering, and infrastructure services to improve facility performance",
    "hours": "Mon-Fri 9AM-6PM",
    "services": [
      "Agnostic-owned Facility management in Illinois consultation",
      "Professional service",
      "Quality guarantee"
    ],
    "social_links": {}
  },
  {
    "name": "Vargas Group, INC.",
    "address": "100 N LaSalle St #2210, Chicago, IL 60602",
    "phone": "(312) 445-9150",
    "rating": 4.2,
    "reviews": 25,
    "website": "https://vargasgroup.com/",
    "category": "Agnostic-owned Facility management in Illinois",
    "description": "A facility management and business services provider offering janitorial services, facilities services, contract management, and ground transportation",
    "hours": "Mon-Fri 9AM-6PM",
    "services": [
      "Agnostic-owned Facility management in Illinois consultation",
      "Professional service",
      "Quality guarantee"
    ],
    "social_links": {}
  },
  {
    "name": "Midwest Mechanical",
    "address": "2000 E. North Ave., Lombard, IL 60148",
    "phone": "(630) 932-7000",
    "rating": 4.3,
    "reviews": 25,
    "website": "https://www.midwestmechanical.com/",
    "category": "Agnostic-owned Facility management in Illinois",
    "description": "A commercial HVAC services and facility management company specializing in mechanical services, energy efficiency, and operational cost control",
    "hours": "Mon-Fri 9AM-6PM",
    "services": [
      "Agnostic-owned Facility management in Illinois consultation",
      "Professional service",
      "Quality guarantee"
    ],
    "social_links": {}
  },
  {
    "name": "R3 Restoration Group",
    "address": "1900 E. Golf Road, Schaumburg, IL 60173",
    "phone": "(847) 519-0000",
    "rating": 4.7,
    "reviews": 25,
    "website": "https://www.r3restoration.com/",
    "category": "Agnostic-owned Facility management in Illinois",
    "description": "Specializes in facility management and emergency response services, including property lifecycle management and disaster response",
    "hours": "Mon-Fri 9AM-6PM",
    "services": [
      "Agnostic-owned Facility management in Illinois consultation",
      "Professional service",
      "Quality guarantee"
    ],
    "social_links": {}
  },
  {
    "name": "City Wide Facility Solutions of Illinois",
    "address": "7040 S. Cass Ave, Darien, IL 60561",
    "phone": "(630) 541-4000",
    "rating": 4.1,
    "reviews": 25,
    "website": "https://www.gocitywide.com/illinois/",
    "category": "Agnostic-owned Facility management in Illinois",
    "description": "Provides a broad range of facility maintenance services including janitorial, landscaping, and specialized cleaning solutions, with a single point of contact for clients",
    "hours": "Mon-Fri 9AM-6PM",
    "services": [
      "Agnostic-owned Facility management in Illinois consultation",
      "Professional service",
      "Quality guarantee"
    ],
    "social_links": {}
  },
  {
    "name": "UG2 Facility Management Solutions",
    "address": "190 S. LaSalle St., Suite 530, Chicago, IL 60603",
    "phone": "(312) 586-1312",
    "rating": 4.5,
    "reviews": 25,
    "website": "https://ug2.com/",
    "category": "Agnostic-owned Facility management in Illinois",
    "description": "Offers integrated facility services including operations & maintenance, janitorial, and workplace solutions, focusing on creating safe and welcoming environments",
    "hours": "Mon-Fri 9AM-6PM",
    "services": [
      "Agnostic-owned Facility management in Illinois consultation",
      "Professional service",
      "Quality guarantee"
    ],
    "social_links": {}
  },
  {
    "name": "CTK Chicago Partners",
    "address": "1659 West Hubbard Street, Chicago, IL 60622",
    "phone": "(312) 337-1010",
    "rating": 4.0,
    "reviews": 25,
    "website": "https://ctkchicago.com/",
    "category": "Agnostic-owned Facility management in Illinois",
    "description": "Provides customized property management and facility services, including general contracting, value engineering, and engineering and maintenance services",
    "hours": "Mon-Fri 9AM-6PM",
    "services": [
      "Agnostic-owned Facility management in Illinois consultation",
      "Professional service",
      "Quality guarantee"
    ],
    "social_links": {}
  },
  {
    "name": "Facilities Management & Construction (FMC)",
    "address": "101 W. Washington St., Suite 850, East Peoria, IL 61611",
    "phone": "(309) 699-0100",
    "rating": 4.8,
    "reviews": 25,
    "website": "https://fmc-il.com/",
    "category": "Agnostic-owned Facility management in Illinois",
    "description": "A facility management and construction company committed to excellence in projects of all sizes, focusing on property maintenance and building",
    "hours": "Mon-Fri 9AM-6PM",
    "services": [
      "Agnostic-owned Facility management in Illinois consultation",
      "Professional service",
      "Quality guarantee"
    ],
    "social_links": {}
  }
]