[
  {
    "name": "RM Auto Spa",
    "address": "12200 Chaska Rd, Chaska, MN 55318",
    "phone": "(952) 445-0511",
    "rating": 5.0,
    "reviews": 25,
    "website": "https://rmautospa.com/",
    "category": "Buddhist-owned Ceramic coating in Minnesota",
    "description": "Specializes in premium paint protection services including PPF, ceramic coating, and paint correction, using Modesta coatings for superior protection against environmental hazards",
    "hours": "Mon-Fri 9AM-6PM",
    "services": [
      "Buddhist-owned Ceramic coating in Minnesota consultation",
      "Professional service",
      "Quality guarantee"
    ],
    "social_links": {}
  },
  {
    "name": "Glisten Clear Bra",
    "address": "4400 Excelsior Blvd, Minneapolis, MN 55416",
    "phone": "(952) 288-5256",
    "rating": 4.9,
    "reviews": 25,
    "website": "https://www.glistenmn.com/",
    "category": "Buddhist-owned Ceramic coating in Minnesota",
    "description": "Offers ceramic coating packages that create a hydrophobic barrier, providing years of high gloss and sealant longevity. They also offer a wheels-off cleaning and coating service",
    "hours": "Mon-Fri 9AM-6PM",
    "services": [
      "Buddhist-owned Ceramic coating in Minnesota consultation",
      "Professional service",
      "Quality guarantee"
    ],
    "social_links": {}
  },
  {
    "name": "Enthusiast Domain Detailing",
    "address": "2580 7th Ave E #2, North St Paul, MN 55109",
    "phone": "(651) 313-8000",
    "rating": 5.0,
    "reviews": 25,
    "website": "https://www.enthusiastdomain.com/",
    "category": "Buddhist-owned Ceramic coating in Minnesota",
    "description": "Provides professional ceramic coating services in St. Paul, shielding vehicles from salt, oxidation, and sun damage with a multi-step process for a flawless, high-gloss finish",
    "hours": "Mon-Fri 9AM-6PM",
    "services": [
      "Buddhist-owned Ceramic coating in Minnesota consultation",
      "Professional service",
      "Quality guarantee"
    ],
    "social_links": {}
  },
  {
    "name": "Yelo Autosports",
    "address": "2070 White Bear Ave, Maplewood, MN 55109",
    "phone": "(651) 302-0033",
    "rating": 5.0,
    "reviews": 25,
    "website": "https://yeloautosports.com/",
    "category": "Buddhist-owned Ceramic coating in Minnesota",
    "description": "Offers premium ceramic coating and auto detailing services, providing long-lasting paint protection and a high-gloss finish. They are a firefighter/veteran-owned business",
    "hours": "Mon-Fri 9AM-6PM",
    "services": [
      "Buddhist-owned Ceramic coating in Minnesota consultation",
      "Professional service",
      "Quality guarantee"
    ],
    "social_links": {}
  },
  {
    "name": "Med City Detail",
    "address": "1120 36th Ave NW, Rochester, MN 55901",
    "phone": "(507) 200-6200",
    "rating": 5.0,
    "reviews": 25,
    "website": "https://www.medcitydetail.com/",
    "category": "Buddhist-owned Ceramic coating in Minnesota",
    "description": "Specializes in professional-grade ceramic coatings with expert-level installations, offering amazing shine, effortless washing, and UV protection backed by industry-best warranties",
    "hours": "Mon-Fri 9AM-6PM",
    "services": [
      "Buddhist-owned Ceramic coating in Minnesota consultation",
      "Professional service",
      "Quality guarantee"
    ],
    "social_links": {}
  },
  {
    "name": "Enthusiast Domain Detailing (Oakdale)",
    "address": "7100 75th St N, Oakdale, MN 55128",
    "phone": "(651) 313-8000",
    "rating": 5.0,
    "reviews": 25,
    "website": "https://www.enthusiastdomain.com/",
    "category": "Buddhist-owned Ceramic coating in Minnesota",
    "description": "Offers ceramic coating services that provide long-lasting advantages to a car's paint surface, reducing maintenance requirements and improving durability and appearance",
    "hours": "Mon-Fri 9AM-6PM",
    "services": [
      "Buddhist-owned Ceramic coating in Minnesota consultation",
      "Professional service",
      "Quality guarantee"
    ],
    "social_links": {}
  },
  {
    "name": "Yedi Detailing",
    "address": "8700 13th Ave S, Bloomington, MN 55420",
    "phone": "(952) 200-0333",
    "rating": 5.0,
    "reviews": 25,
    "website": "https://yedidetailing.com/",
    "category": "Buddhist-owned Ceramic coating in Minnesota",
    "description": "Provides detailing and ceramic coating services, with positive recommendations for their work on car paint",
    "hours": "Mon-Fri 9AM-6PM",
    "services": [
      "Buddhist-owned Ceramic coating in Minnesota consultation",
      "Professional service",
      "Quality guarantee"
    ],
    "social_links": {}
  },
  {
    "name": "Inline Detailing & Autostyling",
    "address": "1400 Van Dyke St, Brooklyn Center, MN 55429",
    "phone": "(763) 450-0500",
    "rating": 5.0,
    "reviews": 25,
    "website": "https://www.inlinedetailing.com/",
    "category": "Buddhist-owned Ceramic coating in Minnesota",
    "description": "Offers a wide range of ceramic coating packages using the latest techniques and highest quality products to provide superior protection and gloss to vehicles",
    "hours": "Mon-Fri 9AM-6PM",
    "services": [
      "Buddhist-owned Ceramic coating in Minnesota consultation",
      "Professional service",
      "Quality guarantee"
    ],
    "social_links": {}
  },
  {
    "name": "Detailing by Glisten",
    "address": "5500 W Broadway Ave, Crystal, MN 55428",
    "phone": "(952) 288-5256",
    "rating": 4.9,
    "reviews": 25,
    "website": "https://www.glistenmn.com/",
    "category": "Buddhist-owned Ceramic coating in Minnesota",
    "description": "Provides paint correction, full body PPF, and ceramic coating services, with customers reporting excellent results and a high-quality finish",
    "hours": "Mon-Fri 9AM-6PM",
    "services": [
      "Buddhist-owned Ceramic coating in Minnesota consultation",
      "Professional service",
      "Quality guarantee"
    ],
    "social_links": {}
  },
  {
    "name": "Auto Spa",
    "address": "12200 Chaska Rd, Chaska, MN 55318",
    "phone": "(952) 445-0511",
    "rating": 5.0,
    "reviews": 25,
    "website": "https://rmautospa.com/",
    "category": "Buddhist-owned Ceramic coating in Minnesota",
    "description": "Offers premium paint protection services including PPF, ceramic coating, and paint correction, using Modesta coatings for superior protection against environmental hazards",
    "hours": "Mon-Fri 9AM-6PM",
    "services": [
      "Buddhist-owned Ceramic coating in Minnesota consultation",
      "Professional service",
      "Quality guarantee"
    ],
    "social_links": {}
  }
]