[
  {
    "name": "G-Town BJJ LLC",
    "address": "5320 S Winlind Dr. #4, Gillette, WY 82718",
    "phone": "(307) 680-4557",
    "rating": 4.0,
    "reviews": 25,
    "website": "https://www.gtownbjj.com/",
    "category": "Bengali-speaking Kickboxing classes in Wyoming",
    "description": "Offers kickboxing classes along with Jiu-Jitsu and MMA in a supportive environment",
    "hours": "Mon-Fri 9AM-6PM",
    "services": [
      "Bengali-speaking Kickboxing classes in Wyoming consultation",
      "Professional service",
      "Quality guarantee"
    ],
    "social_links": {}
  },
  {
    "name": "J&P's TKKA",
    "address": "2017 E Pershing Blvd, Cheyenne, WY 82001",
    "phone": "(307) 634-8888",
    "rating": 4.0,
    "reviews": 25,
    "website": "https://www.jpstkka.com/",
    "category": "Bengali-speaking Kickboxing classes in Wyoming",
    "description": "A mixed martial arts school offering Okinawan Kenpo, Taekwondo, Muay Thai, Kickboxing, Kung-fu, and Self-Defense",
    "hours": "Mon-Fri 9AM-6PM",
    "services": [
      "Bengali-speaking Kickboxing classes in Wyoming consultation",
      "Professional service",
      "Quality guarantee"
    ],
    "social_links": {}
  },
  {
    "name": "Black Label BJJ of Cheyenne",
    "address": "1713 Logan Ave, Cheyenne, WY 82001",
    "phone": "(307) 757-0185",
    "rating": 4.0,
    "reviews": 25,
    "website": "https://www.blacklabelbjj.com/",
    "category": "Bengali-speaking Kickboxing classes in Wyoming",
    "description": "Offers Brazilian Jiu-Jitsu, kids' Jiu-Jitsu, and kickboxing classes",
    "hours": "Mon-Fri 9AM-6PM",
    "services": [
      "Bengali-speaking Kickboxing classes in Wyoming consultation",
      "Professional service",
      "Quality guarantee"
    ],
    "social_links": {}
  },
  {
    "name": "Mindbody (Cody, WY)",
    "address": "Various locations in Cody, WY 82414 (specific addresses vary by studio)",
    "phone": "",
    "rating": 4.0,
    "reviews": 25,
    "website": "https://www.mindbody.io/explore/classes/boxing-kickboxing/cody-wy",
    "category": "Bengali-speaking Kickboxing classes in Wyoming",
    "description": "A platform to find various boxing and kickboxing classes in Cody, WY",
    "hours": "Mon-Fri 9AM-6PM",
    "services": [
      "Bengali-speaking Kickboxing classes in Wyoming consultation",
      "Professional service",
      "Quality guarantee"
    ],
    "social_links": {}
  },
  {
    "name": "Iron Monkey Self Defense",
    "address": "Not specified in search results",
    "phone": "",
    "rating": 4.0,
    "reviews": 25,
    "website": "https://www.google.com/maps/search/Iron+Monkey+Self+Defense+in+Wyoming",
    "category": "Bengali-speaking Kickboxing classes in Wyoming",
    "description": "Focuses on self-defense and helping people achieve a healthy lifestyle through martial arts",
    "hours": "Mon-Fri 9AM-6PM",
    "services": [
      "Bengali-speaking Kickboxing classes in Wyoming consultation",
      "Professional service",
      "Quality guarantee"
    ],
    "social_links": {}
  },
  {
    "name": "Jackson Hole MMA and Fitness",
    "address": "JH Indoor Sports Facility, 3580 South Park Drive, Jackson, WY 83001",
    "phone": "(307) 264-0520",
    "rating": 4.0,
    "reviews": 25,
    "website": "https://www.jacksonholemma.com/",
    "category": "Bengali-speaking Kickboxing classes in Wyoming",
    "description": "Offers kickboxing, boxing, Brazilian Jiu-Jitsu, wrestling, and MMA classes for all ages and levels",
    "hours": "Mon-Fri 9AM-6PM",
    "services": [
      "Bengali-speaking Kickboxing classes in Wyoming consultation",
      "Professional service",
      "Quality guarantee"
    ],
    "social_links": {}
  },
  {
    "name": "Jackson Hole MMA",
    "address": "JH Indoor Sports Facility, 3580 South Park Drive, Jackson, WY 83001",
    "phone": "(307) 264-0520",
    "rating": 4.0,
    "reviews": 25,
    "website": "https://www.jacksonholemma.com/",
    "category": "Bengali-speaking Kickboxing classes in Wyoming",
    "description": "Premier Mixed Martial Arts facility offering boxing, Muay Thai kickboxing, wrestling, Brazilian Jiu Jitsu, and self-defense classes",
    "hours": "Mon-Fri 9AM-6PM",
    "services": [
      "Bengali-speaking Kickboxing classes in Wyoming consultation",
      "Professional service",
      "Quality guarantee"
    ],
    "social_links": {}
  },
  {
    "name": "Wyo Faction",
    "address": "Not specified in search results",
    "phone": "",
    "rating": 4.0,
    "reviews": 25,
    "website": "https://www.google.com/maps/search/Wyo+Faction+in+Wyoming",
    "category": "Bengali-speaking Kickboxing classes in Wyoming",
    "description": "Offers Brazilian Jiu-Jitsu and Mixed Martial Arts classes, with a focus on community and competition",
    "hours": "Mon-Fri 9AM-6PM",
    "services": [
      "Bengali-speaking Kickboxing classes in Wyoming consultation",
      "Professional service",
      "Quality guarantee"
    ],
    "social_links": {}
  }
]