[
  {
    "name": "Dorn's Body & Paint",
    "address": "7401 Ranco Rd, Richmond, VA 23228",
    "phone": "(804) 266-0500",
    "rating": 4.7,
    "reviews": 25,
    "website": "https://www.dornsbodyandpaint.com/",
    "category": "Catholic-owned Rotor replacement in Virginia",
    "description": "Dorn's Body & Paint offers comprehensive brake services, including rotor repair and replacement, with ASE-certified technicians",
    "hours": "Mon-Fri 9AM-6PM",
    "services": [
      "Catholic-owned Rotor replacement in Virginia consultation",
      "Professional service",
      "Quality guarantee"
    ],
    "social_links": {}
  },
  {
    "name": "Brake Knights",
    "address": "Service available throughout Northern Virginia (mobile service)",
    "phone": "(571) 577-3000",
    "rating": 4.9,
    "reviews": 25,
    "website": "https://www.bkrakes.com/",
    "category": "Catholic-owned Rotor replacement in Virginia",
    "description": "Brake Knights provides mobile brake pad and rotor replacement services across Northern Virginia, with transparent pricing and ASE-certified technicians",
    "hours": "Mon-Fri 9AM-6PM",
    "services": [
      "Catholic-owned Rotor replacement in Virginia consultation",
      "Professional service",
      "Quality guarantee"
    ],
    "social_links": {}
  },
  {
    "name": "Alban Tire",
    "address": "7244 Boudinot Drive, Springfield, VA 22150",
    "phone": "(703) 455-9300",
    "rating": 4.5,
    "reviews": 25,
    "website": "https://www.albantire.com/locations/springfield/",
    "category": "Catholic-owned Rotor replacement in Virginia",
    "description": "Alban Tire offers brake rotor replacement services in Springfield, VA, and surrounding areas, emphasizing proper maintenance and inspection",
    "hours": "Mon-Fri 9AM-6PM",
    "services": [
      "Catholic-owned Rotor replacement in Virginia consultation",
      "Professional service",
      "Quality guarantee"
    ],
    "social_links": {}
  },
  {
    "name": "Virginia Tire & Auto",
    "address": "14270 Chantilly Crossing Ln, Chantilly, VA 20151",
    "phone": "(703) 858-1330",
    "rating": 4.6,
    "reviews": 25,
    "website": "https://www.vatire.com/locations/chantilly/",
    "category": "Catholic-owned Rotor replacement in Virginia",
    "description": "Virginia Tire & Auto in Chantilly offers complete brake services, including pad and rotor replacement, with ASE-certified technicians",
    "hours": "Mon-Fri 9AM-6PM",
    "services": [
      "Catholic-owned Rotor replacement in Virginia consultation",
      "Professional service",
      "Quality guarantee"
    ],
    "social_links": {}
  },
  {
    "name": "Craftsman Auto Care",
    "address": "5971-A Stevenson Ave, Alexandria, VA 22304",
    "phone": "(703) 578-0000",
    "rating": 4.7,
    "reviews": 25,
    "website": "https://www.craftsmanautocare.com/",
    "category": "Catholic-owned Rotor replacement in Virginia",
    "description": "Craftsman Auto Care provides comprehensive brake services, including rotor resurfacing and replacement, with certified technicians and multiple Northern Virginia locations",
    "hours": "Mon-Fri 9AM-6PM",
    "services": [
      "Catholic-owned Rotor replacement in Virginia consultation",
      "Professional service",
      "Quality guarantee"
    ],
    "social_links": {}
  },
  {
    "name": "Christian Brothers Automotive Midlothian-Huguenot",
    "address": "1400 Huguenot Rd, Midlothian, VA 23113",
    "phone": "(804) 494-5246",
    "rating": 4.8,
    "reviews": 25,
    "website": "https://www.cbac.com/midlothian-huguenot/",
    "category": "Catholic-owned Rotor replacement in Virginia",
    "description": "This family-owned and operated shop offers honest and specialized automotive repair, including brake services",
    "hours": "Mon-Fri 9AM-6PM",
    "services": [
      "Catholic-owned Rotor replacement in Virginia consultation",
      "Professional service",
      "Quality guarantee"
    ],
    "social_links": {}
  },
  {
    "name": "Mechanics of FAITH",
    "address": "11030 King William Rd, King William, VA 23086",
    "phone": "(804) 769-0000",
    "rating": 5.0,
    "reviews": 25,
    "website": "https://mechanicsoffaith.org/",
    "category": "Catholic-owned Rotor replacement in Virginia",
    "description": "A nonprofit organization offering automotive repair services with a mission to keep families safe, they provide services to those in need",
    "hours": "Mon-Fri 9AM-6PM",
    "services": [
      "Catholic-owned Rotor replacement in Virginia consultation",
      "Professional service",
      "Quality guarantee"
    ],
    "social_links": {}
  },
  {
    "name": "Christian Brothers Automotive Chester",
    "address": "13010 Jefferson Davis Hwy, Chester, VA 23831",
    "phone": "(804) 889-2649",
    "rating": 4.7,
    "reviews": 25,
    "website": "https://www.cbac.com/chester/",
    "category": "Catholic-owned Rotor replacement in Virginia",
    "description": "This family-owned auto shop provides reliable and timely service, including comprehensive brake services, with ASE-certified mechanics",
    "hours": "Mon-Fri 9AM-6PM",
    "services": [
      "Catholic-owned Rotor replacement in Virginia consultation",
      "Professional service",
      "Quality guarantee"
    ],
    "social_links": {}
  },
  {
    "name": "Automotive Concepts",
    "address": "16922 Hull Street Road, Moseley, VA 23120",
    "phone": "(804) 739-5900",
    "rating": 4.8,
    "reviews": 25,
    "website": "https://www.automotiveconcepts.com/",
    "category": "Catholic-owned Rotor replacement in Virginia",
    "description": "A family-owned and operated full-service repair shop that uses the latest diagnostic equipment and quality replacement parts",
    "hours": "Mon-Fri 9AM-6PM",
    "services": [
      "Catholic-owned Rotor replacement in Virginia consultation",
      "Professional service",
      "Quality guarantee"
    ],
    "social_links": {}
  },
  {
    "name": "Certified Auto Repair",
    "address": "2002 Greendale Rd, Henrico, VA 23228",
    "phone": "(804) 262-0200",
    "rating": 4.7,
    "reviews": 25,
    "website": "https://www.certifiedautorepairrva.com/",
    "category": "Catholic-owned Rotor replacement in Virginia",
    "description": "An independently owned auto repair shop serving Henrico and surrounding areas, built on principles of honesty and morality, offering a wide range of services including brake repair",
    "hours": "Mon-Fri 9AM-6PM",
    "services": [
      "Catholic-owned Rotor replacement in Virginia consultation",
      "Professional service",
      "Quality guarantee"
    ],
    "social_links": {}
  }
]