[
  {
    "name": "MN Catholic Credit Union",
    "address": "400 E. Little Canada Road, Little Canada, MN, 55117",
    "phone": "(651) 484-0265",
    "rating": 4.0,
    "reviews": 25,
    "website": "https://www.mncu.org/",
    "category": "Catholic-owned Banking relationship management in Minnesota",
    "description": "A full-service financial institution serving the Catholic community with banking services grounded in faith",
    "hours": "Mon-Fri 9AM-6PM",
    "services": [
      "Catholic-owned Banking relationship management in Minnesota consultation",
      "Professional service",
      "Quality guarantee"
    ],
    "social_links": {}
  },
  {
    "name": "Catholic United Financial Credit Union",
    "address": "3499 Lexington Ave N, Saint Paul, MN 55126 and 120 10th Ave N, Saint Cloud, MN 56303",
    "phone": "(651) 484-0265 (general inquiry, specific branch numbers may vary)",
    "rating": 4.0,
    "reviews": 25,
    "website": "https://www.cuft.com/",
    "category": "Catholic-owned Banking relationship management in Minnesota",
    "description": "A member-owned, not-for-profit financial services organization that connects people of faith and supports Catholic communities",
    "hours": "Mon-Fri 9AM-6PM",
    "services": [
      "Catholic-owned Banking relationship management in Minnesota consultation",
      "Professional service",
      "Quality guarantee"
    ],
    "social_links": {}
  },
  {
    "name": "Catholic Charities of St. Cloud",
    "address": "157 Roosevelt Rd, St. Cloud, MN 56301",
    "phone": "(320) 240-3324 or (800) 830-8254",
    "rating": 4.0,
    "reviews": 25,
    "website": "https://www.ccstcloud.org/financial-services/financial-counseling",
    "category": "Catholic-owned Banking relationship management in Minnesota",
    "description": "Offers financial and housing counseling services, including managed checkbook services through Liberty Bank Minnesota, to individuals and families",
    "hours": "Mon-Fri 9AM-6PM",
    "services": [
      "Catholic-owned Banking relationship management in Minnesota consultation",
      "Professional service",
      "Quality guarantee"
    ],
    "social_links": {}
  },
  {
    "name": "Catholic Charities Twin Cities",
    "address": "1007 E 14th St, Minneapolis, MN 55404",
    "phone": "(612) 204-8500",
    "rating": 4.0,
    "reviews": 25,
    "website": "https://www.cctwincities.org/",
    "category": "Catholic-owned Banking relationship management in Minnesota",
    "description": "Provides support and solutions for people in need, including financial assistance and counseling services",
    "hours": "Mon-Fri 9AM-6PM",
    "services": [
      "Catholic-owned Banking relationship management in Minnesota consultation",
      "Professional service",
      "Quality guarantee"
    ],
    "social_links": {}
  },
  {
    "name": "Catholic Finance Corporation (now Emmaus Partners)",
    "address": "5826 Blackshire Path, Inver Grove Heights, MN 55076",
    "phone": "651-389-1070",
    "rating": 4.0,
    "reviews": 25,
    "website": "https://emmauspartners.org/",
    "category": "Catholic-owned Banking relationship management in Minnesota",
    "description": "Assists Catholic organizations with financial and management advisory services, including loans and cooperative purchasing",
    "hours": "Mon-Fri 9AM-6PM",
    "services": [
      "Catholic-owned Banking relationship management in Minnesota consultation",
      "Professional service",
      "Quality guarantee"
    ],
    "social_links": {}
  },
  {
    "name": "Catholic Community Foundation of Minnesota (CCF)",
    "address": "Located in St. Paul, MN (specific street address not provided in search results for general inquiries)",
    "phone": "651-389-0300",
    "rating": 4.0,
    "reviews": 25,
    "website": "https://www.ccfmn.org/",
    "category": "Catholic-owned Banking relationship management in Minnesota",
    "description": "Stewards financial gifts of individuals, families, parishes, and institutions through charitable funds, with a focus on faith-consistent investing",
    "hours": "Mon-Fri 9AM-6PM",
    "services": [
      "Catholic-owned Banking relationship management in Minnesota consultation",
      "Professional service",
      "Quality guarantee"
    ],
    "social_links": {}
  },
  {
    "name": "Catholic Investment Services (CIS)",
    "address": "Not specified for Minnesota, but a national provider",
    "phone": "800-518-0945",
    "rating": 4.0,
    "reviews": 25,
    "website": "https://www.catholicinvest.org/",
    "category": "Catholic-owned Banking relationship management in Minnesota",
    "description": "Provides investment solutions for Catholic institutions that align with Catholic principles and aim for strong returns",
    "hours": "Mon-Fri 9AM-6PM",
    "services": [
      "Catholic-owned Banking relationship management in Minnesota consultation",
      "Professional service",
      "Quality guarantee"
    ],
    "social_links": {}
  },
  {
    "name": "Catholic Mutual Group",
    "address": "Not specified for Minnesota, but a national provider",
    "phone": "",
    "rating": 4.0,
    "reviews": 25,
    "website": "https://www.catholicmutual.org/",
    "category": "Catholic-owned Banking relationship management in Minnesota",
    "description": "Provides property, liability, and employee benefit coverage for the Catholic Church. While not a direct banking service, they manage financial resources for Catholic entities",
    "hours": "Mon-Fri 9AM-6PM",
    "services": [
      "Catholic-owned Banking relationship management in Minnesota consultation",
      "Professional service",
      "Quality guarantee"
    ],
    "social_links": {}
  },
  {
    "name": "Catholic United Financial",
    "address": "502 Sunrise Drive Tracy MN 56175",
    "phone": "(763) 670-9058",
    "rating": 4.0,
    "reviews": 25,
    "website": "https://www.cuft.com/",
    "category": "Catholic-owned Banking relationship management in Minnesota",
    "description": "Offers financial services including life insurance, annuities, and IRAs, with a focus on serving Catholic individuals and communities",
    "hours": "Mon-Fri 9AM-6PM",
    "services": [
      "Catholic-owned Banking relationship management in Minnesota consultation",
      "Professional service",
      "Quality guarantee"
    ],
    "social_links": {}
  },
  {
    "name": "Catholic Financial Life",
    "address": "3499 Lexington Ave N, Saint Paul, MN 55126",
    "phone": "(800) 927-2547",
    "rating": 4.0,
    "reviews": 25,
    "website": "https://www.catholicfinanciallife.org/",
    "category": "Catholic-owned Banking relationship management in Minnesota",
    "description": "Provides life insurance and financial services, with a focus on Catholic members and values",
    "hours": "Mon-Fri 9AM-6PM",
    "services": [
      "Catholic-owned Banking relationship management in Minnesota consultation",
      "Professional service",
      "Quality guarantee"
    ],
    "social_links": {}
  }
]