[
  {
    "name": "Black Diamond Construction",
    "address": "7813 Leavorite Dr, Las Vegas, NV 89128",
    "phone": "(702) 228-0005",
    "rating": 4.0,
    "reviews": 25,
    "website": "https://www.blackdiamondconstruction.com/",
    "category": "Black-owned Decks in Nevada",
    "description": "A general contractor specializing in decks, patios, and other home remodeling services",
    "hours": "Mon-Fri 9AM-6PM",
    "services": [
      "Black-owned Decks in Nevada consultation",
      "Professional service",
      "Quality guarantee"
    ],
    "social_links": {}
  },
  {
    "name": "Infinite Deck Company",
    "address": "Serving North Las Vegas, NV (specific address not provided)",
    "phone": "(702) 919-5857",
    "rating": 4.0,
    "reviews": 25,
    "website": "https://infinitedeckcompany.com/",
    "category": "Black-owned Decks in Nevada",
    "description": "Specializes in Trex, wood, and composite decks, including custom designs, installations, and repairs",
    "hours": "Mon-Fri 9AM-6PM",
    "services": [
      "Black-owned Decks in Nevada consultation",
      "Professional service",
      "Quality guarantee"
    ],
    "social_links": {}
  },
  {
    "name": "Zion Builders, Inc.",
    "address": "Serving Reno and Sparks, NV (specific address not provided)",
    "phone": "",
    "rating": 4.0,
    "reviews": 25,
    "website": "https://zionbuildersreno.com/",
    "category": "Black-owned Decks in Nevada",
    "description": "Offers custom deck building with wood and maintenance-free composite materials, specializing in Trex installations",
    "hours": "Mon-Fri 9AM-6PM",
    "services": [
      "Black-owned Decks in Nevada consultation",
      "Professional service",
      "Quality guarantee"
    ],
    "social_links": {}
  },
  {
    "name": "KCG Development",
    "address": "Serving North Las Vegas, NV (specific address not provided)",
    "phone": "(702) 646-7310",
    "rating": 4.0,
    "reviews": 25,
    "website": "https://kcgdevelopment.com/",
    "category": "Black-owned Decks in Nevada",
    "description": "Provides deck installation services using high-quality materials, focusing on functionality and aesthetic appeal",
    "hours": "Mon-Fri 9AM-6PM",
    "services": [
      "Black-owned Decks in Nevada consultation",
      "Professional service",
      "Quality guarantee"
    ],
    "social_links": {}
  },
  {
    "name": "Sin City Deck Builders",
    "address": "Serving Las Vegas, NV (specific address not provided)",
    "phone": "(702) 710-0572",
    "rating": 4.0,
    "reviews": 25,
    "website": "https://sincitydeckbuilders.com/",
    "category": "Black-owned Decks in Nevada",
    "description": "A locally owned company specializing in the design, build, and installation of custom wood and composite decks",
    "hours": "Mon-Fri 9AM-6PM",
    "services": [
      "Black-owned Decks in Nevada consultation",
      "Professional service",
      "Quality guarantee"
    ],
    "social_links": {}
  },
  {
    "name": "Elite Brothers Construction",
    "address": "Serving Las Vegas and Henderson, NV (specific address not provided)",
    "phone": "(702) 832-4565",
    "rating": 4.0,
    "reviews": 25,
    "website": "https://elitebrothersconstruction.com/",
    "category": "Black-owned Decks in Nevada",
    "description": "Offers deck installation and renovation services, specializing in custom-designed decks and casitas",
    "hours": "Mon-Fri 9AM-6PM",
    "services": [
      "Black-owned Decks in Nevada consultation",
      "Professional service",
      "Quality guarantee"
    ],
    "social_links": {}
  },
  {
    "name": "Prestige Construction, LLC",
    "address": "Serving Reno, NV (specific address not provided)",
    "phone": "(775) 622-8585",
    "rating": 4.0,
    "reviews": 25,
    "website": "https://prestigeconstructionreno.com/",
    "category": "Black-owned Decks in Nevada",
    "description": "A custom deck builder with over 45 years of combined experience, specializing in outdoor living areas and custom home building",
    "hours": "Mon-Fri 9AM-6PM",
    "services": [
      "Black-owned Decks in Nevada consultation",
      "Professional service",
      "Quality guarantee"
    ],
    "social_links": {}
  },
  {
    "name": "Masterfield Construction, LLC",
    "address": "Serving Sparks, NV (specific address not provided)",
    "phone": "",
    "rating": 3.7,
    "reviews": 25,
    "website": "https://masterfieldconstruction.com/",
    "category": "Black-owned Decks in Nevada",
    "description": "Specializes in outdoor living solutions, including deck construction and installation using Trex and natural wood options",
    "hours": "Mon-Fri 9AM-6PM",
    "services": [
      "Black-owned Decks in Nevada consultation",
      "Professional service",
      "Quality guarantee"
    ],
    "social_links": {}
  },
  {
    "name": "PLS Framers LLC",
    "address": "Serving Reno, NV (specific address not provided)",
    "phone": "",
    "rating": 4.0,
    "reviews": 25,
    "website": "https://plsframers.com/",
    "category": "Black-owned Decks in Nevada",
    "description": "Offers custom deck design and installation services, using high-quality materials and focusing on expert craftsmanship",
    "hours": "Mon-Fri 9AM-6PM",
    "services": [
      "Black-owned Decks in Nevada consultation",
      "Professional service",
      "Quality guarantee"
    ],
    "social_links": {}
  },
  {
    "name": "Premium Deck Solutions",
    "address": "2234 Grayson Cir, Henderson, NV 89014",
    "phone": "(702) 718-4188",
    "rating": 4.0,
    "reviews": 25,
    "website": "https://premiumdecks.com/",
    "category": "Black-owned Decks in Nevada",
    "description": "Specializes in expert deck construction, custom designs, and the use of quality materials for wooden, metal, and composite decks",
    "hours": "Mon-Fri 9AM-6PM",
    "services": [
      "Black-owned Decks in Nevada consultation",
      "Professional service",
      "Quality guarantee"
    ],
    "social_links": {}
  }
]