[
  {
    "name": "EMPIGO Technologies / SureTec",
    "address": "8888 Keystone Crossing, Suite 1000, Indianapolis, IN 46240",
    "phone": "(317) 870-5700",
    "rating": 4.0,
    "reviews": 25,
    "website": "https://www.empigo.com/",
    "category": "Catholic-owned 24/7 SOC monitoring in Indiana",
    "description": "Offers robust cybersecurity services including 24/7 threat monitoring, real-time alerting, and Managed Detection and Response (MDR)",
    "hours": "Mon-Fri 9AM-6PM",
    "services": [
      "Catholic-owned 24/7 SOC monitoring in Indiana consultation",
      "Professional service",
      "Quality guarantee"
    ],
    "social_links": {}
  },
  {
    "name": "Techlocity",
    "address": "8901 N. Keystone Ave, Indianapolis, IN 46240",
    "phone": "(317) 210-5400",
    "rating": 4.0,
    "reviews": 25,
    "website": "https://www.techlocity.com/",
    "category": "Catholic-owned 24/7 SOC monitoring in Indiana",
    "description": "Provides managed SOC services with proactive threat hunting, customized security strategies, and 24/7 monitoring and support",
    "hours": "Mon-Fri 9AM-6PM",
    "services": [
      "Catholic-owned 24/7 SOC monitoring in Indiana consultation",
      "Professional service",
      "Quality guarantee"
    ],
    "social_links": {}
  },
  {
    "name": "Electronic Strategies, Inc. (ESI)",
    "address": "8910 Purdue Rd #300, Indianapolis, IN 46268",
    "phone": "(317) 575-0440",
    "rating": 4.0,
    "reviews": 25,
    "website": "https://www.electronicstrategies.com/",
    "category": "Catholic-owned 24/7 SOC monitoring in Indiana",
    "description": "Offers comprehensive network security solutions, including 24/7 network monitoring and regular vulnerability scans",
    "hours": "Mon-Fri 9AM-6PM",
    "services": [
      "Catholic-owned 24/7 SOC monitoring in Indiana consultation",
      "Professional service",
      "Quality guarantee"
    ],
    "social_links": {}
  },
  {
    "name": "Accent Consulting",
    "address": "5610 Crawfordsville Rd, Suite 2000, Indianapolis, IN 46224",
    "phone": "(317) 215-0500",
    "rating": 4.0,
    "reviews": 25,
    "website": "https://accent-consulting.com/",
    "category": "Catholic-owned 24/7 SOC monitoring in Indiana",
    "description": "Delivers managed IT services and cybersecurity solutions, including 24/7 monitoring and a Security Operations Center (SOC)",
    "hours": "Mon-Fri 9AM-6PM",
    "services": [
      "Catholic-owned 24/7 SOC monitoring in Indiana consultation",
      "Professional service",
      "Quality guarantee"
    ],
    "social_links": {}
  },
  {
    "name": "Axia TP",
    "address": "8333 Keystone Crossing, Suite 1000, Indianapolis, IN 46240",
    "phone": "(317) 344-0000",
    "rating": 4.0,
    "reviews": 25,
    "website": "https://www.axiatp.com/",
    "category": "Catholic-owned 24/7 SOC monitoring in Indiana",
    "description": "Offers a cybersecurity solution with 24/7 monitoring for early detection of potential security risks",
    "hours": "Mon-Fri 9AM-6PM",
    "services": [
      "Catholic-owned 24/7 SOC monitoring in Indiana consultation",
      "Professional service",
      "Quality guarantee"
    ],
    "social_links": {}
  },
  {
    "name": "EXOS IT",
    "address": "7240 Woodland Dr, Indianapolis, IN 46278",
    "phone": "(317) 522-1000",
    "rating": 4.0,
    "reviews": 25,
    "website": "https://www.exosit.com/",
    "category": "Catholic-owned 24/7 SOC monitoring in Indiana",
    "description": "Provides advanced cybersecurity services, including threat detection, vulnerability assessments, and 24/7 monitoring",
    "hours": "Mon-Fri 9AM-6PM",
    "services": [
      "Catholic-owned 24/7 SOC monitoring in Indiana consultation",
      "Professional service",
      "Quality guarantee"
    ],
    "social_links": {}
  },
  {
    "name": "Baarez",
    "address": "Not specified in search results",
    "phone": "",
    "rating": 4.0,
    "reviews": 25,
    "website": "https://www.google.com/maps/search/Baarez+in+Indiana",
    "category": "Catholic-owned 24/7 SOC monitoring in Indiana",
    "description": "Offers Security Operations Center (SOC) Services with 24/7 support for cybersecurity monitoring and risk remediation",
    "hours": "Mon-Fri 9AM-6PM",
    "services": [
      "Catholic-owned 24/7 SOC monitoring in Indiana consultation",
      "Professional service",
      "Quality guarantee"
    ],
    "social_links": {}
  },
  {
    "name": "Trust Tech",
    "address": "1200 N Calumet Ave, Valparaiso, IN 46383",
    "phone": "(219) 464-9999",
    "rating": 4.0,
    "reviews": 25,
    "website": "https://trusttech.com/",
    "category": "Catholic-owned 24/7 SOC monitoring in Indiana",
    "description": "Provides 24/7 SOC-backed threat monitoring and rapid incident response for businesses in Northwest Indiana",
    "hours": "Mon-Fri 9AM-6PM",
    "services": [
      "Catholic-owned 24/7 SOC monitoring in Indiana consultation",
      "Professional service",
      "Quality guarantee"
    ],
    "social_links": {}
  },
  {
    "name": "Cybersilo",
    "address": "Not specified in search results",
    "phone": "",
    "rating": 4.0,
    "reviews": 25,
    "website": "https://cybersilo.com/",
    "category": "Catholic-owned 24/7 SOC monitoring in Indiana",
    "description": "Offers 24/7 SOC monitoring and rapid incident response as part of their managed security services",
    "hours": "Mon-Fri 9AM-6PM",
    "services": [
      "Catholic-owned 24/7 SOC monitoring in Indiana consultation",
      "Professional service",
      "Quality guarantee"
    ],
    "social_links": {}
  },
  {
    "name": "InfoSight",
    "address": "Not specified in search results",
    "phone": "",
    "rating": 4.0,
    "reviews": 25,
    "website": "https://infosight.com/",
    "category": "Catholic-owned 24/7 SOC monitoring in Indiana",
    "description": "Provides \"SOC as a Service\" in Indiana with 24/7 cybersecurity monitoring",
    "hours": "Mon-Fri 9AM-6PM",
    "services": [
      "Catholic-owned 24/7 SOC monitoring in Indiana consultation",
      "Professional service",
      "Quality guarantee"
    ],
    "social_links": {}
  }
]