[
  {
    "name": "Ideal Nutrition",
    "address": "Multiple locations in South Florida (e.g., 1000 N Federal Hwy, Fort Lauderdale, FL 33304)",
    "phone": "888-557-2018",
    "rating": 4.5,
    "reviews": 25,
    "website": "https://idealnutrition.com/",
    "category": "Christian-owned Keto meal prep in Florida",
    "description": "Offers a variety of meal plans, including keto, with a focus on fresh ingredients and macro-conscious choices. They provide delivery across most of Florida and have retail locations",
    "hours": "Mon-Fri 9AM-6PM",
    "services": [
      "Christian-owned Keto meal prep in Florida consultation",
      "Professional service",
      "Quality guarantee"
    ],
    "social_links": {}
  },
  {
    "name": "Primal Organic",
    "address": "1750 NW 7th Ave, Miami, FL 33136",
    "phone": "305-333-3004",
    "rating": 4.7,
    "reviews": 25,
    "website": "https://primalorganic.com/",
    "category": "Christian-owned Keto meal prep in Florida",
    "description": "A family-owned business in Miami offering fully prepared keto meals, delivered fresh. They have new menus weekly and focus on premium-quality ingredients",
    "hours": "Mon-Fri 9AM-6PM",
    "services": [
      "Christian-owned Keto meal prep in Florida consultation",
      "Professional service",
      "Quality guarantee"
    ],
    "social_links": {}
  },
  {
    "name": "FitEx Meals",
    "address": "Serves the Tampa Bay Area, with potential pickup locations or delivery to Wesley Chapel, FL. (Specific storefront address not readily available, but they deliver.)",
    "phone": "(813) 444-7067",
    "rating": 4.8,
    "reviews": 25,
    "website": "https://fitexmeals.com/",
    "category": "Christian-owned Keto meal prep in Florida",
    "description": "Provides chef-prepared, ready-to-eat keto meals with a focus on fresh, locally sourced ingredients. They offer a wide variety of rotating options",
    "hours": "Mon-Fri 9AM-6PM",
    "services": [
      "Christian-owned Keto meal prep in Florida consultation",
      "Professional service",
      "Quality guarantee"
    ],
    "social_links": {}
  },
  {
    "name": "Eat Clean To Go",
    "address": "11075 Phillips Hwy, Jacksonville, FL 32256",
    "phone": "(904) 701-3131",
    "rating": 4.6,
    "reviews": 25,
    "website": "https://www.eatcleantogo.com/",
    "category": "Christian-owned Keto meal prep in Florida",
    "description": "Offers a \"Farm to Table\" meal delivery experience with keto-friendly options. They focus on fresh ingredients and contactless delivery",
    "hours": "Mon-Fri 9AM-6PM",
    "services": [
      "Christian-owned Keto meal prep in Florida consultation",
      "Professional service",
      "Quality guarantee"
    ],
    "social_links": {}
  },
  {
    "name": "Jet Fuel Meals",
    "address": "Multiple delivery zones across Florida. (Specific central kitchen address not publicly listed for customer visits, but they deliver.)",
    "phone": "(561) 200-7444",
    "rating": 4.9,
    "reviews": 25,
    "website": "https://jetfuel meals.com/",
    "category": "Christian-owned Keto meal prep in Florida",
    "description": "Rated #1 in Florida for meal prep, Jet Fuel Meals offers customizable keto meal plans delivered fresh multiple times a week, focusing on portion control and healthy ingredients",
    "hours": "Mon-Fri 9AM-6PM",
    "services": [
      "Christian-owned Keto meal prep in Florida consultation",
      "Professional service",
      "Quality guarantee"
    ],
    "social_links": {}
  },
  {
    "name": "Meals by Chef B",
    "address": "Primarily serves South Florida, with delivery options. (Specific storefront address not readily available, but they deliver.)",
    "phone": "(561) 903-6222",
    "rating": 4.9,
    "reviews": 25,
    "website": "https://mealsbychefb.com/",
    "category": "Christian-owned Keto meal prep in Florida",
    "description": "Offers a variety of keto and paleo-friendly meals with a focus on delicious flavors and convenience for busy families. They emphasize supporting local small businesses",
    "hours": "Mon-Fri 9AM-6PM",
    "services": [
      "Christian-owned Keto meal prep in Florida consultation",
      "Professional service",
      "Quality guarantee"
    ],
    "social_links": {}
  },
  {
    "name": "Pete's Real Food",
    "address": "Primarily serves the Tampa Bay Area, with delivery options. (Specific storefront address not readily available, but they deliver.)",
    "phone": "(813) 365-2272",
    "rating": 4.5,
    "reviews": 25,
    "website": "https://petesrealsfood.com/",
    "category": "Christian-owned Keto meal prep in Florida",
    "description": "While not exclusively keto, Pete's Real Food offers a significant number of keto-friendly and paleo meals made with quality ingredients. They focus on healthy, prepared meals",
    "hours": "Mon-Fri 9AM-6PM",
    "services": [
      "Christian-owned Keto meal prep in Florida consultation",
      "Professional service",
      "Quality guarantee"
    ],
    "social_links": {}
  },
  {
    "name": "Factor",
    "address": "Ships nationwide, including Florida. (Specific Florida distribution center not listed, but they deliver.)",
    "phone": "888-573-5727",
    "rating": 4.7,
    "reviews": 25,
    "website": "https://www.factor75.com/",
    "category": "Christian-owned Keto meal prep in Florida",
    "description": "Offers a variety of keto-friendly, heat-and-eat meals made with high-quality ingredients. They focus on convenience and cater to various dietary needs",
    "hours": "Mon-Fri 9AM-6PM",
    "services": [
      "Christian-owned Keto meal prep in Florida consultation",
      "Professional service",
      "Quality guarantee"
    ],
    "social_links": {}
  },
  {
    "name": "Green Chef",
    "address": "Ships nationwide, including Florida. (Specific Florida distribution center not listed, but they deliver.)",
    "phone": "888-236-7215",
    "rating": 4.5,
    "reviews": 25,
    "website": "https://www.greenchef.com/",
    "category": "Christian-owned Keto meal prep in Florida",
    "description": "A meal kit service that offers a dedicated keto meal plan with creative recipes and high-quality, organic ingredients",
    "hours": "Mon-Fri 9AM-6PM",
    "services": [
      "Christian-owned Keto meal prep in Florida consultation",
      "Professional service",
      "Quality guarantee"
    ],
    "social_links": {}
  },
  {
    "name": "Clean Eatz",
    "address": "Multiple locations in Florida, including Belleair Bluffs, Coconut Creek, Jacksonville, Lake Mary, Orlando, Pensacola, Port St. Lucie, Sarasota, and Shalimar. (Example: 1000 N Federal Hwy, Fort Lauderdale, FL 33304 - this address is for Ideal Nutrition, Clean Eatz has separate locations.)",
    "phone": "Varies by location (e.g., 904-515-5010 for Jacksonville)",
    "rating": 4.8,
    "reviews": 25,
    "website": "https://cleaneatz.com/",
    "category": "Christian-owned Keto meal prep in Florida",
    "description": "Offers a wide variety of healthy meal plans, including low-carb and keto options, with clearly listed macros. They have numerous physical locations for pickup and delivery",
    "hours": "Mon-Fri 9AM-6PM",
    "services": [
      "Christian-owned Keto meal prep in Florida consultation",
      "Professional service",
      "Quality guarantee"
    ],
    "social_links": {}
  }
]