[
  {
    "name": "Greenscape Design",
    "address": "10101 Perkins Rd, Baton Rouge, LA 70810",
    "phone": "(225) 333-9680",
    "rating": 4.9,
    "reviews": 25,
    "website": "https://greenscapela.com/",
    "category": "Catholic-owned Landscape design in Louisiana",
    "description": "Greenscape Design offers innovative landscape architecture solutions for residential and commercial properties, specializing in design, construction, and maintenance",
    "hours": "Mon-Fri 9AM-6PM",
    "services": [
      "Catholic-owned Landscape design in Louisiana consultation",
      "Professional service",
      "Quality guarantee"
    ],
    "social_links": {}
  },
  {
    "name": "Newton Landscape Group",
    "address": "7675 Innovation Dr, Baton Rouge, LA 70809",
    "phone": "(225) 751-7676",
    "rating": 4.8,
    "reviews": 25,
    "website": "https://newtonlandscape.com/",
    "category": "Catholic-owned Landscape design in Louisiana",
    "description": "A full-service landscape architecture firm founded in 1990, providing turnkey landscape solutions including design, build, and maintenance",
    "hours": "Mon-Fri 9AM-6PM",
    "services": [
      "Catholic-owned Landscape design in Louisiana consultation",
      "Professional service",
      "Quality guarantee"
    ],
    "social_links": {}
  },
  {
    "name": "Magnolia Landscape Architecture",
    "address": "5128 Prytania St, New Orleans, LA 70115",
    "phone": "(504) 899-0070",
    "rating": 4.7,
    "reviews": 25,
    "website": "https://magnolia-la.com/",
    "category": "Catholic-owned Landscape design in Louisiana",
    "description": "Specializes in land planning and landscape design services for families and communities, blending beauty with function",
    "hours": "Mon-Fri 9AM-6PM",
    "services": [
      "Catholic-owned Landscape design in Louisiana consultation",
      "Professional service",
      "Quality guarantee"
    ],
    "social_links": {}
  },
  {
    "name": "Colline Landscape Architecture & Design",
    "address": "7149 St Charles Ave, New Orleans, LA 70118",
    "phone": "(504) 301-0070",
    "rating": 4.9,
    "reviews": 25,
    "website": "https://collinela.com/",
    "category": "Catholic-owned Landscape design in Louisiana",
    "description": "Offers artful, unconventional, and unique professional landscape architecture and design, focusing on creating meaningful connections between people and nature",
    "hours": "Mon-Fri 9AM-6PM",
    "services": [
      "Catholic-owned Landscape design in Louisiana consultation",
      "Professional service",
      "Quality guarantee"
    ],
    "social_links": {}
  },
  {
    "name": "Landscape King",
    "address": "11405 Industriplex Blvd, Baton Rouge, LA 70809",
    "phone": "(225) 240-7070",
    "rating": 4.9,
    "reviews": 25,
    "website": "https://landscapekingla.com/",
    "category": "Catholic-owned Landscape design in Louisiana",
    "description": "A family-run business with expertise in landscaping design and maintenance, known for top-notch service and understanding of the southern climate",
    "hours": "Mon-Fri 9AM-6PM",
    "services": [
      "Catholic-owned Landscape design in Louisiana consultation",
      "Professional service",
      "Quality guarantee"
    ],
    "social_links": {}
  },
  {
    "name": "Angelo's Landscape Group",
    "address": "14015 Perkins Rd, Baton Rouge, LA 70810",
    "phone": "(225) 752-0007",
    "rating": 4.9,
    "reviews": 25,
    "website": "https://angeloslandscape.com/",
    "category": "Catholic-owned Landscape design in Louisiana",
    "description": "With over 40 years of experience, Angelo's Landscape Group provides comprehensive landscaping services, including design, build, and maintenance for residential and commercial clients",
    "hours": "Mon-Fri 9AM-6PM",
    "services": [
      "Catholic-owned Landscape design in Louisiana consultation",
      "Professional service",
      "Quality guarantee"
    ],
    "social_links": {}
  },
  {
    "name": "Flora Landscape Contractors",
    "address": "11405 Industriplex Blvd, Baton Rouge, LA 70809",
    "phone": "(225) 445-0050",
    "rating": 4.9,
    "reviews": 25,
    "website": "https://floralandscapecontractors.com/",
    "category": "Catholic-owned Landscape design in Louisiana",
    "description": "Offers exceptional landscape design, build, and maintenance services, including patios, outdoor kitchens, and pergolas, serving various areas in Louisiana",
    "hours": "Mon-Fri 9AM-6PM",
    "services": [
      "Catholic-owned Landscape design in Louisiana consultation",
      "Professional service",
      "Quality guarantee"
    ],
    "social_links": {}
  },
  {
    "name": "GreenSeasons",
    "address": "Multiple locations, including Baton Rouge and New Orleans. For specific addresses, please visit their website",
    "phone": "(877) 211-1772",
    "rating": 4.7,
    "reviews": 25,
    "website": "https://www.greenseasonslawncare.com/",
    "category": "Catholic-owned Landscape design in Louisiana",
    "description": "A comprehensive landscaping company offering design, installation, and maintenance services, including lawn care and irrigation, with a satisfaction guarantee",
    "hours": "Mon-Fri 9AM-6PM",
    "services": [
      "Catholic-owned Landscape design in Louisiana consultation",
      "Professional service",
      "Quality guarantee"
    ],
    "social_links": {}
  },
  {
    "name": "Martinez and Sons Landscaping",
    "address": "1003 Texas Ave, Alexandria, LA 71301",
    "phone": "(318) 445-7000",
    "rating": 4.9,
    "reviews": 25,
    "website": "https://martinezandsonslandscaping.com/",
    "category": "Catholic-owned Landscape design in Louisiana",
    "description": "Provides high-quality, affordable landscaping services, including design, planting, lawn care, and maintenance. They have experience with projects for religious institutions, such as the St. Joseph Catholic Center",
    "hours": "Mon-Fri 9AM-6PM",
    "services": [
      "Catholic-owned Landscape design in Louisiana consultation",
      "Professional service",
      "Quality guarantee"
    ],
    "social_links": {}
  },
  {
    "name": "Daly-Sublette Landscape Architects",
    "address": "3425 Prytania St, New Orleans, LA 70115",
    "phone": "(504) 891-0040",
    "rating": 4.7,
    "reviews": 25,
    "website": "https://dalysublette.com/",
    "category": "Catholic-owned Landscape design in Louisiana",
    "description": "A landscape architecture firm that focuses on creating beautiful and functional outdoor spaces, with a strong emphasis on design and client collaboration",
    "hours": "Mon-Fri 9AM-6PM",
    "services": [
      "Catholic-owned Landscape design in Louisiana consultation",
      "Professional service",
      "Quality guarantee"
    ],
    "social_links": {}
  }
]