[
  {
    "name": "Cornea and Contact Lens Institute of Minnesota",
    "address": "6500 France Ave S, Edina, MN 55435",
    "phone": "(952) 333-4245",
    "rating": 4.0,
    "reviews": 25,
    "website": "https://www.cclim.com/",
    "category": "Alaska-Native-owned Contact lens fitting in Minnesota",
    "description": "Specializes in customized contact lenses for various corneal conditions, myopia management, and dry eyes",
    "hours": "Mon-Fri 9AM-6PM",
    "services": [
      "Alaska-Native-owned Contact lens fitting in Minnesota consultation",
      "Professional service",
      "Quality guarantee"
    ],
    "social_links": {}
  },
  {
    "name": "Art of Optiks (Edina)",
    "address": "5001 France Ave S, Edina, MN 55410",
    "phone": "(952) 926-4949",
    "rating": 4.0,
    "reviews": 25,
    "website": "https://www.artofoptiks.com/",
    "category": "Alaska-Native-owned Contact lens fitting in Minnesota",
    "description": "Offers comprehensive contact lens consultations and fitting services, catering to various lifestyles and eye conditions",
    "hours": "Mon-Fri 9AM-6PM",
    "services": [
      "Alaska-Native-owned Contact lens fitting in Minnesota consultation",
      "Professional service",
      "Quality guarantee"
    ],
    "social_links": {}
  },
  {
    "name": "Perspectives Vision Clinic",
    "address": "3102 50th Street West, Minneapolis, MN 55410",
    "phone": "(612) 920-3938",
    "rating": 4.0,
    "reviews": 25,
    "website": "https://www.perspectivesvisionclinic.com/",
    "category": "Alaska-Native-owned Contact lens fitting in Minnesota",
    "description": "Provides contact lens exams and fittings, assessing eyes for special considerations and recommending the best contacts from an extensive list of brands",
    "hours": "Mon-Fri 9AM-6PM",
    "services": [
      "Alaska-Native-owned Contact lens fitting in Minnesota consultation",
      "Professional service",
      "Quality guarantee"
    ],
    "social_links": {}
  },
  {
    "name": "Eye Care Associates (Downtown Minneapolis)",
    "address": "20th floor of the Medical Arts Building, 825 Nicollet Mall, Minneapolis, MN 55402",
    "phone": "(612) 332-5507",
    "rating": 4.0,
    "reviews": 25,
    "website": "https://www.eyecareassociatesmn.com/",
    "category": "Alaska-Native-owned Contact lens fitting in Minnesota",
    "description": "Offers contact lens fitting and management, with a wide selection of frames and lenses",
    "hours": "Mon-Fri 9AM-6PM",
    "services": [
      "Alaska-Native-owned Contact lens fitting in Minnesota consultation",
      "Professional service",
      "Quality guarantee"
    ],
    "social_links": {}
  },
  {
    "name": "Eye Care Associates (Northeast Minneapolis)",
    "address": "Silver Lake Plaza Medical Building, 4001 Stinson Boulevard NE, Minneapolis, MN 55418",
    "phone": "(612) 788-9021",
    "rating": 4.0,
    "reviews": 25,
    "website": "https://www.eyecareassociatesmn.com/",
    "category": "Alaska-Native-owned Contact lens fitting in Minnesota",
    "description": "Provides contact lens fitting and management services",
    "hours": "Mon-Fri 9AM-6PM",
    "services": [
      "Alaska-Native-owned Contact lens fitting in Minnesota consultation",
      "Professional service",
      "Quality guarantee"
    ],
    "social_links": {}
  },
  {
    "name": "Woodbury Eye Clinic",
    "address": "2070 Eagle Creek Lane, Suite 200, Woodbury, MN 55129",
    "phone": "(651) 436-3356",
    "rating": 4.0,
    "reviews": 25,
    "website": "https://www.woodburyeyeclinic.com/",
    "category": "Alaska-Native-owned Contact lens fitting in Minnesota",
    "description": "Offers contact lens fittings for various vision needs, including single vision, astigmatism, and multifocal correction",
    "hours": "Mon-Fri 9AM-6PM",
    "services": [
      "Alaska-Native-owned Contact lens fitting in Minnesota consultation",
      "Professional service",
      "Quality guarantee"
    ],
    "social_links": {}
  },
  {
    "name": "Yankee Eye Clinic",
    "address": "1340 Duckwood Dr STE 14, Eagan, MN 55123",
    "phone": "(651) 349-4699",
    "rating": 4.0,
    "reviews": 25,
    "website": "https://www.elevateeyecare.com/yankee-eye-clinic",
    "category": "Alaska-Native-owned Contact lens fitting in Minnesota",
    "description": "A full-service optometry clinic offering comprehensive eye exams and contact lens fittings",
    "hours": "Mon-Fri 9AM-6PM",
    "services": [
      "Alaska-Native-owned Contact lens fitting in Minnesota consultation",
      "Professional service",
      "Quality guarantee"
    ],
    "social_links": {}
  },
  {
    "name": "Art of Optiks (Wayzata)",
    "address": "755 E Lake St, Wayzata, MN 55391",
    "phone": "(952) 473-0333",
    "rating": 4.0,
    "reviews": 25,
    "website": "https://www.artofoptiks.com/",
    "category": "Alaska-Native-owned Contact lens fitting in Minnesota",
    "description": "Provides contact lens fitting services, with doctors who specialize in pairing patients with comfortable and lifestyle-appropriate contact lenses",
    "hours": "Mon-Fri 9AM-6PM",
    "services": [
      "Alaska-Native-owned Contact lens fitting in Minnesota consultation",
      "Professional service",
      "Quality guarantee"
    ],
    "social_links": {}
  },
  {
    "name": "Northern Minnesota Eye Care",
    "address": "15700 Hinckley Blvd, Hinckley, MN 55037 (This is one of their locations, they may have others)",
    "phone": "(320) 384-6000",
    "rating": 4.0,
    "reviews": 25,
    "website": "https://www.northernmn.com/",
    "category": "Alaska-Native-owned Contact lens fitting in Minnesota",
    "description": "Offers eye exams and vision services, including contact lens fittings",
    "hours": "Mon-Fri 9AM-6PM",
    "services": [
      "Alaska-Native-owned Contact lens fitting in Minnesota consultation",
      "Professional service",
      "Quality guarantee"
    ],
    "social_links": {}
  },
  {
    "name": "Arctic Slope Native Association (Samuel Simmonds Memorial Hospital)",
    "address": "1021 Fish Hatchery Rd, Utqiagvik, AK 99721 (Note: This is in Alaska, not Minnesota. However, they offer contact lens fitting and are an Alaska Native Association.)",
    "phone": "(907) 852-4611",
    "rating": 4.0,
    "reviews": 25,
    "website": "https://www.arcticslope.org/",
    "category": "Alaska-Native-owned Contact lens fitting in Minnesota",
    "description": "Provides eye care services, including contact lens fitting and management, to members of the Arctic Slope communities",
    "hours": "Mon-Fri 9AM-6PM",
    "services": [
      "Alaska-Native-owned Contact lens fitting in Minnesota consultation",
      "Professional service",
      "Quality guarantee"
    ],
    "social_links": {}
  }
]