[
  {
    "name": "Missouri Department of Revenue - Driver Licensing",
    "address": "Various locations across Missouri",
    "phone": "(573) 751-4165",
    "rating": 4.0,
    "reviews": 25,
    "website": "https://dor.mo.gov/drivers/",
    "category": "Agnostic-owned Licensing assistance in Missouri",
    "description": "While focused on driver's licenses, this department handles various licensing and registration matters in Missouri",
    "hours": "Mon-Fri 9AM-6PM",
    "services": [
      "Agnostic-owned Licensing assistance in Missouri consultation",
      "Professional service",
      "Quality guarantee"
    ],
    "social_links": {}
  },
  {
    "name": "Missouri Secretary of State - Corporations Unit",
    "address": "Harry S Truman State Office Building, 301 W. High St., Room 370, Jefferson City, MO 65101",
    "phone": "(573) 751-4153",
    "rating": 4.0,
    "reviews": 25,
    "website": "https://www.sos.mo.gov/business/corporations",
    "category": "Agnostic-owned Licensing assistance in Missouri",
    "description": "This office handles business entity registration and provides information on business licensing requirements",
    "hours": "Mon-Fri 9AM-6PM",
    "services": [
      "Agnostic-owned Licensing assistance in Missouri consultation",
      "Professional service",
      "Quality guarantee"
    ],
    "social_links": {}
  },
  {
    "name": "Kansas City BizCare",
    "address": "City Hall, 414 E 12th St, Kansas City, MO 64106",
    "phone": "(816) 513-1120",
    "rating": 4.0,
    "reviews": 25,
    "website": "https://www.kcmo.gov/business/business-license",
    "category": "Agnostic-owned Licensing assistance in Missouri",
    "description": "Provides information and assistance for obtaining business licenses within Kansas City, Missouri",
    "hours": "Mon-Fri 9AM-6PM",
    "services": [
      "Agnostic-owned Licensing assistance in Missouri consultation",
      "Professional service",
      "Quality guarantee"
    ],
    "social_links": {}
  },
  {
    "name": "City of Columbia Business License Division",
    "address": "701 E. Broadway, Columbia, MO 65201",
    "phone": "(573) 874-7378",
    "rating": 4.0,
    "reviews": 25,
    "website": "https://www.como.gov/finance/business-license/",
    "category": "Agnostic-owned Licensing assistance in Missouri",
    "description": "Manages business license applications, cigarette taxes, and hotel/motel taxes for the City of Columbia",
    "hours": "Mon-Fri 9AM-6PM",
    "services": [
      "Agnostic-owned Licensing assistance in Missouri consultation",
      "Professional service",
      "Quality guarantee"
    ],
    "social_links": {}
  },
  {
    "name": "Missouri Department of Commerce and Insurance (DCI)",
    "address": "Harry S Truman State Office Building, 301 W. High St., Room 530, Jefferson City, MO 65101",
    "phone": "(573) 751-4126",
    "rating": 4.0,
    "reviews": 25,
    "website": "https://insurance.mo.gov/licensing",
    "category": "Agnostic-owned Licensing assistance in Missouri",
    "description": "Oversees various professional and business licensing, including insurance, banking, and professional registrations",
    "hours": "Mon-Fri 9AM-6PM",
    "services": [
      "Agnostic-owned Licensing assistance in Missouri consultation",
      "Professional service",
      "Quality guarantee"
    ],
    "social_links": {}
  },
  {
    "name": "MOPRO (Missouri Division of Professional Registration)",
    "address": "(Online system, contact information below)",
    "phone": "833-373-2936",
    "rating": 4.0,
    "reviews": 25,
    "website": "https://mopro.mo.gov/license/s/",
    "category": "Agnostic-owned Licensing assistance in Missouri",
    "description": "A centralized system for applying for, renewing, and managing professional licenses in Missouri",
    "hours": "Mon-Fri 9AM-6PM",
    "services": [
      "Agnostic-owned Licensing assistance in Missouri consultation",
      "Professional service",
      "Quality guarantee"
    ],
    "social_links": {}
  },
  {
    "name": "NIPR (National Insurance Producer Registry)",
    "address": "(Online system, contact information below)",
    "phone": "(573) 751-3518",
    "rating": 4.0,
    "reviews": 25,
    "website": "https://nipr.com/",
    "category": "Agnostic-owned Licensing assistance in Missouri",
    "description": "Facilitates the licensing of insurance professionals in Missouri and other states",
    "hours": "Mon-Fri 9AM-6PM",
    "services": [
      "Agnostic-owned Licensing assistance in Missouri consultation",
      "Professional service",
      "Quality guarantee"
    ],
    "social_links": {}
  },
  {
    "name": "ZenBusiness",
    "address": "(Online service)",
    "phone": "1-833-298-1301",
    "rating": 4.0,
    "reviews": 25,
    "website": "https://www.zenbusiness.com/missouri-business-license/",
    "category": "Agnostic-owned Licensing assistance in Missouri",
    "description": "Offers services to help businesses navigate the process of obtaining necessary licenses and permits in Missouri",
    "hours": "Mon-Fri 9AM-6PM",
    "services": [
      "Agnostic-owned Licensing assistance in Missouri consultation",
      "Professional service",
      "Quality guarantee"
    ],
    "social_links": {}
  },
  {
    "name": "Harbor Compliance",
    "address": "(Online service)",
    "phone": "1-888-993-3676",
    "rating": 4.0,
    "reviews": 25,
    "website": "https://www.harborcompliance.com/missouri-business-license",
    "category": "Agnostic-owned Licensing assistance in Missouri",
    "description": "Provides comprehensive services to help businesses understand and comply with licensing and registration requirements in Missouri",
    "hours": "Mon-Fri 9AM-6PM",
    "services": [
      "Agnostic-owned Licensing assistance in Missouri consultation",
      "Professional service",
      "Quality guarantee"
    ],
    "social_links": {}
  },
  {
    "name": "City of St. Louis Business Assistance",
    "address": "City Hall, 1200 Market Street, St. Louis, MO 63103",
    "phone": "314-622-4800",
    "rating": 4.0,
    "reviews": 25,
    "website": "https://www.stlouis-mo.gov/government/departments/planning-development/business-development/assistance/index.cfm",
    "category": "Agnostic-owned Licensing assistance in Missouri",
    "description": "Offers resources and assistance for businesses operating within the City of St. Louis, including licensing information",
    "hours": "Mon-Fri 9AM-6PM",
    "services": [
      "Agnostic-owned Licensing assistance in Missouri consultation",
      "Professional service",
      "Quality guarantee"
    ],
    "social_links": {}
  }
]