[
  {
    "name": "The UPS Store",
    "address": "719 W Walnut St Suite 103, Rogers, AR 72756",
    "phone": "(479) 636-1911",
    "rating": 4.5,
    "reviews": 25,
    "website": "https://locations.theupsstore.com/ar/rogers/719-w-walnut-st",
    "category": "Atheist-owned Mail forwarding in Arkansas",
    "description": "Offers private mailbox services, including mail holding and forwarding, package acceptance from all carriers, and mail receipt notifications",
    "hours": "Mon-Fri 9AM-6PM",
    "services": [
      "Atheist-owned Mail forwarding in Arkansas consultation",
      "Professional service",
      "Quality guarantee"
    ],
    "social_links": {}
  },
  {
    "name": "The UPS Store",
    "address": "4300 Rogers Ave Ste 20, Fort Smith, AR 72903",
    "phone": "(479) 452-1111",
    "rating": 4.5,
    "reviews": 25,
    "website": "https://locations.theupsstore.com/ar/fort-smith/4300-rogers-ave",
    "category": "Atheist-owned Mail forwarding in Arkansas",
    "description": "Provides mailbox services with a real street address, secure package acceptance, mail holding, and forwarding",
    "hours": "Mon-Fri 9AM-6PM",
    "services": [
      "Atheist-owned Mail forwarding in Arkansas consultation",
      "Professional service",
      "Quality guarantee"
    ],
    "social_links": {}
  },
  {
    "name": "The UPS Store",
    "address": "3820 Dave Ward Dr Suite 1900, Conway, AR 72034",
    "phone": "(501) 327-7600",
    "rating": 4.5,
    "reviews": 25,
    "website": "https://locations.theupsstore.com/ar/conway/3820-dave-ward-dr",
    "category": "Atheist-owned Mail forwarding in Arkansas",
    "description": "Offers private mailbox services, including mail holding and forwarding, package acceptance, and mail receipt notifications",
    "hours": "Mon-Fri 9AM-6PM",
    "services": [
      "Atheist-owned Mail forwarding in Arkansas consultation",
      "Professional service",
      "Quality guarantee"
    ],
    "social_links": {}
  },
  {
    "name": "The UPS Store",
    "address": "1722 N College Ste C, Fayetteville, AR 72703",
    "phone": "(479) 571-0001",
    "rating": 4.5,
    "reviews": 25,
    "website": "https://locations.theupsstore.com/ar/fayetteville/1722-n-college-ave",
    "category": "Atheist-owned Mail forwarding in Arkansas",
    "description": "Provides mailbox services with a real street address, package acceptance, mail holding, and forwarding",
    "hours": "Mon-Fri 9AM-6PM",
    "services": [
      "Atheist-owned Mail forwarding in Arkansas consultation",
      "Professional service",
      "Quality guarantee"
    ],
    "social_links": {}
  },
  {
    "name": "The UPS Store",
    "address": "7253 W Sunset Ave Ste C, Springdale, AR 72762",
    "phone": "(479) 333-2532",
    "rating": 4.5,
    "reviews": 25,
    "website": "https://locations.theupsstore.com/ar/springdale/7253-w-sunset-ave",
    "category": "Atheist-owned Mail forwarding in Arkansas",
    "description": "Offers private mailbox services, including mail holding and forwarding, package acceptance, and mail receipt notifications",
    "hours": "Mon-Fri 9AM-6PM",
    "services": [
      "Atheist-owned Mail forwarding in Arkansas consultation",
      "Professional service",
      "Quality guarantee"
    ],
    "social_links": {}
  },
  {
    "name": "The UPS Store",
    "address": "1818 N Taylor Street, Little Rock, AR 72207",
    "phone": "(501) 666-2338",
    "rating": 4.5,
    "reviews": 25,
    "website": "https://locations.theupsstore.com/ar/little-rock/1818-n-taylor-st",
    "category": "Atheist-owned Mail forwarding in Arkansas",
    "description": "Provides mailbox services with a real street address, secure package acceptance, mail holding, and forwarding",
    "hours": "Mon-Fri 9AM-6PM",
    "services": [
      "Atheist-owned Mail forwarding in Arkansas consultation",
      "Professional service",
      "Quality guarantee"
    ],
    "social_links": {}
  },
  {
    "name": "The UPS Store",
    "address": "3511 SE J Street, Bentonville, AR 72712",
    "phone": "(479) 464-9000",
    "rating": 4.5,
    "reviews": 25,
    "website": "https://locations.theupsstore.com/ar/bentonville/3511-se-j-st",
    "category": "Atheist-owned Mail forwarding in Arkansas",
    "description": "Offers private mailbox services, including mail holding and forwarding, package acceptance, and mail receipt notifications",
    "hours": "Mon-Fri 9AM-6PM",
    "services": [
      "Atheist-owned Mail forwarding in Arkansas consultation",
      "Professional service",
      "Quality guarantee"
    ],
    "social_links": {}
  },
  {
    "name": "PostalAnnex",
    "address": "813 Oak St Ste 10, Conway, AR 72032",
    "phone": "(501) 358-6210",
    "rating": 4.0,
    "reviews": 25,
    "website": "https://www.postalannex.com/locations/conway-ar-813-oak-st-ste-10",
    "category": "Atheist-owned Mail forwarding in Arkansas",
    "description": "Offers virtual mailbox services with a real street address, mail scanning, package theft prevention, and mail forwarding",
    "hours": "Mon-Fri 9AM-6PM",
    "services": [
      "Atheist-owned Mail forwarding in Arkansas consultation",
      "Professional service",
      "Quality guarantee"
    ],
    "social_links": {}
  },
  {
    "name": "Smart Pack N Ship CO",
    "address": "5410 Phoenix Ave, Fort Smith, AR 72903",
    "phone": "(479) 551-2227",
    "rating": 4.5,
    "reviews": 25,
    "website": "https://smartpacknshipco.com/",
    "category": "Atheist-owned Mail forwarding in Arkansas",
    "description": "Provides digital mailbox rentals with a street address in Fort Smith, allowing remote management of mail and packages, including scanning, forwarding, and shredding",
    "hours": "Mon-Fri 9AM-6PM",
    "services": [
      "Atheist-owned Mail forwarding in Arkansas consultation",
      "Professional service",
      "Quality guarantee"
    ],
    "social_links": {}
  },
  {
    "name": "Pak Mail",
    "address": "361 Southwest Drive, Jonesboro, AR 72401",
    "phone": "(870) 931-5151",
    "rating": 4.0,
    "reviews": 25,
    "website": "https://www.pakmail.com/locations/jonesboro-ar-361-southwest-drive",
    "category": "Atheist-owned Mail forwarding in Arkansas",
    "description": "Offers virtual mailbox services with a real street address, mail and package forwarding, and remote mail opening and scanning",
    "hours": "Mon-Fri 9AM-6PM",
    "services": [
      "Atheist-owned Mail forwarding in Arkansas consultation",
      "Professional service",
      "Quality guarantee"
    ],
    "social_links": {}
  }
]