[
  {
    "name": "Deka Lash Cherry Creek",
    "address": "3000 E 1st Ave Suite 101, Denver, CO 80206",
    "phone": "(303) 557-1160",
    "rating": 4.8,
    "reviews": 25,
    "website": "https://www.dekalash.com/location/cherry-creek-denver-co/",
    "category": "Arabic-speaking Eyelash extensions in Colorado",
    "description": "Offers a full range of eyelash extensions, lash lifts, and brow services",
    "hours": "Mon-Fri 9AM-6PM",
    "services": [
      "Arabic-speaking Eyelash extensions in Colorado consultation",
      "Professional service",
      "Quality guarantee"
    ],
    "social_links": {}
  },
  {
    "name": "Lash Out Colorado",
    "address": "7370 S University Blvd Suite 120, Centennial, CO 80122",
    "phone": "(720) 500-0377",
    "rating": 4.9,
    "reviews": 25,
    "website": "https://lashoutcolorado.com/",
    "category": "Arabic-speaking Eyelash extensions in Colorado",
    "description": "Specializes in professional eyelash extensions, lash lifts, full body waxing, and brow services",
    "hours": "Mon-Fri 9AM-6PM",
    "services": [
      "Arabic-speaking Eyelash extensions in Colorado consultation",
      "Professional service",
      "Quality guarantee"
    ],
    "social_links": {}
  },
  {
    "name": "Lashology",
    "address": "1535 Platte St Suite 100, Denver, CO 80202",
    "phone": "(303) 955-1377",
    "rating": 5.0,
    "reviews": 25,
    "website": "https://www.lashology.co/",
    "category": "Arabic-speaking Eyelash extensions in Colorado",
    "description": "Focuses on empowering women through eyelash extensions and other beauty services",
    "hours": "Mon-Fri 9AM-6PM",
    "services": [
      "Arabic-speaking Eyelash extensions in Colorado consultation",
      "Professional service",
      "Quality guarantee"
    ],
    "social_links": {}
  },
  {
    "name": "All About Me Lashes and Brows",
    "address": "1507 Riverside Ave #102, Fort Collins, CO 80524",
    "phone": "(970) 541-1097",
    "rating": 4.9,
    "reviews": 25,
    "website": "https://www.allaboutmelashesandbrows.com/",
    "category": "Arabic-speaking Eyelash extensions in Colorado",
    "description": "Offers high-quality lash extensions, lash lifts, and brow services with experienced technicians",
    "hours": "Mon-Fri 9AM-6PM",
    "services": [
      "Arabic-speaking Eyelash extensions in Colorado consultation",
      "Professional service",
      "Quality guarantee"
    ],
    "social_links": {}
  },
  {
    "name": "Lash Proper",
    "address": "5945 N Academy Blvd Suite 102, Colorado Springs, CO 80918",
    "phone": "(719) 424-7000",
    "rating": 5.0,
    "reviews": 25,
    "website": "https://www.lashproper.com/",
    "category": "Arabic-speaking Eyelash extensions in Colorado",
    "description": "Provides professional eyelash extensions with a focus on proper application and client satisfaction",
    "hours": "Mon-Fri 9AM-6PM",
    "services": [
      "Arabic-speaking Eyelash extensions in Colorado consultation",
      "Professional service",
      "Quality guarantee"
    ],
    "social_links": {}
  },
  {
    "name": "Lash Couture",
    "address": "155 S Pearl St, Denver, CO 80209",
    "phone": "(720) 644-6568",
    "rating": 4.9,
    "reviews": 25,
    "website": "https://www.lashcouturedenver.com/",
    "category": "Arabic-speaking Eyelash extensions in Colorado",
    "description": "A popular lash and brow salon in Denver offering luxurious lash extensions and brow services",
    "hours": "Mon-Fri 9AM-6PM",
    "services": [
      "Arabic-speaking Eyelash extensions in Colorado consultation",
      "Professional service",
      "Quality guarantee"
    ],
    "social_links": {}
  },
  {
    "name": "Lash and Company Fort Collins",
    "address": "100 W Olive St Suite 1, Fort Collins, CO 80524",
    "phone": "(970) 221-2222",
    "rating": 4.7,
    "reviews": 25,
    "website": "https://www.lashandcompany.com/fort-collins",
    "category": "Arabic-speaking Eyelash extensions in Colorado",
    "description": "A med spa offering eyelash extensions, lash lifts, and other beauty treatments",
    "hours": "Mon-Fri 9AM-6PM",
    "services": [
      "Arabic-speaking Eyelash extensions in Colorado consultation",
      "Professional service",
      "Quality guarantee"
    ],
    "social_links": {}
  },
  {
    "name": "M\u014dv Aesthetics",
    "address": "2630 Baseline Rd Suite 100, Boulder, CO 80302",
    "phone": "(303) 443-0303",
    "rating": 4.8,
    "reviews": 25,
    "website": "https://www.mov-aesthetics.com/",
    "category": "Arabic-speaking Eyelash extensions in Colorado",
    "description": "Specializes in personalized eyelash extensions and YUMI Lash Lift services",
    "hours": "Mon-Fri 9AM-6PM",
    "services": [
      "Arabic-speaking Eyelash extensions in Colorado consultation",
      "Professional service",
      "Quality guarantee"
    ],
    "social_links": {}
  },
  {
    "name": "Purluxe Beauty Bar",
    "address": "Multiple locations in Denver, including Cherry Creek, LoHi, and Denver Tech Center. (Specific address for Cherry Creek: 2900 E 2nd Ave Suite 10, Denver, CO 80206)",
    "phone": "(303) 557-1160 (This appears to be a general number for Deka Lash, Purluxe may have a different one. Please verify.)",
    "rating": 5.0,
    "reviews": 25,
    "website": "https://purluxebeautybar.com/",
    "category": "Arabic-speaking Eyelash extensions in Colorado",
    "description": "Offers premier lash services in Denver, including classic, hybrid, and volume extensions, as well as Yumi Lash Lift",
    "hours": "Mon-Fri 9AM-6PM",
    "services": [
      "Arabic-speaking Eyelash extensions in Colorado consultation",
      "Professional service",
      "Quality guarantee"
    ],
    "social_links": {}
  },
  {
    "name": "Lashes By Rochelle",
    "address": "1836 Vinewood Ln, Pueblo, CO 81005",
    "phone": "(719) 588-7302",
    "rating": 5.0,
    "reviews": 25,
    "website": "https://www.lashonwaxoff.org/",
    "category": "Arabic-speaking Eyelash extensions in Colorado",
    "description": "Provides various lash services, including volume lash sets, classic lash sets, and lash lifts",
    "hours": "Mon-Fri 9AM-6PM",
    "services": [
      "Arabic-speaking Eyelash extensions in Colorado consultation",
      "Professional service",
      "Quality guarantee"
    ],
    "social_links": {}
  }
]