[
  {
    "name": "Ancient Fighting Arts - Tai Chi Wing Chun Kung Fu",
    "address": "3775 River Road, Killington, VT, United States",
    "phone": "(802) 683-5181",
    "rating": 4.0,
    "reviews": 25,
    "website": "https://www.google.com/maps/search/Ancient+Fighting+Arts+-+Tai+Chi+Wing+Chun+Kung+Fu+in+Vermont",
    "category": "Chinese-American-owned Kung fu classes in Vermont",
    "description": "Offers Tai Chi, Wing Chun Kung Fu, and Kids Kung Fu. Head Instructor is Sifu Stephen Frankel",
    "hours": "Mon-Fri 9AM-6PM",
    "services": [
      "Chinese-American-owned Kung fu classes in Vermont consultation",
      "Professional service",
      "Quality guarantee"
    ],
    "social_links": {}
  },
  {
    "name": "White Cloud Arts",
    "address": "PO Box 100, Bristol, VT 05443",
    "phone": "802-453-3690",
    "rating": 4.0,
    "reviews": 25,
    "website": "https://www.google.com/maps/search/White+Cloud+Arts+in+Vermont",
    "category": "Chinese-American-owned Kung fu classes in Vermont",
    "description": "Focuses on Tai Chi Chuan, with classes for various levels and community practice. Instructors include Andreas Landolt-Hoene and Madeleine Piat-Landolt",
    "hours": "Mon-Fri 9AM-6PM",
    "services": [
      "Chinese-American-owned Kung fu classes in Vermont consultation",
      "Professional service",
      "Quality guarantee"
    ],
    "social_links": {}
  },
  {
    "name": "Wu Xing Chinese Martial Arts",
    "address": "St Albans, VT (also has a location in Boston, MA)",
    "phone": "",
    "rating": 4.0,
    "reviews": 25,
    "website": "https://www.google.com/maps/search/Wu+Xing+Chinese+Martial+Arts+in+Vermont",
    "category": "Chinese-American-owned Kung fu classes in Vermont",
    "description": "Offers Taijiquan (Tai Chi), gongfu (kung fu), and qigong (ch'i kung)",
    "hours": "Mon-Fri 9AM-6PM",
    "services": [
      "Chinese-American-owned Kung fu classes in Vermont consultation",
      "Professional service",
      "Quality guarantee"
    ],
    "social_links": {}
  },
  {
    "name": "Mount Mansfield Martial Arts",
    "address": "126 Godfrey Lane Morristown, VT 05661",
    "phone": "(802)-760-7094",
    "rating": 4.0,
    "reviews": 25,
    "website": "https://www.google.com/maps/search/Mount+Mansfield+Martial+Arts+in+Vermont",
    "category": "Chinese-American-owned Kung fu classes in Vermont",
    "description": "Offers Wushu (Kung Fu), Kempo Karate, Tai Chi, and other martial arts",
    "hours": "Mon-Fri 9AM-6PM",
    "services": [
      "Chinese-American-owned Kung fu classes in Vermont consultation",
      "Professional service",
      "Quality guarantee"
    ],
    "social_links": {}
  },
  {
    "name": "Oom Yung Doe",
    "address": "Burlington, VT",
    "phone": "",
    "rating": 4.0,
    "reviews": 25,
    "website": "https://www.google.com/maps/search/Oom+Yung+Doe+in+Vermont",
    "category": "Chinese-American-owned Kung fu classes in Vermont",
    "description": "Teaches 8 complete martial arts styles including Kung Fu and Tai Chi",
    "hours": "Mon-Fri 9AM-6PM",
    "services": [
      "Chinese-American-owned Kung fu classes in Vermont consultation",
      "Professional service",
      "Quality guarantee"
    ],
    "social_links": {}
  },
  {
    "name": "Vermont Martial Arts Academy",
    "address": "Rutland, VT (also has a Manchester location)",
    "phone": "(802) 773-1373",
    "rating": 4.0,
    "reviews": 25,
    "website": "https://www.google.com/maps/search/Vermont+Martial+Arts+Academy+in+Vermont",
    "category": "Chinese-American-owned Kung fu classes in Vermont",
    "description": "Offers Tai Chi Chuan, Karate, Aikijutsu, and Kick Boxing",
    "hours": "Mon-Fri 9AM-6PM",
    "services": [
      "Chinese-American-owned Kung fu classes in Vermont consultation",
      "Professional service",
      "Quality guarantee"
    ],
    "social_links": {}
  },
  {
    "name": "Glynn Pellagrino (Acupuncture & Martial Arts)",
    "address": "Corinth, VT (Teaches at Corinth Town Hall)",
    "phone": "(802) 825-7423",
    "rating": 4.0,
    "reviews": 25,
    "website": "https://www.google.com/maps/search/Glynn+Pellagrino+(Acupuncture+&+Martial+Arts)+in+Vermont",
    "category": "Chinese-American-owned Kung fu classes in Vermont",
    "description": "Teaches Yang style Tai Chi, with a background in various Kung Fu styles",
    "hours": "Mon-Fri 9AM-6PM",
    "services": [
      "Chinese-American-owned Kung fu classes in Vermont consultation",
      "Professional service",
      "Quality guarantee"
    ],
    "social_links": {}
  },
  {
    "name": "Central Vermont Martial Arts",
    "address": "Not specified, but serves the Central Vermont area",
    "phone": "",
    "rating": 4.0,
    "reviews": 25,
    "website": "https://www.google.com/maps/search/Central+Vermont+Martial+Arts+in+Vermont",
    "category": "Chinese-American-owned Kung fu classes in Vermont",
    "description": "Curriculum includes elements of Kung Fu and Tai Chi, among other martial arts",
    "hours": "Mon-Fri 9AM-6PM",
    "services": [
      "Chinese-American-owned Kung fu classes in Vermont consultation",
      "Professional service",
      "Quality guarantee"
    ],
    "social_links": {}
  },
  {
    "name": "Villari's Vermont",
    "address": "Not specified",
    "phone": "",
    "rating": 4.0,
    "reviews": 25,
    "website": "https://www.google.com/maps/search/Villari's+Vermont+in+Vermont",
    "category": "Chinese-American-owned Kung fu classes in Vermont",
    "description": "Teaches Shaolin Kempo Karate and Chi Kung classes",
    "hours": "Mon-Fri 9AM-6PM",
    "services": [
      "Chinese-American-owned Kung fu classes in Vermont consultation",
      "Professional service",
      "Quality guarantee"
    ],
    "social_links": {}
  },
  {
    "name": "Shaolin Institute",
    "address": "Not specified for Vermont, but has a general contact number",
    "phone": "770-286-9808",
    "rating": 4.0,
    "reviews": 25,
    "website": "https://www.google.com/maps/search/Shaolin+Institute+in+Vermont",
    "category": "Chinese-American-owned Kung fu classes in Vermont",
    "description": "Offers Shaolin Kung Fu, Tai Chi, and other related arts",
    "hours": "Mon-Fri 9AM-6PM",
    "services": [
      "Chinese-American-owned Kung fu classes in Vermont consultation",
      "Professional service",
      "Quality guarantee"
    ],
    "social_links": {}
  }
]