[
  {
    "name": "Taste of Reggae 2",
    "address": "301 W King St, Martinsburg, WV 25401",
    "phone": "",
    "rating": 4.0,
    "reviews": 25,
    "website": "https://www.tasteofreggae2.com/",
    "category": "Black-owned Ethnic catering in West-Virginia",
    "description": "Specializes in Jamaican and Caribbean cuisine, offering catering for private events",
    "hours": "Mon-Fri 9AM-6PM",
    "services": [
      "Black-owned Ethnic catering in West-Virginia consultation",
      "Professional service",
      "Quality guarantee"
    ],
    "social_links": {}
  },
  {
    "name": "Sistaz Of Soulfood",
    "address": "Vinton, Virginia (service area may include parts of WV)",
    "phone": "(540) 650-7023",
    "rating": 4.0,
    "reviews": 25,
    "website": "https://www.sistazofsoulfood.com/",
    "category": "Black-owned Ethnic catering in West-Virginia",
    "description": "A catering company that focuses on soul food, suitable for various events",
    "hours": "Mon-Fri 9AM-6PM",
    "services": [
      "Black-owned Ethnic catering in West-Virginia consultation",
      "Professional service",
      "Quality guarantee"
    ],
    "social_links": {}
  },
  {
    "name": "Caribbean Dreamz Cuisine",
    "address": "Bridgeport, West Virginia",
    "phone": "304-931-0192",
    "rating": 4.0,
    "reviews": 25,
    "website": "https://www.thejamaicanspice.com/",
    "category": "Black-owned Ethnic catering in West-Virginia",
    "description": "Offers Latin and Jamaican cuisine, suggesting a focus on Caribbean flavors",
    "hours": "Mon-Fri 9AM-6PM",
    "services": [
      "Black-owned Ethnic catering in West-Virginia consultation",
      "Professional service",
      "Quality guarantee"
    ],
    "social_links": {}
  },
  {
    "name": "Gypsy Soul Events",
    "address": "2336 Charles Town Road, Kearneysville, WV 25430",
    "phone": "",
    "rating": 4.0,
    "reviews": 25,
    "website": "https://www.gypsysoulevents.com/",
    "category": "Black-owned Ethnic catering in West-Virginia",
    "description": "Provides catering, party rentals, and tea party events, serving a wide area in WV, MD, and PA",
    "hours": "Mon-Fri 9AM-6PM",
    "services": [
      "Black-owned Ethnic catering in West-Virginia consultation",
      "Professional service",
      "Quality guarantee"
    ],
    "social_links": {}
  },
  {
    "name": "Karubees Jamaican Restaurant",
    "address": "714 Lee St E, Charleston, WV 25301 (Note: Search result also mentions 809 3rd Ave Unit #9 Huntington, WV 25701)",
    "phone": "+1 304-400-6166",
    "rating": 4.6,
    "reviews": 25,
    "website": "https://www.google.com/maps/search/Karubees+Jamaican+Restaurant+West+Virginia",
    "category": "Black-owned Ethnic catering in West-Virginia",
    "description": "Authentic Jamaican restaurant that also offers catering",
    "hours": "Mon-Fri 9AM-6PM",
    "services": [
      "Black-owned Ethnic catering in West-Virginia consultation",
      "Professional service",
      "Quality guarantee"
    ],
    "social_links": {}
  },
  {
    "name": "Sumthin' Good Soulfood",
    "address": "4837 MacCorkle Ave SW, South Charleston, WV 25309",
    "phone": "(304) 768-0968",
    "rating": 4.4,
    "reviews": 25,
    "website": "https://sumthingoodsoulfood.com/",
    "category": "Black-owned Ethnic catering in West-Virginia",
    "description": "A family-owned soul food restaurant that has been serving delicious food for over 5 years and offers catering",
    "hours": "Mon-Fri 9AM-6PM",
    "services": [
      "Black-owned Ethnic catering in West-Virginia consultation",
      "Professional service",
      "Quality guarantee"
    ],
    "social_links": {}
  },
  {
    "name": "GOOD EATZ by Chef Reem",
    "address": "United States (specific location not provided, but offers catering)",
    "phone": "",
    "rating": 4.0,
    "reviews": 25,
    "website": "https://www.goodeatzbychef.com/",
    "category": "Black-owned Ethnic catering in West-Virginia",
    "description": "A Black-owned catering business that creates Caribbean and American recipes with a soul food twist",
    "hours": "Mon-Fri 9AM-6PM",
    "services": [
      "Black-owned Ethnic catering in West-Virginia consultation",
      "Professional service",
      "Quality guarantee"
    ],
    "social_links": {}
  },
  {
    "name": "Countryman Jamaican Grill LLC",
    "address": "Primarily a food truck, with locations varying. They have been seen at Iron Tree Brewing Co. in Christiansburg, VA, and Virginia Western Community College",
    "phone": "(540) 613-1920",
    "rating": 4.0,
    "reviews": 25,
    "website": "https://www.countrymanjamaicangrill.com/",
    "category": "Black-owned Ethnic catering in West-Virginia",
    "description": "Offers authentic Jamaican cuisine and is available for events",
    "hours": "Mon-Fri 9AM-6PM",
    "services": [
      "Black-owned Ethnic catering in West-Virginia consultation",
      "Professional service",
      "Quality guarantee"
    ],
    "social_links": {}
  },
  {
    "name": "Chaang Thai Restaurant",
    "address": "361 High Street, Morgantown, West Virginia 26505",
    "phone": "304-313-2649 (for immediate attention) or order@chaangthai.com",
    "rating": 4.0,
    "reviews": 25,
    "website": "https://www.chaangthai.com/",
    "category": "Black-owned Ethnic catering in West-Virginia",
    "description": "The first Thai restaurant in West Virginia, offering authentic Thai cuisine and catering for big orders and custom party platters",
    "hours": "Mon-Fri 9AM-6PM",
    "services": [
      "Black-owned Ethnic catering in West-Virginia consultation",
      "Professional service",
      "Quality guarantee"
    ],
    "social_links": {}
  },
  {
    "name": "Thai Valley Kitchen",
    "address": "26 Putnam Village Drive, Hurricane, WV, 25526",
    "phone": "(304) 562-3300",
    "rating": 4.0,
    "reviews": 25,
    "website": "https://www.thaivalleykitchen.com/",
    "category": "Black-owned Ethnic catering in West-Virginia",
    "description": "Offers authentic Thai cuisine and catering services for special events up to 35 people",
    "hours": "Mon-Fri 9AM-6PM",
    "services": [
      "Black-owned Ethnic catering in West-Virginia consultation",
      "Professional service",
      "Quality guarantee"
    ],
    "social_links": {}
  }
]