[
  {
    "name": "Louisiana Salt Caves",
    "address": "",
    "phone": "",
    "rating": 4.0,
    "reviews": 25,
    "website": "https://www.google.com/maps/search/Louisiana+Salt+Caves+in+Louisiana",
    "category": "Chinese-speaking Salt therapy in Louisiana",
    "description": "",
    "hours": "Mon-Fri 9AM-6PM",
    "services": [
      "Chinese-speaking Salt therapy in Louisiana consultation",
      "Professional service",
      "Quality guarantee"
    ],
    "social_links": {}
  },
  {
    "name": "Refuge Massage and Salt Spa",
    "address": "2940 Canal Street, New Orleans, Louisiana 70119",
    "phone": "(504) 390-6257",
    "rating": 4.0,
    "reviews": 25,
    "website": "https://www.google.com/maps/search/Refuge+Massage+and+Salt+Spa+in+Louisiana",
    "category": "Chinese-speaking Salt therapy in Louisiana",
    "description": "Offers salt spa services",
    "hours": "Mon-Fri 9AM-6PM",
    "services": [
      "Chinese-speaking Salt therapy in Louisiana consultation",
      "Professional service",
      "Quality guarantee"
    ],
    "social_links": {}
  },
  {
    "name": "Fleauxt - Floatation Therapy & Dry Salt Therapy",
    "address": "8312 Jefferson Hwy #4, Baton Rouge, LA 70809",
    "phone": "(225) 283-0520",
    "rating": 4.0,
    "reviews": 25,
    "website": "https://www.google.com/maps/search/Fleauxt+-+Floatation+Therapy+&+Dry+Salt+Therapy+in+Louisiana",
    "category": "Chinese-speaking Salt therapy in Louisiana",
    "description": "Offers floatation therapy and dry salt therapy",
    "hours": "Mon-Fri 9AM-6PM",
    "services": [
      "Chinese-speaking Salt therapy in Louisiana consultation",
      "Professional service",
      "Quality guarantee"
    ],
    "social_links": {}
  },
  {
    "name": "Strictly Salt of Metairie",
    "address": "3110 David Drive, Metairie, LA 70003",
    "phone": "(504) 517-2581",
    "rating": 4.0,
    "reviews": 25,
    "website": "https://www.google.com/maps/search/Strictly+Salt+of+Metairie+in+Louisiana",
    "category": "Chinese-speaking Salt therapy in Louisiana",
    "description": "Metairie's first Halotherapy Center",
    "hours": "Mon-Fri 9AM-6PM",
    "services": [
      "Chinese-speaking Salt therapy in Louisiana consultation",
      "Professional service",
      "Quality guarantee"
    ],
    "social_links": {}
  },
  {
    "name": "The Grotteaux",
    "address": "New Orleans, LA 70118",
    "phone": "",
    "rating": 4.0,
    "reviews": 25,
    "website": "https://www.google.com/maps/search/The+Grotteaux+in+Louisiana",
    "category": "Chinese-speaking Salt therapy in Louisiana",
    "description": "Offers halotherapy in a salt room",
    "hours": "Mon-Fri 9AM-6PM",
    "services": [
      "Chinese-speaking Salt therapy in Louisiana consultation",
      "Professional service",
      "Quality guarantee"
    ],
    "social_links": {}
  },
  {
    "name": "Lafayette Salt Cave",
    "address": "2504 Johnston Street, Lafayette, Louisiana 70503",
    "phone": "(318) 597-2598",
    "rating": 4.0,
    "reviews": 25,
    "website": "https://www.google.com/maps/search/Lafayette+Salt+Cave+in+Louisiana",
    "category": "Chinese-speaking Salt therapy in Louisiana",
    "description": "Offers salt cave therapy",
    "hours": "Mon-Fri 9AM-6PM",
    "services": [
      "Chinese-speaking Salt therapy in Louisiana consultation",
      "Professional service",
      "Quality guarantee"
    ],
    "social_links": {}
  },
  {
    "name": "Himalayan Salt Cave",
    "address": "2004 First St, Suite B, Slidell, LA 70458",
    "phone": "(985) 788-5307",
    "rating": 4.0,
    "reviews": 25,
    "website": "https://www.google.com/maps/search/Himalayan+Salt+Cave+in+Louisiana",
    "category": "Chinese-speaking Salt therapy in Louisiana",
    "description": "Offers salt cave therapy",
    "hours": "Mon-Fri 9AM-6PM",
    "services": [
      "Chinese-speaking Salt therapy in Louisiana consultation",
      "Professional service",
      "Quality guarantee"
    ],
    "social_links": {}
  },
  {
    "name": "The Natural Path",
    "address": "100 Sabal Palms Row, Suite #2, Youngsville, LA 70592",
    "phone": "(337) 451-6563",
    "rating": 4.0,
    "reviews": 25,
    "website": "https://www.google.com/maps/search/The+Natural+Path+in+Louisiana",
    "category": "Chinese-speaking Salt therapy in Louisiana",
    "description": "Offers salt cave therapy",
    "hours": "Mon-Fri 9AM-6PM",
    "services": [
      "Chinese-speaking Salt therapy in Louisiana consultation",
      "Professional service",
      "Quality guarantee"
    ],
    "social_links": {}
  },
  {
    "name": "Australian Super Tans and Wellness (Halotherapy)",
    "address": "Lake Charles, LA 70605 (Sulphur)",
    "phone": "(337) 626-0925",
    "rating": 4.0,
    "reviews": 25,
    "website": "https://www.google.com/maps/search/Australian+Super+Tans+and+Wellness+(Halotherapy)+in+Louisiana",
    "category": "Chinese-speaking Salt therapy in Louisiana",
    "description": "Offers halotherapy services",
    "hours": "Mon-Fri 9AM-6PM",
    "services": [
      "Chinese-speaking Salt therapy in Louisiana consultation",
      "Professional service",
      "Quality guarantee"
    ],
    "social_links": {}
  },
  {
    "name": "Salt Revival",
    "address": "1199 East Nasa Pkwy Suite C, Houston, TX 77058 (Note: This is in Texas, but may serve nearby Louisiana areas)",
    "phone": "832-409-0978",
    "rating": 4.0,
    "reviews": 25,
    "website": "https://www.google.com/maps/search/Salt+Revival+in+Louisiana",
    "category": "Chinese-speaking Salt therapy in Louisiana",
    "description": "Offers salt therapy and oxygen bar services",
    "hours": "Mon-Fri 9AM-6PM",
    "services": [
      "Chinese-speaking Salt therapy in Louisiana consultation",
      "Professional service",
      "Quality guarantee"
    ],
    "social_links": {}
  }
]