[
  {
    "name": "Zhan Law Office",
    "address": "5800 Merle Hay Rd, Suite 15, Johnston, IA 50131, USA",
    "phone": "(515) 278-0000",
    "rating": 4.0,
    "reviews": 25,
    "website": "https://www.zhanlaw.com/",
    "category": "Chinese-speaking Restructuring in Iowa",
    "description": "Specializes in China law consulting for cross-border business matters between China and the U.S",
    "hours": "Mon-Fri 9AM-6PM",
    "services": [
      "Chinese-speaking Restructuring in Iowa consultation",
      "Professional service",
      "Quality guarantee"
    ],
    "social_links": {}
  },
  {
    "name": "Causey & Ye Law",
    "address": "2213 Grand Ave, Des Moines, IA 50312, USA",
    "phone": "",
    "rating": 4.0,
    "reviews": 25,
    "website": "https://www.causeyeyelaw.com/",
    "category": "Chinese-speaking Restructuring in Iowa",
    "description": "Offers a range of legal services, including business law and formation, with a focus on serving the Chinese community in Iowa",
    "hours": "Mon-Fri 9AM-6PM",
    "services": [
      "Chinese-speaking Restructuring in Iowa consultation",
      "Professional service",
      "Quality guarantee"
    ],
    "social_links": {}
  },
  {
    "name": "China Iowa Group",
    "address": "319 SW 5th Street, Suite 103, Des Moines, IA 50309, USA",
    "phone": "(515) 279-8888",
    "rating": 4.0,
    "reviews": 25,
    "website": "https://www.chinaiowa.com/",
    "category": "Chinese-speaking Restructuring in Iowa",
    "description": "An international trade firm specializing in sourcing, sales, and investment between the U.S. and China, with bilingual staff",
    "hours": "Mon-Fri 9AM-6PM",
    "services": [
      "Chinese-speaking Restructuring in Iowa consultation",
      "Professional service",
      "Quality guarantee"
    ],
    "social_links": {}
  },
  {
    "name": "Maynard Nexsen",
    "address": "Offices in Des Moines, IA (specific address not provided in search results)",
    "phone": "",
    "rating": 4.0,
    "reviews": 25,
    "website": "https://www.maynardnexsen.com/",
    "category": "Chinese-speaking Restructuring in Iowa",
    "description": "Offers legal services with a focus on bridging U.S. and Chinese business cultures, with team members fluent in Mandarin",
    "hours": "Mon-Fri 9AM-6PM",
    "services": [
      "Chinese-speaking Restructuring in Iowa consultation",
      "Professional service",
      "Quality guarantee"
    ],
    "social_links": {}
  },
  {
    "name": "Fredrikson & Byron, P.A.",
    "address": "200 Coffelt Ave, Des Moines, IA 50309, USA (This is an office location, not necessarily for China-specific services)",
    "phone": "(515) 246-5700",
    "rating": 4.0,
    "reviews": 25,
    "website": "https://www.fredlaw.com/",
    "category": "Chinese-speaking Restructuring in Iowa",
    "description": "A law firm with an office in Des Moines that has a presence in Shanghai, China, suggesting international business capabilities",
    "hours": "Mon-Fri 9AM-6PM",
    "services": [
      "Chinese-speaking Restructuring in Iowa consultation",
      "Professional service",
      "Quality guarantee"
    ],
    "social_links": {}
  },
  {
    "name": "TCI China",
    "address": "Not specified in Iowa, but offers China business consulting services",
    "phone": "",
    "rating": 4.0,
    "reviews": 25,
    "website": "https://www.tcichina.com/",
    "category": "Chinese-speaking Restructuring in Iowa",
    "description": "Provides business consulting services to help companies prepare for and succeed in the Chinese market, including regulatory alignment, logistics, and cultural understanding",
    "hours": "Mon-Fri 9AM-6PM",
    "services": [
      "Chinese-speaking Restructuring in Iowa consultation",
      "Professional service",
      "Quality guarantee"
    ],
    "social_links": {}
  },
  {
    "name": "Chinese Association of Iowa",
    "address": "Des Moines, IA (specific address not provided)",
    "phone": "515-988-0901",
    "rating": 4.0,
    "reviews": 25,
    "website": "http://iowachinese.us/",
    "category": "Chinese-speaking Restructuring in Iowa",
    "description": "A non-profit organization focused on the business, economic, and community development of the Chinese American community in Iowa",
    "hours": "Mon-Fri 9AM-6PM",
    "services": [
      "Chinese-speaking Restructuring in Iowa consultation",
      "Professional service",
      "Quality guarantee"
    ],
    "social_links": {}
  },
  {
    "name": "Foster Group",
    "address": "4000 Westown Parkway, Suite 204, West Des Moines, IA 50266, USA",
    "phone": "(515) 226-7500",
    "rating": 4.0,
    "reviews": 25,
    "website": "https://www.foster-group.com/",
    "category": "Chinese-speaking Restructuring in Iowa",
    "description": "Offers financial services, including business services like succession planning, with offices in Iowa",
    "hours": "Mon-Fri 9AM-6PM",
    "services": [
      "Chinese-speaking Restructuring in Iowa consultation",
      "Professional service",
      "Quality guarantee"
    ],
    "social_links": {}
  },
  {
    "name": "B\u00e2ton Global",
    "address": "300 Walnut Street, Suite 100, Des Moines, IA 50309, USA",
    "phone": "(515) 244-4000",
    "rating": 4.0,
    "reviews": 25,
    "website": "https://batonglobal.com/",
    "category": "Chinese-speaking Restructuring in Iowa",
    "description": "A business consulting company that offers corporate training and coaching",
    "hours": "Mon-Fri 9AM-6PM",
    "services": [
      "Chinese-speaking Restructuring in Iowa consultation",
      "Professional service",
      "Quality guarantee"
    ],
    "social_links": {}
  },
  {
    "name": "John Pappajohn Entrepreneurial Center (Iowa JPEC)",
    "address": "2145 University Hy, Suite 100, West Des Moines, IA 50266, USA (This is a University of Iowa center, not a private business)",
    "phone": "(319) 335-0970",
    "rating": 4.0,
    "reviews": 25,
    "website": "https://jpec.uiowa.edu/",
    "category": "Chinese-speaking Restructuring in Iowa",
    "description": "Provides strategic management consulting services to Iowa-based businesses, with student teams working on projects including international expansion",
    "hours": "Mon-Fri 9AM-6PM",
    "services": [
      "Chinese-speaking Restructuring in Iowa consultation",
      "Professional service",
      "Quality guarantee"
    ],
    "social_links": {}
  }
]