[
  {
    "name": "Oklahoma Buddhist Vihara",
    "address": "4820 N Portland Ave, Oklahoma City, OK 73112",
    "phone": "(405) 948-3377",
    "rating": 4.0,
    "reviews": 25,
    "website": "http://www.okbv.org/",
    "category": "Buddhist-owned Composition in Oklahoma",
    "description": "A Buddhist Monastery in Central Oklahoma providing weekly meditation classes and practicing the Theravada tradition",
    "hours": "Mon-Fri 9AM-6PM",
    "services": [
      "Buddhist-owned Composition in Oklahoma consultation",
      "Professional service",
      "Quality guarantee"
    ],
    "social_links": {}
  },
  {
    "name": "The Dharma Center of Oklahoma",
    "address": "(Specific address not readily available, but affiliated with Rissho Kosei-kai)",
    "phone": "(405) 525-7227 (general inquiry number for Rissho Kosei-kai of Oklahoma)",
    "rating": 4.0,
    "reviews": 25,
    "website": "https://www.rk-ok.org/",
    "category": "Buddhist-owned Composition in Oklahoma",
    "description": "Part of the international lay-people Buddhist organization Rissho Kosei-kai, offering practice and study of Buddhist principles",
    "hours": "Mon-Fri 9AM-6PM",
    "services": [
      "Buddhist-owned Composition in Oklahoma consultation",
      "Professional service",
      "Quality guarantee"
    ],
    "social_links": {}
  },
  {
    "name": "Buddha Mind Monastery",
    "address": "5800 S. Anderson Rd, Oklahoma City, OK 73150",
    "phone": "(405) 869-0501",
    "rating": 4.0,
    "reviews": 25,
    "website": "http://www.buddhamindmonastery.org/",
    "category": "Buddhist-owned Composition in Oklahoma",
    "description": "A place serving the Oklahoma community since 2004, offering Zen meditation and Buddhism classes",
    "hours": "Mon-Fri 9AM-6PM",
    "services": [
      "Buddhist-owned Composition in Oklahoma consultation",
      "Professional service",
      "Quality guarantee"
    ],
    "social_links": {}
  },
  {
    "name": "Tam Bao Buddhist Temple",
    "address": "16933 E 21st St, Tulsa, OK 74134",
    "phone": "(918) 438-0714",
    "rating": 4.0,
    "reviews": 25,
    "website": "https://www.facebook.com/Tam-Bao-Buddhist-Temple-189583769577/",
    "category": "Buddhist-owned Composition in Oklahoma",
    "description": "Established in 1993 by the Vietnamese community in the Greater Tulsa area, offering services in both Vietnamese and English",
    "hours": "Mon-Fri 9AM-6PM",
    "services": [
      "Buddhist-owned Composition in Oklahoma consultation",
      "Professional service",
      "Quality guarantee"
    ],
    "social_links": {}
  },
  {
    "name": "Vien Giac Temple",
    "address": "5101 NE 36th St, Oklahoma City, OK 73121",
    "phone": "(405) 478-1777",
    "rating": 4.0,
    "reviews": 25,
    "website": "http://www.viengiac.org/",
    "category": "Buddhist-owned Composition in Oklahoma",
    "description": "A Buddhist temple offering Sunday services, religious and cultural events, and Dharma classes",
    "hours": "Mon-Fri 9AM-6PM",
    "services": [
      "Buddhist-owned Composition in Oklahoma consultation",
      "Professional service",
      "Quality guarantee"
    ],
    "social_links": {}
  },
  {
    "name": "Wat Tulsa Hansen Dhammanusorn",
    "address": "6701 N. Trenton Ave., Tulsa, OK 74126",
    "phone": "(918) 919-8029",
    "rating": 4.0,
    "reviews": 25,
    "website": "http://watusa.org/",
    "category": "Buddhist-owned Composition in Oklahoma",
    "description": "A Thai Theravada Buddhist temple in Tulsa",
    "hours": "Mon-Fri 9AM-6PM",
    "services": [
      "Buddhist-owned Composition in Oklahoma consultation",
      "Professional service",
      "Quality guarantee"
    ],
    "social_links": {}
  },
  {
    "name": "Nithyananda Dhyanapeetam of Oklahoma City",
    "address": "(Located in Norman, OK, specific address not provided in search results)",
    "phone": "",
    "rating": 4.0,
    "reviews": 25,
    "website": "https://www.google.com/maps/search/Nithyananda+Dhyanapeetam+of+Oklahoma+City+in+Oklahoma",
    "category": "Buddhist-owned Composition in Oklahoma",
    "description": "A Buddhist non-profit organization founded in 2010",
    "hours": "Mon-Fri 9AM-6PM",
    "services": [
      "Buddhist-owned Composition in Oklahoma consultation",
      "Professional service",
      "Quality guarantee"
    ],
    "social_links": {}
  },
  {
    "name": "Chanh Phap Buddhist Meditation Center",
    "address": "(Located in Oklahoma City, OK, specific address not provided in search results)",
    "phone": "",
    "rating": 4.0,
    "reviews": 25,
    "website": "https://www.google.com/maps/search/Chanh+Phap+Buddhist+Meditation+Center+in+Oklahoma",
    "category": "Buddhist-owned Composition in Oklahoma",
    "description": "A Buddhist non-profit organization founded in 2004",
    "hours": "Mon-Fri 9AM-6PM",
    "services": [
      "Buddhist-owned Composition in Oklahoma consultation",
      "Professional service",
      "Quality guarantee"
    ],
    "social_links": {}
  },
  {
    "name": "Vietnamese Buddhist Youth Association in the Tinh-Khiet Regi",
    "address": "(Located in Oklahoma City, OK, specific address not provided in search results)",
    "phone": "",
    "rating": 4.0,
    "reviews": 25,
    "website": "https://www.google.com/maps/search/Vietnamese+Buddhist+Youth+Association+in+the+Tinh-Khiet+Regi+in+Oklahoma",
    "category": "Buddhist-owned Composition in Oklahoma",
    "description": "A Buddhist non-profit organization founded in 2014",
    "hours": "Mon-Fri 9AM-6PM",
    "services": [
      "Buddhist-owned Composition in Oklahoma consultation",
      "Professional service",
      "Quality guarantee"
    ],
    "social_links": {}
  },
  {
    "name": "Phat Tue Monastery Incorporated",
    "address": "(Located in Oklahoma City, OK, specific address not provided in search results)",
    "phone": "",
    "rating": 4.0,
    "reviews": 25,
    "website": "https://www.google.com/maps/search/Phat+Tue+Monastery+Incorporated+in+Oklahoma",
    "category": "Buddhist-owned Composition in Oklahoma",
    "description": "A Buddhist non-profit organization founded in 2022",
    "hours": "Mon-Fri 9AM-6PM",
    "services": [
      "Buddhist-owned Composition in Oklahoma consultation",
      "Professional service",
      "Quality guarantee"
    ],
    "social_links": {}
  }
]