[
  {
    "name": "Windstone Dental",
    "address": "Olive Branch, MS (Specific address not provided in search results)",
    "phone": "662-850-6782",
    "rating": 4.0,
    "reviews": 25,
    "website": "https://www.google.com/maps/search/Windstone+Dental+in+Mississippi",
    "category": "Catholic-owned Dentists in Mississippi",
    "description": "Offers comprehensive dental services for ages 5 and up, focusing on quality care and patient relationships",
    "hours": "Mon-Fri 9AM-6PM",
    "services": [
      "Catholic-owned Dentists in Mississippi consultation",
      "Professional service",
      "Quality guarantee"
    ],
    "social_links": {}
  },
  {
    "name": "Zimmerman Family Dentistry",
    "address": "13165 Vidalia Rd, Pass Christian, MS 39571 & 1213 Broad Avenue, Suite 1, Gulfport, MS 39501",
    "phone": "228-255-4355 (Pass Christian) & 228-863-5171 (Gulfport)",
    "rating": 4.0,
    "reviews": 25,
    "website": "https://www.google.com/maps/search/Zimmerman+Family+Dentistry+in+Mississippi",
    "category": "Catholic-owned Dentists in Mississippi",
    "description": "Provides cosmetic and family dentistry, emphasizing preventative care and restorative services",
    "hours": "Mon-Fri 9AM-6PM",
    "services": [
      "Catholic-owned Dentists in Mississippi consultation",
      "Professional service",
      "Quality guarantee"
    ],
    "social_links": {}
  },
  {
    "name": "Dental Care of Clinton",
    "address": "Clinton, MS (Specific address not provided in search results, located on Highway 80)",
    "phone": "601-925-9100",
    "rating": 4.0,
    "reviews": 25,
    "website": "https://www.google.com/maps/search/Dental+Care+of+Clinton+in+Mississippi",
    "category": "Catholic-owned Dentists in Mississippi",
    "description": "Offers a wide range of dental services, including cosmetic procedures, implants, and restorative dentistry, for all ages",
    "hours": "Mon-Fri 9AM-6PM",
    "services": [
      "Catholic-owned Dentists in Mississippi consultation",
      "Professional service",
      "Quality guarantee"
    ],
    "social_links": {}
  },
  {
    "name": "Southaven Dental Care",
    "address": "Southaven, MS (Specific address not provided in search results)",
    "phone": "662-536-2900",
    "rating": 4.0,
    "reviews": 25,
    "website": "https://www.google.com/maps/search/Southaven+Dental+Care+in+Mississippi",
    "category": "Catholic-owned Dentists in Mississippi",
    "description": "Provides general and cosmetic dentistry, teeth whitening, and implants in a relaxed atmosphere",
    "hours": "Mon-Fri 9AM-6PM",
    "services": [
      "Catholic-owned Dentists in Mississippi consultation",
      "Professional service",
      "Quality guarantee"
    ],
    "social_links": {}
  },
  {
    "name": "Kenneth A Bailey, DDS",
    "address": "Jackson, MS 39206 (Specific address not provided in search results)",
    "phone": "601-981-1000",
    "rating": 4.0,
    "reviews": 25,
    "website": "https://www.google.com/maps/search/Kenneth+A+Bailey,+DDS+in+Mississippi",
    "category": "Catholic-owned Dentists in Mississippi",
    "description": "Offers family dentistry, cosmetic procedures, and advanced restorative treatments like implant overdentures",
    "hours": "Mon-Fri 9AM-6PM",
    "services": [
      "Catholic-owned Dentists in Mississippi consultation",
      "Professional service",
      "Quality guarantee"
    ],
    "social_links": {}
  },
  {
    "name": "Mark Gilbert Family Dentistry",
    "address": "8947 College St, Olive Branch, MS 38654",
    "phone": "662-895-0100",
    "rating": 4.0,
    "reviews": 25,
    "website": "https://www.google.com/maps/search/Mark+Gilbert+Family+Dentistry+in+Mississippi",
    "category": "Catholic-owned Dentists in Mississippi",
    "description": "Provides comprehensive family dental services, aiming for a positive dental experience and healthy smiles",
    "hours": "Mon-Fri 9AM-6PM",
    "services": [
      "Catholic-owned Dentists in Mississippi consultation",
      "Professional service",
      "Quality guarantee"
    ],
    "social_links": {}
  },
  {
    "name": "Carl Boykin, DDS",
    "address": "Jackson, MS (Specific address not provided in search results, 4793 McWillie Dr mentioned)",
    "phone": "",
    "rating": 4.0,
    "reviews": 25,
    "website": "https://www.google.com/maps/search/Carl+Boykin,+DDS+in+Mississippi",
    "category": "Catholic-owned Dentists in Mississippi",
    "description": "Offers general and cosmetic dentistry, focusing on beautifying smiles and maintaining dental health",
    "hours": "Mon-Fri 9AM-6PM",
    "services": [
      "Catholic-owned Dentists in Mississippi consultation",
      "Professional service",
      "Quality guarantee"
    ],
    "social_links": {}
  },
  {
    "name": "William W. Woods III, D.M.D.",
    "address": "Meridian, MS (Specific address not provided in search results)",
    "phone": "",
    "rating": 4.0,
    "reviews": 25,
    "website": "https://www.google.com/maps/search/William+W.+Woods+III,+D.M.D.+in+Mississippi",
    "category": "Catholic-owned Dentists in Mississippi",
    "description": "Specializes in cosmetic enhancement, dental implant placement, and restoration, using advanced technology",
    "hours": "Mon-Fri 9AM-6PM",
    "services": [
      "Catholic-owned Dentists in Mississippi consultation",
      "Professional service",
      "Quality guarantee"
    ],
    "social_links": {}
  },
  {
    "name": "Clinton Family Dentistry",
    "address": "Clinton, MS (Specific address not provided in search results)",
    "phone": "",
    "rating": 4.0,
    "reviews": 25,
    "website": "https://www.google.com/maps/search/Clinton+Family+Dentistry+in+Mississippi",
    "category": "Catholic-owned Dentists in Mississippi",
    "description": "Provides a wide range of dental services for all ages, including dental implants and same-day crowns",
    "hours": "Mon-Fri 9AM-6PM",
    "services": [
      "Catholic-owned Dentists in Mississippi consultation",
      "Professional service",
      "Quality guarantee"
    ],
    "social_links": {}
  },
  {
    "name": "Tupelo Smiles",
    "address": "101 Parkgate Dr, Tupelo, MS 38801",
    "phone": "662-302-3807",
    "rating": 4.0,
    "reviews": 25,
    "website": "https://www.google.com/maps/search/Tupelo+Smiles+in+Mississippi",
    "category": "Catholic-owned Dentists in Mississippi",
    "description": "Offers cosmetic and restorative dentistry, with a focus on patient comfort and advanced technology",
    "hours": "Mon-Fri 9AM-6PM",
    "services": [
      "Catholic-owned Dentists in Mississippi consultation",
      "Professional service",
      "Quality guarantee"
    ],
    "social_links": {}
  }
]