[
  {
    "name": "Black Label BJJ and Fitness",
    "address": "1121 Old Town Ln, Cheyenne, WY 82009",
    "phone": "(307) 757-0185",
    "rating": 4.0,
    "reviews": 25,
    "website": "https://www.blacklabelbjj.com/",
    "category": "Black-owned Self-defense in Wyoming",
    "description": "Offers Brazilian Jiu-Jitsu, kickboxing, MMA, and cardio kickboxing classes for all ages",
    "hours": "Mon-Fri 9AM-6PM",
    "services": [
      "Black-owned Self-defense in Wyoming consultation",
      "Professional service",
      "Quality guarantee"
    ],
    "social_links": {}
  },
  {
    "name": "Black Dragon Martial Arts",
    "address": "415 W. 28th St, Cheyenne, WY 82001",
    "phone": "(307) 287-2022",
    "rating": 4.0,
    "reviews": 25,
    "website": "https://www.blackdragoncheyenne.com/",
    "category": "Black-owned Self-defense in Wyoming",
    "description": "Provides instruction in Taekwondo and Brazilian Jiu-Jitsu, with a focus on a family-oriented and fun learning environment",
    "hours": "Mon-Fri 9AM-6PM",
    "services": [
      "Black-owned Self-defense in Wyoming consultation",
      "Professional service",
      "Quality guarantee"
    ],
    "social_links": {}
  },
  {
    "name": "Potter Self-Defense Academy",
    "address": "197 Road 20, Cody, WY 82414",
    "phone": "(307) 250-5770",
    "rating": 4.0,
    "reviews": 25,
    "website": "https://potterselfdefense.com/",
    "category": "Black-owned Self-defense in Wyoming",
    "description": "Offers various martial arts classes including Brazilian Jiu-Jitsu and MMA striking for different age groups",
    "hours": "Mon-Fri 9AM-6PM",
    "services": [
      "Black-owned Self-defense in Wyoming consultation",
      "Professional service",
      "Quality guarantee"
    ],
    "social_links": {}
  },
  {
    "name": "Iron Monkey Self Defense",
    "address": "710 E Garfield St, Suite 202, Laramie, WY 82070",
    "phone": "(307) 399-0557",
    "rating": 4.0,
    "reviews": 25,
    "website": "https://www.ironmonkeyselfdefense.com/",
    "category": "Black-owned Self-defense in Wyoming",
    "description": "Provides kickboxing and martial arts training with a focus on achieving a healthy lifestyle. They offer a free introductory class",
    "hours": "Mon-Fri 9AM-6PM",
    "services": [
      "Black-owned Self-defense in Wyoming consultation",
      "Professional service",
      "Quality guarantee"
    ],
    "social_links": {}
  },
  {
    "name": "Big Horn Martial Arts Academy",
    "address": "532 East Madison, Powell, WY 82435 (Classes held at Powell Trinity Bible Church)",
    "phone": "(307) 754-5711",
    "rating": 4.0,
    "reviews": 25,
    "website": "https://www.powellrec.com/martial-arts",
    "category": "Black-owned Self-defense in Wyoming",
    "description": "Offers Taekwondo classes for adults and children, emphasizing character building, self-confidence, and self-defense tactics",
    "hours": "Mon-Fri 9AM-6PM",
    "services": [
      "Black-owned Self-defense in Wyoming consultation",
      "Professional service",
      "Quality guarantee"
    ],
    "social_links": {}
  },
  {
    "name": "J&P's TKKA",
    "address": "(Location not specified in search results, but serves Cheyenne, WY)",
    "phone": "",
    "rating": 4.0,
    "reviews": 25,
    "website": "https://jp-tkka.com/",
    "category": "Black-owned Self-defense in Wyoming",
    "description": "A mixed martial arts school offering instruction in Okinawan Kenpo, Taekwondo, Muay Thai, Kickboxing, Kung-fu, and Self-Defense",
    "hours": "Mon-Fri 9AM-6PM",
    "services": [
      "Black-owned Self-defense in Wyoming consultation",
      "Professional service",
      "Quality guarantee"
    ],
    "social_links": {}
  },
  {
    "name": "Wyo Faction",
    "address": "(Location not specified in search results, but serves Rock Springs, WY)",
    "phone": "",
    "rating": 4.0,
    "reviews": 25,
    "website": "https://wyofaction.com/",
    "category": "Black-owned Self-defense in Wyoming",
    "description": "Offers Brazilian Jiu Jitsu instruction, Mixed Martial Arts training, and Yoga classes",
    "hours": "Mon-Fri 9AM-6PM",
    "services": [
      "Black-owned Self-defense in Wyoming consultation",
      "Professional service",
      "Quality guarantee"
    ],
    "social_links": {}
  },
  {
    "name": "Beyond Defense, LLC",
    "address": "(Online business, no physical address provided in search results)",
    "phone": "",
    "rating": 4.0,
    "reviews": 25,
    "website": "https://beyonddefensellc.com/",
    "category": "Black-owned Self-defense in Wyoming",
    "description": "A Black, family-owned, female-owned safety company that sells self-defense tools and teaches self-defense, with a mission to empower women",
    "hours": "Mon-Fri 9AM-6PM",
    "services": [
      "Black-owned Self-defense in Wyoming consultation",
      "Professional service",
      "Quality guarantee"
    ],
    "social_links": {}
  },
  {
    "name": "Safariland",
    "address": "1855 S. Loop, Casper, WY 82602-0248",
    "phone": "(307) 235-2136",
    "rating": 4.0,
    "reviews": 25,
    "website": "http://www.defense-technology.com",
    "category": "Black-owned Self-defense in Wyoming",
    "description": "Primarily a manufacturer of self-defense products and law enforcement equipment",
    "hours": "Mon-Fri 9AM-6PM",
    "services": [
      "Black-owned Self-defense in Wyoming consultation",
      "Professional service",
      "Quality guarantee"
    ],
    "social_links": {}
  },
  {
    "name": "Wyoming Montana Safety Council",
    "address": "(Location not specified in search results, but serves Cheyenne, WY)",
    "phone": "(307) 635-4592",
    "rating": 4.0,
    "reviews": 25,
    "website": "https://www.wyomontanasafetycouncil.org/",
    "category": "Black-owned Self-defense in Wyoming",
    "description": "Offers various safety courses, including some that may touch upon personal safety and awareness",
    "hours": "Mon-Fri 9AM-6PM",
    "services": [
      "Black-owned Self-defense in Wyoming consultation",
      "Professional service",
      "Quality guarantee"
    ],
    "social_links": {}
  }
]