[
  {
    "name": "Village Dermatology",
    "address": "2900 Cahaba Rd, Birmingham, AL 35223",
    "phone": "(205) 822-8000",
    "rating": 4.8,
    "reviews": 25,
    "website": "https://villagedermatology.net/",
    "category": "American-Indian-owned Dermatologists in Alabama",
    "description": "Offers a comprehensive range of dermatological services with a focus on patient care and advanced treatments",
    "hours": "Mon-Fri 9AM-6PM",
    "services": [
      "American-Indian-owned Dermatologists in Alabama consultation",
      "Professional service",
      "Quality guarantee"
    ],
    "social_links": {}
  },
  {
    "name": "Ginsburg Dermatology Center",
    "address": "3017 4th Ave S, Birmingham, AL 35233",
    "phone": "(205) 209-4780",
    "rating": 4.7,
    "reviews": 25,
    "website": "https://www.ginsburgdermatology.com/",
    "category": "American-Indian-owned Dermatologists in Alabama",
    "description": "Provides medical, cosmetic, and spa treatments with over 40 years of experience",
    "hours": "Mon-Fri 9AM-6PM",
    "services": [
      "American-Indian-owned Dermatologists in Alabama consultation",
      "Professional service",
      "Quality guarantee"
    ],
    "social_links": {}
  },
  {
    "name": "River Region Dermatology & Laser",
    "address": "3405 Harrison Rd, Montgomery, AL 36109",
    "phone": "(334) 676-3366",
    "rating": 4.8,
    "reviews": 25,
    "website": "https://www.riverregionderm.com/",
    "category": "American-Indian-owned Dermatologists in Alabama",
    "description": "Offers comprehensive skin care services, including medical, cosmetic, and laser surgery",
    "hours": "Mon-Fri 9AM-6PM",
    "services": [
      "American-Indian-owned Dermatologists in Alabama consultation",
      "Professional service",
      "Quality guarantee"
    ],
    "social_links": {}
  },
  {
    "name": "Associated Dermatologists",
    "address": "7120 Chalkville Rd, Trussville, AL 35173",
    "phone": "(205) 853-3960",
    "rating": 4.6,
    "reviews": 25,
    "website": "https://www.associateddermatologists.com/",
    "category": "American-Indian-owned Dermatologists in Alabama",
    "description": "Specializes in general medical, surgical, and cosmetic dermatology with board-certified physicians",
    "hours": "Mon-Fri 9AM-6PM",
    "services": [
      "American-Indian-owned Dermatologists in Alabama consultation",
      "Professional service",
      "Quality guarantee"
    ],
    "social_links": {}
  },
  {
    "name": "Alabama Dermatology and Skin Specialists",
    "address": "2045 Cecil Ashburn Dr SE, Suite 201, Huntsville, AL 35802",
    "phone": "(256) 925-3376",
    "rating": 4.7,
    "reviews": 25,
    "website": "https://www.aladerm.com/",
    "category": "American-Indian-owned Dermatologists in Alabama",
    "description": "Provides accessible and convenient medical and surgical dermatological care with multiple locations",
    "hours": "Mon-Fri 9AM-6PM",
    "services": [
      "American-Indian-owned Dermatologists in Alabama consultation",
      "Professional service",
      "Quality guarantee"
    ],
    "social_links": {}
  },
  {
    "name": "Alabama Dermatology Associates, P.C.",
    "address": "1400 University Blvd E, Suite 100, Tuscaloosa, AL 35401",
    "phone": "(205) 553-2300",
    "rating": 4.7,
    "reviews": 25,
    "website": "https://www.alabamadermatologyassociates.com/",
    "category": "American-Indian-owned Dermatologists in Alabama",
    "description": "Offers comprehensive and personalized dermatology care for all ages in a professional and caring environment",
    "hours": "Mon-Fri 9AM-6PM",
    "services": [
      "American-Indian-owned Dermatologists in Alabama consultation",
      "Professional service",
      "Quality guarantee"
    ],
    "social_links": {}
  },
  {
    "name": "Skin Wellness Center of Alabama",
    "address": "2300 11th Ave S, Suite 500, Birmingham, AL 35205",
    "phone": "(205) 871-7330",
    "rating": 4.8,
    "reviews": 25,
    "website": "https://skinwellnessal.com/",
    "category": "American-Indian-owned Dermatologists in Alabama",
    "description": "Features board-certified dermatologists specializing in medical, surgical, and cosmetic dermatology",
    "hours": "Mon-Fri 9AM-6PM",
    "services": [
      "American-Indian-owned Dermatologists in Alabama consultation",
      "Professional service",
      "Quality guarantee"
    ],
    "social_links": {}
  },
  {
    "name": "Naaman Clinic Surgical Dermatology",
    "address": "6234 Tattersall Blvd, Birmingham, AL 35242",
    "phone": "(205) 453-4195",
    "rating": 4.7,
    "reviews": 25,
    "website": "https://naamanclinic.com/",
    "category": "American-Indian-owned Dermatologists in Alabama",
    "description": "A surgical dermatology clinic offering a range of medical laser and cosmetic procedures",
    "hours": "Mon-Fri 9AM-6PM",
    "services": [
      "American-Indian-owned Dermatologists in Alabama consultation",
      "Professional service",
      "Quality guarantee"
    ],
    "social_links": {}
  },
  {
    "name": "Advanced Dermatology and Skin Care Centre",
    "address": "1010 N Main St, Bay Minette, AL 36507",
    "phone": "(251) 937-0123",
    "rating": 4.6,
    "reviews": 25,
    "website": "https://www.advancedderm.com/",
    "category": "American-Indian-owned Dermatologists in Alabama",
    "description": "Provides comprehensive dermatological services with a focus on patient confidence and skin health",
    "hours": "Mon-Fri 9AM-6PM",
    "services": [
      "American-Indian-owned Dermatologists in Alabama consultation",
      "Professional service",
      "Quality guarantee"
    ],
    "social_links": {}
  },
  {
    "name": "Cahaba Dermatology & Skin Health Center",
    "address": "4900 Cahaba River Rd, Suite 100, Birmingham, AL 35243",
    "phone": "(205) 408-0100",
    "rating": 4.7,
    "reviews": 25,
    "website": "https://cahabaderm.com/",
    "category": "American-Indian-owned Dermatologists in Alabama",
    "description": "Offers advanced medical, surgical, and cosmetic dermatology with a personalized approach",
    "hours": "Mon-Fri 9AM-6PM",
    "services": [
      "American-Indian-owned Dermatologists in Alabama consultation",
      "Professional service",
      "Quality guarantee"
    ],
    "social_links": {}
  }
]