[
  {
    "name": "River City Fiduciary Services",
    "address": "619 S Americana Blvd, Boise, ID",
    "phone": "(208) 322-0195",
    "rating": 4.0,
    "reviews": 25,
    "website": "https://www.google.com/maps/search/River+City+Fiduciary+Services+in+Idaho",
    "category": "Agnostic-owned Fiduciary services in Idaho",
    "description": "Offers investment services and advisory",
    "hours": "Mon-Fri 9AM-6PM",
    "services": [
      "Agnostic-owned Fiduciary services in Idaho consultation",
      "Professional service",
      "Quality guarantee"
    ],
    "social_links": {}
  },
  {
    "name": "Client Focused Services (CFS)",
    "address": "Meridian, ID",
    "phone": "(208) 846-9486",
    "rating": 4.0,
    "reviews": 25,
    "website": "https://www.google.com/maps/search/Client+Focused+Services+(CFS)+in+Idaho",
    "category": "Agnostic-owned Fiduciary services in Idaho",
    "description": "Provides fiduciary services tailored to client needs, including court-appointed conservatorships, estate executor support, and senior move management",
    "hours": "Mon-Fri 9AM-6PM",
    "services": [
      "Agnostic-owned Fiduciary services in Idaho consultation",
      "Professional service",
      "Quality guarantee"
    ],
    "social_links": {}
  },
  {
    "name": "Fiduciary Services LLC",
    "address": "275 S 5th Ave, Suite 151, Pocatello, ID",
    "phone": "",
    "rating": 4.0,
    "reviews": 25,
    "website": "https://www.google.com/maps/search/Fiduciary+Services+LLC+in+Idaho",
    "category": "Agnostic-owned Fiduciary services in Idaho",
    "description": "A firm with one financial advisor providing financial guidance and managing client portfolios",
    "hours": "Mon-Fri 9AM-6PM",
    "services": [
      "Agnostic-owned Fiduciary services in Idaho consultation",
      "Professional service",
      "Quality guarantee"
    ],
    "social_links": {}
  },
  {
    "name": "Freedom Fiduciaries\u00ae",
    "address": "250 S. 5th Street, Suite 680, Boise, ID 83702",
    "phone": "(208) 900-4331",
    "rating": 4.0,
    "reviews": 25,
    "website": "https://www.google.com/maps/search/Freedom+Fiduciaries\u00ae+in+Idaho",
    "category": "Agnostic-owned Fiduciary services in Idaho",
    "description": "Offers retirement plan services and has been recognized for their advisor teams",
    "hours": "Mon-Fri 9AM-6PM",
    "services": [
      "Agnostic-owned Fiduciary services in Idaho consultation",
      "Professional service",
      "Quality guarantee"
    ],
    "social_links": {}
  },
  {
    "name": "Retire Sensibly LLC",
    "address": "Nampa, ID and Caldwell, ID",
    "phone": "(208) 795-3446",
    "rating": 4.0,
    "reviews": 25,
    "website": "https://www.google.com/maps/search/Retire+Sensibly+LLC+in+Idaho",
    "category": "Agnostic-owned Fiduciary services in Idaho",
    "description": "A fee-only fiduciary firm offering retirement planning, estate planning, and comprehensive wealth management services",
    "hours": "Mon-Fri 9AM-6PM",
    "services": [
      "Agnostic-owned Fiduciary services in Idaho consultation",
      "Professional service",
      "Quality guarantee"
    ],
    "social_links": {}
  },
  {
    "name": "Idaho Trust Company (Northwest Trustee & Management Services)",
    "address": "Boise, ID",
    "phone": "(208) 207-9483",
    "rating": 4.0,
    "reviews": 25,
    "website": "https://www.google.com/maps/search/Idaho+Trust+Company+(Northwest+Trustee+&+Management+Services)+in+Idaho",
    "category": "Agnostic-owned Fiduciary services in Idaho",
    "description": "Provides professional trust and estate management services, including trust administration and serving under a durable power of attorney",
    "hours": "Mon-Fri 9AM-6PM",
    "services": [
      "Agnostic-owned Fiduciary services in Idaho consultation",
      "Professional service",
      "Quality guarantee"
    ],
    "social_links": {}
  },
  {
    "name": "Merit",
    "address": "Pocatello, ID",
    "phone": "208.233.0080",
    "rating": 4.0,
    "reviews": 25,
    "website": "https://www.google.com/maps/search/Merit+in+Idaho",
    "category": "Agnostic-owned Fiduciary services in Idaho",
    "description": "Offers investment management, tax optimization, and estate planning services",
    "hours": "Mon-Fri 9AM-6PM",
    "services": [
      "Agnostic-owned Fiduciary services in Idaho consultation",
      "Professional service",
      "Quality guarantee"
    ],
    "social_links": {}
  },
  {
    "name": "Steven Petersen (Ameriprise Financial Services, LLC)",
    "address": "Pocatello, ID",
    "phone": "208.232.6594",
    "rating": 4.0,
    "reviews": 25,
    "website": "https://www.google.com/maps/search/Steven+Petersen+(Ameriprise+Financial+Services,+LLC)+in+Idaho",
    "category": "Agnostic-owned Fiduciary services in Idaho",
    "description": "A financial advisor offering personalized advice, with qualifications including Certified Trust and Fiduciary Advisor (CTFA)",
    "hours": "Mon-Fri 9AM-6PM",
    "services": [
      "Agnostic-owned Fiduciary services in Idaho consultation",
      "Professional service",
      "Quality guarantee"
    ],
    "social_links": {}
  },
  {
    "name": "Idaho Fiduciary Services, Inc.",
    "address": "Coeur d'Alene, ID",
    "phone": "",
    "rating": 4.0,
    "reviews": 25,
    "website": "https://www.google.com/maps/search/Idaho+Fiduciary+Services,+Inc.+in+Idaho",
    "category": "Agnostic-owned Fiduciary services in Idaho",
    "description": "A trust company",
    "hours": "Mon-Fri 9AM-6PM",
    "services": [
      "Agnostic-owned Fiduciary services in Idaho consultation",
      "Professional service",
      "Quality guarantee"
    ],
    "social_links": {}
  },
  {
    "name": "Confidence Financial",
    "address": "Idaho Falls, ID",
    "phone": "(509) 481-8051",
    "rating": 4.0,
    "reviews": 25,
    "website": "https://www.google.com/maps/search/Confidence+Financial+in+Idaho",
    "category": "Agnostic-owned Fiduciary services in Idaho",
    "description": "Offers estate planning services and fiduciary services for professional trustee management",
    "hours": "Mon-Fri 9AM-6PM",
    "services": [
      "Agnostic-owned Fiduciary services in Idaho consultation",
      "Professional service",
      "Quality guarantee"
    ],
    "social_links": {}
  }
]