[
  {
    "name": "1st Geer Driving School",
    "address": "Bismarck, ND 58503",
    "phone": "(701) 989-3707",
    "rating": 4.0,
    "reviews": 25,
    "website": "https://www.1stgeerdrivingschool.com/",
    "category": "Central-American-owned Adult driving lessons in North-Dakota",
    "description": "Offers driving lessons for all ages, including adult lessons, and provides a road test waiver",
    "hours": "Mon-Fri 9AM-6PM",
    "services": [
      "Central-American-owned Adult driving lessons in North-Dakota consultation",
      "Professional service",
      "Quality guarantee"
    ],
    "social_links": {}
  },
  {
    "name": "Big O's Driving School",
    "address": "Bismarck, ND 58503",
    "phone": "(701) 400-7540",
    "rating": 4.0,
    "reviews": 25,
    "website": "https://www.google.com/maps/search/Big+O's+Driving+School+North+Dakota",
    "category": "Central-American-owned Adult driving lessons in North-Dakota",
    "description": "Listed as an approved driver training school by the NDDOT",
    "hours": "Mon-Fri 9AM-6PM",
    "services": [
      "Central-American-owned Adult driving lessons in North-Dakota consultation",
      "Professional service",
      "Quality guarantee"
    ],
    "social_links": {}
  },
  {
    "name": "Capital Driving School",
    "address": "Bismarck, ND 58504",
    "phone": "(701) 318-1246",
    "rating": 4.0,
    "reviews": 25,
    "website": "https://www.google.com/maps/search/Capital+Driving+School+North+Dakota",
    "category": "Central-American-owned Adult driving lessons in North-Dakota",
    "description": "Listed as an approved driver training school by the NDDOT",
    "hours": "Mon-Fri 9AM-6PM",
    "services": [
      "Central-American-owned Adult driving lessons in North-Dakota consultation",
      "Professional service",
      "Quality guarantee"
    ],
    "social_links": {}
  },
  {
    "name": "Dave's Dakota Driving School",
    "address": "Bismarck, ND 58501",
    "phone": "(701) 527-0785",
    "rating": 4.0,
    "reviews": 25,
    "website": "https://www.google.com/maps/search/Dave's+Dakota+Driving+School+North+Dakota",
    "category": "Central-American-owned Adult driving lessons in North-Dakota",
    "description": "Listed as an approved driver training school by the NDDOT",
    "hours": "Mon-Fri 9AM-6PM",
    "services": [
      "Central-American-owned Adult driving lessons in North-Dakota consultation",
      "Professional service",
      "Quality guarantee"
    ],
    "social_links": {}
  },
  {
    "name": "Don's Driving School",
    "address": "Bismarck, ND 58501",
    "phone": "(701) 223-5304",
    "rating": 4.0,
    "reviews": 25,
    "website": "https://www.google.com/maps/search/Don's+Driving+School+North+Dakota",
    "category": "Central-American-owned Adult driving lessons in North-Dakota",
    "description": "Listed as an approved driver training school by the NDDOT",
    "hours": "Mon-Fri 9AM-6PM",
    "services": [
      "Central-American-owned Adult driving lessons in North-Dakota consultation",
      "Professional service",
      "Quality guarantee"
    ],
    "social_links": {}
  },
  {
    "name": "Cooper Driving Academy",
    "address": "Burlington, ND 58722",
    "phone": "(701) 263-5423",
    "rating": 4.0,
    "reviews": 25,
    "website": "https://www.google.com/maps/search/Cooper+Driving+Academy+North+Dakota",
    "category": "Central-American-owned Adult driving lessons in North-Dakota",
    "description": "Listed as an approved driver training school by the NDDOT",
    "hours": "Mon-Fri 9AM-6PM",
    "services": [
      "Central-American-owned Adult driving lessons in North-Dakota consultation",
      "Professional service",
      "Quality guarantee"
    ],
    "social_links": {}
  },
  {
    "name": "DM Driving School",
    "address": "Dickinson, ND 58601",
    "phone": "(701) 405-3108",
    "rating": 4.0,
    "reviews": 25,
    "website": "https://www.google.com/maps/search/DM+Driving+School+North+Dakota",
    "category": "Central-American-owned Adult driving lessons in North-Dakota",
    "description": "Listed as an approved driver training school by the NDDOT",
    "hours": "Mon-Fri 9AM-6PM",
    "services": [
      "Central-American-owned Adult driving lessons in North-Dakota consultation",
      "Professional service",
      "Quality guarantee"
    ],
    "social_links": {}
  },
  {
    "name": "Xcell Driving School",
    "address": "Fargo, ND 58104",
    "phone": "(701) 232-1200",
    "rating": 4.0,
    "reviews": 25,
    "website": "https://www.google.com/maps/search/Xcell+Driving+School+North+Dakota",
    "category": "Central-American-owned Adult driving lessons in North-Dakota",
    "description": "Listed as an approved driver training school by the NDDOT",
    "hours": "Mon-Fri 9AM-6PM",
    "services": [
      "Central-American-owned Adult driving lessons in North-Dakota consultation",
      "Professional service",
      "Quality guarantee"
    ],
    "social_links": {}
  },
  {
    "name": "Varsity Driving Academy",
    "address": "West Fargo, ND 58078",
    "phone": "(701) 261-9799",
    "rating": 4.0,
    "reviews": 25,
    "website": "https://varsitydrivingacademy.com/",
    "category": "Central-American-owned Adult driving lessons in North-Dakota",
    "description": "Offers safe, professional behind-the-wheel training and online driver's education, with road test waivers available",
    "hours": "Mon-Fri 9AM-6PM",
    "services": [
      "Central-American-owned Adult driving lessons in North-Dakota consultation",
      "Professional service",
      "Quality guarantee"
    ],
    "social_links": {}
  },
  {
    "name": "Forks Drive-Right",
    "address": "Grand Forks, ND 58201",
    "phone": "(701) 740-9951",
    "rating": 4.0,
    "reviews": 25,
    "website": "https://www.google.com/maps/search/Forks+Drive-Right+North+Dakota",
    "category": "Central-American-owned Adult driving lessons in North-Dakota",
    "description": "Award-winning driving school with experienced instructors offering comprehensive curriculum and flexible scheduling",
    "hours": "Mon-Fri 9AM-6PM",
    "services": [
      "Central-American-owned Adult driving lessons in North-Dakota consultation",
      "Professional service",
      "Quality guarantee"
    ],
    "social_links": {}
  }
]