[
  {
    "name": "Momentum Private Wealth Management",
    "address": "Cedar Park, Texas (Specific street address not publicly available, but serves clients nationwide)",
    "phone": "(512) 520-5400",
    "rating": 4.0,
    "reviews": 25,
    "website": "https://www.momentum PWM.com/",
    "category": "Agnostic-owned Wealth management in Texas",
    "description": "A fee-only fiduciary firm offering financial planning, investment management, and retirement strategies",
    "hours": "Mon-Fri 9AM-6PM",
    "services": [
      "Agnostic-owned Wealth management in Texas consultation",
      "Professional service",
      "Quality guarantee"
    ],
    "social_links": {}
  },
  {
    "name": "North Texas Wealth Management",
    "address": "Allen, Texas (Specific street address not publicly available)",
    "phone": "(972) 521-7743",
    "rating": 4.0,
    "reviews": 25,
    "website": "https://www.ntxwealth.com/",
    "category": "Agnostic-owned Wealth management in Texas",
    "description": "Offers a fee-based approach with services including financial planning and investment management, aiming to align compensation with client interests",
    "hours": "Mon-Fri 9AM-6PM",
    "services": [
      "Agnostic-owned Wealth management in Texas consultation",
      "Professional service",
      "Quality guarantee"
    ],
    "social_links": {}
  },
  {
    "name": "True North Advisors",
    "address": "Multiple locations including Austin, Dallas, Fort Worth, and Kerrville, Texas. (Specific street addresses not publicly available)",
    "phone": "(214) 522-4000",
    "rating": 4.0,
    "reviews": 25,
    "website": "https://www.truenorthadvisors.com/",
    "category": "Agnostic-owned Wealth management in Texas",
    "description": "A privately held multi-family office and wealth management business serving entrepreneurs and families with comprehensive wealth planning and investment management",
    "hours": "Mon-Fri 9AM-6PM",
    "services": [
      "Agnostic-owned Wealth management in Texas consultation",
      "Professional service",
      "Quality guarantee"
    ],
    "social_links": {}
  },
  {
    "name": "Mariner Wealth Advisors",
    "address": "Multiple locations across Texas and nationwide. (Specific street addresses not publicly available)",
    "phone": "(800) 677-2550",
    "rating": 4.0,
    "reviews": 25,
    "website": "https://www.marinerwealthadvisors.com/",
    "category": "Agnostic-owned Wealth management in Texas",
    "description": "Offers comprehensive wealth management services, including investments, taxes, estate planning, and insurance solutions, acting as a fiduciary",
    "hours": "Mon-Fri 9AM-6PM",
    "services": [
      "Agnostic-owned Wealth management in Texas consultation",
      "Professional service",
      "Quality guarantee"
    ],
    "social_links": {}
  },
  {
    "name": "Post Oak Private Wealth Advisors",
    "address": "Houston, Texas (Specific street address not publicly available)",
    "phone": "(713) 552-3777",
    "rating": 4.0,
    "reviews": 25,
    "website": "https://www.postoakprivatewealth.com/",
    "category": "Agnostic-owned Wealth management in Texas",
    "description": "A specialized, fiduciary firm with expertise in retirement distribution planning, tax optimization, and risk-managed investing",
    "hours": "Mon-Fri 9AM-6PM",
    "services": [
      "Agnostic-owned Wealth management in Texas consultation",
      "Professional service",
      "Quality guarantee"
    ],
    "social_links": {}
  },
  {
    "name": "Texas Wealth Management, LLC",
    "address": "(Specific location in Texas not detailed in search results)",
    "phone": "(800) 701-9111",
    "rating": 4.0,
    "reviews": 25,
    "website": "https://www.texaswealthmanagement.com/",
    "category": "Agnostic-owned Wealth management in Texas",
    "description": "An independent financial advisory firm committed to providing personal and professional financial planning services with a common-sense, tax-efficient approach",
    "hours": "Mon-Fri 9AM-6PM",
    "services": [
      "Agnostic-owned Wealth management in Texas consultation",
      "Professional service",
      "Quality guarantee"
    ],
    "social_links": {}
  },
  {
    "name": "Financial Synergies Wealth Advisors",
    "address": "Houston, Texas (Specific street address not publicly available)",
    "phone": "(713) 784-0000",
    "rating": 4.0,
    "reviews": 25,
    "website": "https://www.financialsynergies.com/",
    "category": "Agnostic-owned Wealth management in Texas",
    "description": "A fee-only, fiduciary wealth management firm specializing in comprehensive financial planning and investment management",
    "hours": "Mon-Fri 9AM-6PM",
    "services": [
      "Agnostic-owned Wealth management in Texas consultation",
      "Professional service",
      "Quality guarantee"
    ],
    "social_links": {}
  },
  {
    "name": "Cresset Private Wealth Management",
    "address": "Multiple locations including Austin, Dallas, Fort Worth, and Kerrville, Texas. (Specific street addresses not publicly available)",
    "phone": "(800) 348-4000",
    "rating": 4.0,
    "reviews": 25,
    "website": "https://www.cressetcapital.com/",
    "category": "Agnostic-owned Wealth management in Texas",
    "description": "A family office and private wealth management firm for entrepreneurs and UHNW families, operating under true fiduciary standards with transparent costs",
    "hours": "Mon-Fri 9AM-6PM",
    "services": [
      "Agnostic-owned Wealth management in Texas consultation",
      "Professional service",
      "Quality guarantee"
    ],
    "social_links": {}
  },
  {
    "name": "Keener Financial Planning",
    "address": "Dallas, Fort Worth, and Keller, Texas (Specific street addresses not publicly available)",
    "phone": "(817) 993-0401",
    "rating": 4.0,
    "reviews": 25,
    "website": "https://www.keenerfinancial.com/",
    "category": "Agnostic-owned Wealth management in Texas",
    "description": "A fee-only Certified Financial Planner providing tailored financial planning services for individuals and families",
    "hours": "Mon-Fri 9AM-6PM",
    "services": [
      "Agnostic-owned Wealth management in Texas consultation",
      "Professional service",
      "Quality guarantee"
    ],
    "social_links": {}
  },
  {
    "name": "Freshfield Investments",
    "address": "1800 Preston Park Blvd, Suite 105, Plano, Texas 75093",
    "phone": "(469) 733-0700",
    "rating": 4.0,
    "reviews": 25,
    "website": "https://www.freshfieldinvestments.com/",
    "category": "Agnostic-owned Wealth management in Texas",
    "description": "A fee-only, fiduciary investment manager and financial planner serving clients locally and nationwide, with a focus on putting client interests first",
    "hours": "Mon-Fri 9AM-6PM",
    "services": [
      "Agnostic-owned Wealth management in Texas consultation",
      "Professional service",
      "Quality guarantee"
    ],
    "social_links": {}
  }
]