[
  {
    "name": "Premier Staffing",
    "address": "1433 University Ave W, St Paul, MN 55104",
    "phone": "(651) 645-3300",
    "rating": 4.0,
    "reviews": 25,
    "website": "https://www.premierstaff.com/",
    "category": "Asian-owned Temporary staffing in Minnesota",
    "description": "Premier Staffing aims to be a top Asian-minority-owned staffing company in the Twin Cities, focusing on matching employees with employers",
    "hours": "Mon-Fri 9AM-6PM",
    "services": [
      "Asian-owned Temporary staffing in Minnesota consultation",
      "Professional service",
      "Quality guarantee"
    ],
    "social_links": {}
  },
  {
    "name": "Hmong American Partnership (HAP)",
    "address": "150 W Sycamore St, St Paul, MN 55117",
    "phone": "(612) 294-2460",
    "rating": 4.0,
    "reviews": 25,
    "website": "https://www.hmong.org/",
    "category": "Asian-owned Temporary staffing in Minnesota",
    "description": "HAP offers employment placement services, focusing on refugee and immigrant communities, including Hmong, Karen, Somali, and Bhutanese individuals",
    "hours": "Mon-Fri 9AM-6PM",
    "services": [
      "Asian-owned Temporary staffing in Minnesota consultation",
      "Professional service",
      "Quality guarantee"
    ],
    "social_links": {}
  },
  {
    "name": "Talen7 Workforce",
    "address": "Not specified, but listed as an Asian-owned staffing firm",
    "phone": "",
    "rating": 5.0,
    "reviews": 25,
    "website": "https://www.google.com/maps/search/Talen7+Workforce+in+Minnesota",
    "category": "Asian-owned Temporary staffing in Minnesota",
    "description": "Talen7 Workforce is a management consulting company known for its expertise in business restructuring and strategic rebranding, with a focus on staffing",
    "hours": "Mon-Fri 9AM-6PM",
    "services": [
      "Asian-owned Temporary staffing in Minnesota consultation",
      "Professional service",
      "Quality guarantee"
    ],
    "social_links": {}
  },
  {
    "name": "Insight Global - Duluth",
    "address": "4504 Grand Ave Suite 1, Duluth, MN 55807",
    "phone": "(218) 722-8003",
    "rating": 4.0,
    "reviews": 25,
    "website": "https://www.insightglobal.com/locations/duluth-mn/",
    "category": "Asian-owned Temporary staffing in Minnesota",
    "description": "Insight Global is a staffing and temp agency serving Duluth, with expertise in various industries",
    "hours": "Mon-Fri 9AM-6PM",
    "services": [
      "Asian-owned Temporary staffing in Minnesota consultation",
      "Professional service",
      "Quality guarantee"
    ],
    "social_links": {}
  },
  {
    "name": "Insight Global - Rochester",
    "address": "1032 15th Ave. S.E., Rochester, MN 55904",
    "phone": "(507) 292-6692",
    "rating": 4.0,
    "reviews": 25,
    "website": "https://www.insightglobal.com/locations/rochester-mn/",
    "category": "Asian-owned Temporary staffing in Minnesota",
    "description": "Insight Global is a leading recruiting and staffing agency supporting Rochester's businesses and job seekers",
    "hours": "Mon-Fri 9AM-6PM",
    "services": [
      "Asian-owned Temporary staffing in Minnesota consultation",
      "Professional service",
      "Quality guarantee"
    ],
    "social_links": {}
  },
  {
    "name": "Insight Global - St. Paul",
    "address": "Not specified, but serves the St. Paul area",
    "phone": "",
    "rating": 4.0,
    "reviews": 25,
    "website": "https://www.insightglobal.com/locations/st-paul-mn/",
    "category": "Asian-owned Temporary staffing in Minnesota",
    "description": "Insight Global is a staffing and temp agency serving St. Paul, offering a range of solutions from recruiting to professional services",
    "hours": "Mon-Fri 9AM-6PM",
    "services": [
      "Asian-owned Temporary staffing in Minnesota consultation",
      "Professional service",
      "Quality guarantee"
    ],
    "social_links": {}
  },
  {
    "name": "Masterson Staffing - Rochester",
    "address": "Not specified, but serves Rochester, MN",
    "phone": "(507) 252-8481",
    "rating": 4.0,
    "reviews": 25,
    "website": "https://www.mastersonstaffing.com/locations/rochester-mn/",
    "category": "Asian-owned Temporary staffing in Minnesota",
    "description": "Masterson is a staffing agency in Rochester, MN, providing temporary, temp-to-hire, and direct hire services",
    "hours": "Mon-Fri 9AM-6PM",
    "services": [
      "Asian-owned Temporary staffing in Minnesota consultation",
      "Professional service",
      "Quality guarantee"
    ],
    "social_links": {}
  },
  {
    "name": "Spherion - Duluth",
    "address": "4504 Grand Avenue Suite 1, Duluth, MN 55807",
    "phone": "(218) 722-8003",
    "rating": 4.0,
    "reviews": 25,
    "website": "https://www.spherion.com/locations/duluth-mn/",
    "category": "Asian-owned Temporary staffing in Minnesota",
    "description": "Spherion's Duluth staffing agency focuses on temporary staffing, temp-to-hire, and direct hiring, with local market insights",
    "hours": "Mon-Fri 9AM-6PM",
    "services": [
      "Asian-owned Temporary staffing in Minnesota consultation",
      "Professional service",
      "Quality guarantee"
    ],
    "social_links": {}
  },
  {
    "name": "Atlas Staffing",
    "address": "1660 W University Ave, St Paul, MN 55104",
    "phone": "(651) 774-3301",
    "rating": 5.0,
    "reviews": 25,
    "website": "https://www.atlasstaffing.net/",
    "category": "Asian-owned Temporary staffing in Minnesota",
    "description": "Atlas Staffing is a locally owned staffing agency in the Twin Cities, helping people find employment",
    "hours": "Mon-Fri 9AM-6PM",
    "services": [
      "Asian-owned Temporary staffing in Minnesota consultation",
      "Professional service",
      "Quality guarantee"
    ],
    "social_links": {}
  },
  {
    "name": "Global Employment Solutions Inc. (GESI)",
    "address": "1032 15th Ave. S.E., Rochester, MN 55904",
    "phone": "(507) 292-6692",
    "rating": 4.0,
    "reviews": 25,
    "website": "https://www.gesistaffing.com/",
    "category": "Asian-owned Temporary staffing in Minnesota",
    "description": "Global Employment Solutions Inc. provides staffing services for businesses and job seekers in Rochester, MN",
    "hours": "Mon-Fri 9AM-6PM",
    "services": [
      "Asian-owned Temporary staffing in Minnesota consultation",
      "Professional service",
      "Quality guarantee"
    ],
    "social_links": {}
  }
]