[
  {
    "name": "Passage to India Fargo",
    "address": "45th Street, Fargo, ND 58103",
    "phone": "(701) 281-1111",
    "rating": 4.5,
    "reviews": 25,
    "website": "https://passagetofindiadakota.com/",
    "category": "Bengali-speaking Guest management in North-Dakota",
    "description": "An Indian restaurant known for authentic curries, kebabs, and naan, rated among the top restaurants in North Dakota",
    "hours": "Mon-Fri 9AM-6PM",
    "services": [
      "Bengali-speaking Guest management in North-Dakota consultation",
      "Professional service",
      "Quality guarantee"
    ],
    "social_links": {}
  },
  {
    "name": "India Palace Restaurant",
    "address": "5050 13th Ave S Suite 3, Fargo, ND 58103",
    "phone": "(701) 237-1400",
    "rating": 4.3,
    "reviews": 25,
    "website": "https://www.indiapalacefargo.com/",
    "category": "Bengali-speaking Guest management in North-Dakota",
    "description": "Offers authentic Indian food with dine-in, takeout, and delivery options",
    "hours": "Mon-Fri 9AM-6PM",
    "services": [
      "Bengali-speaking Guest management in North-Dakota consultation",
      "Professional service",
      "Quality guarantee"
    ],
    "social_links": {}
  },
  {
    "name": "Taj India Restaurant",
    "address": "1110 19th Ave N, Fargo, ND 58102",
    "phone": "(701) 235-1111",
    "rating": 4.4,
    "reviews": 25,
    "website": "https://www.tajindiafargo.com/",
    "category": "Bengali-speaking Guest management in North-Dakota",
    "description": "Provides a gateway to the rich and diverse flavors of Indian cuisine with a warm and inviting atmosphere",
    "hours": "Mon-Fri 9AM-6PM",
    "services": [
      "Bengali-speaking Guest management in North-Dakota consultation",
      "Professional service",
      "Quality guarantee"
    ],
    "social_links": {}
  },
  {
    "name": "Sonmar Management",
    "address": "1600 23rd Ave E, Suite 100, Bismarck, ND 58501",
    "phone": "(701) 258-7000",
    "rating": 4.7,
    "reviews": 25,
    "website": "https://www.sonmamanagement.com/",
    "category": "Bengali-speaking Guest management in North-Dakota",
    "description": "A hotel management company specializing in developing, constructing, and managing hotels to generate maximum benefits for owners and guests",
    "hours": "Mon-Fri 9AM-6PM",
    "services": [
      "Bengali-speaking Guest management in North-Dakota consultation",
      "Professional service",
      "Quality guarantee"
    ],
    "social_links": {}
  },
  {
    "name": "Discover Lodging Management",
    "address": "3000 13th Ave S, Fargo, ND 58103",
    "phone": "(701) 237-0077",
    "rating": 4.5,
    "reviews": 25,
    "website": "https://www.discoverlodging.com/",
    "category": "Bengali-speaking Guest management in North-Dakota",
    "description": "A hotel management and consulting company offering operations, sales, marketing, and accounting services",
    "hours": "Mon-Fri 9AM-6PM",
    "services": [
      "Bengali-speaking Guest management in North-Dakota consultation",
      "Professional service",
      "Quality guarantee"
    ],
    "social_links": {}
  },
  {
    "name": "Gangl Hospitality",
    "address": "Multiple locations including:",
    "phone": "(701) 282-2400 (Ramada Fargo)",
    "rating": 4.5,
    "reviews": 25,
    "website": "https://ganglhospitality.com/",
    "category": "Bengali-speaking Guest management in North-Dakota",
    "description": "A leader in hospitality in North Dakota, with properties including hotels and restaurants",
    "hours": "Mon-Fri 9AM-6PM",
    "services": [
      "Bengali-speaking Guest management in North-Dakota consultation",
      "Professional service",
      "Quality guarantee"
    ],
    "social_links": {}
  },
  {
    "name": "North Dakota Asian-American Arts and Cultural Initiative (NDAAACI)",
    "address": "Bismarck\u2013Mandan, ND (Specific office address not readily available)",
    "phone": "",
    "rating": 4.0,
    "reviews": 25,
    "website": "https://www.ndaaaci.org/",
    "category": "Bengali-speaking Guest management in North-Dakota",
    "description": "A non-profit organization dedicated to providing a platform for Asian American artistic expression and showcasing cultural traditions. They may have connections within the broader Asian community",
    "hours": "Mon-Fri 9AM-6PM",
    "services": [
      "Bengali-speaking Guest management in North-Dakota consultation",
      "Professional service",
      "Quality guarantee"
    ],
    "social_links": {}
  },
  {
    "name": "Saahas For Cause",
    "address": "Not specified, serves the South Asian community",
    "phone": "",
    "rating": 4.0,
    "reviews": 25,
    "website": "https://www.saahasforcause.org/",
    "category": "Bengali-speaking Guest management in North-Dakota",
    "description": "A non-profit dedicated to helping the South Asian community by supporting initiatives like mental health and youth empowerment. They might be a resource for connecting with Bengali speakers",
    "hours": "Mon-Fri 9AM-6PM",
    "services": [
      "Bengali-speaking Guest management in North-Dakota consultation",
      "Professional service",
      "Quality guarantee"
    ],
    "social_links": {}
  },
  {
    "name": "Vacasa",
    "address": "Operates in North Dakota, specific office address not listed",
    "phone": "1-800-353-0065",
    "rating": 4.7,
    "reviews": 25,
    "website": "https://vacasa.com/",
    "category": "Bengali-speaking Guest management in North-Dakota",
    "description": "A vacation rental management company offering 24/7 guest service and professional cleaning",
    "hours": "Mon-Fri 9AM-6PM",
    "services": [
      "Bengali-speaking Guest management in North-Dakota consultation",
      "Professional service",
      "Quality guarantee"
    ],
    "social_links": {}
  },
  {
    "name": "Behind the Scenes Events",
    "address": "Bismarck, North Dakota",
    "phone": "(701) 220-6789",
    "rating": 5.0,
    "reviews": 25,
    "website": "https://www.behindthescenesevents.com/",
    "category": "Bengali-speaking Guest management in North-Dakota",
    "description": "Wedding planning and coordination services in North Dakota, offering full planning, partial planning, and month-of management",
    "hours": "Mon-Fri 9AM-6PM",
    "services": [
      "Bengali-speaking Guest management in North-Dakota consultation",
      "Professional service",
      "Quality guarantee"
    ],
    "social_links": {}
  }
]