[
  {
    "name": "Club Pilates Portsmouth",
    "address": "2454 Lafayette Rd., Unit 11, Portsmouth, NH 03801",
    "phone": "(603) 501-0001",
    "rating": 4.0,
    "reviews": 25,
    "website": "https://www.clubpilates.com/location/portsmouth",
    "category": "Buddhist-owned Pilates in New-Hampshire",
    "description": "Offers full-body, reformer-based Pilates classes with a contemporary approach",
    "hours": "Mon-Fri 9AM-6PM",
    "services": [
      "Buddhist-owned Pilates in New-Hampshire consultation",
      "Professional service",
      "Quality guarantee"
    ],
    "social_links": {}
  },
  {
    "name": "Dover Pilates",
    "address": "450 Central Ave, Suite 201, Dover, NH 03820",
    "phone": "(603) 516-4499",
    "rating": 4.0,
    "reviews": 25,
    "website": "https://doverpilates.com/",
    "category": "Buddhist-owned Pilates in New-Hampshire",
    "description": "An equipment-based Pilates studio offering group classes, private sessions, and duet sessions",
    "hours": "Mon-Fri 9AM-6PM",
    "services": [
      "Buddhist-owned Pilates in New-Hampshire consultation",
      "Professional service",
      "Quality guarantee"
    ],
    "social_links": {}
  },
  {
    "name": "Pilates, Etc.",
    "address": "117 Sanborn Rd, Tilton, NH 03276",
    "phone": "(603) 286-7777",
    "rating": 4.0,
    "reviews": 25,
    "website": "https://www.pilatesetc.com/",
    "category": "Buddhist-owned Pilates in New-Hampshire",
    "description": "Offers dynamic core-conditioning Pilates classes to improve stability, mobility, and agility",
    "hours": "Mon-Fri 9AM-6PM",
    "services": [
      "Buddhist-owned Pilates in New-Hampshire consultation",
      "Professional service",
      "Quality guarantee"
    ],
    "social_links": {}
  },
  {
    "name": "Copper Crane Pilates & Wellness",
    "address": "Windham, NH (Specific street address not publicly listed, operates as a private studio)",
    "phone": "(603) 540-1910",
    "rating": 4.0,
    "reviews": 25,
    "website": "https://www.coppercranepilates.com/",
    "category": "Buddhist-owned Pilates in New-Hampshire",
    "description": "A private Pilates studio focusing on private and small group classes, specializing in athletic training and post-rehabilitative recovery",
    "hours": "Mon-Fri 9AM-6PM",
    "services": [
      "Buddhist-owned Pilates in New-Hampshire consultation",
      "Professional service",
      "Quality guarantee"
    ],
    "social_links": {}
  },
  {
    "name": "Happy Place Pilates & Wellness",
    "address": "Manchester, NH (Specific street address not publicly listed)",
    "phone": "(603) 320-4004",
    "rating": 4.0,
    "reviews": 25,
    "website": "https://www.happyplacepilates.com/",
    "category": "Buddhist-owned Pilates in New-Hampshire",
    "description": "Offers classes, memberships, and community wellness with a holistic approach",
    "hours": "Mon-Fri 9AM-6PM",
    "services": [
      "Buddhist-owned Pilates in New-Hampshire consultation",
      "Professional service",
      "Quality guarantee"
    ],
    "social_links": {}
  },
  {
    "name": "Bending Bodhi Yoga & S\u014dl Yoga & Pilates",
    "address": "10 Franklin Plaza, Dover, NH 03820 (Bending Bodhi Yoga)",
    "phone": "(603) 842-5200",
    "rating": 5.0,
    "reviews": 25,
    "website": "https://bendingbodhi.com/",
    "category": "Buddhist-owned Pilates in New-Hampshire",
    "description": "While primarily a yoga studio, Bending Bodhi Yoga has a sister studio, S\u014dl Yoga & Pilates, offering Pilates classes",
    "hours": "Mon-Fri 9AM-6PM",
    "services": [
      "Buddhist-owned Pilates in New-Hampshire consultation",
      "Professional service",
      "Quality guarantee"
    ],
    "social_links": {}
  },
  {
    "name": "Ancient Healing Arts Yoga & T'ai Chi Studio",
    "address": "PO Box 735, Lebanon, NH 03766",
    "phone": "(603) 448-3000",
    "rating": 4.0,
    "reviews": 25,
    "website": "https://www.ancienthealingarts.com/",
    "category": "Buddhist-owned Pilates in New-Hampshire",
    "description": "Offers various yoga styles, including Pilates, prenatal yoga, and yoga for beginners",
    "hours": "Mon-Fri 9AM-6PM",
    "services": [
      "Buddhist-owned Pilates in New-Hampshire consultation",
      "Professional service",
      "Quality guarantee"
    ],
    "social_links": {}
  },
  {
    "name": "Aryaloka Buddhist Retreat Center",
    "address": "14 Heartwood Ln, Newmarket, NH 03857",
    "phone": "(603) 659-5456",
    "rating": 4.0,
    "reviews": 25,
    "website": "https://aryaloka.org/",
    "category": "Buddhist-owned Pilates in New-Hampshire",
    "description": "A retreat center offering classes and workshops in meditation, Buddhism, and yoga, part of the Triratna Buddhist Community",
    "hours": "Mon-Fri 9AM-6PM",
    "services": [
      "Buddhist-owned Pilates in New-Hampshire consultation",
      "Professional service",
      "Quality guarantee"
    ],
    "social_links": {}
  },
  {
    "name": "Portsmouth Buddhist Center",
    "address": "1233-B Greenland Rd, Greenland, NH 03840 (Note: The search result mentions Portsmouth, NH, but the address provided is in Greenland, NH)",
    "phone": "(603) 610-5111",
    "rating": 4.0,
    "reviews": 25,
    "website": "https://portsmouthbuddhistcenter.org/",
    "category": "Buddhist-owned Pilates in New-Hampshire",
    "description": "Offers courses, gatherings, and workshops in meditation, mindfulness, and Buddhism",
    "hours": "Mon-Fri 9AM-6PM",
    "services": [
      "Buddhist-owned Pilates in New-Hampshire consultation",
      "Professional service",
      "Quality guarantee"
    ],
    "social_links": {}
  },
  {
    "name": "Natural Dharma Fellowship",
    "address": "253 Philbrick Hill Road, Springfield, NH 03284",
    "phone": "(603) 763-0204",
    "rating": 4.0,
    "reviews": 25,
    "website": "https://naturaldharma.org/",
    "category": "Buddhist-owned Pilates in New-Hampshire",
    "description": "An organization of Buddhist practitioners offering meditation and study in the Tibetan traditions",
    "hours": "Mon-Fri 9AM-6PM",
    "services": [
      "Buddhist-owned Pilates in New-Hampshire consultation",
      "Professional service",
      "Quality guarantee"
    ],
    "social_links": {}
  }
]