[
  {
    "name": "Solberg Insurance Agency",
    "address": "101 Main St E, Frazee, MN 56544",
    "phone": "(218) 334-3000",
    "rating": 4.0,
    "reviews": 25,
    "website": "https://www.solberginsurance.com/",
    "category": "Bengali-speaking Travel insurance in Minnesota",
    "description": "Offers a variety of travel insurance options, including medical, trip cancellation, personal, and accidental death coverage",
    "hours": "Mon-Fri 9AM-6PM",
    "services": [
      "Bengali-speaking Travel insurance in Minnesota consultation",
      "Professional service",
      "Quality guarantee"
    ],
    "social_links": {}
  },
  {
    "name": "American Visitor Insurance",
    "address": "(Online services, no physical address listed for Minnesota)",
    "phone": "(800) 840-3454",
    "rating": 4.0,
    "reviews": 25,
    "website": "https://www.americanvisitorinsurance.com/",
    "category": "Bengali-speaking Travel insurance in Minnesota",
    "description": "Provides travel medical insurance for tourists and international travelers, with various plans like Atlas Premium, Safe Travels USA Comprehensive, Atlas America, and WorldMed",
    "hours": "Mon-Fri 9AM-6PM",
    "services": [
      "Bengali-speaking Travel insurance in Minnesota consultation",
      "Professional service",
      "Quality guarantee"
    ],
    "social_links": {}
  },
  {
    "name": "GeoBlue (through Blue Cross and Blue Shield of Minnesota)",
    "address": "(Administered by Blue Cross and Blue Shield of Minnesota, various locations)",
    "phone": "1-800-257-2572 (Blue Cross and Blue Shield of MN)",
    "rating": 4.0,
    "reviews": 25,
    "website": "https://www.bluecrossmn.com/",
    "category": "Bengali-speaking Travel insurance in Minnesota",
    "description": "Offers individual international health insurance plans for various types of travel and living abroad, with access to a large network of doctors and hospitals worldwide",
    "hours": "Mon-Fri 9AM-6PM",
    "services": [
      "Bengali-speaking Travel insurance in Minnesota consultation",
      "Professional service",
      "Quality guarantee"
    ],
    "social_links": {}
  },
  {
    "name": "WorldTrips",
    "address": "PO Box 240358, Apple Valley, MN 55124",
    "phone": "(800) 577-7465",
    "rating": 4.0,
    "reviews": 25,
    "website": "https://www.worldtrips.com/",
    "category": "Bengali-speaking Travel insurance in Minnesota",
    "description": "Provides international travel medical insurance with services like provider referrals, translations, and assistance with lost travel documents",
    "hours": "Mon-Fri 9AM-6PM",
    "services": [
      "Bengali-speaking Travel insurance in Minnesota consultation",
      "Professional service",
      "Quality guarantee"
    ],
    "social_links": {}
  },
  {
    "name": "HTH Travel Insurance",
    "address": "(Online services, no physical address listed for Minnesota)",
    "phone": "1-888-243-2374",
    "rating": 4.0,
    "reviews": 25,
    "website": "https://www.hthtravelinsurance.com/",
    "category": "Bengali-speaking Travel insurance in Minnesota",
    "description": "Specializes in international expatriate comprehensive coverage and travel medical insurance for groups",
    "hours": "Mon-Fri 9AM-6PM",
    "services": [
      "Bengali-speaking Travel insurance in Minnesota consultation",
      "Professional service",
      "Quality guarantee"
    ],
    "social_links": {}
  },
  {
    "name": "Seven Corners",
    "address": "303 W. 7th Street, St. Paul, MN 55102 (Corporate Office)",
    "phone": "1-800-331-5474",
    "rating": 4.0,
    "reviews": 25,
    "website": "https://www.sevencorners.com/",
    "category": "Bengali-speaking Travel insurance in Minnesota",
    "description": "A well-established travel insurance provider offering a range of plans for various travel needs",
    "hours": "Mon-Fri 9AM-6PM",
    "services": [
      "Bengali-speaking Travel insurance in Minnesota consultation",
      "Professional service",
      "Quality guarantee"
    ],
    "social_links": {}
  },
  {
    "name": "Allianz Travel Insurance",
    "address": "(Online services, no physical address listed for Minnesota)",
    "phone": "1-800-282-6844",
    "rating": 4.0,
    "reviews": 25,
    "website": "https://www.allianztravelinsurance.com/",
    "category": "Bengali-speaking Travel insurance in Minnesota",
    "description": "Offers comprehensive travel insurance plans covering trip cancellation, interruption, medical emergencies, and baggage loss",
    "hours": "Mon-Fri 9AM-6PM",
    "services": [
      "Bengali-speaking Travel insurance in Minnesota consultation",
      "Professional service",
      "Quality guarantee"
    ],
    "social_links": {}
  },
  {
    "name": "AIG Travel Guard",
    "address": "(Online services, no physical address listed for Minnesota)",
    "phone": "1-800-826-4411",
    "rating": 4.0,
    "reviews": 25,
    "website": "https://www.travelguard.com/",
    "category": "Bengali-speaking Travel insurance in Minnesota",
    "description": "Provides travel insurance for leisure and business travelers, with options for trip cancellation, interruption, and emergency assistance",
    "hours": "Mon-Fri 9AM-6PM",
    "services": [
      "Bengali-speaking Travel insurance in Minnesota consultation",
      "Professional service",
      "Quality guarantee"
    ],
    "social_links": {}
  },
  {
    "name": "World Nomads",
    "address": "(Online services, no physical address listed for Minnesota)",
    "phone": "+1-800-721-4674",
    "rating": 4.0,
    "reviews": 25,
    "website": "https://www.worldnomads.com/",
    "category": "Bengali-speaking Travel insurance in Minnesota",
    "description": "Known for its adventure sports coverage and ability to purchase or extend coverage while traveling",
    "hours": "Mon-Fri 9AM-6PM",
    "services": [
      "Bengali-speaking Travel insurance in Minnesota consultation",
      "Professional service",
      "Quality guarantee"
    ],
    "social_links": {}
  },
  {
    "name": "VISOA.com (Visitor Insurance)",
    "address": "(Online services, no physical address listed for Minnesota)",
    "phone": "+1-407-669-6400",
    "rating": 4.0,
    "reviews": 25,
    "website": "https://www.visoa.com/",
    "category": "Bengali-speaking Travel insurance in Minnesota",
    "description": "Offers visitor insurance plans for individuals visiting the USA, including Minnesota, covering emergency medical expenses",
    "hours": "Mon-Fri 9AM-6PM",
    "services": [
      "Bengali-speaking Travel insurance in Minnesota consultation",
      "Professional service",
      "Quality guarantee"
    ],
    "social_links": {}
  }
]