[
  {
    "name": "Lake Equipment Leasing, Inc.",
    "address": "Millburn, NJ",
    "phone": "(973) 912-5005",
    "rating": 4.0,
    "reviews": 25,
    "website": "http://www.lakeleasing.com/",
    "category": "Alaska-Native-owned Equipment leasing in New-Jersey",
    "description": "A direct funding source for equipment financing, specializing in companies with credit challenges, startups, and those with less-than-perfect credit histories. They offer flexible solutions and work capital financing",
    "hours": "Mon-Fri 9AM-6PM",
    "services": [
      "Alaska-Native-owned Equipment leasing in New-Jersey consultation",
      "Professional service",
      "Quality guarantee"
    ],
    "social_links": {}
  },
  {
    "name": "Ikon Commercial Capital",
    "address": "Not specified, but serves New Jersey",
    "phone": "1-888-409-8883",
    "rating": 4.0,
    "reviews": 25,
    "website": "https://www.google.com/maps/search/Ikon+Commercial+Capital+New+Jersey",
    "category": "Alaska-Native-owned Equipment leasing in New-Jersey",
    "description": "Offers equipment leasing and financing solutions, including sale & lease back programs, startup programs, and programs for various credit profiles",
    "hours": "Mon-Fri 9AM-6PM",
    "services": [
      "Alaska-Native-owned Equipment leasing in New-Jersey consultation",
      "Professional service",
      "Quality guarantee"
    ],
    "social_links": {}
  },
  {
    "name": "Peak Equipment",
    "address": "South Plainfield, New Jersey",
    "phone": "908-300-7984",
    "rating": 4.0,
    "reviews": 25,
    "website": "https://www.peakequipment.com/",
    "category": "Alaska-Native-owned Equipment leasing in New-Jersey",
    "description": "A construction equipment dealer offering various financing options for businesses",
    "hours": "Mon-Fri 9AM-6PM",
    "services": [
      "Alaska-Native-owned Equipment leasing in New-Jersey consultation",
      "Professional service",
      "Quality guarantee"
    ],
    "social_links": {}
  },
  {
    "name": "Intek Leasing",
    "address": "Roseland, NJ",
    "phone": "973-403-7788",
    "rating": 4.0,
    "reviews": 25,
    "website": "https://www.google.com/maps/search/Intek+Leasing+New+Jersey",
    "category": "Alaska-Native-owned Equipment leasing in New-Jersey",
    "description": "Provides new and used commercial truck financing and equipment leasing, including financing for tow trucks, dump trucks, and heavy equipment",
    "hours": "Mon-Fri 9AM-6PM",
    "services": [
      "Alaska-Native-owned Equipment leasing in New-Jersey consultation",
      "Professional service",
      "Quality guarantee"
    ],
    "social_links": {}
  },
  {
    "name": "Connell Equipment Leasing Company",
    "address": "300 Connell Drive, Berkeley Heights, NJ 07922",
    "phone": "908-673-3700",
    "rating": 4.0,
    "reviews": 25,
    "website": "https://www.connellco.com/",
    "category": "Alaska-Native-owned Equipment leasing in New-Jersey",
    "description": "A large independent lessor of material handling equipment",
    "hours": "Mon-Fri 9AM-6PM",
    "services": [
      "Alaska-Native-owned Equipment leasing in New-Jersey consultation",
      "Professional service",
      "Quality guarantee"
    ],
    "social_links": {}
  }
]