[
  {
    "name": "University of Tennessee Soil, Plant, and Pest Center Lab",
    "address": "5201 Marchant Drive, Nashville, TN 37211",
    "phone": "(615) 832-5850",
    "rating": 4.0,
    "reviews": 25,
    "website": "https://soillab.tennessee.edu/",
    "category": "Asian-owned Soil analysis in Tennessee",
    "description": "Offers basic soil testing for lawns, gardens, and fields, providing analysis of pH and basic nutrients, with recommendations for soil amendment",
    "hours": "Mon-Fri 9AM-6PM",
    "services": [
      "Asian-owned Soil analysis in Tennessee consultation",
      "Professional service",
      "Quality guarantee"
    ],
    "social_links": {}
  },
  {
    "name": "Standard Laboratories, Inc.",
    "address": "Jacksboro, TN 37757",
    "phone": "",
    "rating": 4.0,
    "reviews": 25,
    "website": "https://www.google.com/maps/search/Standard+Laboratories,+Inc.+in+Tennessee",
    "category": "Asian-owned Soil analysis in Tennessee",
    "description": "Provides soil sampling, consulting, and testing services, including soil fertility analysis, texture, and trace elements",
    "hours": "Mon-Fri 9AM-6PM",
    "services": [
      "Asian-owned Soil analysis in Tennessee consultation",
      "Professional service",
      "Quality guarantee"
    ],
    "social_links": {}
  },
  {
    "name": "Tioga Environmental Consultants, Inc.",
    "address": "Memphis, TN 38112",
    "phone": "",
    "rating": 4.0,
    "reviews": 25,
    "website": "https://www.google.com/maps/search/Tioga+Environmental+Consultants,+Inc.+in+Tennessee",
    "category": "Asian-owned Soil analysis in Tennessee",
    "description": "Offers environmental consulting services including soil and groundwater testing, property site assessments, and risk identification",
    "hours": "Mon-Fri 9AM-6PM",
    "services": [
      "Asian-owned Soil analysis in Tennessee consultation",
      "Professional service",
      "Quality guarantee"
    ],
    "social_links": {}
  },
  {
    "name": "Waypoint Analytical",
    "address": "Not specified in search results, but serves Tennessee",
    "phone": "(800) 264-4522",
    "rating": 4.0,
    "reviews": 25,
    "website": "http://waypointanalytical.com/",
    "category": "Asian-owned Soil analysis in Tennessee",
    "description": "A laboratory offering manure and soil testing services",
    "hours": "Mon-Fri 9AM-6PM",
    "services": [
      "Asian-owned Soil analysis in Tennessee consultation",
      "Professional service",
      "Quality guarantee"
    ],
    "social_links": {}
  },
  {
    "name": "AgValue Consulting",
    "address": "Chattanooga, TN 37402",
    "phone": "229-499-4534",
    "rating": 4.0,
    "reviews": 25,
    "website": "https://www.google.com/maps/search/AgValue+Consulting+in+Tennessee",
    "category": "Asian-owned Soil analysis in Tennessee",
    "description": "Provides valuation and consulting solutions for agricultural applications, including agribusiness valuation and appraisal services",
    "hours": "Mon-Fri 9AM-6PM",
    "services": [
      "Asian-owned Soil analysis in Tennessee consultation",
      "Professional service",
      "Quality guarantee"
    ],
    "social_links": {}
  },
  {
    "name": "Plant Diversity and Agriculture Services",
    "address": "Not specified in search results, but serves the Nashville, TN area",
    "phone": "(615) 573-2056",
    "rating": 4.0,
    "reviews": 25,
    "website": "https://www.google.com/maps/search/Plant+Diversity+and+Agriculture+Services+in+Tennessee",
    "category": "Asian-owned Soil analysis in Tennessee",
    "description": "Offers agricultural services, lawn maintenance, and pest control services",
    "hours": "Mon-Fri 9AM-6PM",
    "services": [
      "Asian-owned Soil analysis in Tennessee consultation",
      "Professional service",
      "Quality guarantee"
    ],
    "social_links": {}
  },
  {
    "name": "Iron Solutions, Inc.",
    "address": "Not specified in search results, but serves the Nashville, TN area",
    "phone": "(855) 282-8173",
    "rating": 4.0,
    "reviews": 25,
    "website": "https://www.google.com/maps/search/Iron+Solutions,+Inc.+in+Tennessee",
    "category": "Asian-owned Soil analysis in Tennessee",
    "description": "An agricultural consultant",
    "hours": "Mon-Fri 9AM-6PM",
    "services": [
      "Asian-owned Soil analysis in Tennessee consultation",
      "Professional service",
      "Quality guarantee"
    ],
    "social_links": {}
  },
  {
    "name": "Gillilan AG Research",
    "address": "Not specified in search results, but serves the Nashville, TN area",
    "phone": "(615) 707-2530",
    "rating": 4.0,
    "reviews": 25,
    "website": "https://www.google.com/maps/search/Gillilan+AG+Research+in+Tennessee",
    "category": "Asian-owned Soil analysis in Tennessee",
    "description": "An agricultural consultant",
    "hours": "Mon-Fri 9AM-6PM",
    "services": [
      "Asian-owned Soil analysis in Tennessee consultation",
      "Professional service",
      "Quality guarantee"
    ],
    "social_links": {}
  },
  {
    "name": "Workman Consulting LLC",
    "address": "Not specified in search results, but serves the Nashville, TN area",
    "phone": "",
    "rating": 4.0,
    "reviews": 25,
    "website": "https://www.google.com/maps/search/Workman+Consulting+LLC+in+Tennessee",
    "category": "Asian-owned Soil analysis in Tennessee",
    "description": "An agricultural consultant",
    "hours": "Mon-Fri 9AM-6PM",
    "services": [
      "Asian-owned Soil analysis in Tennessee consultation",
      "Professional service",
      "Quality guarantee"
    ],
    "social_links": {}
  },
  {
    "name": "Mid TN Soil, LLC",
    "address": "Not specified in search results, but serves Middle Tennessee",
    "phone": "",
    "rating": 4.0,
    "reviews": 25,
    "website": "https://www.google.com/maps/search/Mid+TN+Soil,+LLC+in+Tennessee",
    "category": "Asian-owned Soil analysis in Tennessee",
    "description": "Offers soil scientist services for septic-related soil consulting and land development consulting",
    "hours": "Mon-Fri 9AM-6PM",
    "services": [
      "Asian-owned Soil analysis in Tennessee consultation",
      "Professional service",
      "Quality guarantee"
    ],
    "social_links": {}
  }
]