[
  {
    "name": "615 Catering",
    "address": "Nashville, TN (Specific address not publicly listed, serves the Nashville area)",
    "phone": "(615) 431-0111",
    "rating": 4.8,
    "reviews": 25,
    "website": "https://www.615catering.com/",
    "category": "Bengali-speaking Film set catering in Tennessee",
    "description": "Specializes in on-site catering for film, television, and commercial productions in Nashville, offering a variety of meal options and accommodating dietary needs",
    "hours": "Mon-Fri 9AM-6PM",
    "services": [
      "Bengali-speaking Film set catering in Tennessee consultation",
      "Professional service",
      "Quality guarantee"
    ],
    "social_links": {}
  },
  {
    "name": "HD Foods",
    "address": "Nashville, TN (Serves the Nashville area)",
    "phone": "(615) 479-5665",
    "rating": 4.5,
    "reviews": 25,
    "website": "https://www.hdfoodsnashville.com/",
    "category": "Bengali-speaking Film set catering in Tennessee",
    "description": "Provides healthy and hearty meal options for film crews in Nashville, with customizable menus and accommodation for dietary restrictions",
    "hours": "Mon-Fri 9AM-6PM",
    "services": [
      "Bengali-speaking Film set catering in Tennessee consultation",
      "Professional service",
      "Quality guarantee"
    ],
    "social_links": {}
  },
  {
    "name": "Sitar Indian Restaurant (Catering Services)",
    "address": "116 21st Ave N, Nashville, TN 37203",
    "phone": "(615) 321-4040",
    "rating": 4.4,
    "reviews": 25,
    "website": "https://sitarindianrestaurant.com/",
    "category": "Bengali-speaking Film set catering in Tennessee",
    "description": "Offers a wide range of North and South Indian cuisines for catering events, including film productions. They can create custom menus and accommodate various dietary needs",
    "hours": "Mon-Fri 9AM-6PM",
    "services": [
      "Bengali-speaking Film set catering in Tennessee consultation",
      "Professional service",
      "Quality guarantee"
    ],
    "social_links": {}
  },
  {
    "name": "Royal Caterer Take Out Restaurant",
    "address": "2703 McCampbell Ave, Nashville, TN 37214",
    "phone": "(615) 864-7894",
    "rating": 4.3,
    "reviews": 25,
    "website": "https://www.royalcateringnashville.com/",
    "category": "Bengali-speaking Film set catering in Tennessee",
    "description": "Provides authentic Indian flavors for takeout and catering, including options for film shoots. They emphasize fresh, made-from-scratch meals and can accommodate various dietary needs",
    "hours": "Mon-Fri 9AM-6PM",
    "services": [
      "Bengali-speaking Film set catering in Tennessee consultation",
      "Professional service",
      "Quality guarantee"
    ],
    "social_links": {}
  },
  {
    "name": "Amaravati Indian Cuisine (Catering)",
    "address": "5012 Thoroughbred Ln, Brentwood, TN 37027",
    "phone": "(615) 371-1111",
    "rating": 4.5,
    "reviews": 25,
    "website": "https://amaravatiindiancuisine.com/",
    "category": "Bengali-speaking Film set catering in Tennessee",
    "description": "Offers authentic Indian food for events, including corporate and film productions, with a commitment to customer service and customizable menus",
    "hours": "Mon-Fri 9AM-6PM",
    "services": [
      "Bengali-speaking Film set catering in Tennessee consultation",
      "Professional service",
      "Quality guarantee"
    ],
    "social_links": {}
  },
  {
    "name": "Tandoor Indian Bistro (Catering)",
    "address": "1102 Tiny Town Rd, Clarksville, TN 37040",
    "phone": "(931) 647-8200",
    "rating": 4.4,
    "reviews": 25,
    "website": "https://www.tandoorclarksville.com/",
    "category": "Bengali-speaking Film set catering in Tennessee",
    "description": "Provides Indian catering services for various events, including parties and corporate functions, with customizable menus and vegetarian options",
    "hours": "Mon-Fri 9AM-6PM",
    "services": [
      "Bengali-speaking Film set catering in Tennessee consultation",
      "Professional service",
      "Quality guarantee"
    ],
    "social_links": {}
  },
  {
    "name": "Curry N More Indian Cuisine (Catering)",
    "address": "1440 W Main St, Sevierville, TN 37862",
    "phone": "(865) 429-0000",
    "rating": 4.5,
    "reviews": 25,
    "website": "https://www.currynmore.com/",
    "category": "Bengali-speaking Film set catering in Tennessee",
    "description": "Offers authentic Indian cuisine with a wide range of vegetarian and non-vegetarian selections for events of all sizes",
    "hours": "Mon-Fri 9AM-6PM",
    "services": [
      "Bengali-speaking Film set catering in Tennessee consultation",
      "Professional service",
      "Quality guarantee"
    ],
    "social_links": {}
  },
  {
    "name": "Stage Left Catering",
    "address": "Nashville, TN (Serves the Nashville area)",
    "phone": "(615) 773-2258",
    "rating": 4.7,
    "reviews": 25,
    "website": "https://www.stageleftcatering.com/",
    "category": "Bengali-speaking Film set catering in Tennessee",
    "description": "Provides full-service custom catering for corporate, individual, and production events, including film and music productions, with innovative cuisine tailored to event needs",
    "hours": "Mon-Fri 9AM-6PM",
    "services": [
      "Bengali-speaking Film set catering in Tennessee consultation",
      "Professional service",
      "Quality guarantee"
    ],
    "social_links": {}
  },
  {
    "name": "Best Food Trucks (Film & TV Catering)",
    "address": "Nashville, TN (Operates via a network of food trucks)",
    "phone": "(800) 910-9910",
    "rating": 4.6,
    "reviews": 25,
    "website": "https://www.bestfoodtrucks.com/film-tv-catering/nashville/",
    "category": "Bengali-speaking Film set catering in Tennessee",
    "description": "Connects film productions with food trucks for catering in Nashville, offering customizable meals and efficient service for sets",
    "hours": "Mon-Fri 9AM-6PM",
    "services": [
      "Bengali-speaking Film set catering in Tennessee consultation",
      "Professional service",
      "Quality guarantee"
    ],
    "social_links": {}
  },
  {
    "name": "Reel Chefs Film & Television Catering",
    "address": "(Serves various locations, contact for specifics)",
    "phone": "(818) 987-0046",
    "rating": 4.8,
    "reviews": 25,
    "website": "https://reelchefscatering.com/",
    "category": "Bengali-speaking Film set catering in Tennessee",
    "description": "A leader in film and television catering, providing quality and sustainable options for productions with a focus on fresh, inventive, and delicious meals. While not exclusively in Tennessee, they are a prominent film caterer that may service productions in the region",
    "hours": "Mon-Fri 9AM-6PM",
    "services": [
      "Bengali-speaking Film set catering in Tennessee consultation",
      "Professional service",
      "Quality guarantee"
    ],
    "social_links": {}
  }
]