[
  {
    "name": "Medshape Texas",
    "address": "3401 Pasadena Blvd, Pasadena, TX 77503",
    "phone": "(832) 230-0375",
    "rating": 4.8,
    "reviews": 25,
    "website": "https://www.medshapetx.com/",
    "category": "Bengali-speaking Cellulite treatment in Texas",
    "description": "Medshape Texas offers non-invasive cellulite reduction treatments using devices like Venus Legacy\u2122 and fat melt reduction technology to smooth and tone the skin",
    "hours": "Mon-Fri 9AM-6PM",
    "services": [
      "Bengali-speaking Cellulite treatment in Texas consultation",
      "Professional service",
      "Quality guarantee"
    ],
    "social_links": {}
  },
  {
    "name": "SBA Dermatology & Plastic Surgery",
    "address": "12303 NW Fwy #200, Houston, TX 77092",
    "phone": "(713) 850-0240",
    "rating": 4.7,
    "reviews": 25,
    "website": "https://www.sbadermatology.com/",
    "category": "Bengali-speaking Cellulite treatment in Texas",
    "description": "This clinic offers advanced, non-surgical cellulite and fat reduction treatments, including CoolSculpting\u00ae and Thermage\u00ae, to achieve a smoother, firmer look",
    "hours": "Mon-Fri 9AM-6PM",
    "services": [
      "Bengali-speaking Cellulite treatment in Texas consultation",
      "Professional service",
      "Quality guarantee"
    ],
    "social_links": {}
  },
  {
    "name": "Grace MedSpa & Body Solutions",
    "address": "1001 W 34th St, Austin, TX 78705",
    "phone": "(512) 454-7777",
    "rating": 4.8,
    "reviews": 25,
    "website": "https://www.gracemedspa.com/",
    "category": "Bengali-speaking Cellulite treatment in Texas",
    "description": "Grace MedSpa offers cutting-edge cellulite removal treatments like EvolveX and Morpheus8 Body 3D Smart Frame, focusing on skin tightening and body reshaping for visible results",
    "hours": "Mon-Fri 9AM-6PM",
    "services": [
      "Bengali-speaking Cellulite treatment in Texas consultation",
      "Professional service",
      "Quality guarantee"
    ],
    "social_links": {}
  },
  {
    "name": "Persona Med Spa",
    "address": "5151 Katy Freeway, Suite 150, Houston, TX 77007",
    "phone": "(713) 936-2450",
    "rating": 4.7,
    "reviews": 25,
    "website": "https://www.personamedspa.com/",
    "category": "Bengali-speaking Cellulite treatment in Texas",
    "description": "Persona Med Spa provides advanced, non-invasive cellulite treatments such as Velashape and Endermologie, designed to achieve smoother, firmer skin",
    "hours": "Mon-Fri 9AM-6PM",
    "services": [
      "Bengali-speaking Cellulite treatment in Texas consultation",
      "Professional service",
      "Quality guarantee"
    ],
    "social_links": {}
  },
  {
    "name": "Renew Body Contouring & MedSpa",
    "address": "1811 Bering Dr Suite 310, Houston, TX 77057",
    "phone": "(713) 234-6700",
    "rating": 4.8,
    "reviews": 25,
    "website": "https://www.renewbodycontouring.com/",
    "category": "Bengali-speaking Cellulite treatment in Texas",
    "description": "Specializing in body contouring and cellulite reduction, Renew Body Contouring offers a range of non-invasive treatments to reduce diet and exercise-resistant fat and cellulite",
    "hours": "Mon-Fri 9AM-6PM",
    "services": [
      "Bengali-speaking Cellulite treatment in Texas consultation",
      "Professional service",
      "Quality guarantee"
    ],
    "social_links": {}
  },
  {
    "name": "Plastic Surgery Center of Dallas",
    "address": "8345 Walnut Hill Ln #100, Dallas, TX 75231",
    "phone": "(972) 661-5077",
    "rating": 4.7,
    "reviews": 25,
    "website": "https://www.pscdallas.com/",
    "category": "Bengali-speaking Cellulite treatment in Texas",
    "description": "This center offers Av\u00e9li cellulite treatment, a mechanical procedure that precisely releases the fibrous bands causing cellulite dimples on the buttocks, hips, and thighs",
    "hours": "Mon-Fri 9AM-6PM",
    "services": [
      "Bengali-speaking Cellulite treatment in Texas consultation",
      "Professional service",
      "Quality guarantee"
    ],
    "social_links": {}
  },
  {
    "name": "Glamour Plastic Surgery and Med Spa",
    "address": "6650 Main St Suite 100, Houston, TX 77030",
    "phone": "(713) 203-0000",
    "rating": 4.7,
    "reviews": 25,
    "website": "https://glamourplasticsurgery.com/",
    "category": "Bengali-speaking Cellulite treatment in Texas",
    "description": "Glamour Plastic Surgery offers various FDA-approved cellulite reduction procedures, including Cellfina, Cellutone, Venus Legacy, Emtone, and Qwo, to achieve smoother, more youthful-looking skin",
    "hours": "Mon-Fri 9AM-6PM",
    "services": [
      "Bengali-speaking Cellulite treatment in Texas consultation",
      "Professional service",
      "Quality guarantee"
    ],
    "social_links": {}
  },
  {
    "name": "DermSurgery Associates",
    "address": "Multiple locations including 9401 Southwest Fwy #700, Houston, TX 77074",
    "phone": "(713) 791-9966",
    "rating": 4.6,
    "reviews": 25,
    "website": "https://www.dermsurgery.org/",
    "category": "Bengali-speaking Cellulite treatment in Texas",
    "description": "With several locations in the Greater Houston area, DermSurgery Associates offers a range of cellulite treatments like Acoustic Wave Therapy and Radiofrequency (RF) Therapy to reduce cellulite and create a more attractive skin surface",
    "hours": "Mon-Fri 9AM-6PM",
    "services": [
      "Bengali-speaking Cellulite treatment in Texas consultation",
      "Professional service",
      "Quality guarantee"
    ],
    "social_links": {}
  },
  {
    "name": "Body by Ravi Plastic Surgery and Aesthetics",
    "address": "17000 El Camino Real, Suite 150, Houston, TX 77058",
    "phone": "(281) 242-1061",
    "rating": 4.9,
    "reviews": 25,
    "website": "https://www.bodybyravi.com/",
    "category": "Bengali-speaking Cellulite treatment in Texas",
    "description": "This clinic offers the Av\u00e9li cellulite treatment, a minimally invasive procedure that addresses the underlying cause of cellulite dimples on the thighs and buttocks for long-term improvement",
    "hours": "Mon-Fri 9AM-6PM",
    "services": [
      "Bengali-speaking Cellulite treatment in Texas consultation",
      "Professional service",
      "Quality guarantee"
    ],
    "social_links": {}
  },
  {
    "name": "Texas Dermatology",
    "address": "Multiple locations including 1000 E Sonterra Blvd #101, San Antonio, TX 78258",
    "phone": "(210) 545-7077",
    "rating": 4.7,
    "reviews": 25,
    "website": "https://www.texasdermatology.com/",
    "category": "Bengali-speaking Cellulite treatment in Texas",
    "description": "Texas Dermatology offers EMTONE\u2122, a non-invasive cellulite treatment that uses thermal and mechanical energy to address all causes of cellulite, resulting in smoother skin",
    "hours": "Mon-Fri 9AM-6PM",
    "services": [
      "Bengali-speaking Cellulite treatment in Texas consultation",
      "Professional service",
      "Quality guarantee"
    ],
    "social_links": {}
  }
]