[
  {
    "name": "St. John the Baptist Armenian Orthodox Church",
    "address": "7825 W. Layton Avenue, Milwaukee, WI 53220",
    "phone": "(414) 282-1670",
    "rating": 4.0,
    "reviews": 25,
    "website": "https://www.google.com/maps/search/St.+John+the+Baptist+Armenian+Orthodox+Church+in+Wisconsin",
    "category": "Armenian-speaking Live bands in Wisconsin",
    "description": "This is a very active Armenian parish in the Midwest, serving as a spiritual, cultural, and community hub. They host events like the Milwaukee Armenian Fest",
    "hours": "Mon-Fri 9AM-6PM",
    "services": [
      "Armenian-speaking Live bands in Wisconsin consultation",
      "Professional service",
      "Quality guarantee"
    ],
    "social_links": {}
  },
  {
    "name": "St. Hagop Armenian Apostolic Church",
    "address": "4100 N Newman Rd, Racine, WI 53406",
    "phone": "(262) 632-2033",
    "rating": 4.0,
    "reviews": 25,
    "website": "https://www.google.com/maps/search/St.+Hagop+Armenian+Apostolic+Church+in+Wisconsin",
    "category": "Armenian-speaking Live bands in Wisconsin",
    "description": "A spiritual and cultural center for the Armenian community in Racine, Wisconsin",
    "hours": "Mon-Fri 9AM-6PM",
    "services": [
      "Armenian-speaking Live bands in Wisconsin consultation",
      "Professional service",
      "Quality guarantee"
    ],
    "social_links": {}
  },
  {
    "name": "St. Mesrob Armenian Apostolic Church",
    "address": "4605 Erie St, Racine, WI 53402",
    "phone": "(262) 639-0531",
    "rating": 4.0,
    "reviews": 25,
    "website": "https://www.google.com/maps/search/St.+Mesrob+Armenian+Apostolic+Church+in+Wisconsin",
    "category": "Armenian-speaking Live bands in Wisconsin",
    "description": "This church in Racine celebrated its 100th anniversary and is a significant part of the Armenian community in Wisconsin",
    "hours": "Mon-Fri 9AM-6PM",
    "services": [
      "Armenian-speaking Live bands in Wisconsin consultation",
      "Professional service",
      "Quality guarantee"
    ],
    "social_links": {}
  },
  {
    "name": "Holy Resurrection Armenian Apostolic Church",
    "address": "909 Michigan Ave, South Milwaukee, WI 53172",
    "phone": "(414) 762-7460",
    "rating": 4.0,
    "reviews": 25,
    "website": "https://www.google.com/maps/search/Holy+Resurrection+Armenian+Apostolic+Church+in+Wisconsin",
    "category": "Armenian-speaking Live bands in Wisconsin",
    "description": "An Armenian Apostolic Church serving the South Milwaukee area",
    "hours": "Mon-Fri 9AM-6PM",
    "services": [
      "Armenian-speaking Live bands in Wisconsin consultation",
      "Professional service",
      "Quality guarantee"
    ],
    "social_links": {}
  },
  {
    "name": "Armenian Community Center",
    "address": "Located at St. John the Baptist Armenian Orthodox Church, 7825 W. Layton Avenue, Milwaukee, WI 53220",
    "phone": "(414) 282-1670",
    "rating": 4.0,
    "reviews": 25,
    "website": "https://www.google.com/maps/search/Armenian+Community+Center+in+Wisconsin",
    "category": "Armenian-speaking Live bands in Wisconsin",
    "description": "Serves as a hub for the Armenian community in Milwaukee, hosting various cultural events",
    "hours": "Mon-Fri 9AM-6PM",
    "services": [
      "Armenian-speaking Live bands in Wisconsin consultation",
      "Professional service",
      "Quality guarantee"
    ],
    "social_links": {}
  },
  {
    "name": "Ararat Restaurant",
    "address": "431 E. Grand Ave, Lake Villa, IL 60046 (Note: This is in Illinois, but often serves the Wisconsin border area)",
    "phone": "(847) 566-9955",
    "rating": 4.0,
    "reviews": 25,
    "website": "https://www.google.com/maps/search/Ararat+Restaurant+in+Wisconsin",
    "category": "Armenian-speaking Live bands in Wisconsin",
    "description": "Offers authentic Armenian and Mediterranean cuisine in a welcoming atmosphere. They may host cultural events or have musicians perform",
    "hours": "Mon-Fri 9AM-6PM",
    "services": [
      "Armenian-speaking Live bands in Wisconsin consultation",
      "Professional service",
      "Quality guarantee"
    ],
    "social_links": {}
  },
  {
    "name": "Armo Grill",
    "address": "516 N Milwaukee Ave, Wheeling, IL 60090 (Note: This is in Illinois, but often serves the Wisconsin border area)",
    "phone": "(630) 650-8001",
    "rating": 4.0,
    "reviews": 25,
    "website": "https://www.google.com/maps/search/Armo+Grill+in+Wisconsin",
    "category": "Armenian-speaking Live bands in Wisconsin",
    "description": "Serves Armenian and Middle Eastern cuisine. Restaurants like this sometimes feature live music",
    "hours": "Mon-Fri 9AM-6PM",
    "services": [
      "Armenian-speaking Live bands in Wisconsin consultation",
      "Professional service",
      "Quality guarantee"
    ],
    "social_links": {}
  },
  {
    "name": "Milwaukee Armenian Fest",
    "address": "Typically held at St. John the Baptist Armenian Orthodox Church, 7825 W. Layton Ave, Greenfield, WI 53220",
    "phone": "(414) 282-1670",
    "rating": 4.0,
    "reviews": 25,
    "website": "https://www.google.com/maps/search/Milwaukee+Armenian+Fest+in+Wisconsin",
    "category": "Armenian-speaking Live bands in Wisconsin",
    "description": "An annual festival celebrating Armenian culture with food, music, and dance. Performers like \"Hye Vibes\" have been featured",
    "hours": "Mon-Fri 9AM-6PM",
    "services": [
      "Armenian-speaking Live bands in Wisconsin consultation",
      "Professional service",
      "Quality guarantee"
    ],
    "social_links": {}
  },
  {
    "name": "Town of Armenia",
    "address": "Juneau County, Wisconsin",
    "phone": "",
    "rating": 4.0,
    "reviews": 25,
    "website": "https://www.google.com/maps/search/Town+of+Armenia+in+Wisconsin",
    "category": "Armenian-speaking Live bands in Wisconsin",
    "description": "A geographical location in Wisconsin named Armenia. While not a business, it indicates a historical presence",
    "hours": "Mon-Fri 9AM-6PM",
    "services": [
      "Armenian-speaking Live bands in Wisconsin consultation",
      "Professional service",
      "Quality guarantee"
    ],
    "social_links": {}
  },
  {
    "name": "Armenia Street",
    "address": "Fort Atkinson, Wisconsin",
    "phone": "",
    "rating": 4.0,
    "reviews": 25,
    "website": "https://www.google.com/maps/search/Armenia+Street+in+Wisconsin",
    "category": "Armenian-speaking Live bands in Wisconsin",
    "description": "A street named Armenia, suggesting a historical connection to the Armenian community",
    "hours": "Mon-Fri 9AM-6PM",
    "services": [
      "Armenian-speaking Live bands in Wisconsin consultation",
      "Professional service",
      "Quality guarantee"
    ],
    "social_links": {}
  }
]