[
  {
    "name": "Catholic Charities of Central Texas",
    "address": "Multiple locations across Central Texas",
    "phone": "(512) 614-4988",
    "rating": 4.0,
    "reviews": 25,
    "website": "https://www.ccctx.org/",
    "category": "Catholic-owned Decluttering in Texas",
    "description": "Offers counseling, financial stability programs, and disaster relief",
    "hours": "Mon-Fri 9AM-6PM",
    "services": [
      "Catholic-owned Decluttering in Texas consultation",
      "Professional service",
      "Quality guarantee"
    ],
    "social_links": {}
  },
  {
    "name": "Catholic Charities Dallas",
    "address": "1440 W. Mockingbird Lane, Dallas, TX 75247",
    "phone": "(214) 242-7770",
    "rating": 4.0,
    "reviews": 25,
    "website": "https://www.ccdallas.org/",
    "category": "Catholic-owned Decluttering in Texas",
    "description": "Provides services such as disaster preparedness, financial stability, and educational programs",
    "hours": "Mon-Fri 9AM-6PM",
    "services": [
      "Catholic-owned Decluttering in Texas consultation",
      "Professional service",
      "Quality guarantee"
    ],
    "social_links": {}
  },
  {
    "name": "Catholic Charities of Southeast Texas",
    "address": "3370 Sarah Street, Beaumont, TX 77706",
    "phone": "(409) 832-0421",
    "rating": 4.0,
    "reviews": 25,
    "website": "https://www.catholiccharitiesset.org/",
    "category": "Catholic-owned Decluttering in Texas",
    "description": "Offers financial services, housing counseling, and food assistance",
    "hours": "Mon-Fri 9AM-6PM",
    "services": [
      "Catholic-owned Decluttering in Texas consultation",
      "Professional service",
      "Quality guarantee"
    ],
    "social_links": {}
  },
  {
    "name": "Catholic Charities, Diocese of Tyler",
    "address": "1600 West Front Street, Tyler, TX 75702",
    "phone": "(903) 258-9800",
    "rating": 4.0,
    "reviews": 25,
    "website": "https://www.cctyler.org/",
    "category": "Catholic-owned Decluttering in Texas",
    "description": "Focuses on providing services to those in need, advocating for justice, and offering works of mercy",
    "hours": "Mon-Fri 9AM-6PM",
    "services": [
      "Catholic-owned Decluttering in Texas consultation",
      "Professional service",
      "Quality guarantee"
    ],
    "social_links": {}
  },
  {
    "name": "Catholic Charities of the Archdiocese of Galveston-Houston",
    "address": "Multiple locations across the Archdiocese",
    "phone": "(713) 874-6500",
    "rating": 4.0,
    "reviews": 25,
    "website": "https://www.catholiccharities.org/",
    "category": "Catholic-owned Decluttering in Texas",
    "description": "Provides caring, compassionate services and advocates for social justice",
    "hours": "Mon-Fri 9AM-6PM",
    "services": [
      "Catholic-owned Decluttering in Texas consultation",
      "Professional service",
      "Quality guarantee"
    ],
    "social_links": {}
  },
  {
    "name": "Catholic Charities San Antonio",
    "address": "202 West French Place, San Antonio, TX 78212",
    "phone": "(210) 433-3256",
    "rating": 4.0,
    "reviews": 25,
    "website": "https://www.ccaosa.org/",
    "category": "Catholic-owned Decluttering in Texas",
    "description": "Offers faith-driven support to meet community needs through love and service",
    "hours": "Mon-Fri 9AM-6PM",
    "services": [
      "Catholic-owned Decluttering in Texas consultation",
      "Professional service",
      "Quality guarantee"
    ],
    "social_links": {}
  },
  {
    "name": "Decluttered Life",
    "address": "Katy, Texas (Service area includes Katy, Houston, Fulshear, Richmond, Sugar Land, and surrounding areas)",
    "phone": "(832) 518-7771",
    "rating": 5.0,
    "reviews": 25,
    "website": "https://www.declutteredlife.com/",
    "category": "Catholic-owned Decluttering in Texas",
    "description": "Professional organizing service specializing in decluttering homes and offices with a non-judgmental approach",
    "hours": "Mon-Fri 9AM-6PM",
    "services": [
      "Catholic-owned Decluttering in Texas consultation",
      "Professional service",
      "Quality guarantee"
    ],
    "social_links": {}
  },
  {
    "name": "Declutter Bee",
    "address": "Austin, TX",
    "phone": "(512) 910-4025",
    "rating": 5.0,
    "reviews": 25,
    "website": "https://www.declutterbee.com/",
    "category": "Catholic-owned Decluttering in Texas",
    "description": "Offers in-person decluttering and organizing, DIY plans, and organizing coaching to reduce stress and anxiety",
    "hours": "Mon-Fri 9AM-6PM",
    "services": [
      "Catholic-owned Decluttering in Texas consultation",
      "Professional service",
      "Quality guarantee"
    ],
    "social_links": {}
  },
  {
    "name": "My Professional Organizer Dallas",
    "address": "Dallas, TX",
    "phone": "(469) 556-7000",
    "rating": 5.0,
    "reviews": 25,
    "website": "https://www.myprofessionalorganizer.com/",
    "category": "Catholic-owned Decluttering in Texas",
    "description": "Provides hands-on decluttering services to transform spaces into organized and functional areas, with donation and trash removal included",
    "hours": "Mon-Fri 9AM-6PM",
    "services": [
      "Catholic-owned Decluttering in Texas consultation",
      "Professional service",
      "Quality guarantee"
    ],
    "social_links": {}
  },
  {
    "name": "Decluttering with Kassandra",
    "address": "Bastrop, TX (Service area includes greater Bastrop and select areas of Austin)",
    "phone": "(512) 965-9089",
    "rating": 5.0,
    "reviews": 25,
    "website": "https://www.declutteringwithkassandra.com/",
    "category": "Catholic-owned Decluttering in Texas",
    "description": "Offers decluttering and home organization services with a personalized approach to create harmonious living spaces",
    "hours": "Mon-Fri 9AM-6PM",
    "services": [
      "Catholic-owned Decluttering in Texas consultation",
      "Professional service",
      "Quality guarantee"
    ],
    "social_links": {}
  }
]