[
  {
    "name": "Black Tie Moving",
    "address": "Multiple locations, including Kansas City and St. Louis",
    "phone": "(855) 973-2620",
    "rating": 4.0,
    "reviews": 25,
    "website": "https://blacktie-moving.com/",
    "category": "Black-owned Long-distance moving in Missouri",
    "description": "A full-service moving and storage company established in 2012, offering local and long-distance relocations with certified and background-screened professionals",
    "hours": "Mon-Fri 9AM-6PM",
    "services": [
      "Black-owned Long-distance moving in Missouri consultation",
      "Professional service",
      "Quality guarantee"
    ],
    "social_links": {}
  },
  {
    "name": "Movefasa Moving",
    "address": "Blue Springs, MO",
    "phone": "(816) 352-0700",
    "rating": 4.0,
    "reviews": 25,
    "website": "https://movefasamoving.com/",
    "category": "Black-owned Long-distance moving in Missouri",
    "description": "Offers professional and reliable moving services in Blue Springs and Lee's Summit, MO, specializing in residential, commercial, and specialty moving",
    "hours": "Mon-Fri 9AM-6PM",
    "services": [
      "Black-owned Long-distance moving in Missouri consultation",
      "Professional service",
      "Quality guarantee"
    ],
    "social_links": {}
  },
  {
    "name": "Point Blank Moving",
    "address": "Lee's Summit, MO",
    "phone": "(816) 945-2500",
    "rating": 4.0,
    "reviews": 25,
    "website": "https://pointblankmoving.com/",
    "category": "Black-owned Long-distance moving in Missouri",
    "description": "A full-service moving company in Lee's Summit, MO, providing local and long-distance moving services with transparent pricing",
    "hours": "Mon-Fri 9AM-6PM",
    "services": [
      "Black-owned Long-distance moving in Missouri consultation",
      "Professional service",
      "Quality guarantee"
    ],
    "social_links": {}
  },
  {
    "name": "All My Sons Moving & Storage",
    "address": "Multiple locations, including Kansas City (7084 Universal Ave, Kansas City, MO 64120) and St. Louis (3594 N Lindbergh Blvd, Bridgeton, MO 63074)",
    "phone": "Kansas City: (816) 239-2089; St. Louis: (636) 328-0545",
    "rating": 4.0,
    "reviews": 25,
    "website": "https://www.allmysons.com/kansas-city/",
    "category": "Black-owned Long-distance moving in Missouri",
    "description": "A leading provider of residential and corporate moves, offering local and long-distance relocations throughout the United States",
    "hours": "Mon-Fri 9AM-6PM",
    "services": [
      "Black-owned Long-distance moving in Missouri consultation",
      "Professional service",
      "Quality guarantee"
    ],
    "social_links": {}
  },
  {
    "name": "The Dudes Moving Co.",
    "address": "Kansas City, MO",
    "phone": "(816) 433-2929",
    "rating": 4.0,
    "reviews": 25,
    "website": "https://www.thedudesmovingco.com/",
    "category": "Black-owned Long-distance moving in Missouri",
    "description": "A reliable moving company in Kansas City, MO, offering local and long-distance moving, junk removal, and packing services with no hidden fees",
    "hours": "Mon-Fri 9AM-6PM",
    "services": [
      "Black-owned Long-distance moving in Missouri consultation",
      "Professional service",
      "Quality guarantee"
    ],
    "social_links": {}
  },
  {
    "name": "Tiger Moving Services",
    "address": "1000 Big Bear Blvd, Columbia, MO 65202",
    "phone": "(573) 999-7821",
    "rating": 4.0,
    "reviews": 25,
    "website": "https://www.tigermoving.com/",
    "category": "Black-owned Long-distance moving in Missouri",
    "description": "A locally owned and operated moving company in Columbia, MO, offering expert local, long-distance, and stress-free moves",
    "hours": "Mon-Fri 9AM-6PM",
    "services": [
      "Black-owned Long-distance moving in Missouri consultation",
      "Professional service",
      "Quality guarantee"
    ],
    "social_links": {}
  },
  {
    "name": "TWO MEN AND A TRUCK",
    "address": "Multiple locations, including Lee's Summit (serving the area), Independence, St. Charles, and Columbia",
    "phone": "Lee's Summit: (816) 702-4000; Independence: (816) 817-1100; St. Charles: (636) 442-4000; Columbia: (573) 615-4550",
    "rating": 4.0,
    "reviews": 25,
    "website": "https://twomenandatruck.com/movers/mo/lees-summit",
    "category": "Black-owned Long-distance moving in Missouri",
    "description": "Offers comprehensive local and long-distance moving services, packing, and storage solutions, guided by their core value, \"The Grandma Rule\u00ae.\"",
    "hours": "Mon-Fri 9AM-6PM",
    "services": [
      "Black-owned Long-distance moving in Missouri consultation",
      "Professional service",
      "Quality guarantee"
    ],
    "social_links": {}
  },
  {
    "name": "Black Belt Movers",
    "address": "Omaha, NE (serves Missouri)",
    "phone": "(402) 575-9990",
    "rating": 4.0,
    "reviews": 25,
    "website": "https://blackbeltmovers.com/",
    "category": "Black-owned Long-distance moving in Missouri",
    "description": "A locally owned and operated moving company offering local and long-distance moving, packing, and loading/unloading services with upfront pricing",
    "hours": "Mon-Fri 9AM-6PM",
    "services": [
      "Black-owned Long-distance moving in Missouri consultation",
      "Professional service",
      "Quality guarantee"
    ],
    "social_links": {}
  },
  {
    "name": "417 Moving",
    "address": "Springfield, MO",
    "phone": "(417) 413-4170",
    "rating": 4.0,
    "reviews": 25,
    "website": "https://www.417moving.com/",
    "category": "Black-owned Long-distance moving in Missouri",
    "description": "A moving company in Springfield, MO, offering local and cross-country moves, packing services, and free in-home consultations",
    "hours": "Mon-Fri 9AM-6PM",
    "services": [
      "Black-owned Long-distance moving in Missouri consultation",
      "Professional service",
      "Quality guarantee"
    ],
    "social_links": {}
  },
  {
    "name": "Courtesy Movers LLC",
    "address": "Kansas City, MO",
    "phone": "(816) 521-9669",
    "rating": 4.0,
    "reviews": 25,
    "website": "https://www.kccourtesymovers.com/",
    "category": "Black-owned Long-distance moving in Missouri",
    "description": "A Kansas City moving company specializing in residential and commercial moves, including long-distance moving, packing, and storage solutions",
    "hours": "Mon-Fri 9AM-6PM",
    "services": [
      "Black-owned Long-distance moving in Missouri consultation",
      "Professional service",
      "Quality guarantee"
    ],
    "social_links": {}
  }
]