[
  {
    "name": "Parr Brown, a Professional Corporation",
    "address": "1800 West Traverse Parkway, Lehi, UT 84043",
    "phone": "(801) 532-7400",
    "rating": 4.0,
    "reviews": 25,
    "website": "https://www.parrbrown.com/",
    "category": "Chinese-speaking Mergers and Acquisitions law in Utah",
    "description": "This firm has a strong international practice and explicitly states that their attorneys speak Chinese (Cantonese and Mandarin). They handle mergers and acquisitions as part of their international business services",
    "hours": "Mon-Fri 9AM-6PM",
    "services": [
      "Chinese-speaking Mergers and Acquisitions law in Utah consultation",
      "Professional service",
      "Quality guarantee"
    ],
    "social_links": {}
  },
  {
    "name": "Kirton McConkie",
    "address": "50 East South Temple, Suite 700, Salt Lake City, UT 84111",
    "phone": "(801) 328-3131",
    "rating": 4.0,
    "reviews": 25,
    "website": "https://www.kmclaw.com/",
    "category": "Chinese-speaking Mergers and Acquisitions law in Utah",
    "description": "Kirton McConkie has a robust international law practice and states that their attorneys are fluent in over 20 languages. They assist clients with cross-border legal counsel for global business",
    "hours": "Mon-Fri 9AM-6PM",
    "services": [
      "Chinese-speaking Mergers and Acquisitions law in Utah consultation",
      "Professional service",
      "Quality guarantee"
    ],
    "social_links": {}
  },
  {
    "name": "Sumsion Business Law",
    "address": "West Wing, 5th Floor, 1800 Novell Place, Provo, UT 84606",
    "phone": "(801) 375-2830",
    "rating": 4.0,
    "reviews": 25,
    "website": "https://sumsion.com/",
    "category": "Chinese-speaking Mergers and Acquisitions law in Utah",
    "description": "Sumsion Business Law specifically mentions \"China Business Law\" and that their attorneys know how to navigate business transactions and disputes within Chinese and American regulations. They handle business transactions and litigation",
    "hours": "Mon-Fri 9AM-6PM",
    "services": [
      "Chinese-speaking Mergers and Acquisitions law in Utah consultation",
      "Professional service",
      "Quality guarantee"
    ],
    "social_links": {}
  },
  {
    "name": "Fillmore Spencer LLC",
    "address": "10885 South State Street, Sandy, UT 84070",
    "phone": "(801) 426-8200",
    "rating": 4.0,
    "reviews": 25,
    "website": "https://www.fillmorespsencer.com/",
    "category": "Chinese-speaking Mergers and Acquisitions law in Utah",
    "description": "This firm has mergers and acquisitions lawyers with over 30 years of experience and advises enterprises on M&A deals",
    "hours": "Mon-Fri 9AM-6PM",
    "services": [
      "Chinese-speaking Mergers and Acquisitions law in Utah consultation",
      "Professional service",
      "Quality guarantee"
    ],
    "social_links": {}
  },
  {
    "name": "Anderson | Hinkins",
    "address": "10777 South River Front Parkway, Suite 200, South Jordan, UT 84095",
    "phone": "(801) 930-0290",
    "rating": 4.0,
    "reviews": 25,
    "website": "https://www.andersonhinkins.com/",
    "category": "Chinese-speaking Mergers and Acquisitions law in Utah",
    "description": "Anderson | Hinkins has a mergers and acquisitions lawyer who provides comprehensive business services and guides clients through the M&A process",
    "hours": "Mon-Fri 9AM-6PM",
    "services": [
      "Chinese-speaking Mergers and Acquisitions law in Utah consultation",
      "Professional service",
      "Quality guarantee"
    ],
    "social_links": {}
  },
  {
    "name": "RCG Law Group",
    "address": "489 S Jordan Pkwy Suite 255, South Jordan, UT 84095",
    "phone": "(801) 893-2887",
    "rating": 4.0,
    "reviews": 25,
    "website": "https://www.rcglawgroup.com/",
    "category": "Chinese-speaking Mergers and Acquisitions law in Utah",
    "description": "RCG Law Group has attorneys with extensive experience in corporate law, including mergers and acquisitions, and they focus on helping small businesses grow",
    "hours": "Mon-Fri 9AM-6PM",
    "services": [
      "Chinese-speaking Mergers and Acquisitions law in Utah consultation",
      "Professional service",
      "Quality guarantee"
    ],
    "social_links": {}
  },
  {
    "name": "Mayer Brown",
    "address": "100 South 5th Street, Suite 100, Salt Lake City, UT 84101",
    "phone": "(801) 907-2674",
    "rating": 4.0,
    "reviews": 25,
    "website": "https://www.mayerbrown.com/locations/salt-lake-city",
    "category": "Chinese-speaking Mergers and Acquisitions law in Utah",
    "description": "Mayer Brown's Salt Lake City office offers global services, including mergers and acquisitions, and their attorneys work closely with colleagues worldwide",
    "hours": "Mon-Fri 9AM-6PM",
    "services": [
      "Chinese-speaking Mergers and Acquisitions law in Utah consultation",
      "Professional service",
      "Quality guarantee"
    ],
    "social_links": {}
  },
  {
    "name": "Greenberg Traurig, LLP",
    "address": "100 South 5th Street, Suite 100, Salt Lake City, UT 84101",
    "phone": "(801) 478-6900",
    "rating": 4.0,
    "reviews": 25,
    "website": "https://www.gtlaw.com/en/locations/salt-lake-city",
    "category": "Chinese-speaking Mergers and Acquisitions law in Utah",
    "description": "Greenberg Traurig's Salt Lake City attorneys have local experience backed by a global platform and handle corporate transactions and mergers & acquisitions",
    "hours": "Mon-Fri 9AM-6PM",
    "services": [
      "Chinese-speaking Mergers and Acquisitions law in Utah consultation",
      "Professional service",
      "Quality guarantee"
    ],
    "social_links": {}
  },
  {
    "name": "Snell & Wilmer",
    "address": "15 West South Temple, Suite 1200, Salt Lake City, UT 84101",
    "phone": "(801) 257-1900",
    "rating": 4.0,
    "reviews": 25,
    "website": "https://www.swlaw.com/",
    "category": "Chinese-speaking Mergers and Acquisitions law in Utah",
    "description": "Snell & Wilmer is a full-service business law firm with attorneys who speak Chinese (Mandarin). They handle a wide array of services for businesses",
    "hours": "Mon-Fri 9AM-6PM",
    "services": [
      "Chinese-speaking Mergers and Acquisitions law in Utah consultation",
      "Professional service",
      "Quality guarantee"
    ],
    "social_links": {}
  },
  {
    "name": "Husch Blackwell",
    "address": "50 South Main Street, Suite 1100, Salt Lake City, UT 84144",
    "phone": "(801) 746-7000",
    "rating": 4.0,
    "reviews": 25,
    "website": "https://www.huschblackwell.com/locations/salt-lake-city",
    "category": "Chinese-speaking Mergers and Acquisitions law in Utah",
    "description": "Husch Blackwell has attorneys who speak Cantonese Chinese and Mandarin Chinese and their practice areas include Mergers & Acquisitions",
    "hours": "Mon-Fri 9AM-6PM",
    "services": [
      "Chinese-speaking Mergers and Acquisitions law in Utah consultation",
      "Professional service",
      "Quality guarantee"
    ],
    "social_links": {}
  }
]