[
  {
    "name": "Brady Martz Wealth Solutions",
    "address": "406 Main Ave Suite 250, Fargo, ND 58103",
    "phone": "701-232-8283",
    "rating": 4.0,
    "reviews": 25,
    "website": "https://www.bradymartz.com/",
    "category": "Baby-Boomer-owned Investment advisory in North-Dakota",
    "description": "Offers wealth management combining financial planning and portfolio management, covering goals, tax planning, risk management, retirement, education, and cash flow",
    "hours": "Mon-Fri 9AM-6PM",
    "services": [
      "Baby-Boomer-owned Investment advisory in North-Dakota consultation",
      "Professional service",
      "Quality guarantee"
    ],
    "social_links": {}
  },
  {
    "name": "Prairiewood Wealth Management",
    "address": "4000 13th Ave S, Fargo, ND 58104",
    "phone": "701-237-0555",
    "rating": 4.0,
    "reviews": 25,
    "website": "https://prairiewood.com/",
    "category": "Baby-Boomer-owned Investment advisory in North-Dakota",
    "description": "A fiduciary, fee-only, and independent financial advisory firm serving clients in the Fargo-Moorhead and West Fargo area, as well as nationwide. They act as a \"Family CFO\" to help navigate investing, personal finance, and tax planning",
    "hours": "Mon-Fri 9AM-6PM",
    "services": [
      "Baby-Boomer-owned Investment advisory in North-Dakota consultation",
      "Professional service",
      "Quality guarantee"
    ],
    "social_links": {}
  },
  {
    "name": "Light Financial Services",
    "address": "1000 17th St S, Moorhead, MN 56560 (Note: This is in Moorhead, MN, which is across the river from Fargo, ND and often considered part of the same metropolitan area.)",
    "phone": "218-233-1300",
    "rating": 4.0,
    "reviews": 25,
    "website": "https://www.google.com/maps/search/Light+Financial+Services+North+Dakota",
    "category": "Baby-Boomer-owned Investment advisory in North-Dakota",
    "description": "A small fee-only practice that primarily works with individuals who do not have a high net worth but also has a limited base of high-net-worth clients. They provide investment management, financial planning, and 403(b) plan consultations",
    "hours": "Mon-Fri 9AM-6PM",
    "services": [
      "Baby-Boomer-owned Investment advisory in North-Dakota consultation",
      "Professional service",
      "Quality guarantee"
    ],
    "social_links": {}
  },
  {
    "name": "Wealth Forward, LLC",
    "address": "406 Main Ave Suite 250, Fargo, ND 58103",
    "phone": "701-235-5555",
    "rating": 4.0,
    "reviews": 25,
    "website": "https://www.google.com/maps/search/Wealth+Forward,+LLC+North+Dakota",
    "category": "Baby-Boomer-owned Investment advisory in North-Dakota",
    "description": "A financial advisory firm offering financial planning, retirement plan consulting, and investment management. There is no minimum account balance requirement",
    "hours": "Mon-Fri 9AM-6PM",
    "services": [
      "Baby-Boomer-owned Investment advisory in North-Dakota consultation",
      "Professional service",
      "Quality guarantee"
    ],
    "social_links": {}
  },
  {
    "name": "Johnson Wealth Management, LLC (JWM)",
    "address": "406 Main Ave Suite 250, Fargo, ND 58103",
    "phone": "701-235-0555",
    "rating": 4.0,
    "reviews": 25,
    "website": "https://www.jwmllc.com/",
    "category": "Baby-Boomer-owned Investment advisory in North-Dakota",
    "description": "A fee-only financial planning and investment management firm established in 2002. They offer financial planning, investment management, and pension consulting services",
    "hours": "Mon-Fri 9AM-6PM",
    "services": [
      "Baby-Boomer-owned Investment advisory in North-Dakota consultation",
      "Professional service",
      "Quality guarantee"
    ],
    "social_links": {}
  },
  {
    "name": "Eide Bailly Advisors",
    "address": "102 N 4th St, Grand Forks, ND 58203 (Multiple locations, this is one example)",
    "phone": "701-746-0400",
    "rating": 4.0,
    "reviews": 25,
    "website": "https://www.eide Bailly.com/",
    "category": "Baby-Boomer-owned Investment advisory in North-Dakota",
    "description": "An accounting and business advisory firm that also offers wealth planning and investment services",
    "hours": "Mon-Fri 9AM-6PM",
    "services": [
      "Baby-Boomer-owned Investment advisory in North-Dakota consultation",
      "Professional service",
      "Quality guarantee"
    ],
    "social_links": {}
  },
  {
    "name": "RPM Advisors, LLC",
    "address": "406 Main Ave Suite 250, Fargo, ND 58103",
    "phone": "701-293-0270",
    "rating": 4.0,
    "reviews": 25,
    "website": "https://www.rpmadvisors.com/",
    "category": "Baby-Boomer-owned Investment advisory in North-Dakota",
    "description": "An advisory firm offering portfolio management, retirement, financial planning, and advisory services to individuals and institutions",
    "hours": "Mon-Fri 9AM-6PM",
    "services": [
      "Baby-Boomer-owned Investment advisory in North-Dakota consultation",
      "Professional service",
      "Quality guarantee"
    ],
    "social_links": {}
  },
  {
    "name": "Classic Asset Management (CAM)",
    "address": "1666 2nd Ave N, Fargo, ND 58102",
    "phone": "701-235-5555",
    "rating": 4.0,
    "reviews": 25,
    "website": "https://www.cam-llc.com/",
    "category": "Baby-Boomer-owned Investment advisory in North-Dakota",
    "description": "A federally registered investment advisory firm specializing in creating efficiencies for independent investment advisors and RIA firms",
    "hours": "Mon-Fri 9AM-6PM",
    "services": [
      "Baby-Boomer-owned Investment advisory in North-Dakota consultation",
      "Professional service",
      "Quality guarantee"
    ],
    "social_links": {}
  },
  {
    "name": "The Red River Group (Morgan Stanley Wealth Management)",
    "address": "406 Main Ave Suite 250, Fargo, ND 58103",
    "phone": "701-235-8283",
    "rating": 4.0,
    "reviews": 25,
    "website": "https://advisor.morganstanley.com/the-red-river-group",
    "category": "Baby-Boomer-owned Investment advisory in North-Dakota",
    "description": "Provides integrated wealth management services to individuals, families, and business owners, with a focus on comprehensive planning",
    "hours": "Mon-Fri 9AM-6PM",
    "services": [
      "Baby-Boomer-owned Investment advisory in North-Dakota consultation",
      "Professional service",
      "Quality guarantee"
    ],
    "social_links": {}
  },
  {
    "name": "Lux Wealth Advisors",
    "address": "Information not available",
    "phone": "",
    "rating": 4.0,
    "reviews": 25,
    "website": "https://luxwealthadvisors.com/",
    "category": "Baby-Boomer-owned Investment advisory in North-Dakota",
    "description": "A North Dakota-based firm offering comprehensive financial planning services, including wealth management, retirement planning, insurance, and estate/tax planning",
    "hours": "Mon-Fri 9AM-6PM",
    "services": [
      "Baby-Boomer-owned Investment advisory in North-Dakota consultation",
      "Professional service",
      "Quality guarantee"
    ],
    "social_links": {}
  }
]