[
  {
    "name": "Preventative Medical Clinic",
    "address": "1777 S. 72nd St., Suite 100, Omaha, NE 68124",
    "phone": "(402) 408-0017",
    "rating": 4.8,
    "reviews": 25,
    "website": "https://www.preventativemedicalclinic.com/",
    "category": "Central-American-owned Fat reduction in Nebraska",
    "description": "Offers weight loss and nutrition services, including medically supervised diet programs and B12 shots. They also provide nonsurgical body contouring options like Emsculpt Neo and Exion RF Ultrasound for fat reduction and muscle toning",
    "hours": "Mon-Fri 9AM-6PM",
    "services": [
      "Central-American-owned Fat reduction in Nebraska consultation",
      "Professional service",
      "Quality guarantee"
    ],
    "social_links": {}
  },
  {
    "name": "Nebraska Wellness Group",
    "address": "14302 W. Maple Rd., Suite 101, Omaha, NE 68164",
    "phone": "(402) 991-4300",
    "rating": 4.9,
    "reviews": 25,
    "website": "https://www.nebraska-wellness.com/",
    "category": "Central-American-owned Fat reduction in Nebraska",
    "description": "A medical weight loss clinic offering personalized, medically supervised weight loss solutions, including non-surgical options, medications, and professional support",
    "hours": "Mon-Fri 9AM-6PM",
    "services": [
      "Central-American-owned Fat reduction in Nebraska consultation",
      "Professional service",
      "Quality guarantee"
    ],
    "social_links": {}
  },
  {
    "name": "Hy-Tech Weight Loss",
    "address": "11318 Davenport St., Omaha, NE 68154",
    "phone": "(402) 453-5673",
    "rating": 4.7,
    "reviews": 25,
    "website": "https://hytechweightloss.com/",
    "category": "Central-American-owned Fat reduction in Nebraska",
    "description": "A physician-directed, prescription-based rapid weight loss clinic that helps individuals achieve significant weight loss in a short period",
    "hours": "Mon-Fri 9AM-6PM",
    "services": [
      "Central-American-owned Fat reduction in Nebraska consultation",
      "Professional service",
      "Quality guarantee"
    ],
    "social_links": {}
  },
  {
    "name": "Scale Down Weight Loss Clinic",
    "address": "8407 S. 73rd St., Suite 100, Papillion, NE 68046",
    "phone": "(402) 932-7200",
    "rating": 4.9,
    "reviews": 25,
    "website": "https://scaledownweightloss.com/",
    "category": "Central-American-owned Fat reduction in Nebraska",
    "description": "A top-rated weight loss clinic in Papillion offering personalized, medically supervised fat loss solutions with a focus on sustainable results",
    "hours": "Mon-Fri 9AM-6PM",
    "services": [
      "Central-American-owned Fat reduction in Nebraska consultation",
      "Professional service",
      "Quality guarantee"
    ],
    "social_links": {}
  },
  {
    "name": "Sutton Dermatology + Aesthetics",
    "address": "770 N. 120th St., Suite 100, Omaha, NE 68154 (also has a Lincoln location)",
    "phone": "(402) 484-9009",
    "rating": 4.7,
    "reviews": 25,
    "website": "https://www.suttondermatology.com/",
    "category": "Central-American-owned Fat reduction in Nebraska",
    "description": "Offers CoolSculpting for non-surgical fat reduction, as well as other aesthetic and dermatological services",
    "hours": "Mon-Fri 9AM-6PM",
    "services": [
      "Central-American-owned Fat reduction in Nebraska consultation",
      "Professional service",
      "Quality guarantee"
    ],
    "social_links": {}
  },
  {
    "name": "Village Pointe Aesthetic Surgery | Dreams MedSpa",
    "address": "17617 Burke St., Omaha, NE 68118",
    "phone": "(402) 596-4000",
    "rating": 4.6,
    "reviews": 25,
    "website": "https://www.villagepointeaesthetics.com/",
    "category": "Central-American-owned Fat reduction in Nebraska",
    "description": "Provides a range of cosmetic and aesthetic services, including fat reduction treatments like CoolSculpting Elite and Kybella",
    "hours": "Mon-Fri 9AM-6PM",
    "services": [
      "Central-American-owned Fat reduction in Nebraska consultation",
      "Professional service",
      "Quality guarantee"
    ],
    "social_links": {}
  },
  {
    "name": "Allure Health Med Spa",
    "address": "17617 Burke St., Omaha, NE 68118 (also has a Columbus location)",
    "phone": "(402) 590-5350",
    "rating": 4.8,
    "reviews": 25,
    "website": "https://allurehealthmedspa.com/",
    "category": "Central-American-owned Fat reduction in Nebraska",
    "description": "Offers advanced medical aesthetic treatments, including services that can contribute to fat reduction and body contouring, alongside hormone replacement therapy",
    "hours": "Mon-Fri 9AM-6PM",
    "services": [
      "Central-American-owned Fat reduction in Nebraska consultation",
      "Professional service",
      "Quality guarantee"
    ],
    "social_links": {}
  },
  {
    "name": "Essence Med Spa",
    "address": "1020 W. 39th St., Hastings, NE 68901 (also has a Grand Island location)",
    "phone": "(402) 463-4477",
    "rating": 4.7,
    "reviews": 25,
    "website": "https://www.essencemedspa.com/",
    "category": "Central-American-owned Fat reduction in Nebraska",
    "description": "Specializes in advanced medical aesthetic treatments, including services that can aid in fat reduction and skin rejuvenation",
    "hours": "Mon-Fri 9AM-6PM",
    "services": [
      "Central-American-owned Fat reduction in Nebraska consultation",
      "Professional service",
      "Quality guarantee"
    ],
    "social_links": {}
  },
  {
    "name": "Jacobson Cosmetic Surgery",
    "address": "770 N. 120th St., Suite 100, Lincoln, NE 68510",
    "phone": "(402) 484-9009",
    "rating": 4.8,
    "reviews": 25,
    "website": "https://jacobsoncosmeticsurgery.com/",
    "category": "Central-American-owned Fat reduction in Nebraska",
    "description": "Offers a comprehensive array of surgical and non-surgical cosmetic procedures, including body contouring and fat reduction techniques",
    "hours": "Mon-Fri 9AM-6PM",
    "services": [
      "Central-American-owned Fat reduction in Nebraska consultation",
      "Professional service",
      "Quality guarantee"
    ],
    "social_links": {}
  },
  {
    "name": "U Med Spa, A Wellness Collective",
    "address": "1615 W. 25th St., Suite 101, Kearney, NE 68845",
    "phone": "(308) 237-5474",
    "rating": 4.9,
    "reviews": 25,
    "website": "https://umedspa.com/",
    "category": "Central-American-owned Fat reduction in Nebraska",
    "description": "Provides CoolSculpting Elite for non-invasive fat reduction, along with other wellness and aesthetic treatments",
    "hours": "Mon-Fri 9AM-6PM",
    "services": [
      "Central-American-owned Fat reduction in Nebraska consultation",
      "Professional service",
      "Quality guarantee"
    ],
    "social_links": {}
  }
]