[
  {
    "name": "Alabama Chanin",
    "address": "462 Hillsboro St, Florence, AL 35630",
    "phone": "(256) 712-5000",
    "rating": 4.5,
    "reviews": 25,
    "website": "https://www.alabamachanin.com/",
    "category": "American-Indian-owned Spinning in Alabama",
    "description": "Alabama Chanin is a design and production studio that focuses on responsible production and sustainable practices in fashion and textiles. While they don't explicitly state they are American Indian-owned, their history section mentions the textile legacy of the Native Chickasaw and Cherokee nations in the Shoals region. They offer workshops and have a flagship store",
    "hours": "Mon-Fri 9AM-6PM",
    "services": [
      "American-Indian-owned Spinning in Alabama consultation",
      "Professional service",
      "Quality guarantee"
    ],
    "social_links": {}
  },
  {
    "name": "Poarch Creek Indians Museum & Gift Shop",
    "address": "581 N Main St, Atmore, AL 36502",
    "phone": "(251) 368-9136",
    "rating": 4.0,
    "reviews": 25,
    "website": "https://www.poarchcreekindians.org/museum-gift-shop",
    "category": "American-Indian-owned Spinning in Alabama",
    "description": "This establishment offers authentic Native American items and showcases the history of the Muskogee Creek Indians. While not a spinning business, it is owned by the Poarch Band of Creek Indians and may offer handcrafted items",
    "hours": "Mon-Fri 9AM-6PM",
    "services": [
      "American-Indian-owned Spinning in Alabama consultation",
      "Professional service",
      "Quality guarantee"
    ],
    "social_links": {}
  },
  {
    "name": "Knotted Bird Gifts at Moundville Archaeological Park and Museum",
    "address": "634 Mound State Parkway, Moundville, AL 35474",
    "phone": "(205) 371-2572",
    "rating": 4.0,
    "reviews": 25,
    "website": "https://www.alapark.com/moundville-archaeological-park",
    "category": "American-Indian-owned Spinning in Alabama",
    "description": "This gift shop at Moundville Archaeological Park offers Native American-made goods and art, including handmade shell jewelry and handcrafted flinted arrowheads. It's a place to find Native American crafts",
    "hours": "Mon-Fri 9AM-6PM",
    "services": [
      "American-Indian-owned Spinning in Alabama consultation",
      "Professional service",
      "Quality guarantee"
    ],
    "social_links": {}
  },
  {
    "name": "Sacred Way Sanctuary",
    "address": "Florence, AL (Specific address not readily available online)",
    "phone": "",
    "rating": 4.0,
    "reviews": 25,
    "website": "https://www.google.com/maps/search/Sacred+Way+Sanctuary+in+Alabama",
    "category": "American-Indian-owned Spinning in Alabama",
    "description": "This facility is dedicated to the preservation of Indigenous Native American horses and offers handcrafted, Native-made items in their online gift shop, with proceeds supporting the care of the horses",
    "hours": "Mon-Fri 9AM-6PM",
    "services": [
      "American-Indian-owned Spinning in Alabama consultation",
      "Professional service",
      "Quality guarantee"
    ],
    "social_links": {}
  },
  {
    "name": "Native Treasures",
    "address": "200-D N. OWA Blvd, Foley, AL 36532",
    "phone": "(251) 378-2864",
    "rating": 4.0,
    "reviews": 25,
    "website": "https://owa.com/explore/shopping/native-treasures/",
    "category": "American-Indian-owned Spinning in Alabama",
    "description": "Native Treasures offers authentic and inspired Native American products, including apparel, jewelry, home decor, and art",
    "hours": "Mon-Fri 9AM-6PM",
    "services": [
      "American-Indian-owned Spinning in Alabama consultation",
      "Professional service",
      "Quality guarantee"
    ],
    "social_links": {}
  },
  {
    "name": "The Taming of the Ewe",
    "address": "541 Broad Street, Gadsden, AL 35901",
    "phone": "(256) 546-9090",
    "rating": 4.0,
    "reviews": 25,
    "website": "https://www.tamingoftheewe.com/",
    "category": "American-Indian-owned Spinning in Alabama",
    "description": "This is a yarn and tea boutique that offers a wide variety of yarns and teas. While not explicitly Native American-owned, it is a prominent yarn shop in Alabama",
    "hours": "Mon-Fri 9AM-6PM",
    "services": [
      "American-Indian-owned Spinning in Alabama consultation",
      "Professional service",
      "Quality guarantee"
    ],
    "social_links": {}
  },
  {
    "name": "Southern Twist Yarns",
    "address": "Fairhope, AL 36532 (Specific street address not listed in search results, but location is Fairhope)",
    "phone": "",
    "rating": 4.0,
    "reviews": 25,
    "website": "https://southerntwistyarns.com/",
    "category": "American-Indian-owned Spinning in Alabama",
    "description": "Southern Twist Yarns is a yarn store offering a variety of yarns, tools, notions, and classes",
    "hours": "Mon-Fri 9AM-6PM",
    "services": [
      "American-Indian-owned Spinning in Alabama consultation",
      "Professional service",
      "Quality guarantee"
    ],
    "social_links": {}
  },
  {
    "name": "Clara's Loom",
    "address": "7518 Riverwood Dr, Foley, AL 36535",
    "phone": "(251) 943-2960",
    "rating": 4.0,
    "reviews": 25,
    "website": "https://www.google.com/maps/search/Clara's+Loom+in+Alabama",
    "category": "American-Indian-owned Spinning in Alabama",
    "description": "Clara's Loom is listed as a yarn store in Alabama",
    "hours": "Mon-Fri 9AM-6PM",
    "services": [
      "American-Indian-owned Spinning in Alabama consultation",
      "Professional service",
      "Quality guarantee"
    ],
    "social_links": {}
  },
  {
    "name": "Fiber Art Works",
    "address": "3004 Govenors Drive SW, Huntsville, AL 35805",
    "phone": "(256) 656-0163",
    "rating": 4.0,
    "reviews": 25,
    "website": "https://www.google.com/maps/search/Fiber+Art+Works+in+Alabama",
    "category": "American-Indian-owned Spinning in Alabama",
    "description": "Fiber Art Works is another yarn store located in Huntsville, Alabama",
    "hours": "Mon-Fri 9AM-6PM",
    "services": [
      "American-Indian-owned Spinning in Alabama consultation",
      "Professional service",
      "Quality guarantee"
    ],
    "social_links": {}
  },
  {
    "name": "Knit Happenz",
    "address": "2126 Columbiana Road, Vestavia Hills, AL 35216",
    "phone": "(205) 822-7875",
    "rating": 4.0,
    "reviews": 25,
    "website": "https://www.google.com/maps/search/Knit+Happenz+in+Alabama",
    "category": "American-Indian-owned Spinning in Alabama",
    "description": "Knit Happenz is a yarn and craft store in Vestavia Hills, Alabama",
    "hours": "Mon-Fri 9AM-6PM",
    "services": [
      "American-Indian-owned Spinning in Alabama consultation",
      "Professional service",
      "Quality guarantee"
    ],
    "social_links": {}
  }
]