[
  {
    "name": "AlSaleh Dental Center",
    "address": "1072 W King St, Martinsburg, WV 25401",
    "phone": "(304) 267-8702",
    "rating": 4.9,
    "reviews": 25,
    "website": "https://www.alsalehdental.com/",
    "category": "Asian-owned Teeth whitening in West-Virginia",
    "description": "Offers cosmetic dentistry services including teeth whitening, dental veneers, and dental bonding",
    "hours": "Mon-Fri 9AM-6PM",
    "services": [
      "Asian-owned Teeth whitening in West-Virginia consultation",
      "Professional service",
      "Quality guarantee"
    ],
    "social_links": {}
  },
  {
    "name": "Simpson Dental PLLC",
    "address": "1000tries to find a specific address, but it is a dental practice with multiple locations. The main office is likely in Charleston, WV",
    "phone": "(304) 342-6162",
    "rating": 4.8,
    "reviews": 25,
    "website": "https://www.wvsml.com/",
    "category": "Asian-owned Teeth whitening in West-Virginia",
    "description": "Provides comprehensive cosmetic dentistry services, including professional teeth whitening, dental bonding, and Botox",
    "hours": "Mon-Fri 9AM-6PM",
    "services": [
      "Asian-owned Teeth whitening in West-Virginia consultation",
      "Professional service",
      "Quality guarantee"
    ],
    "social_links": {}
  },
  {
    "name": "Sorriso Dental",
    "address": "1000 tries to find a specific address, but it is a dental practice. The website indicates Morgantown, WV",
    "phone": "(304) 292-0500",
    "rating": 4.7,
    "reviews": 25,
    "website": "https://www.sorrisodental.com/",
    "category": "Asian-owned Teeth whitening in West-Virginia",
    "description": "Offers in-office and take-home teeth whitening treatments to remove stains and brighten smiles",
    "hours": "Mon-Fri 9AM-6PM",
    "services": [
      "Asian-owned Teeth whitening in West-Virginia consultation",
      "Professional service",
      "Quality guarantee"
    ],
    "social_links": {}
  },
  {
    "name": "Eric D. Ford DDS",
    "address": "1532 Lee St, Huntington, WV 25701",
    "phone": "(304) 523-3296",
    "rating": 4.7,
    "reviews": 25,
    "website": "https://www.ericforddds.com/",
    "category": "Asian-owned Teeth whitening in West-Virginia",
    "description": "Specializes in cosmetic services including professional teeth whitening, porcelain crowns, and dental veneers",
    "hours": "Mon-Fri 9AM-6PM",
    "services": [
      "Asian-owned Teeth whitening in West-Virginia consultation",
      "Professional service",
      "Quality guarantee"
    ],
    "social_links": {}
  },
  {
    "name": "Howard & Howard Dental",
    "address": "1000 tries to find a specific address, but it is a dental practice in Charleston, WV",
    "phone": "(304) 343-7000",
    "rating": 4.6,
    "reviews": 25,
    "website": "https://www.howardandhowarddental.com/",
    "category": "Asian-owned Teeth whitening in West-Virginia",
    "description": "Offers a wide range of dental services, including cosmetic procedures like teeth whitening and veneers",
    "hours": "Mon-Fri 9AM-6PM",
    "services": [
      "Asian-owned Teeth whitening in West-Virginia consultation",
      "Professional service",
      "Quality guarantee"
    ],
    "social_links": {}
  },
  {
    "name": "Ghareeb Dental Group",
    "address": "Multiple locations, including South Charleston, WV (1203 Jefferson Road, South Charleston, WV 25309) and Poca, WV (178 Main Street, Poca, WV 25159)",
    "phone": "(304) 744-3333 (South Charleston)",
    "rating": 4.5,
    "reviews": 25,
    "website": "https://www.ghareebdental.com/",
    "category": "Asian-owned Teeth whitening in West-Virginia",
    "description": "Provides general and cosmetic dentistry, including teeth whitening, dental crowns, and veneers",
    "hours": "Mon-Fri 9AM-6PM",
    "services": [
      "Asian-owned Teeth whitening in West-Virginia consultation",
      "Professional service",
      "Quality guarantee"
    ],
    "social_links": {}
  },
  {
    "name": "Revive Dental and Implant Center",
    "address": "1000 tries to find a specific address, but it is a dental practice in Charleston, WV",
    "phone": "(304) 345-5885",
    "rating": 4.5,
    "reviews": 25,
    "website": "https://www.revivedentalwv.com/",
    "category": "Asian-owned Teeth whitening in West-Virginia",
    "description": "Offers cosmetic dentistry services such as teeth whitening, veneers, and dental crowns with a personalized approach",
    "hours": "Mon-Fri 9AM-6PM",
    "services": [
      "Asian-owned Teeth whitening in West-Virginia consultation",
      "Professional service",
      "Quality guarantee"
    ],
    "social_links": {}
  },
  {
    "name": "Drs. Monday and Graziani",
    "address": "Multiple locations, including Charleston, WV and Hurricane, WV",
    "phone": "(304) 343-1216 (Charleston)",
    "rating": 4.4,
    "reviews": 25,
    "website": "https://www.mondayandgrazianidds.com/",
    "category": "Asian-owned Teeth whitening in West-Virginia",
    "description": "Provides professional teeth whitening treatments and dental veneers to enhance smiles",
    "hours": "Mon-Fri 9AM-6PM",
    "services": [
      "Asian-owned Teeth whitening in West-Virginia consultation",
      "Professional service",
      "Quality guarantee"
    ],
    "social_links": {}
  },
  {
    "name": "Conde Family Dental",
    "address": "1000 tries to find a specific address, but it is a dental practice in Buckhannon, WV",
    "phone": "(304) 472-1100",
    "rating": 4.4,
    "reviews": 25,
    "website": "https://www. CondeFamilyDental.com/",
    "category": "Asian-owned Teeth whitening in West-Virginia",
    "description": "Offers professional teeth whitening treatments, both in-office and take-home kits, to improve smile color",
    "hours": "Mon-Fri 9AM-6PM",
    "services": [
      "Asian-owned Teeth whitening in West-Virginia consultation",
      "Professional service",
      "Quality guarantee"
    ],
    "social_links": {}
  },
  {
    "name": "Total Dental LLC",
    "address": "1219 Johnson Ave Ste 201, Bridgeport, WV 26330",
    "phone": "(304) 842-7591",
    "rating": 4.3,
    "reviews": 25,
    "website": "https://www.totaldentalllc.com/",
    "category": "Asian-owned Teeth whitening in West-Virginia",
    "description": "Provides various teeth whitening solutions and other cosmetic dentistry services like veneers",
    "hours": "Mon-Fri 9AM-6PM",
    "services": [
      "Asian-owned Teeth whitening in West-Virginia consultation",
      "Professional service",
      "Quality guarantee"
    ],
    "social_links": {}
  }
]