[
  {
    "name": "Christensen & Freeseman Orthodontics",
    "address": "Multiple locations in Northeast Iowa, including Waterloo, Decorah, Oelwein, and New Hampton",
    "phone": "(319) 234-2605 (Waterloo office)",
    "rating": 4.0,
    "reviews": 25,
    "website": "https://www.cfortho.com/",
    "category": "Armenian-speaking Orthodontics in Iowa",
    "description": "Offers orthodontic care for children and adults, including braces and clear aligners",
    "hours": "Mon-Fri 9AM-6PM",
    "services": [
      "Armenian-speaking Orthodontics in Iowa consultation",
      "Professional service",
      "Quality guarantee"
    ],
    "social_links": {}
  },
  {
    "name": "Foster Orthodontics",
    "address": "Des Moines, Knoxville, and Pleasantville, Iowa",
    "phone": "(515) 285-6134",
    "rating": 4.0,
    "reviews": 25,
    "website": "https://www.fosterorthodontics.com/",
    "category": "Armenian-speaking Orthodontics in Iowa",
    "description": "Provides orthodontic care for children and adults, including braces and clear aligners",
    "hours": "Mon-Fri 9AM-6PM",
    "services": [
      "Armenian-speaking Orthodontics in Iowa consultation",
      "Professional service",
      "Quality guarantee"
    ],
    "social_links": {}
  },
  {
    "name": "Dr. Suzanne Stock Orthodontics",
    "address": "Multiple locations including Iowa City, Fairfield, Williamsburg, and Washington",
    "phone": "(319) 338-8658",
    "rating": 4.0,
    "reviews": 25,
    "website": "https://www.drstockortho.com/",
    "category": "Armenian-speaking Orthodontics in Iowa",
    "description": "Offers orthodontic treatment for children and adults, including Invisalign and Clarity clear braces",
    "hours": "Mon-Fri 9AM-6PM",
    "services": [
      "Armenian-speaking Orthodontics in Iowa consultation",
      "Professional service",
      "Quality guarantee"
    ],
    "social_links": {}
  },
  {
    "name": "Ray Orthodontics",
    "address": "Cedar Rapids, Iowa",
    "phone": "(319) 393-3300",
    "rating": 4.0,
    "reviews": 25,
    "website": "https://www.rayorthodontics.com/",
    "category": "Armenian-speaking Orthodontics in Iowa",
    "description": "Board-certified orthodontist offering care for all ages, with a focus on a welcoming environment",
    "hours": "Mon-Fri 9AM-6PM",
    "services": [
      "Armenian-speaking Orthodontics in Iowa consultation",
      "Professional service",
      "Quality guarantee"
    ],
    "social_links": {}
  },
  {
    "name": "Brisk Orthodontics",
    "address": "2670 Hamilton Blvd, Sioux City, IA 51104",
    "phone": "(712) 252-1900",
    "rating": 4.0,
    "reviews": 25,
    "website": "https://www.briskorthodontics.com/",
    "category": "Armenian-speaking Orthodontics in Iowa",
    "description": "Specializes in customized treatment plans for children, teens, and adults, utilizing advanced digital technology",
    "hours": "Mon-Fri 9AM-6PM",
    "services": [
      "Armenian-speaking Orthodontics in Iowa consultation",
      "Professional service",
      "Quality guarantee"
    ],
    "social_links": {}
  },
  {
    "name": "Gomer Orthodontics",
    "address": "4015 Indian Hills Dr, Sioux City, IA 51108",
    "phone": "(712) 239-4690",
    "rating": 4.0,
    "reviews": 25,
    "website": "https://www.gomerorthodontics.com/",
    "category": "Armenian-speaking Orthodontics in Iowa",
    "description": "Offers comprehensive orthodontic care with advanced technology, focusing on personalized, family-friendly treatments",
    "hours": "Mon-Fri 9AM-6PM",
    "services": [
      "Armenian-speaking Orthodontics in Iowa consultation",
      "Professional service",
      "Quality guarantee"
    ],
    "social_links": {}
  },
  {
    "name": "O'Gara Orthodontics",
    "address": "Information not readily available, but serves Sioux City, IA",
    "phone": "",
    "rating": 4.0,
    "reviews": 25,
    "website": "https://www.google.com/maps/search/O'Gara+Orthodontics+in+Iowa",
    "category": "Armenian-speaking Orthodontics in Iowa",
    "description": "Provides expert orthodontic services with a focus on innovative techniques and patient comfort",
    "hours": "Mon-Fri 9AM-6PM",
    "services": [
      "Armenian-speaking Orthodontics in Iowa consultation",
      "Professional service",
      "Quality guarantee"
    ],
    "social_links": {}
  },
  {
    "name": "Koch Orthodontics",
    "address": "2435 West Central Park Avenue, Davenport, IA 52804",
    "phone": "(563) 386-9777",
    "rating": 4.0,
    "reviews": 25,
    "website": "https://www.kochorthodontics.com/",
    "category": "Armenian-speaking Orthodontics in Iowa",
    "description": "Focuses on personalized, family-friendly care using advanced digital technology for precise treatment planning",
    "hours": "Mon-Fri 9AM-6PM",
    "services": [
      "Armenian-speaking Orthodontics in Iowa consultation",
      "Professional service",
      "Quality guarantee"
    ],
    "social_links": {}
  },
  {
    "name": "O'Brien Orthodontics",
    "address": "2435 53rd Avenue, Bettendorf, IA 52722",
    "phone": "(563) 355-3455",
    "rating": 4.0,
    "reviews": 25,
    "website": "https://www.obrienorthodontics.com/",
    "category": "Armenian-speaking Orthodontics in Iowa",
    "description": "Emphasizes cutting-edge orthodontic solutions and compassionate patient care with state-of-the-art technology",
    "hours": "Mon-Fri 9AM-6PM",
    "services": [
      "Armenian-speaking Orthodontics in Iowa consultation",
      "Professional service",
      "Quality guarantee"
    ],
    "social_links": {}
  },
  {
    "name": "Ames Orthodontics",
    "address": "707 5th St, Ste 101, Ames, IA 50010",
    "phone": "(515) 232-3357",
    "rating": 4.0,
    "reviews": 25,
    "website": "https://www.amesortho.com/",
    "category": "Armenian-speaking Orthodontics in Iowa",
    "description": "Delivers personalized orthodontic care with a focus on a caring environment and customized treatment plans",
    "hours": "Mon-Fri 9AM-6PM",
    "services": [
      "Armenian-speaking Orthodontics in Iowa consultation",
      "Professional service",
      "Quality guarantee"
    ],
    "social_links": {}
  }
]