[
  {
    "name": "University of North Dakota - Department of Art & Design",
    "address": "Hughes Fine Arts Building, Grand Forks, ND 58202",
    "phone": "(701) 777-2257",
    "rating": 4.0,
    "reviews": 25,
    "website": "https://arts-sciences.und.edu/art-design/",
    "category": "Baby-Boomer-owned Sculpture instruction in North-Dakota",
    "description": "Offers introductory sculpture courses and various other art programs",
    "hours": "Mon-Fri 9AM-6PM",
    "services": [
      "Baby-Boomer-owned Sculpture instruction in North-Dakota consultation",
      "Professional service",
      "Quality guarantee"
    ],
    "social_links": {}
  },
  {
    "name": "North Dakota State University - Sculpture Studio/Art Education Studio",
    "address": "Fargo, ND",
    "phone": "",
    "rating": 4.0,
    "reviews": 25,
    "website": "https://www.ndsu.edu/design/facilities/sculpture_studio/",
    "category": "Baby-Boomer-owned Sculpture instruction in North-Dakota",
    "description": "Features a large sculpture studio with equipment for metal work, woodworking, and stone carving",
    "hours": "Mon-Fri 9AM-6PM",
    "services": [
      "Baby-Boomer-owned Sculpture instruction in North-Dakota consultation",
      "Professional service",
      "Quality guarantee"
    ],
    "social_links": {}
  },
  {
    "name": "The Arts Center & Hansen Arts Park",
    "address": "115 2nd St SW, Jamestown, ND 58401",
    "phone": "(701) 251-2496",
    "rating": 4.0,
    "reviews": 25,
    "website": "https://www.jamestownarts.com/",
    "category": "Baby-Boomer-owned Sculpture instruction in North-Dakota",
    "description": "Offers various art classes and workshops, including a ceramics studio and adult classroom. They also feature sculptures in their Arts Park",
    "hours": "Mon-Fri 9AM-6PM",
    "services": [
      "Baby-Boomer-owned Sculpture instruction in North-Dakota consultation",
      "Professional service",
      "Quality guarantee"
    ],
    "social_links": {}
  },
  {
    "name": "Mooreoki Art Studio",
    "address": "410 Broadway, Fargo, ND 58102",
    "phone": "(701) 200-5234",
    "rating": 4.0,
    "reviews": 25,
    "website": "https://www.google.com/maps/search/Mooreoki+Art+Studio+North+Dakota",
    "category": "Baby-Boomer-owned Sculpture instruction in North-Dakota",
    "description": "A unique space focusing on Anime Art in Downtown Fargo",
    "hours": "Mon-Fri 9AM-6PM",
    "services": [
      "Baby-Boomer-owned Sculpture instruction in North-Dakota consultation",
      "Professional service",
      "Quality guarantee"
    ],
    "social_links": {}
  },
  {
    "name": "Dakota Fine Art",
    "address": "11 8th St S, Fargo, ND",
    "phone": "(701) 293-3225",
    "rating": 4.0,
    "reviews": 25,
    "website": "https://www.google.com/maps/search/Dakota+Fine+Art+North+Dakota",
    "category": "Baby-Boomer-owned Sculpture instruction in North-Dakota",
    "description": "An artist-run gallery and collective selling fine art, including sculpture",
    "hours": "Mon-Fri 9AM-6PM",
    "services": [
      "Baby-Boomer-owned Sculpture instruction in North-Dakota consultation",
      "Professional service",
      "Quality guarantee"
    ],
    "social_links": {}
  },
  {
    "name": "Theo Art School",
    "address": "1810 Schafer Street, Bismarck, ND",
    "phone": "",
    "rating": 4.0,
    "reviews": 25,
    "website": "https://www.theoARTSCHOOL.com/",
    "category": "Baby-Boomer-owned Sculpture instruction in North-Dakota",
    "description": "Offers a variety of art instruction for all ages, including 3D art",
    "hours": "Mon-Fri 9AM-6PM",
    "services": [
      "Baby-Boomer-owned Sculpture instruction in North-Dakota consultation",
      "Professional service",
      "Quality guarantee"
    ],
    "social_links": {}
  },
  {
    "name": "North Dakota Museum of Art",
    "address": "Grand Forks, ND (specific address not provided in search results)",
    "phone": "",
    "rating": 4.0,
    "reviews": 25,
    "website": "https://www.ndmoa.com/",
    "category": "Baby-Boomer-owned Sculpture instruction in North-Dakota",
    "description": "Offers various art classes, including those taught by artists specializing in sculpture",
    "hours": "Mon-Fri 9AM-6PM",
    "services": [
      "Baby-Boomer-owned Sculpture instruction in North-Dakota consultation",
      "Professional service",
      "Quality guarantee"
    ],
    "social_links": {}
  },
  {
    "name": "Grand Forks Studio Artists",
    "address": "215 N 3rd Street, Suite 100, Grand Forks, ND 58203",
    "phone": "(701) 330-3072",
    "rating": 4.0,
    "reviews": 25,
    "website": "https://www.google.com/maps/search/Grand+Forks+Studio+Artists+North+Dakota",
    "category": "Baby-Boomer-owned Sculpture instruction in North-Dakota",
    "description": "A collective of local artists with studio residencies",
    "hours": "Mon-Fri 9AM-6PM",
    "services": [
      "Baby-Boomer-owned Sculpture instruction in North-Dakota consultation",
      "Professional service",
      "Quality guarantee"
    ],
    "social_links": {}
  },
  {
    "name": "Bismarck Century High School - Visual Arts Department",
    "address": "Bismarck, ND",
    "phone": "(323) 4900 ext. 6613",
    "rating": 4.0,
    "reviews": 25,
    "website": "https://www.google.com/maps/search/Bismarck+Century+High+School+-+Visual+Arts+Department+North+Dakota",
    "category": "Baby-Boomer-owned Sculpture instruction in North-Dakota",
    "description": "Offers art classes, including \"Ceramic & Sculpture,\" taught by instructors like Mr. Lies, who incorporates elements of sculpture into his work",
    "hours": "Mon-Fri 9AM-6PM",
    "services": [
      "Baby-Boomer-owned Sculpture instruction in North-Dakota consultation",
      "Professional service",
      "Quality guarantee"
    ],
    "social_links": {}
  },
  {
    "name": "Wyzant - Art Tutors in North Dakota",
    "address": "Online platform connecting tutors and students across North Dakota",
    "phone": "",
    "rating": 4.0,
    "reviews": 25,
    "website": "https://www.wyzant.com/north-dakota-art-tutors",
    "category": "Baby-Boomer-owned Sculpture instruction in North-Dakota",
    "description": "Connects individuals with art tutors, some of whom may specialize in sculpture",
    "hours": "Mon-Fri 9AM-6PM",
    "services": [
      "Baby-Boomer-owned Sculpture instruction in North-Dakota consultation",
      "Professional service",
      "Quality guarantee"
    ],
    "social_links": {}
  }
]