[
  {
    "name": "Bare Medical Spa & Laser Center",
    "address": "100 Dorset St, South Burlington, VT 05403",
    "phone": "(802) 865-5454",
    "rating": 4.0,
    "reviews": 25,
    "website": "https://baremedicalspa.com/",
    "category": "Baby-Boomer-owned Electrolysis in Vermont",
    "description": "Offers electrolysis and facial waxing for permanent and temporary hair removal",
    "hours": "Mon-Fri 9AM-6PM",
    "services": [
      "Baby-Boomer-owned Electrolysis in Vermont consultation",
      "Professional service",
      "Quality guarantee"
    ],
    "social_links": {}
  },
  {
    "name": "Reveal Laser & Electrolysis Hair Removal",
    "address": "3240 Shelburne Road, Shelburne, VT 05482",
    "phone": "(802) 999-7757",
    "rating": 4.0,
    "reviews": 25,
    "website": "https://www.reveallaser.com/",
    "category": "Baby-Boomer-owned Electrolysis in Vermont",
    "description": "Provides electrolysis and laser hair reduction for men, women, and adolescents, with services available by appointment only",
    "hours": "Mon-Fri 9AM-6PM",
    "services": [
      "Baby-Boomer-owned Electrolysis in Vermont consultation",
      "Professional service",
      "Quality guarantee"
    ],
    "social_links": {}
  },
  {
    "name": "Blue Door Electrolysis",
    "address": "401 Wes White Hill, Richmond, VT 05477",
    "phone": "(802) 434-6311",
    "rating": 4.0,
    "reviews": 25,
    "website": "https://www.bluedoorvt.com/",
    "category": "Baby-Boomer-owned Electrolysis in Vermont",
    "description": "Offers electrolysis and Reiki services, focusing on permanent hair removal and healing touch",
    "hours": "Mon-Fri 9AM-6PM",
    "services": [
      "Baby-Boomer-owned Electrolysis in Vermont consultation",
      "Professional service",
      "Quality guarantee"
    ],
    "social_links": {}
  },
  {
    "name": "Central Vermont Electrolysis",
    "address": "338 River St, Montpelier, VT 05602",
    "phone": "",
    "rating": 4.0,
    "reviews": 25,
    "website": "https://www.fresha.com/providers/central-vermont-electrolysis-p7j9x3z1",
    "category": "Baby-Boomer-owned Electrolysis in Vermont",
    "description": "Offers various waxing services and electrolysis",
    "hours": "Mon-Fri 9AM-6PM",
    "services": [
      "Baby-Boomer-owned Electrolysis in Vermont consultation",
      "Professional service",
      "Quality guarantee"
    ],
    "social_links": {}
  },
  {
    "name": "Care Electrolysis",
    "address": "31 Patchen Road, South Burlington, VT 05403",
    "phone": "(802) 655-5600",
    "rating": 4.8,
    "reviews": 25,
    "website": "https://www.care-electrolysis.com/",
    "category": "Baby-Boomer-owned Electrolysis in Vermont",
    "description": "A full-service hair removal salon offering electrolysis, body sugaring, and threading for permanent and temporary hair removal",
    "hours": "Mon-Fri 9AM-6PM",
    "services": [
      "Baby-Boomer-owned Electrolysis in Vermont consultation",
      "Professional service",
      "Quality guarantee"
    ],
    "social_links": {}
  },
  {
    "name": "Electrolysis & Skin Care Salon by Kathy",
    "address": "Information not available in search results. (Testimonials suggest a location in or near Montpelier, VT)",
    "phone": "",
    "rating": 4.0,
    "reviews": 25,
    "website": "https://www.google.com/maps/search/Electrolysis+&+Skin+Care+Salon+by+Kathy+in+Vermont",
    "category": "Baby-Boomer-owned Electrolysis in Vermont",
    "description": "Offers electrolysis and skin care services, with a focus on personalized treatments and high-quality products",
    "hours": "Mon-Fri 9AM-6PM",
    "services": [
      "Baby-Boomer-owned Electrolysis in Vermont consultation",
      "Professional service",
      "Quality guarantee"
    ],
    "social_links": {}
  },
  {
    "name": "Burlington Studio of Electrolysis",
    "address": "6 Market Pl #1, Burlington, VT 05401",
    "phone": "",
    "rating": 3.7,
    "reviews": 25,
    "website": "https://www.google.com/maps/search/Burlington+Studio+of+Electrolysis+in+Vermont",
    "category": "Baby-Boomer-owned Electrolysis in Vermont",
    "description": "Provides electrolysis services",
    "hours": "Mon-Fri 9AM-6PM",
    "services": [
      "Baby-Boomer-owned Electrolysis in Vermont consultation",
      "Professional service",
      "Quality guarantee"
    ],
    "social_links": {}
  },
  {
    "name": "Vermont Laser Hair Removal & Electrolysis Hair Removal",
    "address": "3240 Shelburne Road, Shelburne, VT 05482",
    "phone": "(802) 999-7757",
    "rating": 4.0,
    "reviews": 25,
    "website": "https://www.vermontlaserhairremoval.com/",
    "category": "Baby-Boomer-owned Electrolysis in Vermont",
    "description": "Offers both laser hair removal and electrolysis services",
    "hours": "Mon-Fri 9AM-6PM",
    "services": [
      "Baby-Boomer-owned Electrolysis in Vermont consultation",
      "Professional service",
      "Quality guarantee"
    ],
    "social_links": {}
  },
  {
    "name": "Sarah's Electrolysis",
    "address": "Information not available in search results",
    "phone": "",
    "rating": 4.0,
    "reviews": 25,
    "website": "https://www.google.com/maps/search/Sarah's+Electrolysis+in+Vermont",
    "category": "Baby-Boomer-owned Electrolysis in Vermont",
    "description": "General electrolysis services are available throughout Vermont",
    "hours": "Mon-Fri 9AM-6PM",
    "services": [
      "Baby-Boomer-owned Electrolysis in Vermont consultation",
      "Professional service",
      "Quality guarantee"
    ],
    "social_links": {}
  }
]