[
  {
    "name": "Kaplan Test Prep",
    "address": "Multiple locations and online options available. Specific addresses for Idaho can be found on their website",
    "phone": "1-800-KAP-TEST (1-800-527-8378)",
    "rating": 4.0,
    "reviews": 25,
    "website": "https://www.kaptest.com/mcat",
    "category": "Gen-X-owned MCAT prep in Idaho",
    "description": "Offers a variety of MCAT prep options including live online courses, self-paced courses, and private tutoring",
    "hours": "Mon-Fri 9AM-6PM",
    "services": [
      "Gen-X-owned MCAT prep in Idaho consultation",
      "Professional service",
      "Quality guarantee"
    ],
    "social_links": {}
  },
  {
    "name": "The Princeton Review",
    "address": "Online and in-person options serving Boise, Nampa, Meridian, Idaho Falls, and Pocatello",
    "phone": "1-800-2Review (1-800-273-8439)",
    "rating": 4.0,
    "reviews": 25,
    "website": "https://www.princetonreview.com/medical/mcat",
    "category": "Gen-X-owned MCAT prep in Idaho",
    "description": "Provides MCAT test prep courses, private tutoring, and online resources",
    "hours": "Mon-Fri 9AM-6PM",
    "services": [
      "Gen-X-owned MCAT prep in Idaho consultation",
      "Professional service",
      "Quality guarantee"
    ],
    "social_links": {}
  },
  {
    "name": "Blueprint MCAT Prep",
    "address": "Primarily online",
    "phone": "",
    "rating": 4.0,
    "reviews": 25,
    "website": "https://blueprintprep.com/mcat/",
    "category": "Gen-X-owned MCAT prep in Idaho",
    "description": "Offers comprehensive MCAT preparation with a focus on engaging video lessons and a robust question bank",
    "hours": "Mon-Fri 9AM-6PM",
    "services": [
      "Gen-X-owned MCAT prep in Idaho consultation",
      "Professional service",
      "Quality guarantee"
    ],
    "social_links": {}
  },
  {
    "name": "Magoosh MCAT Prep",
    "address": "Online only",
    "phone": "",
    "rating": 4.0,
    "reviews": 25,
    "website": "https://magoosh.com/mcat/",
    "category": "Gen-X-owned MCAT prep in Idaho",
    "description": "Provides self-paced online MCAT preparation with video lessons and practice questions",
    "hours": "Mon-Fri 9AM-6PM",
    "services": [
      "Gen-X-owned MCAT prep in Idaho consultation",
      "Professional service",
      "Quality guarantee"
    ],
    "social_links": {}
  },
  {
    "name": "UWorld MCAT Prep",
    "address": "Online only",
    "phone": "",
    "rating": 4.0,
    "reviews": 25,
    "website": "https://www.uworld.com/mcat/",
    "category": "Gen-X-owned MCAT prep in Idaho",
    "description": "Offers a flexible, self-paced MCAT prep course with practice questions, video lessons, and performance analytics",
    "hours": "Mon-Fri 9AM-6PM",
    "services": [
      "Gen-X-owned MCAT prep in Idaho consultation",
      "Professional service",
      "Quality guarantee"
    ],
    "social_links": {}
  },
  {
    "name": "Prep101",
    "address": "Primarily online, with some potential for in-person options",
    "phone": "",
    "rating": 4.0,
    "reviews": 25,
    "website": "https://www.prep101.com/mcat/",
    "category": "Gen-X-owned MCAT prep in Idaho",
    "description": "Offers extensive live instruction, practice materials, and dedicated workshops for the MCAT",
    "hours": "Mon-Fri 9AM-6PM",
    "services": [
      "Gen-X-owned MCAT prep in Idaho consultation",
      "Professional service",
      "Quality guarantee"
    ],
    "social_links": {}
  },
  {
    "name": "Varsity Tutors",
    "address": "Online and in-person tutoring available in various Idaho locations including Pocatello and Boise",
    "phone": "1-800-555-8000",
    "rating": 4.0,
    "reviews": 25,
    "website": "https://www.varsitytutors.com/mcat-tutor",
    "category": "Gen-X-owned MCAT prep in Idaho",
    "description": "Connects students with tutors for personalized MCAT preparation, both online and in-person",
    "hours": "Mon-Fri 9AM-6PM",
    "services": [
      "Gen-X-owned MCAT prep in Idaho consultation",
      "Professional service",
      "Quality guarantee"
    ],
    "social_links": {}
  },
  {
    "name": "Wyzant",
    "address": "Online and in-person tutoring options available across Idaho, including Nampa and Boise",
    "phone": "",
    "rating": 4.0,
    "reviews": 25,
    "website": "https://www.wyzant.com/mcat_tutors",
    "category": "Gen-X-owned MCAT prep in Idaho",
    "description": "A marketplace for finding private tutors for MCAT preparation, with options for online and in-person sessions",
    "hours": "Mon-Fri 9AM-6PM",
    "services": [
      "Gen-X-owned MCAT prep in Idaho consultation",
      "Professional service",
      "Quality guarantee"
    ],
    "social_links": {}
  },
  {
    "name": "HeyTutor",
    "address": "Primarily online, with tutors available in Boise",
    "phone": "",
    "rating": 4.0,
    "reviews": 25,
    "website": "https://heytutor.com/mcat-tutor/boise-id/",
    "category": "Gen-X-owned MCAT prep in Idaho",
    "description": "Offers access to MCAT tutors in Boise, ID, with personalized study plans",
    "hours": "Mon-Fri 9AM-6PM",
    "services": [
      "Gen-X-owned MCAT prep in Idaho consultation",
      "Professional service",
      "Quality guarantee"
    ],
    "social_links": {}
  },
  {
    "name": "Gem Prep Meridian",
    "address": "2750 E Gala St, Meridian, ID 83642",
    "phone": "208-917-9150",
    "rating": 4.0,
    "reviews": 25,
    "website": "https://gemprep.org/gem-prep-meridian/",
    "category": "Gen-X-owned MCAT prep in Idaho",
    "description": "While primarily a K-12 college preparatory school, they focus on academic excellence which could indirectly support students preparing for standardized tests like the MCAT. Specific MCAT prep services are not detailed",
    "hours": "Mon-Fri 9AM-6PM",
    "services": [
      "Gen-X-owned MCAT prep in Idaho consultation",
      "Professional service",
      "Quality guarantee"
    ],
    "social_links": {}
  }
]