[
  {
    "name": "Momentum Employer Group",
    "address": "1070 W 2550 S, Ogden, UT 84401",
    "phone": "(801) 621-7000",
    "rating": 4.0,
    "reviews": 25,
    "website": "https://www.momentumemployer.com/",
    "category": "Agnostic-owned Benefits administration in Utah",
    "description": "Offers full-service benefits administration, including health insurance, HR, and payroll administration, aiming to attract and retain top talent",
    "hours": "Mon-Fri 9AM-6PM",
    "services": [
      "Agnostic-owned Benefits administration in Utah consultation",
      "Professional service",
      "Quality guarantee"
    ],
    "social_links": {}
  },
  {
    "name": "Nielsen Benefits Group",
    "address": "8770 S 700 E, Sandy, UT 84070",
    "phone": "(801) 567-0700",
    "rating": 4.0,
    "reviews": 25,
    "website": "https://www.nielsenbg.com/",
    "category": "Agnostic-owned Benefits administration in Utah",
    "description": "Provides employee group benefits administration with a focus on exceptional service, including dedicated account managers, benefit premium reconciliation, and employee issue resolution",
    "hours": "Mon-Fri 9AM-6PM",
    "services": [
      "Agnostic-owned Benefits administration in Utah consultation",
      "Professional service",
      "Quality guarantee"
    ],
    "social_links": {}
  },
  {
    "name": "PDR Benefits",
    "address": "1575 W 700 S, Lehi, UT 84043",
    "phone": "(801) 404-5241",
    "rating": 4.0,
    "reviews": 25,
    "website": "https://www.pdrbenefits.com/",
    "category": "Agnostic-owned Benefits administration in Utah",
    "description": "A PEO/Payroll company offering payroll, HR, and benefits services to small businesses, with a focus on client support and business success",
    "hours": "Mon-Fri 9AM-6PM",
    "services": [
      "Agnostic-owned Benefits administration in Utah consultation",
      "Professional service",
      "Quality guarantee"
    ],
    "social_links": {}
  },
  {
    "name": "Altura Benefits",
    "address": "Information not available",
    "phone": "",
    "rating": 4.0,
    "reviews": 25,
    "website": "https://alturabenefits.com/",
    "category": "Agnostic-owned Benefits administration in Utah",
    "description": "Provides personalized benefits management solutions, HR, compliance, and payroll services, aiming to streamline the employee benefits experience for businesses of all sizes",
    "hours": "Mon-Fri 9AM-6PM",
    "services": [
      "Agnostic-owned Benefits administration in Utah consultation",
      "Professional service",
      "Quality guarantee"
    ],
    "social_links": {}
  },
  {
    "name": "Quality Payroll & Benefits",
    "address": "1325 N 1000 W, Orem, UT 84057",
    "phone": "(801) 765-2000",
    "rating": 4.0,
    "reviews": 25,
    "website": "https://qualitypayroll.com/",
    "category": "Agnostic-owned Benefits administration in Utah",
    "description": "Offers comprehensive services including payroll processing, bookkeeping, human resources, and benefits administration, serving as a one-stop solution for administrative needs",
    "hours": "Mon-Fri 9AM-6PM",
    "services": [
      "Agnostic-owned Benefits administration in Utah consultation",
      "Professional service",
      "Quality guarantee"
    ],
    "social_links": {}
  },
  {
    "name": "Helpside",
    "address": "1575 W 700 S, Lehi, UT 84043",
    "phone": "(801) 601-1110",
    "rating": 4.0,
    "reviews": 25,
    "website": "https://www.helpside.com/",
    "category": "Agnostic-owned Benefits administration in Utah",
    "description": "A Utah-based PEO company offering HR, payroll, employee benefits, compliance, and risk management solutions for small to mid-sized businesses",
    "hours": "Mon-Fri 9AM-6PM",
    "services": [
      "Agnostic-owned Benefits administration in Utah consultation",
      "Professional service",
      "Quality guarantee"
    ],
    "social_links": {}
  },
  {
    "name": "VensureHR",
    "address": "11878 S State St, Draper, UT 84020",
    "phone": "(801) 701-1340",
    "rating": 4.0,
    "reviews": 25,
    "website": "https://vensure.com/",
    "category": "Agnostic-owned Benefits administration in Utah",
    "description": "Provides PEO services nationwide, including HR management, payroll processing, benefits administration, and workers' compensation insurance",
    "hours": "Mon-Fri 9AM-6PM",
    "services": [
      "Agnostic-owned Benefits administration in Utah consultation",
      "Professional service",
      "Quality guarantee"
    ],
    "social_links": {}
  },
  {
    "name": "MBA Benefit Administrators",
    "address": "Information not available",
    "phone": "",
    "rating": 4.0,
    "reviews": 25,
    "website": "https://mbabenefitadministrators.com/",
    "category": "Agnostic-owned Benefits administration in Utah",
    "description": "Offers third-party administration, auditing, re-pricing services, and medical case management to help organizations achieve savings",
    "hours": "Mon-Fri 9AM-6PM",
    "services": [
      "Agnostic-owned Benefits administration in Utah consultation",
      "Professional service",
      "Quality guarantee"
    ],
    "social_links": {}
  },
  {
    "name": "isolved",
    "address": "1100 E 6600 S, Murray, UT 84121 (This address is for a different company, isolved's specific Utah address for benefits administration is not readily available in search results)",
    "phone": "(801) 263-1770",
    "rating": 4.0,
    "reviews": 25,
    "website": "https://www.isolvedhcm.com/",
    "category": "Agnostic-owned Benefits administration in Utah",
    "description": "Offers secure processing services with a focus on flexible and timely delivery, including HR consulting and benefits administration",
    "hours": "Mon-Fri 9AM-6PM",
    "services": [
      "Agnostic-owned Benefits administration in Utah consultation",
      "Professional service",
      "Quality guarantee"
    ],
    "social_links": {}
  },
  {
    "name": "Workman Success Systems",
    "address": "4501 S 2000 E, Salt Lake City, UT 84117",
    "phone": "(801) 685-7000",
    "rating": 4.0,
    "reviews": 25,
    "website": "https://workmansuccess.com/",
    "category": "Agnostic-owned Benefits administration in Utah",
    "description": "A business consulting and HR consulting company offering services to help businesses manage their operations and employees",
    "hours": "Mon-Fri 9AM-6PM",
    "services": [
      "Agnostic-owned Benefits administration in Utah consultation",
      "Professional service",
      "Quality guarantee"
    ],
    "social_links": {}
  }
]