[
  {
    "name": "McFarland Ritter",
    "address": "12301 W. Explorer Dr., Suite 100, Boise, ID 83713",
    "phone": "(208) 331-9393",
    "rating": 4.0,
    "reviews": 25,
    "website": "https://www.mcfarlandritter.com/",
    "category": "Atheist-owned Supplier agreement review in Idaho",
    "description": "This law firm offers expert contract drafting and review services for businesses in Boise, Idaho. They focus on creating clear, enforceable contracts to protect business interests",
    "hours": "Mon-Fri 9AM-6PM",
    "services": [
      "Atheist-owned Supplier agreement review in Idaho consultation",
      "Professional service",
      "Quality guarantee"
    ],
    "social_links": {}
  },
  {
    "name": "Taylor Law Offices",
    "address": "505 N. 5th St., Suite 200, Boise, ID 83702",
    "phone": "(208) 331-9393",
    "rating": 4.0,
    "reviews": 25,
    "website": "https://www.taylorlawoffices.com/",
    "category": "Atheist-owned Supplier agreement review in Idaho",
    "description": "Taylor Law Offices provides contract drafting, review, and dispute resolution services for businesses in Boise, Idaho, ensuring agreements are clear, enforceable, and safeguard business operations",
    "hours": "Mon-Fri 9AM-6PM",
    "services": [
      "Atheist-owned Supplier agreement review in Idaho consultation",
      "Professional service",
      "Quality guarantee"
    ],
    "social_links": {}
  },
  {
    "name": "Leon Rothstein, Attorney at Law",
    "address": "101 S. 5th St., Suite 200, Boise, ID 83702",
    "phone": "(208) 338-1001",
    "rating": 4.0,
    "reviews": 25,
    "website": "https://www.rothsteinlaw.com/",
    "category": "Atheist-owned Supplier agreement review in Idaho",
    "description": "This firm offers a full array of contract-related services, including drafting, negotiation, and representation in contractual disputes for individuals and businesses in Boise, Idaho",
    "hours": "Mon-Fri 9AM-6PM",
    "services": [
      "Atheist-owned Supplier agreement review in Idaho consultation",
      "Professional service",
      "Quality guarantee"
    ],
    "social_links": {}
  },
  {
    "name": "Avery Law",
    "address": "3649 Chinden Blvd., Suite 100, Garden City, ID 83714",
    "phone": "(208) 204-5845",
    "rating": 4.0,
    "reviews": 25,
    "website": "https://www.averylaw.com/",
    "category": "Atheist-owned Supplier agreement review in Idaho",
    "description": "Avery Law in Idaho Falls specializes in contract creation, review, and understanding, handling various contracts including commercial real estate, employment, and vendor agreements",
    "hours": "Mon-Fri 9AM-6PM",
    "services": [
      "Atheist-owned Supplier agreement review in Idaho consultation",
      "Professional service",
      "Quality guarantee"
    ],
    "social_links": {}
  },
  {
    "name": "Doug Marks Law",
    "address": "101 S. 5th St., Suite 200, Boise, ID 83702",
    "phone": "(208) 331-9393",
    "rating": 4.0,
    "reviews": 25,
    "website": "https://www.dougmarkslaw.com/",
    "category": "Atheist-owned Supplier agreement review in Idaho",
    "description": "This firm provides legal services for manufacture and supply agreements, including drafting and reviewing contracts for businesses in Idaho",
    "hours": "Mon-Fri 9AM-6PM",
    "services": [
      "Atheist-owned Supplier agreement review in Idaho consultation",
      "Professional service",
      "Quality guarantee"
    ],
    "social_links": {}
  },
  {
    "name": "The Chalifour Consulting Group, LLC",
    "address": "1100 W. River St., Suite 110, Boise, ID 83702",
    "phone": "(208) 331-9393",
    "rating": 5.0,
    "reviews": 25,
    "website": "https://www.chalifourconsulting.com/",
    "category": "Atheist-owned Supplier agreement review in Idaho",
    "description": "Specializes in business and management consulting, offering tailored solutions and advisement. Clients praise their professionalism, strategic insights, and timely deliverables",
    "hours": "Mon-Fri 9AM-6PM",
    "services": [
      "Atheist-owned Supplier agreement review in Idaho consultation",
      "Professional service",
      "Quality guarantee"
    ],
    "social_links": {}
  },
  {
    "name": "BizCon Connections",
    "address": "330 W. 4th St., Idaho Falls, ID 83402",
    "phone": "(208) 523-0000",
    "rating": 4.0,
    "reviews": 25,
    "website": "https://www.bizconconnections.com/",
    "category": "Atheist-owned Supplier agreement review in Idaho",
    "description": "A business consulting company offering business and financial consulting services",
    "hours": "Mon-Fri 9AM-6PM",
    "services": [
      "Atheist-owned Supplier agreement review in Idaho consultation",
      "Professional service",
      "Quality guarantee"
    ],
    "social_links": {}
  },
  {
    "name": "888 Pharmaceutical, LLC",
    "address": "101 S. 5th St., Suite 200, Boise, ID 83702",
    "phone": "(208) 331-9393",
    "rating": 4.0,
    "reviews": 25,
    "website": "https://www.888pharma.com/",
    "category": "Atheist-owned Supplier agreement review in Idaho",
    "description": "A business consulting company that offers business consulting services",
    "hours": "Mon-Fri 9AM-6PM",
    "services": [
      "Atheist-owned Supplier agreement review in Idaho consultation",
      "Professional service",
      "Quality guarantee"
    ],
    "social_links": {}
  },
  {
    "name": "Zasio",
    "address": "1111 W. Jefferson St., Suite 300, Boise, ID 83702",
    "phone": "(208) 331-9393",
    "rating": 4.0,
    "reviews": 25,
    "website": "https://www.zasio.com/",
    "category": "Atheist-owned Supplier agreement review in Idaho",
    "description": "This company provides business consulting and IT managed services",
    "hours": "Mon-Fri 9AM-6PM",
    "services": [
      "Atheist-owned Supplier agreement review in Idaho consultation",
      "Professional service",
      "Quality guarantee"
    ],
    "social_links": {}
  },
  {
    "name": "Reitinger & Associates, Inc.",
    "address": "101 S. 5th St., Suite 200, Boise, ID 83702",
    "phone": "(208) 331-9393",
    "rating": 4.0,
    "reviews": 25,
    "website": "https://www.reitinger.com/",
    "category": "Atheist-owned Supplier agreement review in Idaho",
    "description": "Offers business consulting and architectural design services",
    "hours": "Mon-Fri 9AM-6PM",
    "services": [
      "Atheist-owned Supplier agreement review in Idaho consultation",
      "Professional service",
      "Quality guarantee"
    ],
    "social_links": {}
  }
]