[
  {
    "name": "Commercial Tire - Rexburg",
    "address": "710 N 2nd E, Rexburg, ID 83440",
    "phone": "(208) 656-2598",
    "rating": 4.0,
    "reviews": 25,
    "website": "https://www.commercialtire.com/locations/rexburg/",
    "category": "Chinese-speaking Tire sales in Idaho",
    "description": "Offers a wide selection of tires and auto repair services",
    "hours": "Mon-Fri 9AM-6PM",
    "services": [
      "Chinese-speaking Tire sales in Idaho consultation",
      "Professional service",
      "Quality guarantee"
    ],
    "social_links": {}
  },
  {
    "name": "Perfection Tire and Auto Repair - Coeur d'Alene",
    "address": "4005 N. Govt. Way, Coeur d'Alene, ID 83815",
    "phone": "(208) 667-8491",
    "rating": 4.0,
    "reviews": 25,
    "website": "https://www.perfectiontire.com/locations/coeur-dalene/",
    "category": "Chinese-speaking Tire sales in Idaho",
    "description": "Full-service auto repair and maintenance facility with a great selection of tires and custom wheels",
    "hours": "Mon-Fri 9AM-6PM",
    "services": [
      "Chinese-speaking Tire sales in Idaho consultation",
      "Professional service",
      "Quality guarantee"
    ],
    "social_links": {}
  },
  {
    "name": "Buzs Tire and Automotive - Pocatello",
    "address": "370 W Oak St, Pocatello, ID 83201",
    "phone": "(208) 234-7340",
    "rating": 4.0,
    "reviews": 25,
    "website": "https://www.google.com/maps/search/Buzs+Tire+and+Automotive+-+Pocatello+in+Idaho",
    "category": "Chinese-speaking Tire sales in Idaho",
    "description": "Offers tire and automotive services with positive customer reviews",
    "hours": "Mon-Fri 9AM-6PM",
    "services": [
      "Chinese-speaking Tire sales in Idaho consultation",
      "Professional service",
      "Quality guarantee"
    ],
    "social_links": {}
  },
  {
    "name": "208 Tire - Caldwell",
    "address": "19945 Middleton Road, Caldwell ID 83605",
    "phone": "(541) 212-7054",
    "rating": 4.0,
    "reviews": 25,
    "website": "https://www.google.com/maps/search/208+Tire+-+Caldwell+in+Idaho",
    "category": "Chinese-speaking Tire sales in Idaho",
    "description": "Offers tire sales and repair services",
    "hours": "Mon-Fri 9AM-6PM",
    "services": [
      "Chinese-speaking Tire sales in Idaho consultation",
      "Professional service",
      "Quality guarantee"
    ],
    "social_links": {}
  },
  {
    "name": "Best Tire & Auto Repair - Coeur d'Alene",
    "address": "3020 North Government Way, Coeur d'Alene, ID",
    "phone": "(208) 765-1914",
    "rating": 4.0,
    "reviews": 25,
    "website": "https://www.google.com/maps/search/Best+Tire+&+Auto+Repair+-+Coeur+d'Alene+in+Idaho",
    "category": "Chinese-speaking Tire sales in Idaho",
    "description": "Provides quality auto repairs and tires at competitive prices",
    "hours": "Mon-Fri 9AM-6PM",
    "services": [
      "Chinese-speaking Tire sales in Idaho consultation",
      "Professional service",
      "Quality guarantee"
    ],
    "social_links": {}
  },
  {
    "name": "Commercial Tire - Idaho Falls",
    "address": "4460 W Andco Dr, Idaho Falls, ID",
    "phone": "(208) 552-2950",
    "rating": 4.0,
    "reviews": 25,
    "website": "https://www.commercialtire.com/locations/idaho-falls/",
    "category": "Chinese-speaking Tire sales in Idaho",
    "description": "Offers a full range of auto repair services and a selection of premium tires",
    "hours": "Mon-Fri 9AM-6PM",
    "services": [
      "Chinese-speaking Tire sales in Idaho consultation",
      "Professional service",
      "Quality guarantee"
    ],
    "social_links": {}
  },
  {
    "name": "Clair & Dee's Point S - Rexburg",
    "address": "117 N 2nd E, Rexburg, ID 83440",
    "phone": "(208) 709-7658",
    "rating": 4.0,
    "reviews": 25,
    "website": "https://www.clairanddees.com/locations/rexburg/",
    "category": "Chinese-speaking Tire sales in Idaho",
    "description": "Offers tire services, wheel alignments, and brake repairs",
    "hours": "Mon-Fri 9AM-6PM",
    "services": [
      "Chinese-speaking Tire sales in Idaho consultation",
      "Professional service",
      "Quality guarantee"
    ],
    "social_links": {}
  },
  {
    "name": "Discount Tire - Meridian",
    "address": "3595 E Ustick Rd, Meridian, ID 83642",
    "phone": "(208) 888-6537",
    "rating": 4.0,
    "reviews": 25,
    "website": "https://www.discounttire.com/store/id/meridian/3595-e-ustick-rd",
    "category": "Chinese-speaking Tire sales in Idaho",
    "description": "Offers a wide selection of tires and rims, with services like rotation, balancing, and repair",
    "hours": "Mon-Fri 9AM-6PM",
    "services": [
      "Chinese-speaking Tire sales in Idaho consultation",
      "Professional service",
      "Quality guarantee"
    ],
    "social_links": {}
  },
  {
    "name": "Discount Tire - Pocatello",
    "address": "1591 Yellowstone Ave, Pocatello, ID 83201",
    "phone": "(208) 269-1292",
    "rating": 4.0,
    "reviews": 25,
    "website": "https://www.discounttire.com/store/id/pocatello/1591-yellowstone-ave",
    "category": "Chinese-speaking Tire sales in Idaho",
    "description": "Provides top tire brands and affordable prices, with services like rotations and inspections",
    "hours": "Mon-Fri 9AM-6PM",
    "services": [
      "Chinese-speaking Tire sales in Idaho consultation",
      "Professional service",
      "Quality guarantee"
    ],
    "social_links": {}
  },
  {
    "name": "Nampa Tire Shop",
    "address": "Not specified in search results, but likely in Nampa, ID",
    "phone": "(208) 466-9241",
    "rating": 4.0,
    "reviews": 25,
    "website": "https://www.google.com/maps/search/Nampa+Tire+Shop+in+Idaho",
    "category": "Chinese-speaking Tire sales in Idaho",
    "description": "Offers a wide selection of quality tires and auto services",
    "hours": "Mon-Fri 9AM-6PM",
    "services": [
      "Chinese-speaking Tire sales in Idaho consultation",
      "Professional service",
      "Quality guarantee"
    ],
    "social_links": {}
  }
]