[
  {
    "name": "InterAsian Market & Deli",
    "address": "587 Nolensville Pike, Nashville, TN 37211",
    "phone": "(615) 833-3333",
    "rating": 4.0,
    "reviews": 25,
    "website": "https://www.google.com/maps/search/InterAsian+Market+&+Deli+in+Tennessee",
    "category": "Asian-owned Parks in Tennessee",
    "description": "A family-owned market and deli offering a wide variety of Asian groceries and Vietnamese-style b\u00e1nh m\u00ec sandwiches",
    "hours": "Mon-Fri 9AM-6PM",
    "services": [
      "Asian-owned Parks in Tennessee consultation",
      "Professional service",
      "Quality guarantee"
    ],
    "social_links": {}
  },
  {
    "name": "KOKITA Asian Cuisine",
    "address": "700 W Sweetwater Ave, Sweetwater, TN 37874",
    "phone": "(423) 337-5000",
    "rating": 4.0,
    "reviews": 25,
    "website": "https://www.google.com/maps/search/KOKITA+Asian+Cuisine+in+Tennessee",
    "category": "Asian-owned Parks in Tennessee",
    "description": "Offers Thai, Malaysian, Japanese, and Chinese cuisine, with a focus on fresh sushi",
    "hours": "Mon-Fri 9AM-6PM",
    "services": [
      "Asian-owned Parks in Tennessee consultation",
      "Professional service",
      "Quality guarantee"
    ],
    "social_links": {}
  },
  {
    "name": "Noko Nashville",
    "address": "125 51st Ave N, Nashville, TN 37209",
    "phone": "(615) 712-9470",
    "rating": 4.0,
    "reviews": 25,
    "website": "https://www.nokonashville.com/",
    "category": "Asian-owned Parks in Tennessee",
    "description": "An Asian-inspired, wood-fired restaurant influenced by global flavors",
    "hours": "Mon-Fri 9AM-6PM",
    "services": [
      "Asian-owned Parks in Tennessee consultation",
      "Professional service",
      "Quality guarantee"
    ],
    "social_links": {}
  },
  {
    "name": "Keriyaki Asian Cuisine",
    "address": "10000 Old Nolensville Rd, Nolensville, TN 37135",
    "phone": "(615) 776-0000",
    "rating": 4.0,
    "reviews": 25,
    "website": "https://www.google.com/maps/search/Keriyaki+Asian+Cuisine+in+Tennessee",
    "category": "Asian-owned Parks in Tennessee",
    "description": "Offers a variety of Asian dishes, including sushi, noodles, and rice bowls",
    "hours": "Mon-Fri 9AM-6PM",
    "services": [
      "Asian-owned Parks in Tennessee consultation",
      "Professional service",
      "Quality guarantee"
    ],
    "social_links": {}
  },
  {
    "name": "Sichuan Hot Pot & Asian Cuisine",
    "address": "5033 Old Hickory Blvd, Ste 103, Nashville, TN 37211",
    "phone": "(615) 750-2582",
    "rating": 4.0,
    "reviews": 25,
    "website": "https://www.google.com/maps/search/Sichuan+Hot+Pot+&+Asian+Cuisine+in+Tennessee",
    "category": "Asian-owned Parks in Tennessee",
    "description": "Serves Chinese food with a focus on hot pot and a wide range of flavors",
    "hours": "Mon-Fri 9AM-6PM",
    "services": [
      "Asian-owned Parks in Tennessee consultation",
      "Professional service",
      "Quality guarantee"
    ],
    "social_links": {}
  },
  {
    "name": "Seoul Brothers",
    "address": "(Multiple locations mentioned, including Knoxville)",
    "phone": "",
    "rating": 4.0,
    "reviews": 25,
    "website": "https://www.facebook.com/seoulbrothersknox/",
    "category": "Asian-owned Parks in Tennessee",
    "description": "A Korean food establishment, co-owned by Vic Scott",
    "hours": "Mon-Fri 9AM-6PM",
    "services": [
      "Asian-owned Parks in Tennessee consultation",
      "Professional service",
      "Quality guarantee"
    ],
    "social_links": {}
  },
  {
    "name": "Hongs Kitchen",
    "address": "(Mentioned in Knoxville)",
    "phone": "",
    "rating": 4.0,
    "reviews": 25,
    "website": "https://www.google.com/maps/search/Hongs+Kitchen+in+Tennessee",
    "category": "Asian-owned Parks in Tennessee",
    "description": "An Asian cuisine restaurant, co-owned by Vic Scott",
    "hours": "Mon-Fri 9AM-6PM",
    "services": [
      "Asian-owned Parks in Tennessee consultation",
      "Professional service",
      "Quality guarantee"
    ],
    "social_links": {}
  },
  {
    "name": "Girl's Gotta Eat Good Bakery",
    "address": "(Mentioned in Knoxville)",
    "phone": "",
    "rating": 4.0,
    "reviews": 25,
    "website": "https://girlsgottaeatgood.com/",
    "category": "Asian-owned Parks in Tennessee",
    "description": "Knoxville's first Asian bakery, owned by Jessica Carr",
    "hours": "Mon-Fri 9AM-6PM",
    "services": [
      "Asian-owned Parks in Tennessee consultation",
      "Professional service",
      "Quality guarantee"
    ],
    "social_links": {}
  },
  {
    "name": "The Smiling Elephant",
    "address": "1210 8th Ave S, Nashville, TN 37203",
    "phone": "(615) 727-3295",
    "rating": 4.0,
    "reviews": 25,
    "website": "https://www.google.com/maps/search/The+Smiling+Elephant+in+Tennessee",
    "category": "Asian-owned Parks in Tennessee",
    "description": "A Thai restaurant located in Nashville",
    "hours": "Mon-Fri 9AM-6PM",
    "services": [
      "Asian-owned Parks in Tennessee consultation",
      "Professional service",
      "Quality guarantee"
    ],
    "social_links": {}
  },
  {
    "name": "Green Asia",
    "address": "900 Rosa L Parks Blvd, Nashville, TN 37208",
    "phone": "(615) 732-0839",
    "rating": 4.0,
    "reviews": 25,
    "website": "https://www.google.com/maps/search/Green+Asia+in+Tennessee",
    "category": "Asian-owned Parks in Tennessee",
    "description": "An Asian and Japanese restaurant located in downtown Nashville",
    "hours": "Mon-Fri 9AM-6PM",
    "services": [
      "Asian-owned Parks in Tennessee consultation",
      "Professional service",
      "Quality guarantee"
    ],
    "social_links": {}
  }
]