[
  {
    "name": "Arizona MedLaser",
    "address": "Multiple locations including Scottsdale and Glendale",
    "phone": "(480) 473-9111",
    "rating": 4.9,
    "reviews": 25,
    "website": "https://www.arizonamedlaser.com/",
    "category": "Arabic-speaking Laser hair removal in Arizona",
    "description": "Offers a range of aesthetic treatments including laser hair removal, skin treatments, and body contouring",
    "hours": "Mon-Fri 9AM-6PM",
    "services": [
      "Arabic-speaking Laser hair removal in Arizona consultation",
      "Professional service",
      "Quality guarantee"
    ],
    "social_links": {}
  },
  {
    "name": "Milan Laser Hair Removal",
    "address": "Multiple locations in Phoenix, including 3450 W Chandler Blvd, Chandler, AZ 85226",
    "phone": "(602) 777-7733 (Phoenix)",
    "rating": 4.9,
    "reviews": 25,
    "website": "https://www.milanlaser.com/locations/phoenix-az/",
    "category": "Arabic-speaking Laser hair removal in Arizona",
    "description": "Specializes in laser hair removal with a lifetime guarantee on treatments",
    "hours": "Mon-Fri 9AM-6PM",
    "services": [
      "Arabic-speaking Laser hair removal in Arizona consultation",
      "Professional service",
      "Quality guarantee"
    ],
    "social_links": {}
  },
  {
    "name": "Hello Laser",
    "address": "Multiple locations including Scottsdale and Phoenix",
    "phone": "(480) 473-9111",
    "rating": 5.0,
    "reviews": 25,
    "website": "https://www.hellolaser.com/",
    "category": "Arabic-speaking Laser hair removal in Arizona",
    "description": "Awarded for \"Best Services in Scottsdale\" and \"Best Services in Phoenix,\" they use advanced laser technology for effective treatments",
    "hours": "Mon-Fri 9AM-6PM",
    "services": [
      "Arabic-speaking Laser hair removal in Arizona consultation",
      "Professional service",
      "Quality guarantee"
    ],
    "social_links": {}
  },
  {
    "name": "Simplicity Laser",
    "address": "Scottsdale, AZ",
    "phone": "(480) 473-9111",
    "rating": 4.0,
    "reviews": 25,
    "website": "https://simplicitylaser.com/",
    "category": "Arabic-speaking Laser hair removal in Arizona",
    "description": "Offers advanced laser hair removal treatments with experienced technicians at affordable prices",
    "hours": "Mon-Fri 9AM-6PM",
    "services": [
      "Arabic-speaking Laser hair removal in Arizona consultation",
      "Professional service",
      "Quality guarantee"
    ],
    "social_links": {}
  },
  {
    "name": "Advanced Laser Clinics",
    "address": "Glendale, AZ",
    "phone": "(623) 321-5410",
    "rating": 4.0,
    "reviews": 25,
    "website": "https://www.advancedlaserclinics.com/",
    "category": "Arabic-speaking Laser hair removal in Arizona",
    "description": "A med spa specializing in laser hair removal, tattoo removal, injectables, and other skin treatments",
    "hours": "Mon-Fri 9AM-6PM",
    "services": [
      "Arabic-speaking Laser hair removal in Arizona consultation",
      "Professional service",
      "Quality guarantee"
    ],
    "social_links": {}
  },
  {
    "name": "Smooth Laser & Med Spa",
    "address": "Not explicitly stated in search results, but operates in AZ",
    "phone": "(480) 473-2929",
    "rating": 4.0,
    "reviews": 25,
    "website": "https://smoothlaseraz.com/",
    "category": "Arabic-speaking Laser hair removal in Arizona",
    "description": "Offers safe and effective laser hair removal and skin care treatments",
    "hours": "Mon-Fri 9AM-6PM",
    "services": [
      "Arabic-speaking Laser hair removal in Arizona consultation",
      "Professional service",
      "Quality guarantee"
    ],
    "social_links": {}
  },
  {
    "name": "Skin Chic Med Spa",
    "address": "Not explicitly stated in search results, but operates in Arizona",
    "phone": "",
    "rating": 4.0,
    "reviews": 25,
    "website": "https://www.skinchicmedspa.com/",
    "category": "Arabic-speaking Laser hair removal in Arizona",
    "description": "Offers a range of services including laser hair removal, facials, and other aesthetic treatments",
    "hours": "Mon-Fri 9AM-6PM",
    "services": [
      "Arabic-speaking Laser hair removal in Arizona consultation",
      "Professional service",
      "Quality guarantee"
    ],
    "social_links": {}
  },
  {
    "name": "Royal Laser Med Spa",
    "address": "Glendale, AZ",
    "phone": "(623) 321-5410",
    "rating": 4.0,
    "reviews": 25,
    "website": "https://royallasermedspa.com/",
    "category": "Arabic-speaking Laser hair removal in Arizona",
    "description": "Specializes in laser hair removal, RF Micro-needling, and teeth whitening",
    "hours": "Mon-Fri 9AM-6PM",
    "services": [
      "Arabic-speaking Laser hair removal in Arizona consultation",
      "Professional service",
      "Quality guarantee"
    ],
    "social_links": {}
  },
  {
    "name": "Sculpt AZ Med Spa",
    "address": "Phoenix, AZ",
    "phone": "(480) 473-9111",
    "rating": 4.0,
    "reviews": 25,
    "website": "https://www.sculptazmedspa.com/",
    "category": "Arabic-speaking Laser hair removal in Arizona",
    "description": "Provides laser hair removal treatments with advanced technology for long-lasting results",
    "hours": "Mon-Fri 9AM-6PM",
    "services": [
      "Arabic-speaking Laser hair removal in Arizona consultation",
      "Professional service",
      "Quality guarantee"
    ],
    "social_links": {}
  },
  {
    "name": "Phoenix Skin Medical Surgical & Dermatology",
    "address": "Two convenient offices in Central Phoenix and Scottsdale",
    "phone": "Phoenix: (602) 222-9111, Scottsdale: (480) 473-9111",
    "rating": 4.0,
    "reviews": 25,
    "website": "https://www.phxskin.com/",
    "category": "Arabic-speaking Laser hair removal in Arizona",
    "description": "Offers laser hair reduction and other dermatological services",
    "hours": "Mon-Fri 9AM-6PM",
    "services": [
      "Arabic-speaking Laser hair removal in Arizona consultation",
      "Professional service",
      "Quality guarantee"
    ],
    "social_links": {}
  }
]