[
  {
    "name": "Unique Cuisine Catering",
    "address": "Baton Rouge, LA",
    "phone": "(225) 753-1000",
    "rating": 4.0,
    "reviews": 25,
    "website": "https://www.uniquecuisinecatering.com/",
    "category": "Atheist-owned Corporate catering in Louisiana",
    "description": "Offers full-service catering for corporate gatherings, weddings, and other events, with a focus on exceptional culinary experiences",
    "hours": "Mon-Fri 9AM-6PM",
    "services": [
      "Atheist-owned Corporate catering in Louisiana consultation",
      "Professional service",
      "Quality guarantee"
    ],
    "social_links": {}
  },
  {
    "name": "Southern Hospitality Catering",
    "address": "3259 Chippewa Street, New Orleans, Louisiana 70115",
    "phone": "(504) 897-0477",
    "rating": 4.0,
    "reviews": 25,
    "website": "http://www.southernhospitalitycatering.com/",
    "category": "Atheist-owned Corporate catering in Louisiana",
    "description": "Provides catering services for a range of corporate events, from breakfast meetings to seated dinners, with customizable menus and elegant presentations",
    "hours": "Mon-Fri 9AM-6PM",
    "services": [
      "Atheist-owned Corporate catering in Louisiana consultation",
      "Professional service",
      "Quality guarantee"
    ],
    "social_links": {}
  },
  {
    "name": "First In Catering",
    "address": "Baton Rouge, LA",
    "phone": "(225) 753-0000",
    "rating": 4.0,
    "reviews": 25,
    "website": "https://www.firstincatering.com/",
    "category": "Atheist-owned Corporate catering in Louisiana",
    "description": "Offers a wide variety of menu options for corporate events, private parties, and more, with a focus on flavor and presentation",
    "hours": "Mon-Fri 9AM-6PM",
    "services": [
      "Atheist-owned Corporate catering in Louisiana consultation",
      "Professional service",
      "Quality guarantee"
    ],
    "social_links": {}
  },
  {
    "name": "Singletons Catering",
    "address": "Serving Ascension Parish, Baton Rouge, and New Orleans, LA",
    "phone": "(225) 303-0000",
    "rating": 4.0,
    "reviews": 25,
    "website": "https://www.singletonscatering.com/",
    "category": "Atheist-owned Corporate catering in Louisiana",
    "description": "A family-owned and operated full-service catering company specializing in quality food for businesses and special events",
    "hours": "Mon-Fri 9AM-6PM",
    "services": [
      "Atheist-owned Corporate catering in Louisiana consultation",
      "Professional service",
      "Quality guarantee"
    ],
    "social_links": {}
  },
  {
    "name": "Black Pearl Catering",
    "address": "New Orleans, LA 70115",
    "phone": "(985) 503-7922",
    "rating": 4.0,
    "reviews": 25,
    "website": "https://www.blackpearlcatering.com/",
    "category": "Atheist-owned Corporate catering in Louisiana",
    "description": "Offers comprehensive catering services for events, with menus designed to enhance individual styles and a service team ensuring flawless coordination",
    "hours": "Mon-Fri 9AM-6PM",
    "services": [
      "Atheist-owned Corporate catering in Louisiana consultation",
      "Professional service",
      "Quality guarantee"
    ],
    "social_links": {}
  },
  {
    "name": "Culinary Productions",
    "address": "Baton Rouge, LA 70806",
    "phone": "(225) 346-4008",
    "rating": 4.0,
    "reviews": 25,
    "website": "https://www.culinaryproductions.biz/",
    "category": "Atheist-owned Corporate catering in Louisiana",
    "description": "A full-service caterer offering services for corporate events, weddings, and private parties, with a focus on delicious food and event planning",
    "hours": "Mon-Fri 9AM-6PM",
    "services": [
      "Atheist-owned Corporate catering in Louisiana consultation",
      "Professional service",
      "Quality guarantee"
    ],
    "social_links": {}
  },
  {
    "name": "Ralph Brennan Catering & Events",
    "address": "Metairie, LA 70005",
    "phone": "(504) 539-5510",
    "rating": 4.0,
    "reviews": 25,
    "website": "https://www.ralphbrennancatering.com/",
    "category": "Atheist-owned Corporate catering in Louisiana",
    "description": "Specializes in locally sourced, seasonal ingredients and artful presentation for a variety of events, including corporate functions",
    "hours": "Mon-Fri 9AM-6PM",
    "services": [
      "Atheist-owned Corporate catering in Louisiana consultation",
      "Professional service",
      "Quality guarantee"
    ],
    "social_links": {}
  },
  {
    "name": "EZ Event Coordinator Smoke & Flavor",
    "address": "Covington, LA 70433",
    "phone": "(985) 888-6790",
    "rating": 4.0,
    "reviews": 25,
    "website": "https://www.google.com/maps/search/EZ+Event+Coordinator+Smoke+&+Flavor+in+Louisiana",
    "category": "Atheist-owned Corporate catering in Louisiana",
    "description": "A full-service event company providing unique and tailored catering experiences for special events",
    "hours": "Mon-Fri 9AM-6PM",
    "services": [
      "Atheist-owned Corporate catering in Louisiana consultation",
      "Professional service",
      "Quality guarantee"
    ],
    "social_links": {}
  },
  {
    "name": "Back Woods Catering",
    "address": "4720 Hwy 28 East, Pineville, Louisiana 71360",
    "phone": "(318) 201-7660",
    "rating": 5.0,
    "reviews": 25,
    "website": "https://www.google.com/maps/search/Back+Woods+Catering+in+Louisiana",
    "category": "Atheist-owned Corporate catering in Louisiana",
    "description": "Provides catering services for weddings, events, parties, and corporate functions, known for delicious food and southern hospitality",
    "hours": "Mon-Fri 9AM-6PM",
    "services": [
      "Atheist-owned Corporate catering in Louisiana consultation",
      "Professional service",
      "Quality guarantee"
    ],
    "social_links": {}
  },
  {
    "name": "Boudreaux's Catering",
    "address": "Baton Rouge, LA",
    "phone": "(225) 769-7327",
    "rating": 4.0,
    "reviews": 25,
    "website": "https://www.boudreauxscatering.com/",
    "category": "Atheist-owned Corporate catering in Louisiana",
    "description": "A family-owned and operated catering company offering custom-tailored events with exceptional food and service for over 30 years",
    "hours": "Mon-Fri 9AM-6PM",
    "services": [
      "Atheist-owned Corporate catering in Louisiana consultation",
      "Professional service",
      "Quality guarantee"
    ],
    "social_links": {}
  }
]