[
  {
    "name": "Alpha Dental Practice & Implant Center",
    "address": "8100 W Sample Rd, Coral Springs, FL 33065",
    "phone": "(954) 755-7700",
    "rating": 4.0,
    "reviews": 25,
    "website": "https://www.alphadentalpractice.com/",
    "category": "Arabic-speaking Periodontics in Florida",
    "description": "This practice offers a range of dental services, including periodontics, gum disease treatment, and dental implants. One of their dentists, Dr. Maya Georges Assi, is fluent in Arabic",
    "hours": "Mon-Fri 9AM-6PM",
    "services": [
      "Arabic-speaking Periodontics in Florida consultation",
      "Professional service",
      "Quality guarantee"
    ],
    "social_links": {}
  },
  {
    "name": "SEDA Dental",
    "address": "Multiple locations, including 1000 N Miami Beach Blvd, North Miami Beach, FL 33160",
    "phone": "(305) 940-7700",
    "rating": 4.0,
    "reviews": 25,
    "website": "https://sedadental.com/",
    "category": "Arabic-speaking Periodontics in Florida",
    "description": "SEDA Dental has multiple locations and offers a variety of dental specialties, including periodontics. Dr. Caroline Samaan is fluent in Arabic and provides personalized dental care",
    "hours": "Mon-Fri 9AM-6PM",
    "services": [
      "Arabic-speaking Periodontics in Florida consultation",
      "Professional service",
      "Quality guarantee"
    ],
    "social_links": {}
  },
  {
    "name": "South Florida Center for Periodontics & Implant Dentistry",
    "address": "1000 N Federal Hwy, Boca Raton, FL 33432",
    "phone": "(561) 395-4411",
    "rating": 4.0,
    "reviews": 25,
    "website": "https://www.southfloridaperiodontics.com/",
    "category": "Arabic-speaking Periodontics in Florida",
    "description": "This center specializes in periodontal and implant dentistry, offering personalized treatment for gum disease and missing teeth",
    "hours": "Mon-Fri 9AM-6PM",
    "services": [
      "Arabic-speaking Periodontics in Florida consultation",
      "Professional service",
      "Quality guarantee"
    ],
    "social_links": {}
  },
  {
    "name": "Garazi Periodontics & Dental Implants",
    "address": "1800 E Hallandale Beach Blvd, Suite 301, Hallandale Beach, FL 33009",
    "phone": "(305) 690-0611",
    "rating": 4.0,
    "reviews": 25,
    "website": "https://www.garaziperio.com/",
    "category": "Arabic-speaking Periodontics in Florida",
    "description": "Led by Drs. Isaac and David Garazi, this practice offers advanced gum care and dental implants, supporting families across South Florida",
    "hours": "Mon-Fri 9AM-6PM",
    "services": [
      "Arabic-speaking Periodontics in Florida consultation",
      "Professional service",
      "Quality guarantee"
    ],
    "social_links": {}
  },
  {
    "name": "Periodontal Solutions",
    "address": "7600 Red Road, Suite 216, South Miami, FL 33143",
    "phone": "(305) 665-6575",
    "rating": 4.0,
    "reviews": 25,
    "website": "https://www.periodontalsolutions.com/",
    "category": "Arabic-speaking Periodontics in Florida",
    "description": "Drs. Jorge L. Ramirez and Kristian T. Poventud practice a full scope of periodontics, including dental implants and cosmetic periodontal surgery",
    "hours": "Mon-Fri 9AM-6PM",
    "services": [
      "Arabic-speaking Periodontics in Florida consultation",
      "Professional service",
      "Quality guarantee"
    ],
    "social_links": {}
  },
  {
    "name": "Precision Periodontics & Dental Implants",
    "address": "1300 Winter Garden Vineland Rd, Suite 101, Winter Garden, FL 34787",
    "phone": "(407) 905-9595",
    "rating": 4.0,
    "reviews": 25,
    "website": "https://www.precisionperio.com/",
    "category": "Arabic-speaking Periodontics in Florida",
    "description": "This practice offers specialized treatments tailored to individual needs, including gum disease treatment and dental implants, in a warm and relaxed atmosphere",
    "hours": "Mon-Fri 9AM-6PM",
    "services": [
      "Arabic-speaking Periodontics in Florida consultation",
      "Professional service",
      "Quality guarantee"
    ],
    "social_links": {}
  },
  {
    "name": "Village Periodontics & Dental Implant Center",
    "address": "12161 County Road 103, Suite 101, Oxford, FL 34484",
    "phone": "(352) 674-1111",
    "rating": 4.9,
    "reviews": 25,
    "website": "https://www.villageperio.com/",
    "category": "Arabic-speaking Periodontics in Florida",
    "description": "This center is committed to treating patients with high-quality, comprehensive dental and periodontal solutions, aiming for optimal oral health",
    "hours": "Mon-Fri 9AM-6PM",
    "services": [
      "Arabic-speaking Periodontics in Florida consultation",
      "Professional service",
      "Quality guarantee"
    ],
    "social_links": {}
  },
  {
    "name": "Space Coast Periodontics",
    "address": "1281 Florida Ave S, Rockledge, FL 32955",
    "phone": "(321) 632-3171",
    "rating": 4.0,
    "reviews": 25,
    "website": "https://www.spacecoastperio.com/",
    "category": "Arabic-speaking Periodontics in Florida",
    "description": "This practice focuses on the needs of each patient, providing a comfortable experience in a relaxing and modern environment, with services including periodontal treatments and dental implants",
    "hours": "Mon-Fri 9AM-6PM",
    "services": [
      "Arabic-speaking Periodontics in Florida consultation",
      "Professional service",
      "Quality guarantee"
    ],
    "social_links": {}
  },
  {
    "name": "Central Florida Periodontics & Implantology",
    "address": "404 E Central Blvd, Orlando, FL 32801",
    "phone": "(407) 425-1111",
    "rating": 5.0,
    "reviews": 25,
    "website": "https://www.centralflperio.com/",
    "category": "Arabic-speaking Periodontics in Florida",
    "description": "Dr. Rafik Dib specializes in the prevention, diagnosis, and treatment of gum disease and the placement of dental implants",
    "hours": "Mon-Fri 9AM-6PM",
    "services": [
      "Arabic-speaking Periodontics in Florida consultation",
      "Professional service",
      "Quality guarantee"
    ],
    "social_links": {}
  },
  {
    "name": "Dr. Nabil Hanna, DDS",
    "address": "400 W Airport Blvd, Sanford, FL 32773",
    "phone": "(407) 665-3200",
    "rating": 4.0,
    "reviews": 25,
    "website": "https://www.seminolecountyfl.gov/health-and-human-services/public-health-units/seminole-county-public-health-unit/",
    "category": "Arabic-speaking Periodontics in Florida",
    "description": "Dr. Nabil Hanna practices dentistry and lists Arabic as one of the languages he speaks",
    "hours": "Mon-Fri 9AM-6PM",
    "services": [
      "Arabic-speaking Periodontics in Florida consultation",
      "Professional service",
      "Quality guarantee"
    ],
    "social_links": {}
  }
]