[
  {
    "name": "Elite Performance Academy",
    "address": "15600 Old Keifer Creek Rd, Chesterfield, MO 63017",
    "phone": "(636) 346-1371",
    "rating": 4.8,
    "reviews": 25,
    "website": "https://www.elitemadestl.com/",
    "category": "Atheist-owned Sports coaching in Missouri",
    "description": "Offers speed, agility, and strength training for athletes of all levels, utilizing science-driven programs and cutting-edge technology",
    "hours": "Mon-Fri 9AM-6PM",
    "services": [
      "Atheist-owned Sports coaching in Missouri consultation",
      "Professional service",
      "Quality guarantee"
    ],
    "social_links": {}
  },
  {
    "name": "Kansas City Athlete Training",
    "address": "8000 W 110th St, Overland Park, KS 66211 (Note: This is in Kansas, but serves the Kansas City Metro area including Missouri)",
    "phone": "(913) 707-0077",
    "rating": 4.9,
    "reviews": 25,
    "website": "https://www.kcatraining.com/",
    "category": "Atheist-owned Sports coaching in Missouri",
    "description": "Provides sports performance training, speed and agility classes, and a football academy for youth and high school athletes",
    "hours": "Mon-Fri 9AM-6PM",
    "services": [
      "Atheist-owned Sports coaching in Missouri consultation",
      "Professional service",
      "Quality guarantee"
    ],
    "social_links": {}
  },
  {
    "name": "Athletic Republic St. Louis",
    "address": "13073 Tesson Ferry Rd, St. Louis, MO 63128",
    "phone": "(314) 744-5455",
    "rating": 4.7,
    "reviews": 25,
    "website": "https://www.athleticrepublic.com/st-louis",
    "category": "Atheist-owned Sports coaching in Missouri",
    "description": "Focuses on scientifically-based performance training protocols to help athletes improve speed, strength, and power",
    "hours": "Mon-Fri 9AM-6PM",
    "services": [
      "Atheist-owned Sports coaching in Missouri consultation",
      "Professional service",
      "Quality guarantee"
    ],
    "social_links": {}
  },
  {
    "name": "Tri-County Sports Center",
    "address": "41 College Campus Dr, Moscow Mills, MO 63362",
    "phone": "(314) 313-7300",
    "rating": 4.5,
    "reviews": 25,
    "website": "https://www.tricountysportscenter.com/",
    "category": "Atheist-owned Sports coaching in Missouri",
    "description": "A multi-sport training facility offering field rentals, hitting cages, and various sports programs",
    "hours": "Mon-Fri 9AM-6PM",
    "services": [
      "Atheist-owned Sports coaching in Missouri consultation",
      "Professional service",
      "Quality guarantee"
    ],
    "social_links": {}
  },
  {
    "name": "Gaining Ground & Rise",
    "address": "700 S Main St, Hillsboro, MO 63050",
    "phone": "(636) 310-1010",
    "rating": 4.9,
    "reviews": 25,
    "website": "https://www.gaininggroundandrise.com/",
    "category": "Atheist-owned Sports coaching in Missouri",
    "description": "Offers 24/7 gym access, body transformation coaching, resistance training, and sport-specific elite performance coaching",
    "hours": "Mon-Fri 9AM-6PM",
    "services": [
      "Atheist-owned Sports coaching in Missouri consultation",
      "Professional service",
      "Quality guarantee"
    ],
    "social_links": {}
  },
  {
    "name": "The Grind Fitness and Sports Performance",
    "address": "5806 Sorrel Tree Ct, St. Louis, MO 63129",
    "phone": "(314) 402-5038",
    "rating": 4.6,
    "reviews": 25,
    "website": "https://www.google.com/maps/search/The+Grind+Fitness+and+Sports+Performance+in+Missouri",
    "category": "Atheist-owned Sports coaching in Missouri",
    "description": "Provides personal training, fitness center services, and training programs",
    "hours": "Mon-Fri 9AM-6PM",
    "services": [
      "Atheist-owned Sports coaching in Missouri consultation",
      "Professional service",
      "Quality guarantee"
    ],
    "social_links": {}
  },
  {
    "name": "CoachUp (Football Coaches)",
    "address": "Various locations across Missouri (e.g., North Kansas City, Lee's Summit, Belton)",
    "phone": "(888) 680-4750",
    "rating": 4.8,
    "reviews": 25,
    "website": "https://www.coachup.com/mo/football-coaches/",
    "category": "Atheist-owned Sports coaching in Missouri",
    "description": "A platform connecting athletes with private football coaches for personalized training",
    "hours": "Mon-Fri 9AM-6PM",
    "services": [
      "Atheist-owned Sports coaching in Missouri consultation",
      "Professional service",
      "Quality guarantee"
    ],
    "social_links": {}
  },
  {
    "name": "CoachUp (Track & Field Coaches)",
    "address": "Various locations across Missouri (e.g., North Kansas City, Belton)",
    "phone": "(888) 680-4750",
    "rating": 4.8,
    "reviews": 25,
    "website": "https://www.coachup.com/mo/track-field-coaches/",
    "category": "Atheist-owned Sports coaching in Missouri",
    "description": "Connects athletes with private track and field coaches for skill development and performance improvement",
    "hours": "Mon-Fri 9AM-6PM",
    "services": [
      "Atheist-owned Sports coaching in Missouri consultation",
      "Professional service",
      "Quality guarantee"
    ],
    "social_links": {}
  },
  {
    "name": "Mizzou Athletics Training Complex",
    "address": "1700 University Ave, Columbia, MO 65201",
    "phone": "(573) 882-6621",
    "rating": 4.0,
    "reviews": 25,
    "website": "https://mutigers.com/facilities/mizzou-athletics-training-complex/7981",
    "category": "Atheist-owned Sports coaching in Missouri",
    "description": "A comprehensive training facility for University of Missouri student-athletes, offering state-of-the-art equipment and sports nutrition services",
    "hours": "Mon-Fri 9AM-6PM",
    "services": [
      "Atheist-owned Sports coaching in Missouri consultation",
      "Professional service",
      "Quality guarantee"
    ],
    "social_links": {}
  },
  {
    "name": "LHS Consulting LLC",
    "address": "(Listed as serving St. Louis, MO area)",
    "phone": "(314) 402-5038",
    "rating": 4.0,
    "reviews": 25,
    "website": "https://www.google.com/maps/search/LHS+Consulting+LLC+in+Missouri",
    "category": "Atheist-owned Sports coaching in Missouri",
    "description": "Offers leadership coaching and training programs, which can include sports-related consulting",
    "hours": "Mon-Fri 9AM-6PM",
    "services": [
      "Atheist-owned Sports coaching in Missouri consultation",
      "Professional service",
      "Quality guarantee"
    ],
    "social_links": {}
  }
]