[
  {
    "name": "A Slice of HR",
    "address": "7450 Broadview Rd, Parma, OH 44134",
    "phone": "(216) 202-1222",
    "rating": 5.0,
    "reviews": 25,
    "website": "https://asliceofhr.com/",
    "category": "Bengali-speaking Recruitment support in Ohio",
    "description": "Human Resources Consulting and Recruiting solutions company specializing in HR Recruiting and HR Consulting to help businesses grow",
    "hours": "Mon-Fri 9AM-6PM",
    "services": [
      "Bengali-speaking Recruitment support in Ohio consultation",
      "Professional service",
      "Quality guarantee"
    ],
    "social_links": {}
  },
  {
    "name": "Access 2 Interpreters, LLC",
    "address": "1400 Dublin Rd, Columbus, OH 43215",
    "phone": "(614) 300-5000",
    "rating": 4.7,
    "reviews": 25,
    "website": "https://www.access2interpreters.com/",
    "category": "Bengali-speaking Recruitment support in Ohio",
    "description": "A leading interpretation and translation business providing interpreters and translators locally and nationwide, with services including Hindi, Gujarati, Punjabi, Bengali, and Urdu",
    "hours": "Mon-Fri 9AM-6PM",
    "services": [
      "Bengali-speaking Recruitment support in Ohio consultation",
      "Professional service",
      "Quality guarantee"
    ],
    "social_links": {}
  },
  {
    "name": "R&T Staffing",
    "address": "1370 E. Broad Street, Columbus, OH 43205",
    "phone": "(614) 252-0200",
    "rating": 4.6,
    "reviews": 25,
    "website": "https://www.rntstaffing.com/",
    "category": "Bengali-speaking Recruitment support in Ohio",
    "description": "Staffing agency that provides temporary, temp-to-perm, and permanent employees across various industries, noting their ability to speak English, Spanish, and Nepali, suggesting potential for other language support",
    "hours": "Mon-Fri 9AM-6PM",
    "services": [
      "Bengali-speaking Recruitment support in Ohio consultation",
      "Professional service",
      "Quality guarantee"
    ],
    "social_links": {}
  },
  {
    "name": "Safe Staffing of Ohio",
    "address": "4700 Reed Rd, Columbus, OH 43220",
    "phone": "(614) 552-3330",
    "rating": 4.5,
    "reviews": 25,
    "website": "https://safestaffingohio.com/",
    "category": "Bengali-speaking Recruitment support in Ohio",
    "description": "A professional employment agency specializing in administrative, clerical, accounting, light industrial, skilled trades, human resources, and IT staffing, offering temporary, temp-to-hire, and direct hire services",
    "hours": "Mon-Fri 9AM-6PM",
    "services": [
      "Bengali-speaking Recruitment support in Ohio consultation",
      "Professional service",
      "Quality guarantee"
    ],
    "social_links": {}
  },
  {
    "name": "Insight Global (Columbus)",
    "address": "400 W. Wilson Bridge Rd, Suite 150, Worthington, OH 43085",
    "phone": "(614) 224-0100",
    "rating": 4.5,
    "reviews": 25,
    "website": "https://www.insightglobal.com/locations/columbus-oh/",
    "category": "Bengali-speaking Recruitment support in Ohio",
    "description": "A leading staffing and professional services agency that matches businesses with talent and tech solutions across various industries",
    "hours": "Mon-Fri 9AM-6PM",
    "services": [
      "Bengali-speaking Recruitment support in Ohio consultation",
      "Professional service",
      "Quality guarantee"
    ],
    "social_links": {}
  },
  {
    "name": "Insight Global (Cincinnati)",
    "address": "580 Grandview Dr, Suite 200, Cincinnati, OH 45140",
    "phone": "(513) 554-4000",
    "rating": 4.5,
    "reviews": 25,
    "website": "https://www.insightglobal.com/locations/cincinnati-oh/",
    "category": "Bengali-speaking Recruitment support in Ohio",
    "description": "An international staffing and professional services company connecting businesses and job seekers in the Cincinnati metro area across multiple industries",
    "hours": "Mon-Fri 9AM-6PM",
    "services": [
      "Bengali-speaking Recruitment support in Ohio consultation",
      "Professional service",
      "Quality guarantee"
    ],
    "social_links": {}
  },
  {
    "name": "Reliable Staffing Resources",
    "address": "5000 E Main St, Suite 100, Columbus, OH 43213",
    "phone": "(614) 552-0070",
    "rating": 4.5,
    "reviews": 25,
    "website": "https://www.reliablestaffing.com/",
    "category": "Bengali-speaking Recruitment support in Ohio",
    "description": "Provides flexible staffing solutions including temporary, direct-hire, and long-term support across various sectors like warehouse, distribution, and assembly",
    "hours": "Mon-Fri 9AM-6PM",
    "services": [
      "Bengali-speaking Recruitment support in Ohio consultation",
      "Professional service",
      "Quality guarantee"
    ],
    "social_links": {}
  },
  {
    "name": "GBQ Partners",
    "address": "200 Civic Center Dr, Suite 400, Columbus, OH 43215",
    "phone": "(614) 947-5224",
    "rating": 4.4,
    "reviews": 25,
    "website": "https://www.gbq.com/services/human-resources-consulting/",
    "category": "Bengali-speaking Recruitment support in Ohio",
    "description": "Offers specialized Human Resources (HR) Consulting Services to help clients create an effective work environment through engaged, strategic employees",
    "hours": "Mon-Fri 9AM-6PM",
    "services": [
      "Bengali-speaking Recruitment support in Ohio consultation",
      "Professional service",
      "Quality guarantee"
    ],
    "social_links": {}
  },
  {
    "name": "AlexandHR (Columbus)",
    "address": "150 E. Broad Street, Suite 100, Columbus, OH 43215",
    "phone": "(614) 324-1000",
    "rating": 4.3,
    "reviews": 25,
    "website": "https://alexandhr.com/",
    "category": "Bengali-speaking Recruitment support in Ohio",
    "description": "Delivers professional HR systems support, implementation, and ongoing guidance, specializing in HR technology setup and automation",
    "hours": "Mon-Fri 9AM-6PM",
    "services": [
      "Bengali-speaking Recruitment support in Ohio consultation",
      "Professional service",
      "Quality guarantee"
    ],
    "social_links": {}
  },
  {
    "name": "BelFlex Staffing Network",
    "address": "Multiple locations across Ohio, including 1370 E Broad St, Columbus, OH 43205",
    "phone": "(614) 252-0200",
    "rating": 4.2,
    "reviews": 25,
    "website": "https://www.belflex.com/",
    "category": "Bengali-speaking Recruitment support in Ohio",
    "description": "Provides commercial staffing workforce solutions from light industrial to clerical and administrative positions, as well as direct-hire opportunities",
    "hours": "Mon-Fri 9AM-6PM",
    "services": [
      "Bengali-speaking Recruitment support in Ohio consultation",
      "Professional service",
      "Quality guarantee"
    ],
    "social_links": {}
  }
]