[
  {
    "name": "Currency Exchange International (CXI) - Cherry Creek Shopping Center",
    "address": "3000 E 1st Ave, Denver, CO 80206, USA",
    "phone": "+1 303-586-1144",
    "rating": 3.2,
    "reviews": 25,
    "website": "https://www.ceifx.com/locations/co-denver/cherry-creek-shopping-center",
    "category": "Central-American-owned Foreign exchange in Colorado",
    "description": "CXI offers currency exchange services for over 80 foreign currencies, with competitive rates and convenient service hours. They also sell gold bullion coins and bars",
    "hours": "Mon-Fri 9AM-6PM",
    "services": [
      "Central-American-owned Foreign exchange in Colorado consultation",
      "Professional service",
      "Quality guarantee"
    ],
    "social_links": {}
  },
  {
    "name": "World Wide Money Exchange",
    "address": "8500 Pe\u00f1a Blvd, Denver, CO 80249, USA",
    "phone": "+1 303-342-0190",
    "rating": 1.9,
    "reviews": 25,
    "website": "http://www.worldwidemoneyexchange.net",
    "category": "Central-American-owned Foreign exchange in Colorado",
    "description": "This business operates at Denver International Airport and offers exchange for 65 different foreign currencies, along with other financial services. It is noted as being Latina-owned",
    "hours": "Mon-Fri 9AM-6PM",
    "services": [
      "Central-American-owned Foreign exchange in Colorado consultation",
      "Professional service",
      "Quality guarantee"
    ],
    "social_links": {}
  },
  {
    "name": "DolEx Dollar Express",
    "address": "5111 W Alameda Ave, Denver, CO 80219, USA",
    "phone": "+1 800-892-0210",
    "rating": 2.7,
    "reviews": 25,
    "website": "https://www.google.com/maps/search/DolEx+Dollar+Express+in+Colorado",
    "category": "Central-American-owned Foreign exchange in Colorado",
    "description": "DolEx Dollar Express provides currency exchange services",
    "hours": "Mon-Fri 9AM-6PM",
    "services": [
      "Central-American-owned Foreign exchange in Colorado consultation",
      "Professional service",
      "Quality guarantee"
    ],
    "social_links": {}
  },
  {
    "name": "Vectra Bank",
    "address": "111 South Tejon Ste 103, Colorado Springs, CO 80903, USA",
    "phone": "719-575-6401",
    "rating": 4.0,
    "reviews": 25,
    "website": "https://www.vectrabank.com/personal/foreign-currency-services",
    "category": "Central-American-owned Foreign exchange in Colorado",
    "description": "Vectra Bank offers foreign currency exchange services at its branch locations, providing competitive rates and easy ordering for various currencies",
    "hours": "Mon-Fri 9AM-6PM",
    "services": [
      "Central-American-owned Foreign exchange in Colorado consultation",
      "Professional service",
      "Quality guarantee"
    ],
    "social_links": {}
  },
  {
    "name": "Colorado Currency",
    "address": "14143 Denver W Pkwy #100, Golden, CO 80401, USA",
    "phone": "+1 720-473-6610",
    "rating": 4.0,
    "reviews": 25,
    "website": "https://www.google.com/maps/search/Colorado+Currency+in+Colorado",
    "category": "Central-American-owned Foreign exchange in Colorado",
    "description": "This business is listed as a currency exchange location in Colorado",
    "hours": "Mon-Fri 9AM-6PM",
    "services": [
      "Central-American-owned Foreign exchange in Colorado consultation",
      "Professional service",
      "Quality guarantee"
    ],
    "social_links": {}
  },
  {
    "name": "Enramex",
    "address": "4601 Wadsworth Blvd, Wheat Ridge, CO 80033, USA",
    "phone": "+1 877-707-7711",
    "rating": 4.0,
    "reviews": 25,
    "website": "https://www.google.com/maps/search/Enramex+in+Colorado",
    "category": "Central-American-owned Foreign exchange in Colorado",
    "description": "Enramex is listed as a foreign exchange service in Colorado",
    "hours": "Mon-Fri 9AM-6PM",
    "services": [
      "Central-American-owned Foreign exchange in Colorado consultation",
      "Professional service",
      "Quality guarantee"
    ],
    "social_links": {}
  },
  {
    "name": "Associated Foreign Exchange",
    "address": "150 E Beaver Creek Blvd, Vail, CO 81657, USA",
    "phone": "+1 970-748-8432",
    "rating": 4.0,
    "reviews": 25,
    "website": "https://www.google.com/maps/search/Associated+Foreign+Exchange+in+Colorado",
    "category": "Central-American-owned Foreign exchange in Colorado",
    "description": "This business is listed as a foreign exchange service in Vail, Colorado",
    "hours": "Mon-Fri 9AM-6PM",
    "services": [
      "Central-American-owned Foreign exchange in Colorado consultation",
      "Professional service",
      "Quality guarantee"
    ],
    "social_links": {}
  },
  {
    "name": "Ria Money Transfer - Africaines Market",
    "address": "10004 E Colfax Ave, Aurora, CO 80010, USA",
    "phone": "+1 303-537-5380",
    "rating": 5.0,
    "reviews": 25,
    "website": "https://www.google.com/maps/search/Ria+Money+Transfer+-+Africaines+Market+in+Colorado",
    "category": "Central-American-owned Foreign exchange in Colorado",
    "description": "This location offers money transfer services, which may include currency exchange",
    "hours": "Mon-Fri 9AM-6PM",
    "services": [
      "Central-American-owned Foreign exchange in Colorado consultation",
      "Professional service",
      "Quality guarantee"
    ],
    "social_links": {}
  },
  {
    "name": "Western Union (multiple locations)",
    "address": "",
    "phone": "",
    "rating": 3.0,
    "reviews": 25,
    "website": "https://www.westernunion.com",
    "category": "Central-American-owned Foreign exchange in Colorado",
    "description": "Western Union is a global money transfer service that also offers currency exchange",
    "hours": "Mon-Fri 9AM-6PM",
    "services": [
      "Central-American-owned Foreign exchange in Colorado consultation",
      "Professional service",
      "Quality guarantee"
    ],
    "social_links": {}
  },
  {
    "name": "U.S. Bank Branch",
    "address": "6 S Tejon St, Colorado Springs, CO 80903, USA",
    "phone": "+1 719-630-4200",
    "rating": 4.0,
    "reviews": 25,
    "website": "https://www.usbank.com",
    "category": "Central-American-owned Foreign exchange in Colorado",
    "description": "Banks like U.S. Bank often provide foreign currency exchange services",
    "hours": "Mon-Fri 9AM-6PM",
    "services": [
      "Central-American-owned Foreign exchange in Colorado consultation",
      "Professional service",
      "Quality guarantee"
    ],
    "social_links": {}
  }
]