[
  {
    "name": "Asia Garden",
    "address": "100 Stonebrook Pl, Jackson, TN 38305",
    "phone": "(731) 668-9024",
    "rating": 4.4,
    "reviews": 25,
    "website": "http://www.asiagardentn.com/",
    "category": "Chinese-speaking Meal prep services in Tennessee",
    "description": "Full-service restaurant specializing in Chinese, Japanese, and Sushi, offering dine-in, carry-out, and delivery",
    "hours": "Mon-Fri 9AM-6PM",
    "services": [
      "Chinese-speaking Meal prep services in Tennessee consultation",
      "Professional service",
      "Quality guarantee"
    ],
    "social_links": {}
  },
  {
    "name": "China King",
    "address": "6601 Sugar Valley Dr Suite #103, Nashville, TN 37211",
    "phone": "(615) 941-8028",
    "rating": 4.0,
    "reviews": 25,
    "website": "https://chinaking-nashville.com/",
    "category": "Chinese-speaking Meal prep services in Tennessee",
    "description": "Offers authentic Chinese cuisine for delivery and takeout",
    "hours": "Mon-Fri 9AM-6PM",
    "services": [
      "Chinese-speaking Meal prep services in Tennessee consultation",
      "Professional service",
      "Quality guarantee"
    ],
    "social_links": {}
  },
  {
    "name": "Vui's Kitchen",
    "address": "Multiple locations including 2832 Bransford Avenue, Nashville, TN 37204",
    "phone": "(615) 457-2000 (for Berry Hill location)",
    "rating": 4.6,
    "reviews": 25,
    "website": "https://vuiskitchen.com/",
    "category": "Chinese-speaking Meal prep services in Tennessee",
    "description": "Offers fresh, daily made-from-scratch Asian-influenced favorites, including Vietnamese pho, noodle bowls, and more. They also offer catering",
    "hours": "Mon-Fri 9AM-6PM",
    "services": [
      "Chinese-speaking Meal prep services in Tennessee consultation",
      "Professional service",
      "Quality guarantee"
    ],
    "social_links": {}
  },
  {
    "name": "Mi Bowl Meal",
    "address": "Not explicitly listed for a physical location in Tennessee, but offers delivery",
    "phone": "",
    "rating": 4.0,
    "reviews": 25,
    "website": "https://mibowlmeal.com/",
    "category": "Chinese-speaking Meal prep services in Tennessee",
    "description": "Offers a Chinese meal delivery service with home-cooked meals delivered to your doorstep",
    "hours": "Mon-Fri 9AM-6PM",
    "services": [
      "Chinese-speaking Meal prep services in Tennessee consultation",
      "Professional service",
      "Quality guarantee"
    ],
    "social_links": {}
  },
  {
    "name": "Panda Express (Catering)",
    "address": "Multiple locations, including one at Powell Ave & Thompson Lane PX, Nashville, TN",
    "phone": "",
    "rating": 4.0,
    "reviews": 25,
    "website": "https://www.pandaexpress.com/",
    "category": "Chinese-speaking Meal prep services in Tennessee",
    "description": "Offers American-Chinese cuisine with catering services that can provide party trays for events",
    "hours": "Mon-Fri 9AM-6PM",
    "services": [
      "Chinese-speaking Meal prep services in Tennessee consultation",
      "Professional service",
      "Quality guarantee"
    ],
    "social_links": {}
  },
  {
    "name": "Eat Ping",
    "address": "Not explicitly listed for a physical location in Tennessee, but offers meal delivery",
    "phone": "",
    "rating": 4.0,
    "reviews": 25,
    "website": "https://www.eatping.com/",
    "category": "Chinese-speaking Meal prep services in Tennessee",
    "description": "Offers healthy prepared meal delivery with a focus on fresh, home-cooked quality and balanced nutrition",
    "hours": "Mon-Fri 9AM-6PM",
    "services": [
      "Chinese-speaking Meal prep services in Tennessee consultation",
      "Professional service",
      "Quality guarantee"
    ],
    "social_links": {}
  },
  {
    "name": "Sichuan Hot Pot & Asian Cuisine",
    "address": "Nashville, TN 37211",
    "phone": "(615) 750-2582",
    "rating": 4.0,
    "reviews": 25,
    "website": "https://www.sichuanhotpotnashville.com/",
    "category": "Chinese-speaking Meal prep services in Tennessee",
    "description": "Offers Chinese food for pickup and delivery",
    "hours": "Mon-Fri 9AM-6PM",
    "services": [
      "Chinese-speaking Meal prep services in Tennessee consultation",
      "Professional service",
      "Quality guarantee"
    ],
    "social_links": {}
  },
  {
    "name": "China Dragon - Nashville",
    "address": "Not explicitly listed, but serves Nashville, TN",
    "phone": "",
    "rating": 4.0,
    "reviews": 25,
    "website": "https://chinadragonnashville.com/",
    "category": "Chinese-speaking Meal prep services in Tennessee",
    "description": "Offers Chinese food for delivery within a 4-mile radius",
    "hours": "Mon-Fri 9AM-6PM",
    "services": [
      "Chinese-speaking Meal prep services in Tennessee consultation",
      "Professional service",
      "Quality guarantee"
    ],
    "social_links": {}
  },
  {
    "name": "P.F. Chang's",
    "address": "259 Opry Mills Dr., Nashville, TN 37214",
    "phone": "(615) 724-1200",
    "rating": 4.3,
    "reviews": 25,
    "website": "https://www.pfchangs.com/",
    "category": "Chinese-speaking Meal prep services in Tennessee",
    "description": "Offers Asian-inspired, made-from-scratch recipes with fresh ingredients, available for dine-in, delivery, and catering",
    "hours": "Mon-Fri 9AM-6PM",
    "services": [
      "Chinese-speaking Meal prep services in Tennessee consultation",
      "Professional service",
      "Quality guarantee"
    ],
    "social_links": {}
  },
  {
    "name": "Weee! (Online Asian Supermarket)",
    "address": "Delivers to Nashville, TN",
    "phone": "",
    "rating": 4.0,
    "reviews": 25,
    "website": "https://www.sayweee.com/",
    "category": "Chinese-speaking Meal prep services in Tennessee",
    "description": "An online Asian supermarket offering a wide selection of groceries, including Chinese ingredients, for home delivery",
    "hours": "Mon-Fri 9AM-6PM",
    "services": [
      "Chinese-speaking Meal prep services in Tennessee consultation",
      "Professional service",
      "Quality guarantee"
    ],
    "social_links": {}
  }
]