[
  {
    "name": "Ultimate Automotive",
    "address": "1400 E 77th Street, Sioux Falls, SD 57108",
    "phone": "(605) 367-9088",
    "rating": 4.0,
    "reviews": 25,
    "website": "https://www.ultimateautosf.com/",
    "category": "Black-owned Tire balancing in South-Dakota",
    "description": "Offers wheel balancing as part of their tire services, aiming to provide a smoother ride and reduce tire wear",
    "hours": "Mon-Fri 9AM-6PM",
    "services": [
      "Black-owned Tire balancing in South-Dakota consultation",
      "Professional service",
      "Quality guarantee"
    ],
    "social_links": {}
  },
  {
    "name": "Ultimate Automotive",
    "address": "3209 South Marion Road, Sioux Falls, SD 57106",
    "phone": "(605) 371-2760",
    "rating": 4.0,
    "reviews": 25,
    "website": "https://www.ultimateautosf.com/",
    "category": "Black-owned Tire balancing in South-Dakota",
    "description": "Provides wheel balancing services to ensure a perfectly tuned wheel-tire combination",
    "hours": "Mon-Fri 9AM-6PM",
    "services": [
      "Black-owned Tire balancing in South-Dakota consultation",
      "Professional service",
      "Quality guarantee"
    ],
    "social_links": {}
  },
  {
    "name": "12th Street Auto Care Center",
    "address": "Information not available in search results",
    "phone": "",
    "rating": 4.0,
    "reviews": 25,
    "website": "https://www.12thstreetautocare.com/",
    "category": "Black-owned Tire balancing in South-Dakota",
    "description": "Offers expert tire balancing services using precision equipment to enhance driving experience and extend tire life",
    "hours": "Mon-Fri 9AM-6PM",
    "services": [
      "Black-owned Tire balancing in South-Dakota consultation",
      "Professional service",
      "Quality guarantee"
    ],
    "social_links": {}
  },
  {
    "name": "Cory's Point S - Jackson Blvd",
    "address": "Information not available in search results",
    "phone": "",
    "rating": 4.0,
    "reviews": 25,
    "website": "https://www.pointss.com/",
    "category": "Black-owned Tire balancing in South-Dakota",
    "description": "Provides tire balancing services to ensure smooth and quiet tire operation, reducing wear on vehicle components",
    "hours": "Mon-Fri 9AM-6PM",
    "services": [
      "Black-owned Tire balancing in South-Dakota consultation",
      "Professional service",
      "Quality guarantee"
    ],
    "social_links": {}
  },
  {
    "name": "West Tire & Alignment",
    "address": "601 Butte Street, Belle Fourche, SD 57717",
    "phone": "(605) 892-2001",
    "rating": 4.0,
    "reviews": 25,
    "website": "https://www.westtireandalignment.com/",
    "category": "Black-owned Tire balancing in South-Dakota",
    "description": "Offers tire services, including balancing, to ensure optimal performance and longer tread life",
    "hours": "Mon-Fri 9AM-6PM",
    "services": [
      "Black-owned Tire balancing in South-Dakota consultation",
      "Professional service",
      "Quality guarantee"
    ],
    "social_links": {}
  },
  {
    "name": "Sioux Empire Automotive Service Center",
    "address": "46960 271st St, Tea, SD 57064",
    "phone": "(605) 368-2815",
    "rating": 4.0,
    "reviews": 25,
    "website": "https://www.siouxempireauto.com/",
    "category": "Black-owned Tire balancing in South-Dakota",
    "description": "Provides top-notch tire services and precise wheel alignments to ensure a smooth and safe ride",
    "hours": "Mon-Fri 9AM-6PM",
    "services": [
      "Black-owned Tire balancing in South-Dakota consultation",
      "Professional service",
      "Quality guarantee"
    ],
    "social_links": {}
  },
  {
    "name": "Black Hills Tire",
    "address": "Information not available in search results",
    "phone": "",
    "rating": 4.0,
    "reviews": 25,
    "website": "https://www.blackhillstire.com/",
    "category": "Black-owned Tire balancing in South-Dakota",
    "description": "A full-service auto center offering tire services, wheels, brakes, and alignments",
    "hours": "Mon-Fri 9AM-6PM",
    "services": [
      "Black-owned Tire balancing in South-Dakota consultation",
      "Professional service",
      "Quality guarantee"
    ],
    "social_links": {}
  },
  {
    "name": "Chris' Auto Repair",
    "address": "1901 S Minnesota Ave, Sioux Falls, SD 57105",
    "phone": "",
    "rating": 4.0,
    "reviews": 25,
    "website": "https://www.chrisautorepair.com/",
    "category": "Black-owned Tire balancing in South-Dakota",
    "description": "Offers a range of auto services, including tire repair and rotation",
    "hours": "Mon-Fri 9AM-6PM",
    "services": [
      "Black-owned Tire balancing in South-Dakota consultation",
      "Professional service",
      "Quality guarantee"
    ],
    "social_links": {}
  },
  {
    "name": "Chris' Auto Repair",
    "address": "512 N Harlem Ave, Sioux Falls, SD 57104",
    "phone": "",
    "rating": 4.0,
    "reviews": 25,
    "website": "https://www.chrisautorepair.com/",
    "category": "Black-owned Tire balancing in South-Dakota",
    "description": "Provides comprehensive auto repair services, which may include tire balancing",
    "hours": "Mon-Fri 9AM-6PM",
    "services": [
      "Black-owned Tire balancing in South-Dakota consultation",
      "Professional service",
      "Quality guarantee"
    ],
    "social_links": {}
  },
  {
    "name": "R&D Auto Service",
    "address": "Information not available in search results",
    "phone": "605.213.3011",
    "rating": 4.0,
    "reviews": 25,
    "website": "https://www.rdautoservice.com/",
    "category": "Black-owned Tire balancing in South-Dakota",
    "description": "Offers auto and light truck repairs, including tire rotation, with ASE Certified Master Auto Technicians",
    "hours": "Mon-Fri 9AM-6PM",
    "services": [
      "Black-owned Tire balancing in South-Dakota consultation",
      "Professional service",
      "Quality guarantee"
    ],
    "social_links": {}
  }
]