[
  {
    "name": "Kelsch Ruff Kranda Nagle & Ludwig",
    "address": "310 Broadway, Mandan, ND 58554",
    "phone": "(701) 663-5321",
    "rating": 4.0,
    "reviews": 25,
    "website": "https://www.krnl-law.com/",
    "category": "Buddhist-owned Real estate law in North-Dakota",
    "description": "This firm offers a wide range of legal services in real estate law, including assistance with buying, selling, leasing, and property disputes",
    "hours": "Mon-Fri 9AM-6PM",
    "services": [
      "Buddhist-owned Real estate law in North-Dakota consultation",
      "Professional service",
      "Quality guarantee"
    ],
    "social_links": {}
  },
  {
    "name": "Fremstad Law",
    "address": "600 14th St S, Fargo, ND 58103",
    "phone": "(701) 478-7620",
    "rating": 4.0,
    "reviews": 25,
    "website": "https://fremstadlaw.com/",
    "category": "Buddhist-owned Real estate law in North-Dakota",
    "description": "Fremstad Law focuses on building trusted client relationships and provides legal solutions for business, criminal defense, family law, and real estate matters",
    "hours": "Mon-Fri 9AM-6PM",
    "services": [
      "Buddhist-owned Real estate law in North-Dakota consultation",
      "Professional service",
      "Quality guarantee"
    ],
    "social_links": {}
  },
  {
    "name": "Dwyer Law Office, PLLC",
    "address": "111 N. 5th Street, Suite 300, Fargo, ND 58102",
    "phone": "(701) 293-5291",
    "rating": 4.0,
    "reviews": 25,
    "website": "https://www.dwyerlawoffice.com/",
    "category": "Buddhist-owned Real estate law in North-Dakota",
    "description": "Specializing in business law, estate planning, probate, real estate, and water law, Dwyer Law Office has offices in Fargo and Bismarck",
    "hours": "Mon-Fri 9AM-6PM",
    "services": [
      "Buddhist-owned Real estate law in North-Dakota consultation",
      "Professional service",
      "Quality guarantee"
    ],
    "social_links": {}
  },
  {
    "name": "Boppre Law Firm, PLLC",
    "address": "100 1st Ave SW, Minot, ND 58701",
    "phone": "(701) 852-5224",
    "rating": 4.0,
    "reviews": 25,
    "website": "https://www.bopprelaw.com/",
    "category": "Buddhist-owned Real estate law in North-Dakota",
    "description": "This firm provides assistance with complex North Dakota real estate transactions, including buying, selling, and property disputes",
    "hours": "Mon-Fri 9AM-6PM",
    "services": [
      "Buddhist-owned Real estate law in North-Dakota consultation",
      "Professional service",
      "Quality guarantee"
    ],
    "social_links": {}
  },
  {
    "name": "Olson, Juntunen & Cobb, Ltd.",
    "address": "101 N 3rd St, Grand Forks, ND 58203",
    "phone": "(701) 775-4688",
    "rating": 4.0,
    "reviews": 25,
    "website": "https://www.ojclaw.com/",
    "category": "Buddhist-owned Real estate law in North-Dakota",
    "description": "With a history dating back to 1898, this firm handles residential and commercial real estate law, including purchases, sales, landlord representation, and closings",
    "hours": "Mon-Fri 9AM-6PM",
    "services": [
      "Buddhist-owned Real estate law in North-Dakota consultation",
      "Professional service",
      "Quality guarantee"
    ],
    "social_links": {}
  },
  {
    "name": "Severin Law Firm",
    "address": "Virtual Firm (serves all of North Dakota)",
    "phone": "(701) 355-0400",
    "rating": 4.0,
    "reviews": 25,
    "website": "https://www.severinlaw.com/",
    "category": "Buddhist-owned Real estate law in North-Dakota",
    "description": "Severin Law Firm offers client-centered, virtual legal services across North Dakota, specializing in real estate and estate planning",
    "hours": "Mon-Fri 9AM-6PM",
    "services": [
      "Buddhist-owned Real estate law in North-Dakota consultation",
      "Professional service",
      "Quality guarantee"
    ],
    "social_links": {}
  },
  {
    "name": "Damian Huettl (Real Estate Attorney)",
    "address": "2100 E. Rosser Ave, Suite 201, Bismarck, ND 58501",
    "phone": "(701) 223-5000",
    "rating": 3.3,
    "reviews": 25,
    "website": "https://www.huettllaw.com/",
    "category": "Buddhist-owned Real estate law in North-Dakota",
    "description": "Damian Huettl is a real estate attorney in Bismarck, ND, with multiple awards and strong client and peer reviews",
    "hours": "Mon-Fri 9AM-6PM",
    "services": [
      "Buddhist-owned Real estate law in North-Dakota consultation",
      "Professional service",
      "Quality guarantee"
    ],
    "social_links": {}
  },
  {
    "name": "Nehring Law Office, PLLC",
    "address": "101 E. Broadway, Suite 300, Williston, ND 58801",
    "phone": "(701) 572-4900",
    "rating": 4.3,
    "reviews": 25,
    "website": "https://nehringlawoffice.com/",
    "category": "Buddhist-owned Real estate law in North-Dakota",
    "description": "Jeff Nehring is a real estate attorney in Williston, ND, with high ratings from peer and client reviews",
    "hours": "Mon-Fri 9AM-6PM",
    "services": [
      "Buddhist-owned Real estate law in North-Dakota consultation",
      "Professional service",
      "Quality guarantee"
    ],
    "social_links": {}
  },
  {
    "name": "Vogel Law Firm",
    "address": "116 N. 4th Street, Bismarck, ND 58501",
    "phone": "(701) 258-5000",
    "rating": 4.0,
    "reviews": 25,
    "website": "https://vogellaw.com/",
    "category": "Buddhist-owned Real estate law in North-Dakota",
    "description": "Vogel Law Firm has experienced real estate attorneys who handle purchase and sale transactions, commercial leasing, land development, and real estate litigation",
    "hours": "Mon-Fri 9AM-6PM",
    "services": [
      "Buddhist-owned Real estate law in North-Dakota consultation",
      "Professional service",
      "Quality guarantee"
    ],
    "social_links": {}
  },
  {
    "name": "Serkland Law Firm",
    "address": "10 Roberts St W, Fargo, ND 58102",
    "phone": "(701) 232-0000",
    "rating": 4.0,
    "reviews": 25,
    "website": "https://www.serklandlaw.com/",
    "category": "Buddhist-owned Real estate law in North-Dakota",
    "description": "Founded in 1888, Serkland Law Firm specializes in real estate and property law, banking, creditor's rights, and litigation",
    "hours": "Mon-Fri 9AM-6PM",
    "services": [
      "Buddhist-owned Real estate law in North-Dakota consultation",
      "Professional service",
      "Quality guarantee"
    ],
    "social_links": {}
  }
]