[
  {
    "name": "Cool Today",
    "address": "Multiple locations throughout Florida",
    "phone": "Varies by location (e.g., 813-392-1763 for Hillsborough residents)",
    "rating": 4.0,
    "reviews": 25,
    "website": "https://www.cooltoday.com/",
    "category": "Alaska-Native-owned Sewer lines in Florida",
    "description": "Offers a comprehensive range of sewer services including repair, replacement, and trenchless solutions",
    "hours": "Mon-Fri 9AM-6PM",
    "services": [
      "Alaska-Native-owned Sewer lines in Florida consultation",
      "Professional service",
      "Quality guarantee"
    ],
    "social_links": {}
  },
  {
    "name": "Vortex Companies",
    "address": "Multiple locations, serving southeastern Florida",
    "phone": "",
    "rating": 4.0,
    "reviews": 25,
    "website": "https://vortexcompanies.com/",
    "category": "Alaska-Native-owned Sewer lines in Florida",
    "description": "Specializes in trenchless sewer infrastructure rehabilitation, including CCTV inspection, pipe lining, and pipe bursting",
    "hours": "Mon-Fri 9AM-6PM",
    "services": [
      "Alaska-Native-owned Sewer lines in Florida consultation",
      "Professional service",
      "Quality guarantee"
    ],
    "social_links": {}
  },
  {
    "name": "Pace Sewer & Drain Services",
    "address": "Pace, Florida",
    "phone": "",
    "rating": 4.0,
    "reviews": 25,
    "website": "https://www.paceplumbing.com/",
    "category": "Alaska-Native-owned Sewer lines in Florida",
    "description": "Provides sewer and drain services, including clearing clogs, repairing sewer pipes, and new sewer line installation",
    "hours": "Mon-Fri 9AM-6PM",
    "services": [
      "Alaska-Native-owned Sewer lines in Florida consultation",
      "Professional service",
      "Quality guarantee"
    ],
    "social_links": {}
  },
  {
    "name": "Cape Sewer and Drain Inc.",
    "address": "Riverview, FL (serving Hillsborough, Pinellas, Sarasota, and Polk counties)",
    "phone": "(813) 392-1763 (Hillsborough), (727) 455-7886 (Pinellas), (941) 288-3105 (Sarasota), (863) 281-7966 (Polk)",
    "rating": 4.0,
    "reviews": 25,
    "website": "https://www.capeseweranddrain.com/",
    "category": "Alaska-Native-owned Sewer lines in Florida",
    "description": "Offers comprehensive plumbing and sewer services, including cleaning, repair, and replacement",
    "hours": "Mon-Fri 9AM-6PM",
    "services": [
      "Alaska-Native-owned Sewer lines in Florida consultation",
      "Professional service",
      "Quality guarantee"
    ],
    "social_links": {}
  },
  {
    "name": "Pinellas County Utilities",
    "address": "Clearwater, FL (serving Pinellas County)",
    "phone": "",
    "rating": 4.0,
    "reviews": 25,
    "website": "https://www.pinellascounty.org/utilities/",
    "category": "Alaska-Native-owned Sewer lines in Florida",
    "description": "Provides public water and sewer services, including maintenance and repair in unincorporated areas",
    "hours": "Mon-Fri 9AM-6PM",
    "services": [
      "Alaska-Native-owned Sewer lines in Florida consultation",
      "Professional service",
      "Quality guarantee"
    ],
    "social_links": {}
  },
  {
    "name": "Native Plumbing & Drain",
    "address": "North Port, Florida",
    "phone": "(941) 769-1527",
    "rating": 4.0,
    "reviews": 25,
    "website": "https://nativeplumbinganddrain.com/",
    "category": "Alaska-Native-owned Sewer lines in Florida",
    "description": "Offers plumbing services including whole house repiping and water heater replacements",
    "hours": "Mon-Fri 9AM-6PM",
    "services": [
      "Alaska-Native-owned Sewer lines in Florida consultation",
      "Professional service",
      "Quality guarantee"
    ],
    "social_links": {}
  },
  {
    "name": "Pipe Restoration Solutions",
    "address": "Offices in Florida and California",
    "phone": "800-652-7604",
    "rating": 4.0,
    "reviews": 25,
    "website": "https://www.piperestorationsolutions.com/",
    "category": "Alaska-Native-owned Sewer lines in Florida",
    "description": "Specializes in trenchless pipe repair, including sewer pipe inspection, cleaning, lining, and replacement",
    "hours": "Mon-Fri 9AM-6PM",
    "services": [
      "Alaska-Native-owned Sewer lines in Florida consultation",
      "Professional service",
      "Quality guarantee"
    ],
    "social_links": {}
  },
  {
    "name": "Blue Works Florida",
    "address": "Serves Florida",
    "phone": "",
    "rating": 4.0,
    "reviews": 25,
    "website": "https://www.blueworkscompany.com/",
    "category": "Alaska-Native-owned Sewer lines in Florida",
    "description": "Focuses on trenchless pipe lining and restoration for sewer, drain, and water pipes without excavation",
    "hours": "Mon-Fri 9AM-6PM",
    "services": [
      "Alaska-Native-owned Sewer lines in Florida consultation",
      "Professional service",
      "Quality guarantee"
    ],
    "social_links": {}
  },
  {
    "name": "Alert Plumbing Services of SWFL",
    "address": "Serves Southwest Florida (Arcadia and surrounding counties)",
    "phone": "(863) 494-6794",
    "rating": 4.3,
    "reviews": 25,
    "website": "https://www.alertplumbing.com/",
    "category": "Alaska-Native-owned Sewer lines in Florida",
    "description": "Offers a wide range of plumbing services, including water and sewer line repair and replacement",
    "hours": "Mon-Fri 9AM-6PM",
    "services": [
      "Alaska-Native-owned Sewer lines in Florida consultation",
      "Professional service",
      "Quality guarantee"
    ],
    "social_links": {}
  },
  {
    "name": "Manatee Plumbing",
    "address": "Serves Citrus & Levy Counties, Florida",
    "phone": "",
    "rating": 4.0,
    "reviews": 25,
    "website": "https://www.manateeplumbing.com/",
    "category": "Alaska-Native-owned Sewer lines in Florida",
    "description": "Provides expert plumbing services, including installations, repairs, and drain cleaning",
    "hours": "Mon-Fri 9AM-6PM",
    "services": [
      "Alaska-Native-owned Sewer lines in Florida consultation",
      "Professional service",
      "Quality guarantee"
    ],
    "social_links": {}
  }
]