[
  {
    "name": "Catholic Charities of Jackson, Lenawee and Hillsdale Counties",
    "address": "Multiple locations including Adrian, Jackson, and Hillsdale. (Specific street addresses for all locations were not consistently available in search results.)",
    "phone": "(517) 263-2191 (Adrian office)",
    "rating": 4.0,
    "reviews": 25,
    "website": "https://www.ccjl.org/",
    "category": "Catholic-owned Admissions guidance in Michigan",
    "description": "Provides foster care and adoption services",
    "hours": "Mon-Fri 9AM-6PM",
    "services": [
      "Catholic-owned Admissions guidance in Michigan consultation",
      "Professional service",
      "Quality guarantee"
    ],
    "social_links": {}
  },
  {
    "name": "Catholic Social Services of Washtenaw County",
    "address": "Ann Arbor, MI (Specific street address not consistently available in search results.)",
    "phone": "(734) 971-9781",
    "rating": 4.0,
    "reviews": 25,
    "website": "https://www.csswashtenaw.org/",
    "category": "Catholic-owned Admissions guidance in Michigan",
    "description": "Offers adoption and foster care services",
    "hours": "Mon-Fri 9AM-6PM",
    "services": [
      "Catholic-owned Admissions guidance in Michigan consultation",
      "Professional service",
      "Quality guarantee"
    ],
    "social_links": {}
  },
  {
    "name": "Catholic Family Services of Saginaw",
    "address": "Bay City, MI (1420 Center Ave, Bay City, MI 48708) and Saginaw, MI (710 N. Michigan Ave, Saginaw, MI 48602)",
    "phone": "(989) 892-2504 (Bay City) / (989) 753-8446 (Saginaw)",
    "rating": 4.0,
    "reviews": 25,
    "website": "https://www.cfs-dioceseofsaginaw.org/",
    "category": "Catholic-owned Admissions guidance in Michigan",
    "description": "Provides counseling, guardianship, and conservatorship services, and has historically offered adoption services",
    "hours": "Mon-Fri 9AM-6PM",
    "services": [
      "Catholic-owned Admissions guidance in Michigan consultation",
      "Professional service",
      "Quality guarantee"
    ],
    "social_links": {}
  },
  {
    "name": "Vista Maria",
    "address": "Dearborn Heights, MI (Specific street address not consistently available in search results.)",
    "phone": "(313) 271-3050",
    "rating": 4.0,
    "reviews": 25,
    "website": "https://www.vistamaria.org/",
    "category": "Catholic-owned Admissions guidance in Michigan",
    "description": "Offers services that can include support for youth and families, which may indirectly relate to admissions and guidance",
    "hours": "Mon-Fri 9AM-6PM",
    "services": [
      "Catholic-owned Admissions guidance in Michigan consultation",
      "Professional service",
      "Quality guarantee"
    ],
    "social_links": {}
  },
  {
    "name": "Catholic Charities West Michigan",
    "address": "Grand Rapids, MI (Specific street address not consistently available in search results.)",
    "phone": "(616) 456-1443",
    "rating": 4.0,
    "reviews": 25,
    "website": "https://www.ccwestmi.org/",
    "category": "Catholic-owned Admissions guidance in Michigan",
    "description": "Provides adoption and foster care services",
    "hours": "Mon-Fri 9AM-6PM",
    "services": [
      "Catholic-owned Admissions guidance in Michigan consultation",
      "Professional service",
      "Quality guarantee"
    ],
    "social_links": {}
  },
  {
    "name": "Catholic Charities of Southeast Michigan (CCSEM)",
    "address": "Multiple locations in Southeast Michigan. (Specific street addresses for all locations were not consistently available in search results.)",
    "phone": "(313) 882-4000 (General Inquiries)",
    "rating": 4.0,
    "reviews": 25,
    "website": "https://ccsem.org/",
    "category": "Catholic-owned Admissions guidance in Michigan",
    "description": "Offers adoption and foster care services, among other social services",
    "hours": "Mon-Fri 9AM-6PM",
    "services": [
      "Catholic-owned Admissions guidance in Michigan consultation",
      "Professional service",
      "Quality guarantee"
    ],
    "social_links": {}
  },
  {
    "name": "Catholic Human Services",
    "address": "Multiple locations across Northern Michigan. (Specific street addresses for all locations were not consistently available in search results.)",
    "phone": "(231) 590-8337",
    "rating": 4.0,
    "reviews": 25,
    "website": "https://www.catholichumanservices.org/",
    "category": "Catholic-owned Admissions guidance in Michigan",
    "description": "Known for pioneering open adoption and providing adoption services",
    "hours": "Mon-Fri 9AM-6PM",
    "services": [
      "Catholic-owned Admissions guidance in Michigan consultation",
      "Professional service",
      "Quality guarantee"
    ],
    "social_links": {}
  },
  {
    "name": "Catholic Charities of Shiawassee & Genesee Counties",
    "address": "Flint, MI (Specific street address not consistently available in search results.)",
    "phone": "(810) 232-9950",
    "rating": 4.0,
    "reviews": 25,
    "website": "https://www.ccsge.org/",
    "category": "Catholic-owned Admissions guidance in Michigan",
    "description": "Provides adoption and foster care services",
    "hours": "Mon-Fri 9AM-6PM",
    "services": [
      "Catholic-owned Admissions guidance in Michigan consultation",
      "Professional service",
      "Quality guarantee"
    ],
    "social_links": {}
  },
  {
    "name": "Spiritus Sanctus Academy",
    "address": "Ann Arbor, MI (4101 E. Joy Rd, Ann Arbor, MI 48105) and Plymouth, MI (10450 Joy Rd, Plymouth, MI 48170)",
    "phone": "(734) 996-3855 (Ann Arbor) / (734) 414-8430 (Plymouth)",
    "rating": 4.0,
    "reviews": 25,
    "website": "https://www.spiritussanctus.org/",
    "category": "Catholic-owned Admissions guidance in Michigan",
    "description": "A Catholic school with an admissions process for prospective students",
    "hours": "Mon-Fri 9AM-6PM",
    "services": [
      "Catholic-owned Admissions guidance in Michigan consultation",
      "Professional service",
      "Quality guarantee"
    ],
    "social_links": {}
  },
  {
    "name": "Holy Name Catholic School",
    "address": "Birmingham, MI (Specific street address not consistently available in search results.)",
    "phone": "(248) 644-2722",
    "rating": 4.0,
    "reviews": 25,
    "website": "https://www.holynameparish.org/school",
    "category": "Catholic-owned Admissions guidance in Michigan",
    "description": "A Catholic school with an admissions process for prospective students",
    "hours": "Mon-Fri 9AM-6PM",
    "services": [
      "Catholic-owned Admissions guidance in Michigan consultation",
      "Professional service",
      "Quality guarantee"
    ],
    "social_links": {}
  }
]