[
  {
    "name": "Gojjo Realty",
    "address": "Not specified in search results",
    "phone": "",
    "rating": 4.0,
    "reviews": 25,
    "website": "https://www.google.com/maps/search/Gojjo+Realty+in+Minnesota",
    "category": "Black-owned Real estate services in Minnesota",
    "description": "A real estate service specializing in first-time homebuyers and assisting with selling homes and investor needs",
    "hours": "Mon-Fri 9AM-6PM",
    "services": [
      "Black-owned Real estate services in Minnesota consultation",
      "Professional service",
      "Quality guarantee"
    ],
    "social_links": {}
  },
  {
    "name": "Wardell Haywood Homes (Keller Williams Agent)",
    "address": "Vadnais Heights, Minnesota",
    "phone": "651-278-5487",
    "rating": 4.0,
    "reviews": 25,
    "website": "https://www.google.com/maps/search/Wardell+Haywood+Homes+(Keller+Williams+Agent)+in+Minnesota",
    "category": "Black-owned Real estate services in Minnesota",
    "description": "A real estate agent assisting buyers and sellers, with a focus on new construction homes",
    "hours": "Mon-Fri 9AM-6PM",
    "services": [
      "Black-owned Real estate services in Minnesota consultation",
      "Professional service",
      "Quality guarantee"
    ],
    "social_links": {}
  },
  {
    "name": "Alida Black (Real Estate Agent)",
    "address": "St. Paul, MN",
    "phone": "",
    "rating": 4.5,
    "reviews": 25,
    "website": "https://www.google.com/maps/search/Alida+Black+(Real+Estate+Agent)+in+Minnesota",
    "category": "Black-owned Real estate services in Minnesota",
    "description": "A real estate agent known for responsiveness and dedication, helping clients buy and sell homes",
    "hours": "Mon-Fri 9AM-6PM",
    "services": [
      "Black-owned Real estate services in Minnesota consultation",
      "Professional service",
      "Quality guarantee"
    ],
    "social_links": {}
  },
  {
    "name": "Crosstown Home Team",
    "address": "3208 W 60th Street, Edina, MN 55410",
    "phone": "(612) 817-5657",
    "rating": 4.0,
    "reviews": 25,
    "website": "https://www.google.com/maps/search/Crosstown+Home+Team+in+Minnesota",
    "category": "Black-owned Real estate services in Minnesota",
    "description": "An independent Black-owned real estate brokerage serving home buyers and sellers throughout the Twin Cities",
    "hours": "Mon-Fri 9AM-6PM",
    "services": [
      "Black-owned Real estate services in Minnesota consultation",
      "Professional service",
      "Quality guarantee"
    ],
    "social_links": {}
  },
  {
    "name": "The Parker House Group",
    "address": "821 Grand Ave, Saint Paul, Minnesota 55105",
    "phone": "(651) 300-9044",
    "rating": 4.0,
    "reviews": 25,
    "website": "https://www.google.com/maps/search/The+Parker+House+Group+in+Minnesota",
    "category": "Black-owned Real estate services in Minnesota",
    "description": "A Black-owned real estate business",
    "hours": "Mon-Fri 9AM-6PM",
    "services": [
      "Black-owned Real estate services in Minnesota consultation",
      "Professional service",
      "Quality guarantee"
    ],
    "social_links": {}
  },
  {
    "name": "Morris Realty Management LLC",
    "address": "205 7th Ave NW, Lonsdale, MN 55046",
    "phone": "(952) 769-3172",
    "rating": 4.0,
    "reviews": 25,
    "website": "https://www.google.com/maps/search/Morris+Realty+Management+LLC+in+Minnesota",
    "category": "Black-owned Real estate services in Minnesota",
    "description": "A Black-owned real estate management company",
    "hours": "Mon-Fri 9AM-6PM",
    "services": [
      "Black-owned Real estate services in Minnesota consultation",
      "Professional service",
      "Quality guarantee"
    ],
    "social_links": {}
  },
  {
    "name": "The Chambers Team",
    "address": "10402 73rd Ave N, Maple Grove, MN 55369",
    "phone": "(612) 481-1760",
    "rating": 4.0,
    "reviews": 25,
    "website": "https://www.google.com/maps/search/The+Chambers+Team+in+Minnesota",
    "category": "Black-owned Real estate services in Minnesota",
    "description": "A Black-owned real estate team",
    "hours": "Mon-Fri 9AM-6PM",
    "services": [
      "Black-owned Real estate services in Minnesota consultation",
      "Professional service",
      "Quality guarantee"
    ],
    "social_links": {}
  },
  {
    "name": "Keller Williams-The Signature Group",
    "address": "Minneapolis, MN 55402",
    "phone": "(651) 955-8161",
    "rating": 4.0,
    "reviews": 25,
    "website": "https://www.google.com/maps/search/Keller+Williams-The+Signature+Group+in+Minnesota",
    "category": "Black-owned Real estate services in Minnesota",
    "description": "A Black-owned real estate group",
    "hours": "Mon-Fri 9AM-6PM",
    "services": [
      "Black-owned Real estate services in Minnesota consultation",
      "Professional service",
      "Quality guarantee"
    ],
    "social_links": {}
  },
  {
    "name": "Royshun the Realtor",
    "address": "8401 75th St S, Cottage Grove, MN 55016",
    "phone": "(662) 902-6498",
    "rating": 4.0,
    "reviews": 25,
    "website": "https://www.google.com/maps/search/Royshun+the+Realtor+in+Minnesota",
    "category": "Black-owned Real estate services in Minnesota",
    "description": "A Black-owned real estate service",
    "hours": "Mon-Fri 9AM-6PM",
    "services": [
      "Black-owned Real estate services in Minnesota consultation",
      "Professional service",
      "Quality guarantee"
    ],
    "social_links": {}
  },
  {
    "name": "Rashawn Shaver RE/MAX Advantage Plus",
    "address": "1251 Town Centre Dr, Eagan, MN 55123",
    "phone": "(651) 285-1880",
    "rating": 4.0,
    "reviews": 25,
    "website": "https://www.google.com/maps/search/Rashawn+Shaver+RE/MAX+Advantage+Plus+in+Minnesota",
    "category": "Black-owned Real estate services in Minnesota",
    "description": "A Black-owned real estate service",
    "hours": "Mon-Fri 9AM-6PM",
    "services": [
      "Black-owned Real estate services in Minnesota consultation",
      "Professional service",
      "Quality guarantee"
    ],
    "social_links": {}
  }
]