[
  {
    "name": "The Children's Museum & Theatre of Maine",
    "address": "250 Thompsons Point Road, Portland, ME 04102",
    "phone": "(207) 808-0300",
    "rating": 4.6,
    "reviews": 25,
    "website": "https://www.childrensmuseumofmaine.org/",
    "category": "Atheist-owned Childrens activities in Maine",
    "description": "Offers experiential discovery, playful education, and joyful exploration in performing and visual arts, science, and culture for children, teens, families, teachers, and caregivers",
    "hours": "Mon-Fri 9AM-6PM",
    "services": [
      "Atheist-owned Childrens activities in Maine consultation",
      "Professional service",
      "Quality guarantee"
    ],
    "social_links": {}
  },
  {
    "name": "Maine Discovery Museum",
    "address": "26 Main St, Bangor, ME 04401",
    "phone": "(207) 262-7200",
    "rating": 4.5,
    "reviews": 25,
    "website": "https://www.mainediscoverymuseum.org/",
    "category": "Atheist-owned Childrens activities in Maine",
    "description": "Features three floors of interactive exhibits and robust science programming within and outside the museum, providing unique educational opportunities for children and families",
    "hours": "Mon-Fri 9AM-6PM",
    "services": [
      "Atheist-owned Childrens activities in Maine consultation",
      "Professional service",
      "Quality guarantee"
    ],
    "social_links": {}
  },
  {
    "name": "Coastal Children's Museum",
    "address": "75 Main St, Rockland, ME 04841",
    "phone": "(207) 596-0300",
    "rating": 4.5,
    "reviews": 25,
    "website": "https://www.coastalchildrensmuseum.org/",
    "category": "Atheist-owned Childrens activities in Maine",
    "description": "An interactive museum for children and families with 13 exhibits covering science, art, and personal health",
    "hours": "Mon-Fri 9AM-6PM",
    "services": [
      "Atheist-owned Childrens activities in Maine consultation",
      "Professional service",
      "Quality guarantee"
    ],
    "social_links": {}
  },
  {
    "name": "Adventure Playland",
    "address": "126 North St, Waterville, ME 04901",
    "phone": "(207) 873-0000",
    "rating": 4.0,
    "reviews": 25,
    "website": "https://www.adventureplayland.com/",
    "category": "Atheist-owned Childrens activities in Maine",
    "description": "An indoor playground offering a variety of activities for children",
    "hours": "Mon-Fri 9AM-6PM",
    "services": [
      "Atheist-owned Childrens activities in Maine consultation",
      "Professional service",
      "Quality guarantee"
    ],
    "social_links": {}
  },
  {
    "name": "FunZ Trampoline Park",
    "address": "40 East Ave, Lewiston, ME 04240",
    "phone": "(207) 783-3888",
    "rating": 4.3,
    "reviews": 25,
    "website": "https://www.funzlewiston.com/",
    "category": "Atheist-owned Childrens activities in Maine",
    "description": "Offers a range of activities including a bumper ball court, trampolines, foam pits, ninja course, and a special toddler trampoline area",
    "hours": "Mon-Fri 9AM-6PM",
    "services": [
      "Atheist-owned Childrens activities in Maine consultation",
      "Professional service",
      "Quality guarantee"
    ],
    "social_links": {}
  },
  {
    "name": "Urban Air Adventure Park",
    "address": "1129 Union St, Bangor, ME 04401 (also a location in South Portland)",
    "phone": "(207) 210-1555",
    "rating": 4.2,
    "reviews": 25,
    "website": "https://www.urbanair.com/locations/me-bangor/",
    "category": "Atheist-owned Childrens activities in Maine",
    "description": "An adventure park with attractions like trampolines, climbing walls, and obstacle courses, suitable for various ages",
    "hours": "Mon-Fri 9AM-6PM",
    "services": [
      "Atheist-owned Childrens activities in Maine consultation",
      "Professional service",
      "Quality guarantee"
    ],
    "social_links": {}
  },
  {
    "name": "The Rumpus Room",
    "address": "9 Cumberland St, Brunswick, ME 04011",
    "phone": "(207) 729-0123",
    "rating": 4.5,
    "reviews": 25,
    "website": "https://www.therumpusroom.com/",
    "category": "Atheist-owned Childrens activities in Maine",
    "description": "A safe, clean, active, and creative play space for children, featuring a gross motor room, reading room, and imaginative play areas",
    "hours": "Mon-Fri 9AM-6PM",
    "services": [
      "Atheist-owned Childrens activities in Maine consultation",
      "Professional service",
      "Quality guarantee"
    ],
    "social_links": {}
  },
  {
    "name": "Let's Create Children's Creative Art Studio",
    "address": "10 Village Center Rd, North Yarmouth, ME 04097",
    "phone": "(207) 829-3000",
    "rating": 4.8,
    "reviews": 25,
    "website": "https://www.letscrate.com/",
    "category": "Atheist-owned Childrens activities in Maine",
    "description": "Offers a space for children to explore, create, and grow through teacher-guided projects and self-directed exploration, with programs in painting, drawing, clay, and more",
    "hours": "Mon-Fri 9AM-6PM",
    "services": [
      "Atheist-owned Childrens activities in Maine consultation",
      "Professional service",
      "Quality guarantee"
    ],
    "social_links": {}
  },
  {
    "name": "Merryspring Nature Center",
    "address": "30 Atlantic Ave, Camden, ME 04843",
    "phone": "(207) 236-2239",
    "rating": 4.7,
    "reviews": 25,
    "website": "https://www.merryspring.org/",
    "category": "Atheist-owned Childrens activities in Maine",
    "description": "A nature preserve offering opportunities to observe gardens, wildlife, and hiking trails, with educational programs for children",
    "hours": "Mon-Fri 9AM-6PM",
    "services": [
      "Atheist-owned Childrens activities in Maine consultation",
      "Professional service",
      "Quality guarantee"
    ],
    "social_links": {}
  },
  {
    "name": "The Village",
    "address": "190 Water Street, Augusta, ME 04345",
    "phone": "(207) 620-2119",
    "rating": 4.7,
    "reviews": 25,
    "website": "https://www.thevillageaugustame.com/",
    "category": "Atheist-owned Childrens activities in Maine",
    "description": "Augusta, ME's premier children's play space and birthday party venue, designed to offer kids a fun, interactive environment where they can socialize and learn",
    "hours": "Mon-Fri 9AM-6PM",
    "services": [
      "Atheist-owned Childrens activities in Maine consultation",
      "Professional service",
      "Quality guarantee"
    ],
    "social_links": {}
  }
]