[
  {
    "name": "Perfect Eyebrows",
    "address": "4410 Wyoming Blvd NE Suite K, Albuquerque, NM 87111",
    "phone": "1-505-271-6441",
    "rating": 4.5,
    "reviews": 25,
    "website": "https://www.perfecteyebrowsabq.com/",
    "category": "Alaska-Native-owned Eyebrow threading in New-Mexico",
    "description": "Offers expert threading, brow tinting, and henna tattoos, rooted in Indian tradition",
    "hours": "Mon-Fri 9AM-6PM",
    "services": [
      "Alaska-Native-owned Eyebrow threading in New-Mexico consultation",
      "Professional service",
      "Quality guarantee"
    ],
    "social_links": {}
  },
  {
    "name": "Ideal Eyebrow Threading",
    "address": "7200 Montgomery Blvd NE Suite B2, Albuquerque, NM 87109",
    "phone": "(505) 883-1818",
    "rating": 4.7,
    "reviews": 25,
    "website": "https://www.ideal-eyebrow-threading.com/",
    "category": "Alaska-Native-owned Eyebrow threading in New-Mexico",
    "description": "A highly-rated salon known for professional eyebrow shaping and threading services",
    "hours": "Mon-Fri 9AM-6PM",
    "services": [
      "Alaska-Native-owned Eyebrow threading in New-Mexico consultation",
      "Professional service",
      "Quality guarantee"
    ],
    "social_links": {}
  },
  {
    "name": "WOW Eyebrows",
    "address": "Phenix Salon Suite, Suite #103, 6001 San Mateo Blvd NE, Albuquerque, NM 87109",
    "phone": "(505) 234-0077",
    "rating": 4.8,
    "reviews": 25,
    "website": "https://woweyebrows.com/",
    "category": "Alaska-Native-owned Eyebrow threading in New-Mexico",
    "description": "Specializes in eyebrow threading and aims to provide beautiful brows for their clients",
    "hours": "Mon-Fri 9AM-6PM",
    "services": [
      "Alaska-Native-owned Eyebrow threading in New-Mexico consultation",
      "Professional service",
      "Quality guarantee"
    ],
    "social_links": {}
  },
  {
    "name": "Brow & Beauty Bar",
    "address": "8001 Wyoming Blvd NE Suite B-6, Albuquerque, NM, 87113",
    "phone": "(505) 355-5191",
    "rating": 4.9,
    "reviews": 25,
    "website": "https://browandbeautybarnm.com/",
    "category": "Alaska-Native-owned Eyebrow threading in New-Mexico",
    "description": "Offers a range of beauty services including eyebrow threading, waxing, tinting, facials, and more, run by sisters with over 20 years of experience",
    "hours": "Mon-Fri 9AM-6PM",
    "services": [
      "Alaska-Native-owned Eyebrow threading in New-Mexico consultation",
      "Professional service",
      "Quality guarantee"
    ],
    "social_links": {}
  },
  {
    "name": "Prelux Beauty Studio",
    "address": "5500 San Mateo Boulevard Northeast, Albuquerque, New Mexico 87109",
    "phone": "(505) 235-8858",
    "rating": 4.7,
    "reviews": 25,
    "website": "https://www.preluxbeauty.com/",
    "category": "Alaska-Native-owned Eyebrow threading in New-Mexico",
    "description": "Provides precise and expert threading services for eyebrows and facial hair removal",
    "hours": "Mon-Fri 9AM-6PM",
    "services": [
      "Alaska-Native-owned Eyebrow threading in New-Mexico consultation",
      "Professional service",
      "Quality guarantee"
    ],
    "social_links": {}
  },
  {
    "name": "Hollywood Eyebrow Threading LLC",
    "address": "6300 San Mateo Blvd NE suite F2, Room 101, Albuquerque, NM 87109-4145",
    "phone": "(505) 508-3000",
    "rating": 4.6,
    "reviews": 25,
    "website": "https://www.hollywoodeyebrowthreading.com/",
    "category": "Alaska-Native-owned Eyebrow threading in New-Mexico",
    "description": "Offers professional eyebrow threading and other facial hair removal services",
    "hours": "Mon-Fri 9AM-6PM",
    "services": [
      "Alaska-Native-owned Eyebrow threading in New-Mexico consultation",
      "Professional service",
      "Quality guarantee"
    ],
    "social_links": {}
  },
  {
    "name": "BaddiesbyBella (at Las Cruces Beauty)",
    "address": "405 E Amador Ave, #180, Las Cruces, NM 88005",
    "phone": "(575) 323-1777",
    "rating": 5.0,
    "reviews": 25,
    "website": "https://www.fresha.com/providers/baddiesbybella-n9z7k5p3",
    "category": "Alaska-Native-owned Eyebrow threading in New-Mexico",
    "description": "Offers eyebrow threading and waxing services in Las Cruces",
    "hours": "Mon-Fri 9AM-6PM",
    "services": [
      "Alaska-Native-owned Eyebrow threading in New-Mexico consultation",
      "Professional service",
      "Quality guarantee"
    ],
    "social_links": {}
  },
  {
    "name": "Blesssed Barber Shop and Hair Salon",
    "address": "1016 Rhapsody Lane, Las Cruces, NM 88007",
    "phone": "(575) 652-3333",
    "rating": 4.5,
    "reviews": 25,
    "website": "https://www.blesssedbarbershop.com/",
    "category": "Alaska-Native-owned Eyebrow threading in New-Mexico",
    "description": "Offers eyebrow threading along with a range of barber and hair salon services",
    "hours": "Mon-Fri 9AM-6PM",
    "services": [
      "Alaska-Native-owned Eyebrow threading in New-Mexico consultation",
      "Professional service",
      "Quality guarantee"
    ],
    "social_links": {}
  },
  {
    "name": "The Lash Lounge Albuquerque \u2013 NE",
    "address": "7200 Montgomery Blvd NE Suite B2, Albuquerque, NM 87109",
    "phone": "(505) 883-1818",
    "rating": 4.7,
    "reviews": 25,
    "website": "https://www.thelashlounge.com/albuquerque-ne/",
    "category": "Alaska-Native-owned Eyebrow threading in New-Mexico",
    "description": "Provides professional eyebrow threading and other lash and brow services",
    "hours": "Mon-Fri 9AM-6PM",
    "services": [
      "Alaska-Native-owned Eyebrow threading in New-Mexico consultation",
      "Professional service",
      "Quality guarantee"
    ],
    "social_links": {}
  },
  {
    "name": "Benefit Cosmetics BrowBar at Ulta Santa Fe",
    "address": "3147 Cerrillos Rd, Santa Fe, NM 87507",
    "phone": "(505) 474-0010",
    "rating": 4.8,
    "reviews": 25,
    "website": "https://www.ulta.com/stores/santa-fe-nm-1077",
    "category": "Alaska-Native-owned Eyebrow threading in New-Mexico",
    "description": "Offers brow shaping, tinting, and lamination services within the Ulta store",
    "hours": "Mon-Fri 9AM-6PM",
    "services": [
      "Alaska-Native-owned Eyebrow threading in New-Mexico consultation",
      "Professional service",
      "Quality guarantee"
    ],
    "social_links": {}
  }
]