[
  {
    "name": "Gerber Collision & Glass",
    "address": "506 Breckenridge St, Owensboro, KY 42301",
    "phone": "(270) 685-1026",
    "rating": 4.5,
    "reviews": 25,
    "website": "https://www.gerbercollision.com/locations/owensboro-ky",
    "category": "Chinese-speaking Auto body repair in Kentucky",
    "description": "Offers collision repair services with a lifetime guarantee on all repairs. They work on all makes and models and provide free written estimates",
    "hours": "Mon-Fri 9AM-6PM",
    "services": [
      "Chinese-speaking Auto body repair in Kentucky consultation",
      "Professional service",
      "Quality guarantee"
    ],
    "social_links": {}
  },
  {
    "name": "Top Notch Paint & Auto Body, LLC",
    "address": "3006 Louisville Rd, Bowling Green, KY 42101",
    "phone": "(270) 842-4000",
    "rating": 4.8,
    "reviews": 25,
    "website": "https://topnotchpaintandautobody.com/",
    "category": "Chinese-speaking Auto body repair in Kentucky",
    "description": "Specializes in auto paint and auto body repair, with 34 years of experience. They also offer RV painting and handle collision repair",
    "hours": "Mon-Fri 9AM-6PM",
    "services": [
      "Chinese-speaking Auto body repair in Kentucky consultation",
      "Professional service",
      "Quality guarantee"
    ],
    "social_links": {}
  },
  {
    "name": "JHCC",
    "address": "100 Commerce Blvd, Richmond, KY 40475",
    "phone": "(859) 985-2583",
    "rating": 4.7,
    "reviews": 25,
    "website": "https://www.jhcc.com/locations/richmond-ky/",
    "category": "Chinese-speaking Auto body repair in Kentucky",
    "description": "Offers expert auto body repairs, including painting and dent removal, with efficient service and insurance support",
    "hours": "Mon-Fri 9AM-6PM",
    "services": [
      "Chinese-speaking Auto body repair in Kentucky consultation",
      "Professional service",
      "Quality guarantee"
    ],
    "social_links": {}
  },
  {
    "name": "Boruske Brothers Collision Center",
    "address": "511 Ervin Terrace, Dayton, KY 41074",
    "phone": "(859) 581-0302",
    "rating": 4.9,
    "reviews": 25,
    "website": "https://boruskecollision.com/",
    "category": "Chinese-speaking Auto body repair in Kentucky",
    "description": "A family-owned and operated, state-of-the-art, full-service collision repair center serving the Cincinnati and Northern Kentucky area since 1993. They offer a lifetime warranty on all services",
    "hours": "Mon-Fri 9AM-6PM",
    "services": [
      "Chinese-speaking Auto body repair in Kentucky consultation",
      "Professional service",
      "Quality guarantee"
    ],
    "social_links": {}
  },
  {
    "name": "Cambron Body Shop",
    "address": "1515 E 18th St, Owensboro, KY 42303",
    "phone": "(270) 684-1465",
    "rating": 4.8,
    "reviews": 25,
    "website": "https://www.cambronbodyshop.com/",
    "category": "Chinese-speaking Auto body repair in Kentucky",
    "description": "Owensboro, KY's oldest and most experienced auto body shop, established in 1922. They repair all makes and models, foreign and domestic, and also work on trucks and RVs. They offer 24-hour towing",
    "hours": "Mon-Fri 9AM-6PM",
    "services": [
      "Chinese-speaking Auto body repair in Kentucky consultation",
      "Professional service",
      "Quality guarantee"
    ],
    "social_links": {}
  },
  {
    "name": "Bodies by Mike",
    "address": "7107 Industrial Rd, Florence, KY 41042",
    "phone": "(859) 647-9155",
    "rating": 4.9,
    "reviews": 25,
    "website": "https://bodiesbymike.com/",
    "category": "Chinese-speaking Auto body repair in Kentucky",
    "description": "A one-stop shop for collision repair, mechanical repairs, frame repair, paintless dent repair, and detailing. They have been providing services since 2001 and are committed to customer satisfaction",
    "hours": "Mon-Fri 9AM-6PM",
    "services": [
      "Chinese-speaking Auto body repair in Kentucky consultation",
      "Professional service",
      "Quality guarantee"
    ],
    "social_links": {}
  },
  {
    "name": "Kentucky Collision Centers - Palumbo",
    "address": "2591 Palumbo Dr, Lexington, KY 40509",
    "phone": "(859) 269-9233",
    "rating": 4.6,
    "reviews": 25,
    "website": "https://www.kentuckycollision.com/locations/lexington-palumbo/",
    "category": "Chinese-speaking Auto body repair in Kentucky",
    "description": "Offers certified collision auto body repair in Lexington, using the latest technology and manufacturer parts. They provide a hassle-free experience from estimates to insurance coordination",
    "hours": "Mon-Fri 9AM-6PM",
    "services": [
      "Chinese-speaking Auto body repair in Kentucky consultation",
      "Professional service",
      "Quality guarantee"
    ],
    "social_links": {}
  },
  {
    "name": "Neil Huffman Collision Center",
    "address": "4000 Bardstown Rd, Louisville, KY 40218",
    "phone": "(502) 459-4400",
    "rating": 4.7,
    "reviews": 25,
    "website": "https://www.neilhuffman.com/collision-center/",
    "category": "Chinese-speaking Auto body repair in Kentucky",
    "description": "Provides expert auto body repair, dent removal, and painting in Louisville. They have certified experts and offer free estimates",
    "hours": "Mon-Fri 9AM-6PM",
    "services": [
      "Chinese-speaking Auto body repair in Kentucky consultation",
      "Professional service",
      "Quality guarantee"
    ],
    "social_links": {}
  },
  {
    "name": "Final Finish Body Shop",
    "address": "1355 Westen St, Bowling Green, KY 42101",
    "phone": "(270) 781-5000",
    "rating": 4.8,
    "reviews": 25,
    "website": "https://finalfinishbodyshop.com/",
    "category": "Chinese-speaking Auto body repair in Kentucky",
    "description": "Offers automotive collision repair, body shop services, and tow services in Bowling Green. They also have a location in Morgantown for commercial truck repair and coating services",
    "hours": "Mon-Fri 9AM-6PM",
    "services": [
      "Chinese-speaking Auto body repair in Kentucky consultation",
      "Professional service",
      "Quality guarantee"
    ],
    "social_links": {}
  },
  {
    "name": "Sonny Dunn Body Shop Inc.",
    "address": "1000 US-127, Frankfort, KY 40601",
    "phone": "(502) 695-0884",
    "rating": 4.7,
    "reviews": 25,
    "website": "https://sonny-dunn-body-shop-inc.business.site/",
    "category": "Chinese-speaking Auto body repair in Kentucky",
    "description": "A family-owned and operated autobody shop in Frankfort, KY, with over 60 years of experience. They fix dents, paint, repair damage, and work with most insurance companies",
    "hours": "Mon-Fri 9AM-6PM",
    "services": [
      "Chinese-speaking Auto body repair in Kentucky consultation",
      "Professional service",
      "Quality guarantee"
    ],
    "social_links": {}
  }
]