[
  {
    "name": "J.Y. PMU Artistry",
    "address": "Honolulu, HI",
    "phone": "(808) 382-7111",
    "rating": 4.0,
    "reviews": 25,
    "website": "https://www.jypmuartistry.com/",
    "category": "Arabic-speaking Permanent makeup in Hawaii",
    "description": "Offers permanent makeup and beauty services aimed at enhancing natural beauty and promoting self-confidence",
    "hours": "Mon-Fri 9AM-6PM",
    "services": [
      "Arabic-speaking Permanent makeup in Hawaii consultation",
      "Professional service",
      "Quality guarantee"
    ],
    "social_links": {}
  },
  {
    "name": "Beauty Bliss by Mary",
    "address": "Honolulu, HI",
    "phone": "",
    "rating": 4.0,
    "reviews": 25,
    "website": "https://beautyblissby-mary.com/",
    "category": "Arabic-speaking Permanent makeup in Hawaii",
    "description": "A boutique studio specializing in permanent makeup, including powder ombre eyebrows",
    "hours": "Mon-Fri 9AM-6PM",
    "services": [
      "Arabic-speaking Permanent makeup in Hawaii consultation",
      "Professional service",
      "Quality guarantee"
    ],
    "social_links": {}
  },
  {
    "name": "Salon Island Beauty",
    "address": "Waikiki, Century Center, Honolulu, HI",
    "phone": "",
    "rating": 4.0,
    "reviews": 25,
    "website": "https://www.salon-island-beauty.com/",
    "category": "Arabic-speaking Permanent makeup in Hawaii",
    "description": "Offers a range of permanent makeup services like eyebrow, eyeliner, and lip blush, with experienced artists",
    "hours": "Mon-Fri 9AM-6PM",
    "services": [
      "Arabic-speaking Permanent makeup in Hawaii consultation",
      "Professional service",
      "Quality guarantee"
    ],
    "social_links": {}
  },
  {
    "name": "Artmake Yumi",
    "address": "1272 S King St #208, Honolulu HI 96826",
    "phone": "+1 (808) 386-4914",
    "rating": 4.0,
    "reviews": 25,
    "website": "https://en.artmakeyumi.com/",
    "category": "Arabic-speaking Permanent makeup in Hawaii",
    "description": "Specializes in semi-permanent natural-look makeup, focusing on enhancing facial structure and anti-aging",
    "hours": "Mon-Fri 9AM-6PM",
    "services": [
      "Arabic-speaking Permanent makeup in Hawaii consultation",
      "Professional service",
      "Quality guarantee"
    ],
    "social_links": {}
  },
  {
    "name": "Donna's Cosmetic Artist",
    "address": "Honolulu & Kapolei, HI",
    "phone": "(808) 536-1512",
    "rating": 4.0,
    "reviews": 25,
    "website": "https://donnascosmeticartist.com/",
    "category": "Arabic-speaking Permanent makeup in Hawaii",
    "description": "Offers permanent cosmetic tattoos with 34 years of experience, known for hand-done procedures",
    "hours": "Mon-Fri 9AM-6PM",
    "services": [
      "Arabic-speaking Permanent makeup in Hawaii consultation",
      "Professional service",
      "Quality guarantee"
    ],
    "social_links": {}
  },
  {
    "name": "Kauai Beauty By NanSea",
    "address": "Lihue, Kauai, HI",
    "phone": "",
    "rating": 4.0,
    "reviews": 25,
    "website": "https://beautybynansea.com/",
    "category": "Arabic-speaking Permanent makeup in Hawaii",
    "description": "Provides permanent makeup, beauty, and cosmetic services, focusing on enhancing natural beauty",
    "hours": "Mon-Fri 9AM-6PM",
    "services": [
      "Arabic-speaking Permanent makeup in Hawaii consultation",
      "Professional service",
      "Quality guarantee"
    ],
    "social_links": {}
  },
  {
    "name": "Wakeup Beautiful Maui",
    "address": "76 Poniu Circle, Wailuku, HI 96793",
    "phone": "808-572-4611",
    "rating": 4.0,
    "reviews": 25,
    "website": "https://www.wakeupbeautifulmaui.com/",
    "category": "Arabic-speaking Permanent makeup in Hawaii",
    "description": "Offers permanent makeup services including eyebrows, eyeliner, and lip tattoos, along with lash extensions and waxing",
    "hours": "Mon-Fri 9AM-6PM",
    "services": [
      "Arabic-speaking Permanent makeup in Hawaii consultation",
      "Professional service",
      "Quality guarantee"
    ],
    "social_links": {}
  },
  {
    "name": "Arch Brow Studio Maui",
    "address": "Kahului, HI 96732",
    "phone": "",
    "rating": 4.0,
    "reviews": 25,
    "website": "https://www.archbrowstudiomaui.com/",
    "category": "Arabic-speaking Permanent makeup in Hawaii",
    "description": "Provides high-quality beauty services including permanent makeup, microblading, and ombre powder brows",
    "hours": "Mon-Fri 9AM-6PM",
    "services": [
      "Arabic-speaking Permanent makeup in Hawaii consultation",
      "Professional service",
      "Quality guarantee"
    ],
    "social_links": {}
  },
  {
    "name": "Permanent Makup by Jia",
    "address": "Hookahi Business Center, 291 Hookahi St., #208, Wailuku, Hawaii Maui 96793",
    "phone": "(808) 870-0218",
    "rating": 4.0,
    "reviews": 25,
    "website": "https://www.permanentmakeupbyjia.com/",
    "category": "Arabic-speaking Permanent makeup in Hawaii",
    "description": "Offers professional permanent makeup and skincare services with extensive experience",
    "hours": "Mon-Fri 9AM-6PM",
    "services": [
      "Arabic-speaking Permanent makeup in Hawaii consultation",
      "Professional service",
      "Quality guarantee"
    ],
    "social_links": {}
  },
  {
    "name": "Terri Nahl Permanent Cosmetics",
    "address": "Kailua Kona, HI (inside \"blink & brows\")",
    "phone": "",
    "rating": 4.0,
    "reviews": 25,
    "website": "https://www.terrinahlpermanentcosmetics.com/",
    "category": "Arabic-speaking Permanent makeup in Hawaii",
    "description": "Offers a wide array of permanent makeup styles to enhance natural beauty, including brow and eyeliner enhancements",
    "hours": "Mon-Fri 9AM-6PM",
    "services": [
      "Arabic-speaking Permanent makeup in Hawaii consultation",
      "Professional service",
      "Quality guarantee"
    ],
    "social_links": {}
  }
]