[
  {
    "name": "BARE Waxing Boutique",
    "address": "103 Congress St, Portsmouth, NH 03801",
    "phone": "(603) 501-0007",
    "rating": 5.0,
    "reviews": 25,
    "website": "https://www.barewaxingboutique.com/",
    "category": "Black-owned Waxing in New-Hampshire",
    "description": "Offers full body waxing services, specializing in Brazilian waxes, brow shaping, and lash extensions",
    "hours": "Mon-Fri 9AM-6PM",
    "services": [
      "Black-owned Waxing in New-Hampshire consultation",
      "Professional service",
      "Quality guarantee"
    ],
    "social_links": {}
  },
  {
    "name": "The Wax Specialists",
    "address": "150 Beech St, Manchester, NH 03103",
    "phone": "(603) 782-5777",
    "rating": 4.8,
    "reviews": 25,
    "website": "https://www.thewaxspecialists.com/",
    "category": "Black-owned Waxing in New-Hampshire",
    "description": "A full-body waxing salon offering services for women and men, including facials, lash artistry, and brow services",
    "hours": "Mon-Fri 9AM-6PM",
    "services": [
      "Black-owned Waxing in New-Hampshire consultation",
      "Professional service",
      "Quality guarantee"
    ],
    "social_links": {}
  },
  {
    "name": "Salon North",
    "address": "1070 Elm St, Manchester, NH 03101",
    "phone": "(603) 627-4400",
    "rating": 4.7,
    "reviews": 25,
    "website": "https://salonnorth.com/",
    "category": "Black-owned Waxing in New-Hampshire",
    "description": "A full-service salon specializing in hair color, haircuts, extensions, nails, facials, massage, micro-blading, and full body waxing",
    "hours": "Mon-Fri 9AM-6PM",
    "services": [
      "Black-owned Waxing in New-Hampshire consultation",
      "Professional service",
      "Quality guarantee"
    ],
    "social_links": {}
  },
  {
    "name": "Pure Intentions Esthetics",
    "address": "40 South River Rd #22, Bedford, NH 03102",
    "phone": "(603) 565-4606",
    "rating": 5.0,
    "reviews": 25,
    "website": "https://www.pureintentionsesthetics.com/",
    "category": "Black-owned Waxing in New-Hampshire",
    "description": "Offers organic and non-toxic waxing and sugaring services, facials, and other esthetician treatments",
    "hours": "Mon-Fri 9AM-6PM",
    "services": [
      "Black-owned Waxing in New-Hampshire consultation",
      "Professional service",
      "Quality guarantee"
    ],
    "social_links": {}
  },
  {
    "name": "Coco Beauty Salon",
    "address": "647 Elm St, Manchester, NH 03101",
    "phone": "(603) 628-3684",
    "rating": 4.5,
    "reviews": 25,
    "website": "http://www.cocobeautysalon.net/",
    "category": "Black-owned Waxing in New-Hampshire",
    "description": "A unisex salon specializing in ethnic hair care, but also offers other beauty services",
    "hours": "Mon-Fri 9AM-6PM",
    "services": [
      "Black-owned Waxing in New-Hampshire consultation",
      "Professional service",
      "Quality guarantee"
    ],
    "social_links": {}
  },
  {
    "name": "Skincare by Isabel",
    "address": "24 Pleasant St, Conway, NH 03818",
    "phone": "(603) 263-4748",
    "rating": 5.0,
    "reviews": 25,
    "website": "https://www.skincarebyisabel.com/",
    "category": "Black-owned Waxing in New-Hampshire",
    "description": "Offers facials, waxing, and other skincare treatments in a peaceful and clean studio",
    "hours": "Mon-Fri 9AM-6PM",
    "services": [
      "Black-owned Waxing in New-Hampshire consultation",
      "Professional service",
      "Quality guarantee"
    ],
    "social_links": {}
  },
  {
    "name": "Onari Esthetics",
    "address": "104 Lafayette Rd, North Hampton, NH 03862",
    "phone": "(603) 303-1662",
    "rating": 5.0,
    "reviews": 25,
    "website": "https://www.onariesthetics.com/",
    "category": "Black-owned Waxing in New-Hampshire",
    "description": "Provides skincare, waxing, body treatments, and brow and lash services with a focus on natural beauty",
    "hours": "Mon-Fri 9AM-6PM",
    "services": [
      "Black-owned Waxing in New-Hampshire consultation",
      "Professional service",
      "Quality guarantee"
    ],
    "social_links": {}
  },
  {
    "name": "The Skin & Waxing Studio",
    "address": "117 Windham Rd, Windham, NH 03087",
    "phone": "(603) 234-1760",
    "rating": 4.9,
    "reviews": 25,
    "website": "https://www.theskinandwaxingstudio.com/",
    "category": "Black-owned Waxing in New-Hampshire",
    "description": "Specializes in Brazilian and body waxing, airbrush spray tanning, makeup, and lash lifts",
    "hours": "Mon-Fri 9AM-6PM",
    "services": [
      "Black-owned Waxing in New-Hampshire consultation",
      "Professional service",
      "Quality guarantee"
    ],
    "social_links": {}
  },
  {
    "name": "Glow|Wax Studio Concord",
    "address": "Concord, NH (Appointment only)",
    "phone": "",
    "rating": 5.0,
    "reviews": 25,
    "website": "https://www.glowwaxstudio.com/",
    "category": "Black-owned Waxing in New-Hampshire",
    "description": "Offers full-body waxing and result-oriented skincare services in a comfortable and relaxing environment",
    "hours": "Mon-Fri 9AM-6PM",
    "services": [
      "Black-owned Waxing in New-Hampshire consultation",
      "Professional service",
      "Quality guarantee"
    ],
    "social_links": {}
  },
  {
    "name": "Progressive Esthetics",
    "address": "(Location not specified, operates by appointment)",
    "phone": "(603) 540-0102",
    "rating": 5.0,
    "reviews": 25,
    "website": "https://www.progressiveesthetics.com/",
    "category": "Black-owned Waxing in New-Hampshire",
    "description": "Provides skincare and esthetician services, including full body hair removal, Brazilian waxing, and eyebrow shaping",
    "hours": "Mon-Fri 9AM-6PM",
    "services": [
      "Black-owned Waxing in New-Hampshire consultation",
      "Professional service",
      "Quality guarantee"
    ],
    "social_links": {}
  }
]