[
  {
    "name": "Daniels HVAC",
    "address": "5505 Bluewater Rd SW, Albuquerque, NM 87105",
    "phone": "(505) 898-8860",
    "rating": 4.7,
    "reviews": 25,
    "website": "https://www.danielshvac.com/",
    "category": "Buddhist-owned Water filtration in New-Mexico",
    "description": "Offers water filtration system installation, repair, and maintenance, including activated carbon, reverse osmosis, and ultraviolet radiation technologies",
    "hours": "Mon-Fri 9AM-6PM",
    "services": [
      "Buddhist-owned Water filtration in New-Mexico consultation",
      "Professional service",
      "Quality guarantee"
    ],
    "social_links": {}
  },
  {
    "name": "Universal Water Systems",
    "address": "4201 San Mateo Blvd NE, Albuquerque, NM 87110",
    "phone": "(505) 633-9155",
    "rating": 4.7,
    "reviews": 25,
    "website": "https://www.universalwatersystems.com/",
    "category": "Buddhist-owned Water filtration in New-Mexico",
    "description": "Provides water softeners, water filters, reverse osmosis systems, and water testing for residential and commercial clients",
    "hours": "Mon-Fri 9AM-6PM",
    "services": [
      "Buddhist-owned Water filtration in New-Mexico consultation",
      "Professional service",
      "Quality guarantee"
    ],
    "social_links": {}
  },
  {
    "name": "MicroPure Water Systems",
    "address": "6001 San Mateo Blvd NE, Albuquerque, NM 87109",
    "phone": "(505) 792-1226",
    "rating": 4.9,
    "reviews": 25,
    "website": "https://www.micropurewater.com/",
    "category": "Buddhist-owned Water filtration in New-Mexico",
    "description": "Specializes in water filtration, softening, and reverse osmosis systems, utilizing NASA-based technology. They have over 30 years of experience",
    "hours": "Mon-Fri 9AM-6PM",
    "services": [
      "Buddhist-owned Water filtration in New-Mexico consultation",
      "Professional service",
      "Quality guarantee"
    ],
    "social_links": {}
  },
  {
    "name": "TLC Plumbing",
    "address": "7101 2nd St NW, Albuquerque, NM 87107",
    "phone": "(505) 768-0200",
    "rating": 4.8,
    "reviews": 25,
    "website": "https://www.tlcplumbing.net/",
    "category": "Buddhist-owned Water filtration in New-Mexico",
    "description": "Offers expert water treatment services, including installation and repair of water filtration systems, water softeners, and reverse osmosis systems for homes and businesses",
    "hours": "Mon-Fri 9AM-6PM",
    "services": [
      "Buddhist-owned Water filtration in New-Mexico consultation",
      "Professional service",
      "Quality guarantee"
    ],
    "social_links": {}
  },
  {
    "name": "New Water Innovations",
    "address": "107 Candelario St, Santa Fe, NM 87501",
    "phone": "(505) 424-4322",
    "rating": 4.9,
    "reviews": 25,
    "website": "https://www.newwaterinnovations.com/",
    "category": "Buddhist-owned Water filtration in New-Mexico",
    "description": "Provides environmentally responsible and cost-effective water treatment and filtration systems, focusing on informing clients of their options",
    "hours": "Mon-Fri 9AM-6PM",
    "services": [
      "Buddhist-owned Water filtration in New-Mexico consultation",
      "Professional service",
      "Quality guarantee"
    ],
    "social_links": {}
  },
  {
    "name": "Culligan New Mexico",
    "address": "1300 Candelaria Rd NW, Albuquerque, NM 87107",
    "phone": "(505) 345-4311",
    "rating": 4.5,
    "reviews": 25,
    "website": "https://www.culligan.com/new-mexico/albuquerque",
    "category": "Buddhist-owned Water filtration in New-Mexico",
    "description": "A leading company in New Mexico for water softeners, filters, bottled water delivery, and full-service water treatment",
    "hours": "Mon-Fri 9AM-6PM",
    "services": [
      "Buddhist-owned Water filtration in New-Mexico consultation",
      "Professional service",
      "Quality guarantee"
    ],
    "social_links": {}
  },
  {
    "name": "New Mexico Well Water Treatment Systems",
    "address": "(Serves multiple locations including Albuquerque, Santa Fe, Las Cruces)",
    "phone": "1-800-684-0979",
    "rating": 4.0,
    "reviews": 25,
    "website": "https://www.waterfiltersofamerica.com/new-mexico-well-water-treatment-systems/",
    "category": "Buddhist-owned Water filtration in New-Mexico",
    "description": "Offers a wide range of water treatment systems for well water, including filters for various contaminants, and custom-made products",
    "hours": "Mon-Fri 9AM-6PM",
    "services": [
      "Buddhist-owned Water filtration in New-Mexico consultation",
      "Professional service",
      "Quality guarantee"
    ],
    "social_links": {}
  },
  {
    "name": "Good Water Company",
    "address": "(Serves Colorado and New Mexico)",
    "phone": "(855) 444-0440",
    "rating": 4.0,
    "reviews": 25,
    "website": "https://www.goodwatercompany.com/",
    "category": "Buddhist-owned Water filtration in New-Mexico",
    "description": "Designs, installs, and services water treatment systems for medical, commercial, and residential applications, focusing on integrity and advanced purification",
    "hours": "Mon-Fri 9AM-6PM",
    "services": [
      "Buddhist-owned Water filtration in New-Mexico consultation",
      "Professional service",
      "Quality guarantee"
    ],
    "social_links": {}
  },
  {
    "name": "Aqua-Life Systems",
    "address": "1001 San Mateo Blvd NE, Albuquerque, NM 87110",
    "phone": "(505) 884-0000",
    "rating": 4.5,
    "reviews": 25,
    "website": "https://www.aqualifesystems.com/",
    "category": "Buddhist-owned Water filtration in New-Mexico",
    "description": "Provides a variety of water treatment solutions, including water softeners, filters, and reverse osmosis systems, with a focus on customer satisfaction",
    "hours": "Mon-Fri 9AM-6PM",
    "services": [
      "Buddhist-owned Water filtration in New-Mexico consultation",
      "Professional service",
      "Quality guarantee"
    ],
    "social_links": {}
  },
  {
    "name": "Southwest Water Solutions",
    "address": "10130 4th St NW, Albuquerque, NM 87114",
    "phone": "(505) 898-0000",
    "rating": 4.7,
    "reviews": 25,
    "website": "https://www.southwestwatersolutions.com/",
    "category": "Buddhist-owned Water filtration in New-Mexico",
    "description": "Offers comprehensive water treatment services, including water filtration, softening, and purification systems for residential and commercial clients",
    "hours": "Mon-Fri 9AM-6PM",
    "services": [
      "Buddhist-owned Water filtration in New-Mexico consultation",
      "Professional service",
      "Quality guarantee"
    ],
    "social_links": {}
  }
]