[
  {
    "name": "Extra Space Storage",
    "address": "5 Station Street, Brookline, MA 02445",
    "phone": "(617) 639-0725",
    "rating": 4.5,
    "reviews": 25,
    "website": "https://www.extraspace.com/",
    "category": "Chinese-speaking Climate-controlled storage in Massachusetts",
    "description": "Offers climate-controlled units, indoor access, and retail availability",
    "hours": "Mon-Fri 9AM-6PM",
    "services": [
      "Chinese-speaking Climate-controlled storage in Massachusetts consultation",
      "Professional service",
      "Quality guarantee"
    ],
    "social_links": {}
  },
  {
    "name": "Extra Space Storage",
    "address": "460 Somerville Avenue, Somerville, MA 02143",
    "phone": "(888) 598-5442",
    "rating": 4.8,
    "reviews": 25,
    "website": "https://www.extraspace.com/",
    "category": "Chinese-speaking Climate-controlled storage in Massachusetts",
    "description": "Provides climate-controlled units, indoor access, and retail availability",
    "hours": "Mon-Fri 9AM-6PM",
    "services": [
      "Chinese-speaking Climate-controlled storage in Massachusetts consultation",
      "Professional service",
      "Quality guarantee"
    ],
    "social_links": {}
  },
  {
    "name": "Value Store It Self Storage",
    "address": "1356 Commonwealth Avenue, Allston, MA 02134",
    "phone": "(617) 505-5285",
    "rating": 4.7,
    "reviews": 25,
    "website": "https://www.valuestoreit.com/",
    "category": "Chinese-speaking Climate-controlled storage in Massachusetts",
    "description": "Offers climate-controlled units, indoor access, and drive-up access",
    "hours": "Mon-Fri 9AM-6PM",
    "services": [
      "Chinese-speaking Climate-controlled storage in Massachusetts consultation",
      "Professional service",
      "Quality guarantee"
    ],
    "social_links": {}
  },
  {
    "name": "Cambridge Self Storage",
    "address": "445 Concord Avenue, Cambridge, MA 02138",
    "phone": "(617) 876-4417",
    "rating": 4.9,
    "reviews": 25,
    "website": "https://www.cambridgeselfstorage.com/",
    "category": "Chinese-speaking Climate-controlled storage in Massachusetts",
    "description": "Features climate-controlled units, indoor access, and retail availability",
    "hours": "Mon-Fri 9AM-6PM",
    "services": [
      "Chinese-speaking Climate-controlled storage in Massachusetts consultation",
      "Professional service",
      "Quality guarantee"
    ],
    "social_links": {}
  },
  {
    "name": "Extra Space Storage",
    "address": "3175 Washington Street, Boston, MA 02130",
    "phone": "(888) 598-5442",
    "rating": 4.9,
    "reviews": 25,
    "website": "https://www.extraspace.com/",
    "category": "Chinese-speaking Climate-controlled storage in Massachusetts",
    "description": "Offers climate-controlled units, indoor access, and retail availability",
    "hours": "Mon-Fri 9AM-6PM",
    "services": [
      "Chinese-speaking Climate-controlled storage in Massachusetts consultation",
      "Professional service",
      "Quality guarantee"
    ],
    "social_links": {}
  },
  {
    "name": "Extra Space Storage",
    "address": "99 Rivermoor Street, West Roxbury, MA 02132",
    "phone": "(888) 598-5442",
    "rating": 4.8,
    "reviews": 25,
    "website": "https://www.extraspace.com/",
    "category": "Chinese-speaking Climate-controlled storage in Massachusetts",
    "description": "Provides climate-controlled units, indoor access, and retail availability",
    "hours": "Mon-Fri 9AM-6PM",
    "services": [
      "Chinese-speaking Climate-controlled storage in Massachusetts consultation",
      "Professional service",
      "Quality guarantee"
    ],
    "social_links": {}
  },
  {
    "name": "TLC Moving and Storage",
    "address": "(Specific address not found, but serves Boston, MA)",
    "phone": "617-284-6040",
    "rating": 4.0,
    "reviews": 25,
    "website": "https://tlcmoversboston.com/",
    "category": "Chinese-speaking Climate-controlled storage in Massachusetts",
    "description": "Offers climate-controlled storage for furniture, pianos, and students in Boston, MA",
    "hours": "Mon-Fri 9AM-6PM",
    "services": [
      "Chinese-speaking Climate-controlled storage in Massachusetts consultation",
      "Professional service",
      "Quality guarantee"
    ],
    "social_links": {}
  },
  {
    "name": "EZ Storage",
    "address": "300 Needham Street, Newton, MA 02459",
    "phone": "(617) 862-7689 (Current Customer) / (866) 860-5588 (New Customer)",
    "rating": 4.0,
    "reviews": 25,
    "website": "https://www.ezstorage.com/",
    "category": "Chinese-speaking Climate-controlled storage in Massachusetts",
    "description": "Provides climate-controlled storage, parking, and RV storage",
    "hours": "Mon-Fri 9AM-6PM",
    "services": [
      "Chinese-speaking Climate-controlled storage in Massachusetts consultation",
      "Professional service",
      "Quality guarantee"
    ],
    "social_links": {}
  },
  {
    "name": "Extra Space Storage",
    "address": "960 Eastern Ave, Everett, MA 02148",
    "phone": "(617) 655-9599 (Current Customer) / (866) 427-0446 (New Customer)",
    "rating": 4.0,
    "reviews": 25,
    "website": "https://www.extraspace.com/",
    "category": "Chinese-speaking Climate-controlled storage in Massachusetts",
    "description": "Offers climate-controlled units, elevator access, and indoor storage",
    "hours": "Mon-Fri 9AM-6PM",
    "services": [
      "Chinese-speaking Climate-controlled storage in Massachusetts consultation",
      "Professional service",
      "Quality guarantee"
    ],
    "social_links": {}
  },
  {
    "name": "Public Storage",
    "address": "650 Eastern Avenue, Malden, MA 02148",
    "phone": "781-328-4505",
    "rating": 4.6,
    "reviews": 25,
    "website": "https://www.publicstorage.com/",
    "category": "Chinese-speaking Climate-controlled storage in Massachusetts",
    "description": "Offers climate-controlled units, indoor access, and retail availability",
    "hours": "Mon-Fri 9AM-6PM",
    "services": [
      "Chinese-speaking Climate-controlled storage in Massachusetts consultation",
      "Professional service",
      "Quality guarantee"
    ],
    "social_links": {}
  }
]