[
  {
    "name": "Northern Wyoming Wellness",
    "address": "711 W 2nd St, Powell, WY 82435",
    "phone": "(307) 754-5500",
    "rating": 4.0,
    "reviews": 25,
    "website": "https://www.northernwyomingwellness.com/",
    "category": "Black-owned Body contouring in Wyoming",
    "description": "Offers non-surgical body sculpting and contouring services, including TruSculpt iD for fat reduction and TruFlex for muscle stimulation",
    "hours": "Mon-Fri 9AM-6PM",
    "services": [
      "Black-owned Body contouring in Wyoming consultation",
      "Professional service",
      "Quality guarantee"
    ],
    "social_links": {}
  },
  {
    "name": "Signature Plastic Surgery & Aesthetics",
    "address": "145 N Cache St, Jackson, WY 83001",
    "phone": "(307) 733-5757",
    "rating": 4.0,
    "reviews": 25,
    "website": "https://www.signatureplasticsurgery.com/",
    "category": "Black-owned Body contouring in Wyoming",
    "description": "Provides body contouring treatments such as CoolSculpting, Kybella, Morpheus 8, FaceTite, NeckTite, and BodyTite",
    "hours": "Mon-Fri 9AM-6PM",
    "services": [
      "Black-owned Body contouring in Wyoming consultation",
      "Professional service",
      "Quality guarantee"
    ],
    "social_links": {}
  },
  {
    "name": "Wyoming Medical Wellness Center",
    "address": "700 W Boxelder Rd, Gillette, WY 82718",
    "phone": "(307) 670-9200",
    "rating": 4.0,
    "reviews": 25,
    "website": "https://www.wyomingmedicalwellness.com/",
    "category": "Black-owned Body contouring in Wyoming",
    "description": "Offers non-surgical body contouring services including SculpSure for fat removal and TempSure Firm for skin tightening",
    "hours": "Mon-Fri 9AM-6PM",
    "services": [
      "Black-owned Body contouring in Wyoming consultation",
      "Professional service",
      "Quality guarantee"
    ],
    "social_links": {}
  },
  {
    "name": "New Beautiful You (BeautiFill Laser Body Sculpting)",
    "address": "1240 S Poplar St, Casper, WY 82601",
    "phone": "(307) 234-0404",
    "rating": 4.0,
    "reviews": 25,
    "website": "https://www.newbeautifulyou.com/",
    "category": "Black-owned Body contouring in Wyoming",
    "description": "Specializes in BeautiFill laser body sculpting, a minimally invasive treatment for fat removal and body contouring",
    "hours": "Mon-Fri 9AM-6PM",
    "services": [
      "Black-owned Body contouring in Wyoming consultation",
      "Professional service",
      "Quality guarantee"
    ],
    "social_links": {}
  },
  {
    "name": "Ascent Medical Spa & Wellness",
    "address": "101 E Ivinson Ave, Laramie, WY 82070",
    "phone": "(307) 742-0770",
    "rating": 4.0,
    "reviews": 25,
    "website": "https://ascentmedicalspa.com/",
    "category": "Black-owned Body contouring in Wyoming",
    "description": "Offers advanced body sculpting with Emsculpt NEO to reduce fat and build muscle",
    "hours": "Mon-Fri 9AM-6PM",
    "services": [
      "Black-owned Body contouring in Wyoming consultation",
      "Professional service",
      "Quality guarantee"
    ],
    "social_links": {}
  },
  {
    "name": "Allure Medical Spa",
    "address": "1001 S Douglas Hwy, Suite 101, Gillette, WY 82718",
    "phone": "(307) 257-2222",
    "rating": 4.0,
    "reviews": 25,
    "website": "https://www.alluremedicalspa.com/",
    "category": "Black-owned Body contouring in Wyoming",
    "description": "Provides CoolSculpting Elite for non-surgical fat reduction and body contouring",
    "hours": "Mon-Fri 9AM-6PM",
    "services": [
      "Black-owned Body contouring in Wyoming consultation",
      "Professional service",
      "Quality guarantee"
    ],
    "social_links": {}
  },
  {
    "name": "Adora Day Spa",
    "address": "1815 Capitol Ave, Cheyenne, WY 82001",
    "phone": "(307) 773-8520",
    "rating": 4.0,
    "reviews": 25,
    "website": "https://www.adoradayspa.com/",
    "category": "Black-owned Body contouring in Wyoming",
    "description": "Offers CoolSculpting for body contouring, along with other cosmetic and spa services",
    "hours": "Mon-Fri 9AM-6PM",
    "services": [
      "Black-owned Body contouring in Wyoming consultation",
      "Professional service",
      "Quality guarantee"
    ],
    "social_links": {}
  },
  {
    "name": "Rejuvenate You",
    "address": "940 E 3rd St, Suite 215, Casper, WY 82601",
    "phone": "(307) 333-5056",
    "rating": 4.0,
    "reviews": 25,
    "website": "https://www.rejuvenateyou307.com/",
    "category": "Black-owned Body contouring in Wyoming",
    "description": "Offers \"Fun Sculpting High Definition Body Sculpting\" and other wellness and beauty treatments",
    "hours": "Mon-Fri 9AM-6PM",
    "services": [
      "Black-owned Body contouring in Wyoming consultation",
      "Professional service",
      "Quality guarantee"
    ],
    "social_links": {}
  },
  {
    "name": "Shekinah Clinical Spa",
    "address": "1010 S Douglas Hwy, Suite 100, Gillette, WY 82718",
    "phone": "(307) 363-4727",
    "rating": 4.0,
    "reviews": 25,
    "website": "https://shekinahclinicalspa.com/",
    "category": "Black-owned Body contouring in Wyoming",
    "description": "Offers a range of spa services, including treatments that can contribute to body contouring and skin tightening",
    "hours": "Mon-Fri 9AM-6PM",
    "services": [
      "Black-owned Body contouring in Wyoming consultation",
      "Professional service",
      "Quality guarantee"
    ],
    "social_links": {}
  },
  {
    "name": "Marina Plastic Surgery Associates",
    "address": "7077 E. Hampden Ave, Denver, CO 80247 (Note: This is in Colorado, but mentioned in a Wyoming search context for body contouring providers.)",
    "phone": "(303) 755-0101",
    "rating": 4.0,
    "reviews": 25,
    "website": "https://www.marinaplasticsurgery.com/",
    "category": "Black-owned Body contouring in Wyoming",
    "description": "Offers non-invasive body contouring options like Zeltiq CoolSculpting",
    "hours": "Mon-Fri 9AM-6PM",
    "services": [
      "Black-owned Body contouring in Wyoming consultation",
      "Professional service",
      "Quality guarantee"
    ],
    "social_links": {}
  }
]