[
  {
    "name": "Estabrook's",
    "address": "155 County Rd, Yarmouth, ME 04096",
    "phone": "(207) 846-4511",
    "rating": 4.6,
    "reviews": 25,
    "website": "https://www.estabrooks.com/",
    "category": "Atheist-owned Specialty plant care in Maine",
    "description": "A full-service, family-owned garden center and nursery with a flagship location in Yarmouth and a seasonal location in Kennebunk. They offer a wide selection of plants, gardening supplies, and consultations",
    "hours": "Mon-Fri 9AM-6PM",
    "services": [
      "Atheist-owned Specialty plant care in Maine consultation",
      "Professional service",
      "Quality guarantee"
    ],
    "social_links": {}
  },
  {
    "name": "Longfellow's Greenhouses",
    "address": "879 Old Portland Rd, Manchester, ME 04351",
    "phone": "(207) 622-5404",
    "rating": 4.7,
    "reviews": 25,
    "website": "https://www.longfellowsgreenhouses.com/",
    "category": "Atheist-owned Specialty plant care in Maine",
    "description": "Voted Best of Maine Garden Center/Nursery for multiple years, Longfellow's boasts 32 greenhouses producing a vast array of plants, including perennials, annuals, and houseplants. They also offer gardening classes and events",
    "hours": "Mon-Fri 9AM-6PM",
    "services": [
      "Atheist-owned Specialty plant care in Maine consultation",
      "Professional service",
      "Quality guarantee"
    ],
    "social_links": {}
  },
  {
    "name": "Skillins Greenhouses",
    "address": "87 Cool Broook Rd, Brunswick, ME 04011 (also locations in Falmouth and Cumberland)",
    "phone": "(207) 729-8212",
    "rating": 4.5,
    "reviews": 25,
    "website": "https://www.skillins.com/",
    "category": "Atheist-owned Specialty plant care in Maine",
    "description": "A long-standing family business since 1885, Skillins offers a wide selection of plants, gardening supplies, and expert advice across its three locations",
    "hours": "Mon-Fri 9AM-6PM",
    "services": [
      "Atheist-owned Specialty plant care in Maine consultation",
      "Professional service",
      "Quality guarantee"
    ],
    "social_links": {}
  },
  {
    "name": "Fieldstone Gardens Inc.",
    "address": "749 North Rd, Hebron, ME 04238",
    "phone": "(207) 966-2011",
    "rating": 4.8,
    "reviews": 25,
    "website": "https://fieldstonegardens.com/",
    "category": "Atheist-owned Specialty plant care in Maine",
    "description": "A family-owned nursery specializing in a large collection of perennials, including hostas, peonies, and daylilies, set in a park-like environment",
    "hours": "Mon-Fri 9AM-6PM",
    "services": [
      "Atheist-owned Specialty plant care in Maine consultation",
      "Professional service",
      "Quality guarantee"
    ],
    "social_links": {}
  },
  {
    "name": "Surry Gardens",
    "address": "126 Main Rd, Surry, ME 04684",
    "phone": "(207) 667-4493",
    "rating": 4.6,
    "reviews": 25,
    "website": "https://www.surrygardens.com/",
    "category": "Atheist-owned Specialty plant care in Maine",
    "description": "A premier full-service greenhouse and nursery in Downeast Maine, offering a vast selection of trees, perennials, fruit trees, shrubs, and more",
    "hours": "Mon-Fri 9AM-6PM",
    "services": [
      "Atheist-owned Specialty plant care in Maine consultation",
      "Professional service",
      "Quality guarantee"
    ],
    "social_links": {}
  },
  {
    "name": "Fernwood Nursery & Gardens",
    "address": "58 North Ridge Rd, Montville, ME 04941",
    "phone": "(207) 322-7070",
    "rating": 4.9,
    "reviews": 25,
    "website": "https://fernwoodnursery.com/",
    "category": "Atheist-owned Specialty plant care in Maine",
    "description": "Known as \"Maine's Shadiest Nursery,\" Fernwood specializes in native and woodland plants, boasting one of the largest collections of shade-tolerant plants in New England",
    "hours": "Mon-Fri 9AM-6PM",
    "services": [
      "Atheist-owned Specialty plant care in Maine consultation",
      "Professional service",
      "Quality guarantee"
    ],
    "social_links": {}
  },
  {
    "name": "Mainescape Nursery and Garden Shop",
    "address": "478 Blue Hill Rd, Blue Hill, ME 04614",
    "phone": "(207) 374-5000",
    "rating": 4.5,
    "reviews": 25,
    "website": "https://www.mainescape.com/",
    "category": "Atheist-owned Specialty plant care in Maine",
    "description": "Originally a landscape company, Mainescape now includes a full-service garden center with an assortment of home goods, produce, and gardening supplies. They also host community events",
    "hours": "Mon-Fri 9AM-6PM",
    "services": [
      "Atheist-owned Specialty plant care in Maine consultation",
      "Professional service",
      "Quality guarantee"
    ],
    "social_links": {}
  },
  {
    "name": "O'Donal's",
    "address": "6 County Rd, Gorham, ME 04038",
    "phone": "(207) 839-4262",
    "rating": 4.5,
    "reviews": 25,
    "website": "https://www.odonals.com/",
    "category": "Atheist-owned Specialty plant care in Maine",
    "description": "O'Donal's is a well-regarded nursery with a great selection of unique and hard-to-find perennials, as well as a wide variety of other plants and gardening essentials",
    "hours": "Mon-Fri 9AM-6PM",
    "services": [
      "Atheist-owned Specialty plant care in Maine consultation",
      "Professional service",
      "Quality guarantee"
    ],
    "social_links": {}
  },
  {
    "name": "Broadway Gardens",
    "address": "1709 Broadway, Bangor, ME 04401",
    "phone": "(207) 947-0101",
    "rating": 4.4,
    "reviews": 25,
    "website": "https://www.broadwaygardensbangor.com/",
    "category": "Atheist-owned Specialty plant care in Maine",
    "description": "Broadway Gardens is noted for its incredible houseplant selection and often carries hard-to-find annuals and perennials, making it a great spot for unique finds",
    "hours": "Mon-Fri 9AM-6PM",
    "services": [
      "Atheist-owned Specialty plant care in Maine consultation",
      "Professional service",
      "Quality guarantee"
    ],
    "social_links": {}
  },
  {
    "name": "Outside In",
    "address": "100 West St, Suite 10, Portland, ME 04102",
    "phone": "(207) 772-4440",
    "rating": 4.8,
    "reviews": 25,
    "website": "https://www.outsideinmaine.com/",
    "category": "Atheist-owned Specialty plant care in Maine",
    "description": "Outside In specializes in custom interior plant design and full-service office plant care. They offer an all-natural, chemical-free approach to maintaining healthy plants in business environments",
    "hours": "Mon-Fri 9AM-6PM",
    "services": [
      "Atheist-owned Specialty plant care in Maine consultation",
      "Professional service",
      "Quality guarantee"
    ],
    "social_links": {}
  }
]