[
  {
    "name": "All Pro Plumbing",
    "address": "10010 SW Nimbus Ave, Beaverton, OR 97008",
    "phone": "(503) 252-5000",
    "rating": 4.8,
    "reviews": 25,
    "website": "https://www.allproplumbing.com/",
    "category": "Chinese-American-owned Plumbing repair in Oregon",
    "description": "Offers a wide range of plumbing services including repairs, installations, and emergency services",
    "hours": "Mon-Fri 9AM-6PM",
    "services": [
      "Chinese-American-owned Plumbing repair in Oregon consultation",
      "Professional service",
      "Quality guarantee"
    ],
    "social_links": {}
  },
  {
    "name": "Henco Plumbing Services",
    "address": "10210 NE Sandy Blvd, Portland, OR 97220",
    "phone": "(503) 395-5902",
    "rating": 4.7,
    "reviews": 25,
    "website": "https://www.hencoservices.com/",
    "category": "Chinese-American-owned Plumbing repair in Oregon",
    "description": "Provides residential and commercial plumbing, HVAC, and electrical services",
    "hours": "Mon-Fri 9AM-6PM",
    "services": [
      "Chinese-American-owned Plumbing repair in Oregon consultation",
      "Professional service",
      "Quality guarantee"
    ],
    "social_links": {}
  },
  {
    "name": "American Plumbing Services L.P.",
    "address": "5905 N. Interstate Ave, Portland, OR 97217",
    "phone": "(503) 247-2429",
    "rating": 4.6,
    "reviews": 25,
    "website": "https://www.americanplumbingservices.com/",
    "category": "Chinese-American-owned Plumbing repair in Oregon",
    "description": "A family-run plumbing company offering a wide array of services including drain cleaning, water heater repair, and remodeling",
    "hours": "Mon-Fri 9AM-6PM",
    "services": [
      "Chinese-American-owned Plumbing repair in Oregon consultation",
      "Professional service",
      "Quality guarantee"
    ],
    "social_links": {}
  },
  {
    "name": "Black Cat Plumbing",
    "address": "1020 SE 17th Ave, Portland, OR 97214",
    "phone": "(503) 255-1000",
    "rating": 4.8,
    "reviews": 25,
    "website": "https://www.blackcatplumbing.com/",
    "category": "Chinese-American-owned Plumbing repair in Oregon",
    "description": "Offers plumbing services for homeowners and businesses, specializing in installations and high-efficiency water heating",
    "hours": "Mon-Fri 9AM-6PM",
    "services": [
      "Chinese-American-owned Plumbing repair in Oregon consultation",
      "Professional service",
      "Quality guarantee"
    ],
    "social_links": {}
  },
  {
    "name": "Trinity Plumbing",
    "address": "2051 Willamette Falls Dr, West Linn, OR 97068",
    "phone": "(503) 683-7000",
    "rating": 4.9,
    "reviews": 25,
    "website": "https://www.trinityplumbingpdx.com/",
    "category": "Chinese-American-owned Plumbing repair in Oregon",
    "description": "Provides professional residential and commercial plumbing services, including leak repair, water heater service, and emergency plumbing",
    "hours": "Mon-Fri 9AM-6PM",
    "services": [
      "Chinese-American-owned Plumbing repair in Oregon consultation",
      "Professional service",
      "Quality guarantee"
    ],
    "social_links": {}
  },
  {
    "name": "Anspach Plumbing Inc.",
    "address": "1905 10th St, Oregon City, OR 97045",
    "phone": "(503) 656-6192",
    "rating": 4.8,
    "reviews": 25,
    "website": "https://www.anspachplumbing.com/",
    "category": "Chinese-American-owned Plumbing repair in Oregon",
    "description": "A family-owned business with over 110 years of experience offering a full range of plumbing services",
    "hours": "Mon-Fri 9AM-6PM",
    "services": [
      "Chinese-American-owned Plumbing repair in Oregon consultation",
      "Professional service",
      "Quality guarantee"
    ],
    "social_links": {}
  },
  {
    "name": "Brian's Plumbing Works",
    "address": "1905 10th St, Oregon City, OR 97045",
    "phone": "(503) 656-6192",
    "rating": 4.7,
    "reviews": 25,
    "website": "https://www.briansplumbingworks.com/",
    "category": "Chinese-American-owned Plumbing repair in Oregon",
    "description": "Specializes in residential plumbing and the repair and restoration of vintage plumbing fixtures",
    "hours": "Mon-Fri 9AM-6PM",
    "services": [
      "Chinese-American-owned Plumbing repair in Oregon consultation",
      "Professional service",
      "Quality guarantee"
    ],
    "social_links": {}
  },
  {
    "name": "American Tradesmen Plumbing",
    "address": "10400 SW Nimbus Ave, Beaverton, OR 97008",
    "phone": "(503) 303-1000",
    "rating": 4.9,
    "reviews": 25,
    "website": "https://www.americantradesmenplumbing.com/",
    "category": "Chinese-American-owned Plumbing repair in Oregon",
    "description": "Offers reliable plumbing services for homes and businesses, including system updates and maintenance",
    "hours": "Mon-Fri 9AM-6PM",
    "services": [
      "Chinese-American-owned Plumbing repair in Oregon consultation",
      "Professional service",
      "Quality guarantee"
    ],
    "social_links": {}
  },
  {
    "name": "American Backflow & Plumbing Services Inc.",
    "address": "10400 SW Nimbus Ave, Beaverton, OR 97008",
    "phone": "(503) 303-1000",
    "rating": 4.9,
    "reviews": 25,
    "website": "https://www.americanbackflow.com/",
    "category": "Chinese-American-owned Plumbing repair in Oregon",
    "description": "Provides certified backflow assembly testing, repair, and replacement services",
    "hours": "Mon-Fri 9AM-6PM",
    "services": [
      "Chinese-American-owned Plumbing repair in Oregon consultation",
      "Professional service",
      "Quality guarantee"
    ],
    "social_links": {}
  },
  {
    "name": "Cowboy Plumbing LLC",
    "address": "3405 S Pacific Hwy, Medford, OR 97501",
    "phone": "(541) 951-9661",
    "rating": 4.9,
    "reviews": 25,
    "website": "https://cowboyplumbingllc.com/",
    "category": "Chinese-American-owned Plumbing repair in Oregon",
    "description": "Offers professional residential and light commercial plumbing services in Medford and surrounding areas",
    "hours": "Mon-Fri 9AM-6PM",
    "services": [
      "Chinese-American-owned Plumbing repair in Oregon consultation",
      "Professional service",
      "Quality guarantee"
    ],
    "social_links": {}
  }
]