[
  {
    "name": "Off the Rez Cafe",
    "address": "Inside the Burke Museum, 4500 15th Ave NE, Seattle, WA 98105",
    "phone": "(206) 397-4440",
    "rating": 4.5,
    "reviews": 25,
    "website": "https://offtheres.cafe/",
    "category": "Alaska-Native-owned Fast casual in Washington",
    "description": "Seattle's first Native food truck turned cafe, serving traditional Blackfeet fry bread, tacos, and other dishes inspired by family recipes",
    "hours": "Mon-Fri 9AM-6PM",
    "services": [
      "Alaska-Native-owned Fast casual in Washington consultation",
      "Professional service",
      "Quality guarantee"
    ],
    "social_links": {}
  },
  {
    "name": "Indigenous Eats",
    "address": "829 E Boone Ave Suite E, Spokane, WA 99202",
    "phone": "(509) 850-9292",
    "rating": 4.7,
    "reviews": 25,
    "website": "https://www.iespokane.com/",
    "category": "Alaska-Native-owned Fast casual in Washington",
    "description": "Serves contemporary Native American comfort food, including frybread tacos with bison, beef, and chicken options",
    "hours": "Mon-Fri 9AM-6PM",
    "services": [
      "Alaska-Native-owned Fast casual in Washington consultation",
      "Professional service",
      "Quality guarantee"
    ],
    "social_links": {}
  },
  {
    "name": "\u0294\u00e1l\u0294al Cafe",
    "address": "1000 1st Ave, Seattle, WA 98101 (located within the Chief Seattle Club)",
    "phone": "(206) 420-1070",
    "rating": 4.6,
    "reviews": 25,
    "website": "https://www.chiefseattleclub.org/aal-cafe",
    "category": "Alaska-Native-owned Fast casual in Washington",
    "description": "A cafe focused on \"de-colonized food,\" emphasizing dishes and ingredients that reclaim traditional Native food preparation",
    "hours": "Mon-Fri 9AM-6PM",
    "services": [
      "Alaska-Native-owned Fast casual in Washington consultation",
      "Professional service",
      "Quality guarantee"
    ],
    "social_links": {}
  },
  {
    "name": "Nacho Mama's Fry Bread Cafe",
    "address": "9624 15th Ave SW, White Center, WA 98106",
    "phone": "(206) 453-4445",
    "rating": 4.4,
    "reviews": 25,
    "website": "https://www.facebook.com/NachoMamasFryBreadCafe/",
    "category": "Alaska-Native-owned Fast casual in Washington",
    "description": "Offers fry bread, nachos, and comfort food from Debra LeComb",
    "hours": "Mon-Fri 9AM-6PM",
    "services": [
      "Alaska-Native-owned Fast casual in Washington consultation",
      "Professional service",
      "Quality guarantee"
    ],
    "social_links": {}
  },
  {
    "name": "Tibbitts @ Fern Hill",
    "address": "7202 6th Ave, Tacoma, WA 98406",
    "phone": "(253) 503-0240",
    "rating": 4.5,
    "reviews": 25,
    "website": "https://www.tibbittsfernhill.com/",
    "category": "Alaska-Native-owned Fast casual in Washington",
    "description": "Chef Shawn Tibbitts, an Alaskan Native American, creates highly-rated dishes with a focus on local ingredients",
    "hours": "Mon-Fri 9AM-6PM",
    "services": [
      "Alaska-Native-owned Fast casual in Washington consultation",
      "Professional service",
      "Quality guarantee"
    ],
    "social_links": {}
  },
  {
    "name": "Ryan's REZ-ipes Food Truck & Catering",
    "address": "Primarily operates around Marysville and Tulalip, WA (check their social media for current locations)",
    "phone": "(360) 817-0111",
    "rating": 4.8,
    "reviews": 25,
    "website": "https://ryansrezipes.com/",
    "category": "Alaska-Native-owned Fast casual in Washington",
    "description": "A Native-owned catering service and food truck offering burgers, smoked pork tacos, and frybread",
    "hours": "Mon-Fri 9AM-6PM",
    "services": [
      "Alaska-Native-owned Fast casual in Washington consultation",
      "Professional service",
      "Quality guarantee"
    ],
    "social_links": {}
  },
  {
    "name": "ALMA Lounge",
    "address": "1322 Fawcett Ave, Tacoma, WA 98402",
    "phone": "(253) 503-3737",
    "rating": 4.3,
    "reviews": 25,
    "website": "https://www.almatacoma.com/",
    "category": "Alaska-Native-owned Fast casual in Washington",
    "description": "Serves contemporary indigenous foods made with local ingredients, including dishes like smoked salmon and bison steak",
    "hours": "Mon-Fri 9AM-6PM",
    "services": [
      "Alaska-Native-owned Fast casual in Washington consultation",
      "Professional service",
      "Quality guarantee"
    ],
    "social_links": {}
  },
  {
    "name": "Woven Seafood and Chophouse",
    "address": "3017 Ruston Way, Tacoma, WA 98402",
    "phone": "(253) 254-7000",
    "rating": 4.4,
    "reviews": 25,
    "website": "https://www.woventacoma.com/",
    "category": "Alaska-Native-owned Fast casual in Washington",
    "description": "Collaborates with the Puyallup Tribe and Chef Roy Yamaguchi to fuse Pacific Island cuisine with Northwest ingredients and Native American staples",
    "hours": "Mon-Fri 9AM-6PM",
    "services": [
      "Alaska-Native-owned Fast casual in Washington consultation",
      "Professional service",
      "Quality guarantee"
    ],
    "social_links": {}
  },
  {
    "name": "Bison Coffeehouse",
    "address": "8310 15th Ave NW, Seattle, WA 98117",
    "phone": "(206) 420-4117",
    "rating": 4.6,
    "reviews": 25,
    "website": "https://www.bisonec.com/",
    "category": "Alaska-Native-owned Fast casual in Washington",
    "description": "Offers coffee and food with Indigenous influences, aiming to be a community gathering space",
    "hours": "Mon-Fri 9AM-6PM",
    "services": [
      "Alaska-Native-owned Fast casual in Washington consultation",
      "Professional service",
      "Quality guarantee"
    ],
    "social_links": {}
  },
  {
    "name": "Foggy Tea Shop",
    "address": "102 Cherry St, Seattle, WA 98104",
    "phone": "(206) 582-0004",
    "rating": 4.7,
    "reviews": 25,
    "website": "https://www.foggytea.com/",
    "category": "Alaska-Native-owned Fast casual in Washington",
    "description": "A tea shop blending Japanese and Native heritage, offering a cozy atmosphere and unique beverages",
    "hours": "Mon-Fri 9AM-6PM",
    "services": [
      "Alaska-Native-owned Fast casual in Washington consultation",
      "Professional service",
      "Quality guarantee"
    ],
    "social_links": {}
  }
]