[
  {
    "name": "Torgerson Auto Repair",
    "address": "1020 12th Ave E, Bismarck, ND 58501",
    "phone": "(701) 255-3777",
    "rating": 4.5,
    "reviews": 25,
    "website": "https://www.torgersonautorepair.com/",
    "category": "Agnostic-owned Auto electrical in North-Dakota",
    "description": "Offers comprehensive auto electrical services, including diagnostics, repair, and replacement of electrical components like alternators and starters",
    "hours": "Mon-Fri 9AM-6PM",
    "services": [
      "Agnostic-owned Auto electrical in North-Dakota consultation",
      "Professional service",
      "Quality guarantee"
    ],
    "social_links": {}
  },
  {
    "name": "Anderson Auto Repair",
    "address": "123 7th Ave SE, Jamestown, ND 58401",
    "phone": "(701) 252-3000",
    "rating": 4.8,
    "reviews": 25,
    "website": "https://www.andersonautorepairnd.com/",
    "category": "Agnostic-owned Auto electrical in North-Dakota",
    "description": "Provides trusted auto repair services, including electrical system diagnostics and repair",
    "hours": "Mon-Fri 9AM-6PM",
    "services": [
      "Agnostic-owned Auto electrical in North-Dakota consultation",
      "Professional service",
      "Quality guarantee"
    ],
    "social_links": {}
  },
  {
    "name": "Automotive Unlimited",
    "address": "1400 4th Ave NW, Bismarck, ND 58501",
    "phone": "(701) 401-2554",
    "rating": 4.7,
    "reviews": 25,
    "website": "https://www.automotiveunlimitednd.com/",
    "category": "Agnostic-owned Auto electrical in North-Dakota",
    "description": "Specializes in automotive electrical system services, including battery service, alternator repair, and wiring diagnostics",
    "hours": "Mon-Fri 9AM-6PM",
    "services": [
      "Agnostic-owned Auto electrical in North-Dakota consultation",
      "Professional service",
      "Quality guarantee"
    ],
    "social_links": {}
  },
  {
    "name": "Lincoln Repair",
    "address": "1500 12th Ave E, Bismarck, ND 58501 (also has a Mandan location)",
    "phone": "(701) 557-9910",
    "rating": 4.6,
    "reviews": 25,
    "website": "https://www.lincolnrepair.com/",
    "category": "Agnostic-owned Auto electrical in North-Dakota",
    "description": "Offers electrical auto repair services, including battery checks, alternator repair, starter diagnostics, and wiring checks",
    "hours": "Mon-Fri 9AM-6PM",
    "services": [
      "Agnostic-owned Auto electrical in North-Dakota consultation",
      "Professional service",
      "Quality guarantee"
    ],
    "social_links": {}
  },
  {
    "name": "A+ Auto Repair",
    "address": "1120 17th St NE, Bismarck, ND 58501",
    "phone": "(701) 415-0500",
    "rating": 4.7,
    "reviews": 25,
    "website": "https://aplusautorepairnd.com/",
    "category": "Agnostic-owned Auto electrical in North-Dakota",
    "description": "Provides a wide range of auto repair services, including electrical system diagnostics and repair",
    "hours": "Mon-Fri 9AM-6PM",
    "services": [
      "Agnostic-owned Auto electrical in North-Dakota consultation",
      "Professional service",
      "Quality guarantee"
    ],
    "social_links": {}
  },
  {
    "name": "I-29 Automotive Service & Towing",
    "address": "1020 1st Ave N, Fargo, ND 58102",
    "phone": "(701) 237-0435",
    "rating": 4.7,
    "reviews": 25,
    "website": "https://i29auto.com/",
    "category": "Agnostic-owned Auto electrical in North-Dakota",
    "description": "Offers honest, expert auto repairs and professional service for cars and trucks, including electrical system services",
    "hours": "Mon-Fri 9AM-6PM",
    "services": [
      "Agnostic-owned Auto electrical in North-Dakota consultation",
      "Professional service",
      "Quality guarantee"
    ],
    "social_links": {}
  },
  {
    "name": "Bismarck & Mandan Tire & Auto Centers",
    "address": "503 North 4th Street, Bismarck, ND 58501 (also has a Mandan location)",
    "phone": "(701) 223-1722",
    "rating": 4.5,
    "reviews": 25,
    "website": "https://www.bismantire.com/",
    "category": "Agnostic-owned Auto electrical in North-Dakota",
    "description": "A trusted, family-owned business offering comprehensive auto repair and tire services, including electrical system checks",
    "hours": "Mon-Fri 9AM-6PM",
    "services": [
      "Agnostic-owned Auto electrical in North-Dakota consultation",
      "Professional service",
      "Quality guarantee"
    ],
    "social_links": {}
  },
  {
    "name": "Tuffy Tire and Auto Service Center Fargo",
    "address": "3020 13th Ave S, Fargo, ND 58103",
    "phone": "(701) 237-0500",
    "rating": 4.3,
    "reviews": 25,
    "website": "https://www.tuffy.com/locations/nd/fargo-3020/",
    "category": "Agnostic-owned Auto electrical in North-Dakota",
    "description": "Provides electrical system services, including diagnosis and repair of battery, alternator, starter, and wiring issues",
    "hours": "Mon-Fri 9AM-6PM",
    "services": [
      "Agnostic-owned Auto electrical in North-Dakota consultation",
      "Professional service",
      "Quality guarantee"
    ],
    "social_links": {}
  },
  {
    "name": "Auto Therapy",
    "address": "1020 12th Ave E, Bismarck, ND 58501",
    "phone": "(701) 595-0400",
    "rating": 4.9,
    "reviews": 25,
    "website": "https://www.autotherapy.biz/",
    "category": "Agnostic-owned Auto electrical in North-Dakota",
    "description": "Specializes in comprehensive auto electrical repair and maintenance, including alternators, batteries, and starters",
    "hours": "Mon-Fri 9AM-6PM",
    "services": [
      "Agnostic-owned Auto electrical in North-Dakota consultation",
      "Professional service",
      "Quality guarantee"
    ],
    "social_links": {}
  },
  {
    "name": "Prairie Auto Repair",
    "address": "1600 1st Ave S, Grand Forks, ND 58201",
    "phone": "(701) 775-0501",
    "rating": 4.6,
    "reviews": 25,
    "website": "https://www.prairieautorepair.com/",
    "category": "Agnostic-owned Auto electrical in North-Dakota",
    "description": "Offers a full range of auto repair services, including electrical diagnostics and repair for various vehicle systems",
    "hours": "Mon-Fri 9AM-6PM",
    "services": [
      "Agnostic-owned Auto electrical in North-Dakota consultation",
      "Professional service",
      "Quality guarantee"
    ],
    "social_links": {}
  }
]