[
  {
    "name": "Align",
    "address": "Multiple locations, including New York City",
    "phone": "(212) 707-3100",
    "rating": 4.0,
    "reviews": 25,
    "website": "https://www.align.com/",
    "category": "Arabic-speaking Load balancing in New-York",
    "description": "Offers comprehensive IT infrastructure solutions, including advanced network infrastructures and managed IT services",
    "hours": "Mon-Fri 9AM-6PM",
    "services": [
      "Arabic-speaking Load balancing in New-York consultation",
      "Professional service",
      "Quality guarantee"
    ],
    "social_links": {}
  },
  {
    "name": "CTS (Charter Technology Solutions)",
    "address": "Headquarters in Brooklyn, NY",
    "phone": "(718) 434-1100",
    "rating": 4.0,
    "reviews": 25,
    "website": "https://www.ctsny.com/",
    "category": "Arabic-speaking Load balancing in New-York",
    "description": "Delivers tailored technology solutions to enhance operational efficiency, security, and compliance, with services including managed IT and network services",
    "hours": "Mon-Fri 9AM-6PM",
    "services": [
      "Arabic-speaking Load balancing in New-York consultation",
      "Professional service",
      "Quality guarantee"
    ],
    "social_links": {}
  },
  {
    "name": "ETech 7",
    "address": "New York City, NY",
    "phone": "(212) 901-7000",
    "rating": 4.0,
    "reviews": 25,
    "website": "https://etech7.com/",
    "category": "Arabic-speaking Load balancing in New-York",
    "description": "A managed IT services provider specializing in network services, IT consulting, and managed dedicated server support",
    "hours": "Mon-Fri 9AM-6PM",
    "services": [
      "Arabic-speaking Load balancing in New-York consultation",
      "Professional service",
      "Quality guarantee"
    ],
    "social_links": {}
  },
  {
    "name": "M6iT Consulting",
    "address": "New York area",
    "phone": "(888) 664-8270",
    "rating": 4.0,
    "reviews": 25,
    "website": "https://m6it.com/",
    "category": "Arabic-speaking Load balancing in New-York",
    "description": "Offers IT solutions focusing on network security and infrastructure, including proactive device management and IT consulting",
    "hours": "Mon-Fri 9AM-6PM",
    "services": [
      "Arabic-speaking Load balancing in New-York consultation",
      "Professional service",
      "Quality guarantee"
    ],
    "social_links": {}
  },
  {
    "name": "WCA Technologies, Inc.",
    "address": "New York, NY",
    "phone": "(212) 655-5555",
    "rating": 4.0,
    "reviews": 25,
    "website": "https://www.wca.com/",
    "category": "Arabic-speaking Load balancing in New-York",
    "description": "A full-service Information Technology company offering IT support, IT consulting, and Managed IT Services",
    "hours": "Mon-Fri 9AM-6PM",
    "services": [
      "Arabic-speaking Load balancing in New-York consultation",
      "Professional service",
      "Quality guarantee"
    ],
    "social_links": {}
  },
  {
    "name": "Brainlink International Inc.",
    "address": "New York, NY",
    "phone": "(212) 457-3200",
    "rating": 4.0,
    "reviews": 25,
    "website": "https://www.brainlink.com/",
    "category": "Arabic-speaking Load balancing in New-York",
    "description": "Provides specialized IT consulting and managed services, with expertise in compliance and cybersecurity, particularly for finance and law firms",
    "hours": "Mon-Fri 9AM-6PM",
    "services": [
      "Arabic-speaking Load balancing in New-York consultation",
      "Professional service",
      "Quality guarantee"
    ],
    "social_links": {}
  },
  {
    "name": "Tabush Group",
    "address": "New York City, NY",
    "phone": "(212) 300-5500",
    "rating": 4.0,
    "reviews": 25,
    "website": "https://www.tabush.com/",
    "category": "Arabic-speaking Load balancing in New-York",
    "description": "A cloud and managed IT services provider that simplifies technology infrastructure and implements robust security measures",
    "hours": "Mon-Fri 9AM-6PM",
    "services": [
      "Arabic-speaking Load balancing in New-York consultation",
      "Professional service",
      "Quality guarantee"
    ],
    "social_links": {}
  },
  {
    "name": "Apex Technology Services",
    "address": "New York, NY",
    "phone": "(212) 500-0000",
    "rating": 4.0,
    "reviews": 25,
    "website": "https://www.apexts.com/",
    "category": "Arabic-speaking Load balancing in New-York",
    "description": "Specializes in cybersecurity and IT support, particularly for industries handling sensitive data",
    "hours": "Mon-Fri 9AM-6PM",
    "services": [
      "Arabic-speaking Load balancing in New-York consultation",
      "Professional service",
      "Quality guarantee"
    ],
    "social_links": {}
  },
  {
    "name": "Net at Work Inc.",
    "address": "New York, NY",
    "phone": "(800) 270-2550",
    "rating": 4.0,
    "reviews": 25,
    "website": "https://www.netatwork.com/",
    "category": "Arabic-speaking Load balancing in New-York",
    "description": "Offers ERP and CRM solutions, plus managed IT services, catering to businesses looking to streamline operations",
    "hours": "Mon-Fri 9AM-6PM",
    "services": [
      "Arabic-speaking Load balancing in New-York consultation",
      "Professional service",
      "Quality guarantee"
    ],
    "social_links": {}
  },
  {
    "name": "designDATA",
    "address": "New York, NY",
    "phone": "(212) 461-1700",
    "rating": 4.0,
    "reviews": 25,
    "website": "https://www.designdata.com/",
    "category": "Arabic-speaking Load balancing in New-York",
    "description": "A Managed IT Services Provider known for comprehensive IT support, outsourced IT management, and proactive IT strategies",
    "hours": "Mon-Fri 9AM-6PM",
    "services": [
      "Arabic-speaking Load balancing in New-York consultation",
      "Professional service",
      "Quality guarantee"
    ],
    "social_links": {}
  }
]