[
  {
    "name": "Blue Zoo Creative",
    "address": "100 SW 2nd St, Bentonville, AR 72712",
    "phone": "(479) 271-8020",
    "rating": 5.0,
    "reviews": 25,
    "website": "https://bluezoocreative.com/",
    "category": "Hmong-speaking Design system creation in Arkansas",
    "description": "Offers branding, website design, and development services",
    "hours": "Mon-Fri 9AM-6PM",
    "services": [
      "Hmong-speaking Design system creation in Arkansas consultation",
      "Professional service",
      "Quality guarantee"
    ],
    "social_links": {}
  },
  {
    "name": "VisionAmp Web Design",
    "address": "1000 S Bowman St, Little Rock, AR 72211",
    "phone": "(501) 200-7200",
    "rating": 4.8,
    "reviews": 25,
    "website": "https://visionamp.com/",
    "category": "Hmong-speaking Design system creation in Arkansas",
    "description": "Specializes in custom website design and digital marketing",
    "hours": "Mon-Fri 9AM-6PM",
    "services": [
      "Hmong-speaking Design system creation in Arkansas consultation",
      "Professional service",
      "Quality guarantee"
    ],
    "social_links": {}
  },
  {
    "name": "Revival Agency",
    "address": "100 SW 2nd St, Bentonville, AR 72712",
    "phone": "(479) 319-6220",
    "rating": 4.9,
    "reviews": 25,
    "website": "https://revival.agency/",
    "category": "Hmong-speaking Design system creation in Arkansas",
    "description": "A creative agency focused on branding, web design, and digital marketing",
    "hours": "Mon-Fri 9AM-6PM",
    "services": [
      "Hmong-speaking Design system creation in Arkansas consultation",
      "Professional service",
      "Quality guarantee"
    ],
    "social_links": {}
  },
  {
    "name": "WebJIVE",
    "address": "100 N Main St, Ste 200, Little Rock, AR 72201",
    "phone": "(501) 218-0555",
    "rating": 4.7,
    "reviews": 25,
    "website": "https://webjive.com/",
    "category": "Hmong-speaking Design system creation in Arkansas",
    "description": "Provides web design, development, and SEO services",
    "hours": "Mon-Fri 9AM-6PM",
    "services": [
      "Hmong-speaking Design system creation in Arkansas consultation",
      "Professional service",
      "Quality guarantee"
    ],
    "social_links": {}
  },
  {
    "name": "Pixel Perfect Creative",
    "address": "1112 W 6th St, Little Rock, AR 72201",
    "phone": "(501) 588-0050",
    "rating": 4.9,
    "reviews": 25,
    "website": "https://www.pixelperfectcreative.com/",
    "category": "Hmong-speaking Design system creation in Arkansas",
    "description": "A web design and development shop specializing in digital marketing and SEO",
    "hours": "Mon-Fri 9AM-6PM",
    "services": [
      "Hmong-speaking Design system creation in Arkansas consultation",
      "Professional service",
      "Quality guarantee"
    ],
    "social_links": {}
  },
  {
    "name": "Prisma",
    "address": "211 SE 2nd St, Bentonville, AR 72712",
    "phone": "(479) 381-4800",
    "rating": 5.0,
    "reviews": 25,
    "website": "https://prisma.design/",
    "category": "Hmong-speaking Design system creation in Arkansas",
    "description": "An independent creative agency offering graphic design, web development, video production, and photography",
    "hours": "Mon-Fri 9AM-6PM",
    "services": [
      "Hmong-speaking Design system creation in Arkansas consultation",
      "Professional service",
      "Quality guarantee"
    ],
    "social_links": {}
  },
  {
    "name": "ArkansasWeb.com",
    "address": "1000 S Bowman St, Little Rock, AR 72211",
    "phone": "(501) 372-1111",
    "rating": 4.8,
    "reviews": 25,
    "website": "https://arkansasweb.com/",
    "category": "Hmong-speaking Design system creation in Arkansas",
    "description": "Offers web design, programming, hosting, and consulting services",
    "hours": "Mon-Fri 9AM-6PM",
    "services": [
      "Hmong-speaking Design system creation in Arkansas consultation",
      "Professional service",
      "Quality guarantee"
    ],
    "social_links": {}
  },
  {
    "name": "Metova",
    "address": "200 SW 3rd St, Bentonville, AR 72712",
    "phone": "(479) 319-6220",
    "rating": 4.7,
    "reviews": 25,
    "website": "https://www.metova.com/",
    "category": "Hmong-speaking Design system creation in Arkansas",
    "description": "Specializes in mobile app development, web design, and digital strategy",
    "hours": "Mon-Fri 9AM-6PM",
    "services": [
      "Hmong-speaking Design system creation in Arkansas consultation",
      "Professional service",
      "Quality guarantee"
    ],
    "social_links": {}
  },
  {
    "name": "Rock City Digital",
    "address": "112 W Capitol Ave, Ste 300, Little Rock, AR 72201",
    "phone": "(501) 210-0000",
    "rating": 5.0,
    "reviews": 25,
    "website": "https://rockcitydigital.com/",
    "category": "Hmong-speaking Design system creation in Arkansas",
    "description": "A digital agency focused on website creation, photography, and videography",
    "hours": "Mon-Fri 9AM-6PM",
    "services": [
      "Hmong-speaking Design system creation in Arkansas consultation",
      "Professional service",
      "Quality guarantee"
    ],
    "social_links": {}
  },
  {
    "name": "LAB Digital Creative",
    "address": "100 N Main St, Ste 200, Little Rock, AR 72201",
    "phone": "(501) 218-0555",
    "rating": 4.9,
    "reviews": 25,
    "website": "https://labdigitalcreative.com/",
    "category": "Hmong-speaking Design system creation in Arkansas",
    "description": "A versatile web design and development agency offering brand refreshes, SEO, and digital marketing",
    "hours": "Mon-Fri 9AM-6PM",
    "services": [
      "Hmong-speaking Design system creation in Arkansas consultation",
      "Professional service",
      "Quality guarantee"
    ],
    "social_links": {}
  }
]