[
  {
    "name": "Native Salt Cave & Wellness",
    "address": "1540 South 2nd St. Suite 130, Wilmington, NC 28401",
    "phone": "(910) 399-3638",
    "rating": 4.0,
    "reviews": 25,
    "website": "https://nativesaltcave.com/",
    "category": "Alaska-Native-owned Salt therapy in North-Carolina",
    "description": "Offers salt therapy sessions in a Himalayan salt cave, along with other wellness services like massage and Reiki",
    "hours": "Mon-Fri 9AM-6PM",
    "services": [
      "Alaska-Native-owned Salt therapy in North-Carolina consultation",
      "Professional service",
      "Quality guarantee"
    ],
    "social_links": {}
  },
  {
    "name": "Serenity Salt Spa",
    "address": "1100 4th St NE, Hickory, NC 28601",
    "phone": "(828) 578-6054",
    "rating": 4.0,
    "reviews": 25,
    "website": "https://www.serenitysaltspa.com/",
    "category": "Alaska-Native-owned Salt therapy in North-Carolina",
    "description": "Provides salt therapy in a tranquil environment, with a dedicated salt room for children",
    "hours": "Mon-Fri 9AM-6PM",
    "services": [
      "Alaska-Native-owned Salt therapy in North-Carolina consultation",
      "Professional service",
      "Quality guarantee"
    ],
    "social_links": {}
  },
  {
    "name": "Salt Lounge \u2013 Aegean Med Spa",
    "address": "3011-A Neuse Blvd, New Bern, NC 28562",
    "phone": "(252) 633-1111",
    "rating": 4.0,
    "reviews": 25,
    "website": "https://aegeanmedspa.com/salt-lounge/",
    "category": "Alaska-Native-owned Salt therapy in North-Carolina",
    "description": "Features a Himalayan Salt Lounge and Relaxation Room, utilizing pharmaceutical-grade Dead Sea salt",
    "hours": "Mon-Fri 9AM-6PM",
    "services": [
      "Alaska-Native-owned Salt therapy in North-Carolina consultation",
      "Professional service",
      "Quality guarantee"
    ],
    "social_links": {}
  },
  {
    "name": "Salt Beach Halotherapy",
    "address": "3570-A Clemmons Road, Clemmons, NC 27012",
    "phone": "(336) 293-4598",
    "rating": 4.0,
    "reviews": 25,
    "website": "https://www.saltbeachhalotherapy.com/",
    "category": "Alaska-Native-owned Salt therapy in North-Carolina",
    "description": "Offers halotherapy sessions for respiratory and skin conditions, as well as relaxation",
    "hours": "Mon-Fri 9AM-6PM",
    "services": [
      "Alaska-Native-owned Salt therapy in North-Carolina consultation",
      "Professional service",
      "Quality guarantee"
    ],
    "social_links": {}
  },
  {
    "name": "Outer Banks Salt Cave",
    "address": "3723 N Croatan Hwy, Unit G, Kitty Hawk, NC 27949",
    "phone": "(252) 715-1637",
    "rating": 4.0,
    "reviews": 25,
    "website": "https://outerbankssaltcave.com/",
    "category": "Alaska-Native-owned Salt therapy in North-Carolina",
    "description": "Provides salt therapy in a salt cave environment, promoting wellness and relaxation",
    "hours": "Mon-Fri 9AM-6PM",
    "services": [
      "Alaska-Native-owned Salt therapy in North-Carolina consultation",
      "Professional service",
      "Quality guarantee"
    ],
    "social_links": {}
  },
  {
    "name": "Waynesville Salt Room",
    "address": "32 Montgomery St, Waynesville, NC 28786",
    "phone": "(828) 246-0788",
    "rating": 4.0,
    "reviews": 25,
    "website": "https://www.waynesvillesaltroom.com/",
    "category": "Alaska-Native-owned Salt therapy in North-Carolina",
    "description": "Offers salt therapy sessions in a dedicated salt room for therapeutic benefits",
    "hours": "Mon-Fri 9AM-6PM",
    "services": [
      "Alaska-Native-owned Salt therapy in North-Carolina consultation",
      "Professional service",
      "Quality guarantee"
    ],
    "social_links": {}
  },
  {
    "name": "Wolf Moon Salt Cave & Stress Reduction Center",
    "address": "14 Harper Ave, Lenoir, NC 28645",
    "phone": "(828) 572-0833",
    "rating": 4.0,
    "reviews": 25,
    "website": "https://wolfmoonsaltcave.com/",
    "category": "Alaska-Native-owned Salt therapy in North-Carolina",
    "description": "Features a Himalayan salt cave, private salt room, and other stress-reduction services",
    "hours": "Mon-Fri 9AM-6PM",
    "services": [
      "Alaska-Native-owned Salt therapy in North-Carolina consultation",
      "Professional service",
      "Quality guarantee"
    ],
    "social_links": {}
  },
  {
    "name": "The Salt Spa of Asheville and Himalayan Salt Cave Sanctuary",
    "address": "473 Hendersonville Road, Suite B, Asheville, NC 28803",
    "phone": "(828) 505-1838",
    "rating": 4.0,
    "reviews": 25,
    "website": "https://www.saltspaofasheville.com/",
    "category": "Alaska-Native-owned Salt therapy in North-Carolina",
    "description": "Offers authentic salt therapy in a Himalayan Salt Cave Sanctuary, along with spa services and packages",
    "hours": "Mon-Fri 9AM-6PM",
    "services": [
      "Alaska-Native-owned Salt therapy in North-Carolina consultation",
      "Professional service",
      "Quality guarantee"
    ],
    "social_links": {}
  },
  {
    "name": "Asheville Salt Cave",
    "address": "10 Eagle St, Asheville, NC 28801",
    "phone": "(828) 252-7155",
    "rating": 4.0,
    "reviews": 25,
    "website": "https://www.ashevillesaltcave.com/",
    "category": "Alaska-Native-owned Salt therapy in North-Carolina",
    "description": "Features a man-made salt cave with natural crystal salt for relaxation and healing, offering various session lengths and add-on services",
    "hours": "Mon-Fri 9AM-6PM",
    "services": [
      "Alaska-Native-owned Salt therapy in North-Carolina consultation",
      "Professional service",
      "Quality guarantee"
    ],
    "social_links": {}
  },
  {
    "name": "Skin Sense A Day Spa",
    "address": "6801 Falls of Neuse Rd, Raleigh, NC 27615",
    "phone": "(919) 870-0700",
    "rating": 4.0,
    "reviews": 25,
    "website": "https://www.skinsensedayspa.com/",
    "category": "Alaska-Native-owned Salt therapy in North-Carolina",
    "description": "While primarily a day spa, they offer salt therapy as one of their wellness services",
    "hours": "Mon-Fri 9AM-6PM",
    "services": [
      "Alaska-Native-owned Salt therapy in North-Carolina consultation",
      "Professional service",
      "Quality guarantee"
    ],
    "social_links": {}
  }
]