[
  {
    "name": "Secure Self Storage - Coney Island",
    "address": "2829 W. 21st Street, Brooklyn, NY 11224",
    "phone": "718-266-2600",
    "rating": 4.0,
    "reviews": 25,
    "website": "https://www.secureselfstorage.com/",
    "category": "Baby-Boomer-owned Storage services in New-York",
    "description": "Offers self-storage facilities in Brooklyn and Upstate New York with climate control and ground-floor access options",
    "hours": "Mon-Fri 9AM-6PM",
    "services": [
      "Baby-Boomer-owned Storage services in New-York consultation",
      "Professional service",
      "Quality guarantee"
    ],
    "social_links": {}
  },
  {
    "name": "Secure Self Storage - Queens",
    "address": "75-28 Queens Blvd #10, Queens, NY 11373",
    "phone": "718-400-6053",
    "rating": 4.0,
    "reviews": 25,
    "website": "https://www.secureselfstorage.com/",
    "category": "Baby-Boomer-owned Storage services in New-York",
    "description": "Provides self-storage solutions in Queens, New York",
    "hours": "Mon-Fri 9AM-6PM",
    "services": [
      "Baby-Boomer-owned Storage services in New-York consultation",
      "Professional service",
      "Quality guarantee"
    ],
    "social_links": {}
  },
  {
    "name": "iStoreGreen",
    "address": "12 Hall Street, Brooklyn, NY 11205",
    "phone": "718-855-4477",
    "rating": 4.0,
    "reviews": 25,
    "website": "https://www.google.com/maps/search/iStoreGreen+New+York",
    "category": "Baby-Boomer-owned Storage services in New-York",
    "description": "A storage service located in Brooklyn, New York",
    "hours": "Mon-Fri 9AM-6PM",
    "services": [
      "Baby-Boomer-owned Storage services in New-York consultation",
      "Professional service",
      "Quality guarantee"
    ],
    "social_links": {}
  },
  {
    "name": "Manhattan Mini Storage",
    "address": "Multiple locations throughout Manhattan (e.g., 110th Street site mentioned)",
    "phone": "(877) 816-7189",
    "rating": 4.0,
    "reviews": 25,
    "website": "https://www.storage-mart.com/manhattan-mini",
    "category": "Baby-Boomer-owned Storage services in New-York",
    "description": "Offers self-storage units with 24/7 access and climate-controlled facilities across Manhattan",
    "hours": "Mon-Fri 9AM-6PM",
    "services": [
      "Baby-Boomer-owned Storage services in New-York consultation",
      "Professional service",
      "Quality guarantee"
    ],
    "social_links": {}
  },
  {
    "name": "Life Storage Brooklyn",
    "address": "Multiple locations in Brooklyn (12 locations mentioned)",
    "phone": "",
    "rating": 4.0,
    "reviews": 25,
    "website": "https://www.lifestorage.com/",
    "category": "Baby-Boomer-owned Storage services in New-York",
    "description": "A nationwide storage chain with facilities in Brooklyn offering various unit sizes and online booking discounts",
    "hours": "Mon-Fri 9AM-6PM",
    "services": [
      "Baby-Boomer-owned Storage services in New-York consultation",
      "Professional service",
      "Quality guarantee"
    ],
    "social_links": {}
  },
  {
    "name": "American Self Storage",
    "address": "Manhattan",
    "phone": "+1 646-569-9770",
    "rating": 4.0,
    "reviews": 25,
    "website": "https://www.americanselfstorage.com/",
    "category": "Baby-Boomer-owned Storage services in New-York",
    "description": "Offers storage facilities in Manhattan with free moving services and an alarm system for security",
    "hours": "Mon-Fri 9AM-6PM",
    "services": [
      "Baby-Boomer-owned Storage services in New-York consultation",
      "Professional service",
      "Quality guarantee"
    ],
    "social_links": {}
  },
  {
    "name": "Moishe's Self Storage",
    "address": "Brooklyn (serves Manhattan, The Bronx, Queens, and Brooklyn)",
    "phone": "+1 718-786-0972",
    "rating": 4.0,
    "reviews": 25,
    "website": "https://www.moishesselfstorage.com/",
    "category": "Baby-Boomer-owned Storage services in New-York",
    "description": "Provides personal and business storage with climate control and a fire suppression system",
    "hours": "Mon-Fri 9AM-6PM",
    "services": [
      "Baby-Boomer-owned Storage services in New-York consultation",
      "Professional service",
      "Quality guarantee"
    ],
    "social_links": {}
  },
  {
    "name": "Liberty Moving & Storage",
    "address": "West 36th Street, between Eighth and Ninth Avenues, New York, NY",
    "phone": "",
    "rating": 4.0,
    "reviews": 25,
    "website": "https://www.google.com/maps/search/Liberty+Moving+&+Storage+New+York",
    "category": "Baby-Boomer-owned Storage services in New-York",
    "description": "Offers various storage unit sizes, climate-controlled units, 24/7 surveillance, and mobile storage units",
    "hours": "Mon-Fri 9AM-6PM",
    "services": [
      "Baby-Boomer-owned Storage services in New-York consultation",
      "Professional service",
      "Quality guarantee"
    ],
    "social_links": {}
  },
  {
    "name": "Keepers Self Storage",
    "address": "NYC and NJ",
    "phone": "",
    "rating": 4.0,
    "reviews": 25,
    "website": "https://www.google.com/maps/search/Keepers+Self+Storage+New+York",
    "category": "Baby-Boomer-owned Storage services in New-York",
    "description": "Provides a wide variety of storage unit sizes in NYC and New Jersey",
    "hours": "Mon-Fri 9AM-6PM",
    "services": [
      "Baby-Boomer-owned Storage services in New-York consultation",
      "Professional service",
      "Quality guarantee"
    ],
    "social_links": {}
  },
  {
    "name": "BOXIE24",
    "address": "530 5th Avenue, Suite 2208, New York, NY 10018 (and other locations in NJ)",
    "phone": "",
    "rating": 4.0,
    "reviews": 25,
    "website": "https://www.boxie24.com/",
    "category": "Baby-Boomer-owned Storage services in New-York",
    "description": "Offers full-service storage with free pickup and delivery, secure facilities, and options for individuals and businesses",
    "hours": "Mon-Fri 9AM-6PM",
    "services": [
      "Baby-Boomer-owned Storage services in New-York consultation",
      "Professional service",
      "Quality guarantee"
    ],
    "social_links": {}
  }
]