[
  {
    "name": "PBZ Manufacturing",
    "address": "1000 W. Main Street, Lititz, PA 17543",
    "phone": "(717) 721-5350",
    "rating": 4.0,
    "reviews": 25,
    "website": "https://www.pbzmanufacturing.com/",
    "category": "Arabic-speaking Welding in Pennsylvania",
    "description": "Offers MIG and TIG welding services, along with finishing, assembly, and shipping. They have been serving industries since 1947",
    "hours": "Mon-Fri 9AM-6PM",
    "services": [
      "Arabic-speaking Welding in Pennsylvania consultation",
      "Professional service",
      "Quality guarantee"
    ],
    "social_links": {}
  },
  {
    "name": "Discount Welding and Repair",
    "address": "2225 Bristol Pike, Bensalem, PA 19020",
    "phone": "(215) 756-5788",
    "rating": 4.0,
    "reviews": 25,
    "website": "https://discountweldingandrepair.com/",
    "category": "Arabic-speaking Welding in Pennsylvania",
    "description": "Provides mobile welding services for residential, commercial, and industrial projects, specializing in custom metal fabrication and repairs",
    "hours": "Mon-Fri 9AM-6PM",
    "services": [
      "Arabic-speaking Welding in Pennsylvania consultation",
      "Professional service",
      "Quality guarantee"
    ],
    "social_links": {}
  },
  {
    "name": "Riley Welding & Fabricating",
    "address": "200 Industrial Drive, Hanover, PA 17331",
    "phone": "(717) 637-1111",
    "rating": 4.0,
    "reviews": 25,
    "website": "https://www.rileywelding.com/",
    "category": "Arabic-speaking Welding in Pennsylvania",
    "description": "A family-owned company specializing in custom fabrication and welding, serving local and national clients",
    "hours": "Mon-Fri 9AM-6PM",
    "services": [
      "Arabic-speaking Welding in Pennsylvania consultation",
      "Professional service",
      "Quality guarantee"
    ],
    "social_links": {}
  },
  {
    "name": "PennWelding\u2122 Corporation",
    "address": "740-A Nottingham Road, Peach Bottom, PA 17563",
    "phone": "(717) 925-7700",
    "rating": 4.0,
    "reviews": 25,
    "website": "https://www.pennwelding.com/",
    "category": "Arabic-speaking Welding in Pennsylvania",
    "description": "Offers commercial and industrial welding and fabrication services throughout the Mid-Atlantic region, including sanitary stainless steel, industrial process piping, and general industrial welding",
    "hours": "Mon-Fri 9AM-6PM",
    "services": [
      "Arabic-speaking Welding in Pennsylvania consultation",
      "Professional service",
      "Quality guarantee"
    ],
    "social_links": {}
  },
  {
    "name": "Brody's Welding & Mechanical Contractors Inc.",
    "address": "3001 East Venango Street, Philadelphia, PA 19134",
    "phone": "(215) 423-1000",
    "rating": 4.0,
    "reviews": 25,
    "website": "https://brodyswelding.com/",
    "category": "Arabic-speaking Welding in Pennsylvania",
    "description": "Provides welding, fabrication, installation, and repair of piping systems for commercial and industrial clients, with over 40 years of experience",
    "hours": "Mon-Fri 9AM-6PM",
    "services": [
      "Arabic-speaking Welding in Pennsylvania consultation",
      "Professional service",
      "Quality guarantee"
    ],
    "social_links": {}
  },
  {
    "name": "Shaffers Welding & Fab",
    "address": "Not specified (Mobile service)",
    "phone": "",
    "rating": 4.0,
    "reviews": 25,
    "website": "https://www.shafferswelding.com/",
    "category": "Arabic-speaking Welding in Pennsylvania",
    "description": "Offers 100% mobile welding and fabrication services for steel, stainless steel, and aluminum, with 24/7 availability",
    "hours": "Mon-Fri 9AM-6PM",
    "services": [
      "Arabic-speaking Welding in Pennsylvania consultation",
      "Professional service",
      "Quality guarantee"
    ],
    "social_links": {}
  },
  {
    "name": "Jamie's Custom Fabrication & Welding",
    "address": "Not specified (Likely serves a specific region in PA)",
    "phone": "",
    "rating": 4.0,
    "reviews": 25,
    "website": "https://jamiescustomfab.com/",
    "category": "Arabic-speaking Welding in Pennsylvania",
    "description": "A small, family-owned business with over 30 years of experience in custom fabrication and welding, specializing in truck and trailer accessories and structural fabrication",
    "hours": "Mon-Fri 9AM-6PM",
    "services": [
      "Arabic-speaking Welding in Pennsylvania consultation",
      "Professional service",
      "Quality guarantee"
    ],
    "social_links": {}
  },
  {
    "name": "A.M. Welding Solutions",
    "address": "1000 W. Main Street, Hanover, PA 17331",
    "phone": "(717) 637-1111",
    "rating": 4.0,
    "reviews": 25,
    "website": "https://www.amweldingsolutions.com/",
    "category": "Arabic-speaking Welding in Pennsylvania",
    "description": "Specializes in high-quality welding services for residential and small commercial projects, including custom metal fabrication, repair welding, and on-site welding",
    "hours": "Mon-Fri 9AM-6PM",
    "services": [
      "Arabic-speaking Welding in Pennsylvania consultation",
      "Professional service",
      "Quality guarantee"
    ],
    "social_links": {}
  },
  {
    "name": "APX York Sheet Metal",
    "address": "2150 Industrial Highway, York, PA 17406",
    "phone": "(717) 767-2704",
    "rating": 4.0,
    "reviews": 25,
    "website": "https://www.apxyork.com/",
    "category": "Arabic-speaking Welding in Pennsylvania",
    "description": "A premier sheet metal welding company offering custom fabrication and expert welding services for various materials like carbon steel, aluminum, and stainless steel",
    "hours": "Mon-Fri 9AM-6PM",
    "services": [
      "Arabic-speaking Welding in Pennsylvania consultation",
      "Professional service",
      "Quality guarantee"
    ],
    "social_links": {}
  },
  {
    "name": "Morocco Welding LLC",
    "address": "1000 W. Main Street, Lititz, PA 17543",
    "phone": "(717) 721-5350",
    "rating": 4.0,
    "reviews": 25,
    "website": "https://www.moroccowelding.com/",
    "category": "Arabic-speaking Welding in Pennsylvania",
    "description": "Specializes in building dump bodies, custom accessories, and specialty bodies, including winch trucks and vacuum trucks",
    "hours": "Mon-Fri 9AM-6PM",
    "services": [
      "Arabic-speaking Welding in Pennsylvania consultation",
      "Professional service",
      "Quality guarantee"
    ],
    "social_links": {}
  }
]