[
  {
    "name": "Throne Traditional Barbershop - Pearl District",
    "address": "915 Northwest 14th Avenue, Portland, OR 97209",
    "phone": "(503) 954-2286",
    "rating": 5.0,
    "reviews": 25,
    "website": "https://www.thronebarbershop.com/",
    "category": "Asian-owned Head shaving in Oregon",
    "description": "Offers precision fades, straight razor shaves, and other grooming services in a royal-themed atmosphere",
    "hours": "Mon-Fri 9AM-6PM",
    "services": [
      "Asian-owned Head shaving in Oregon consultation",
      "Professional service",
      "Quality guarantee"
    ],
    "social_links": {}
  },
  {
    "name": "Throne Traditional Barbershop - North Williams",
    "address": "4177 North Williams Avenue, Portland, OR 97217",
    "phone": "(503) 954-2286",
    "rating": 5.0,
    "reviews": 25,
    "website": "https://www.thronebarbershop.com/",
    "category": "Asian-owned Head shaving in Oregon",
    "description": "Another location of Throne Barbershop, providing similar high-quality grooming services",
    "hours": "Mon-Fri 9AM-6PM",
    "services": [
      "Asian-owned Head shaving in Oregon consultation",
      "Professional service",
      "Quality guarantee"
    ],
    "social_links": {}
  },
  {
    "name": "Throne Traditional Barbershop - Southeast Division",
    "address": "2800 SE Division St Suite 102, Portland, OR 97202",
    "phone": "(971) 254-8701",
    "rating": 5.0,
    "reviews": 25,
    "website": "https://www.thronebarbershop.com/",
    "category": "Asian-owned Head shaving in Oregon",
    "description": "The third Throne Barbershop location, known for its expert barbers and classic grooming",
    "hours": "Mon-Fri 9AM-6PM",
    "services": [
      "Asian-owned Head shaving in Oregon consultation",
      "Professional service",
      "Quality guarantee"
    ],
    "social_links": {}
  },
  {
    "name": "Blade & Brush",
    "address": "1722 NW Raleigh St & NW 17th St, Suite 103, Portland, OR 97209",
    "phone": "",
    "rating": 5.0,
    "reviews": 25,
    "website": "https://www.bladeandbrush.com/",
    "category": "Asian-owned Head shaving in Oregon",
    "description": "Offers a hot lather head shave with a guarded razor and steam towel",
    "hours": "Mon-Fri 9AM-6PM",
    "services": [
      "Asian-owned Head shaving in Oregon consultation",
      "Professional service",
      "Quality guarantee"
    ],
    "social_links": {}
  },
  {
    "name": "Anthony'S Cuts",
    "address": "579 Lancaster Dr SE, Salem, OR 97317",
    "phone": "",
    "rating": 5.0,
    "reviews": 25,
    "website": "https://www.google.com/maps/search/Anthony'S+Cuts+in+Oregon",
    "category": "Asian-owned Head shaving in Oregon",
    "description": "A barbershop in Salem offering head shaves",
    "hours": "Mon-Fri 9AM-6PM",
    "services": [
      "Asian-owned Head shaving in Oregon consultation",
      "Professional service",
      "Quality guarantee"
    ],
    "social_links": {}
  },
  {
    "name": "Remi Salon & Barbershop",
    "address": "579 Lancaster Dr SE, Salem, OR 97317",
    "phone": "",
    "rating": 5.0,
    "reviews": 25,
    "website": "https://www.google.com/maps/search/Remi+Salon+&+Barbershop+in+Oregon",
    "category": "Asian-owned Head shaving in Oregon",
    "description": "Also located in Salem, offering various barber services including head shaves",
    "hours": "Mon-Fri 9AM-6PM",
    "services": [
      "Asian-owned Head shaving in Oregon consultation",
      "Professional service",
      "Quality guarantee"
    ],
    "social_links": {}
  },
  {
    "name": "PhillyFadez",
    "address": "11831 Northeast Chateau Drive, Woodburn, OR 97071",
    "phone": "",
    "rating": 5.0,
    "reviews": 25,
    "website": "https://www.google.com/maps/search/PhillyFadez+in+Oregon",
    "category": "Asian-owned Head shaving in Oregon",
    "description": "Offers head shaves and other grooming services in Woodburn",
    "hours": "Mon-Fri 9AM-6PM",
    "services": [
      "Asian-owned Head shaving in Oregon consultation",
      "Professional service",
      "Quality guarantee"
    ],
    "social_links": {}
  },
  {
    "name": "Cloak & Dagger Barber Co.",
    "address": "1425 NE Alberta St, Portland, OR 97211",
    "phone": "(503) 206-7118",
    "rating": 4.8,
    "reviews": 25,
    "website": "https://www.cloakanddaggerpdx.com/",
    "category": "Asian-owned Head shaving in Oregon",
    "description": "Voted Best Barbershop in Portland, offering traditional and modern haircuts, straight razor shaves, and beard trims",
    "hours": "Mon-Fri 9AM-6PM",
    "services": [
      "Asian-owned Head shaving in Oregon consultation",
      "Professional service",
      "Quality guarantee"
    ],
    "social_links": {}
  },
  {
    "name": "Beck's Barber Shop",
    "address": "1710 SW 10th Ave, Portland, OR 97201",
    "phone": "(971) 302-7678",
    "rating": 4.9,
    "reviews": 25,
    "website": "https://www.becksbarbershop.com/",
    "category": "Asian-owned Head shaving in Oregon",
    "description": "An old-school barbershop offering haircuts, beard treatments, and shaves. They are cash only",
    "hours": "Mon-Fri 9AM-6PM",
    "services": [
      "Asian-owned Head shaving in Oregon consultation",
      "Professional service",
      "Quality guarantee"
    ],
    "social_links": {}
  },
  {
    "name": "Jini Hair Salon",
    "address": "Beaverton, Oregon (specific address not provided in search results)",
    "phone": "",
    "rating": 4.0,
    "reviews": 25,
    "website": "https://jinahairsalon.com/",
    "category": "Asian-owned Head shaving in Oregon",
    "description": "This salon specializes in cutting-edge styles for Asian hair. While head shaving isn't explicitly mentioned, they cater to Asian hair types and may offer the service",
    "hours": "Mon-Fri 9AM-6PM",
    "services": [
      "Asian-owned Head shaving in Oregon consultation",
      "Professional service",
      "Quality guarantee"
    ],
    "social_links": {}
  }
]