[
  {
    "name": "BoxCrush Web Design",
    "address": "8440 Woodfield Crossing Blvd #150, Indianapolis, IN 46240",
    "phone": "(317) 816-9353",
    "rating": 4.0,
    "reviews": 25,
    "website": "https://www.boxcrush.com/",
    "category": "Asian-owned Blog writing in Indiana",
    "description": "Offers blog writing services with a focus on original ideas and engaging content, helping businesses develop a brand voice and style",
    "hours": "Mon-Fri 9AM-6PM",
    "services": [
      "Asian-owned Blog writing in Indiana consultation",
      "Professional service",
      "Quality guarantee"
    ],
    "social_links": {}
  },
  {
    "name": "Elysian Digital Services",
    "address": "Not explicitly available in search results, but operates in the digital services space",
    "phone": "",
    "rating": 4.0,
    "reviews": 25,
    "website": "https://elysiandigitalservices.com/",
    "category": "Asian-owned Blog writing in Indiana",
    "description": "Specializes in writing blog posts designed to drive traffic, improve search engine rankings, and increase engagement. They offer topic research, SEO optimization, and content calendar management",
    "hours": "Mon-Fri 9AM-6PM",
    "services": [
      "Asian-owned Blog writing in Indiana consultation",
      "Professional service",
      "Quality guarantee"
    ],
    "social_links": {}
  },
  {
    "name": "Ayokay",
    "address": "5151 E 65th St, Indianapolis, IN 46220",
    "phone": "(317) 288-5474",
    "rating": 4.0,
    "reviews": 25,
    "website": "https://ayokay.com/",
    "category": "Asian-owned Blog writing in Indiana",
    "description": "A full-service digital agency that provides content strategy and website design, helping businesses grow their online audience",
    "hours": "Mon-Fri 9AM-6PM",
    "services": [
      "Asian-owned Blog writing in Indiana consultation",
      "Professional service",
      "Quality guarantee"
    ],
    "social_links": {}
  },
  {
    "name": "Attention Digital",
    "address": "10401 N. Meridian St., Suite 300, Indianapolis, IN 46290",
    "phone": "(317) 207-7070",
    "rating": 4.0,
    "reviews": 25,
    "website": "https://attentiondigital.com/",
    "category": "Asian-owned Blog writing in Indiana",
    "description": "An Indianapolis-based digital marketing agency helping small businesses and startups improve their online presence with custom-tailored marketing solutions, including content creation",
    "hours": "Mon-Fri 9AM-6PM",
    "services": [
      "Asian-owned Blog writing in Indiana consultation",
      "Professional service",
      "Quality guarantee"
    ],
    "social_links": {}
  },
  {
    "name": "Market*TING",
    "address": "402 W. 9th Street, Indianapolis, IN 46202",
    "phone": "(317) 454-7747",
    "rating": 4.0,
    "reviews": 25,
    "website": "https://market-ting.com/",
    "category": "Asian-owned Blog writing in Indiana",
    "description": "An Indianapolis-based digital marketing agency providing branding, creative, and digital marketing services, including content strategy",
    "hours": "Mon-Fri 9AM-6PM",
    "services": [
      "Asian-owned Blog writing in Indiana consultation",
      "Professional service",
      "Quality guarantee"
    ],
    "social_links": {}
  },
  {
    "name": "TrendyMinds",
    "address": "10401 N. Meridian St., Suite 300, Indianapolis, IN 46290",
    "phone": "(317) 926-1727",
    "rating": 4.0,
    "reviews": 25,
    "website": "https://trendyminds.com/",
    "category": "Asian-owned Blog writing in Indiana",
    "description": "An audience-focused marketing agency that provides creative solutions across film, marketing, and web services, including content marketing",
    "hours": "Mon-Fri 9AM-6PM",
    "services": [
      "Asian-owned Blog writing in Indiana consultation",
      "Professional service",
      "Quality guarantee"
    ],
    "social_links": {}
  },
  {
    "name": "adCREASIANs",
    "address": "Not explicitly available in search results, but operates as an advertising and marketing agency",
    "phone": "",
    "rating": 4.0,
    "reviews": 25,
    "website": "https://www.adcreasians.com/",
    "category": "Asian-owned Blog writing in Indiana",
    "description": "An agency founded by Asian American professionals, focusing on creative advertising and marketing targeted towards the Asian American market. They offer comprehensive marketing solutions",
    "hours": "Mon-Fri 9AM-6PM",
    "services": [
      "Asian-owned Blog writing in Indiana consultation",
      "Professional service",
      "Quality guarantee"
    ],
    "social_links": {}
  },
  {
    "name": "Rare Bird",
    "address": "10401 N. Meridian St., Suite 300, Indianapolis, IN 46290",
    "phone": "(317) 288-5474",
    "rating": 4.0,
    "reviews": 25,
    "website": "https://rarebird.com/",
    "category": "Asian-owned Blog writing in Indiana",
    "description": "Specializes in internet marketing, website design, e-commerce development, and strategic marketing, which can include content creation and blog writing",
    "hours": "Mon-Fri 9AM-6PM",
    "services": [
      "Asian-owned Blog writing in Indiana consultation",
      "Professional service",
      "Quality guarantee"
    ],
    "social_links": {}
  },
  {
    "name": "The HOTH",
    "address": "Not explicitly available in search results, but offers online services",
    "phone": "1-800-201-1448",
    "rating": 4.0,
    "reviews": 25,
    "website": "https://www.thehoth.com/",
    "category": "Asian-owned Blog writing in Indiana",
    "description": "Offers a managed blog writing service (HOTH Blogger) that delivers SEO-optimized content designed to rank in Google and appear in AI-generated answers",
    "hours": "Mon-Fri 9AM-6PM",
    "services": [
      "Asian-owned Blog writing in Indiana consultation",
      "Professional service",
      "Quality guarantee"
    ],
    "social_links": {}
  },
  {
    "name": "Proof Digital",
    "address": "530 E. Ohio St., Suite 100, Indianapolis, IN 46204",
    "phone": "(317) 663-3300",
    "rating": 4.8,
    "reviews": 25,
    "website": "https://proof.digital/",
    "category": "Asian-owned Blog writing in Indiana",
    "description": "A premier digital marketing agency specializing in website and brand development, lead generation, and e-commerce marketing services. They offer content creation as part of their services",
    "hours": "Mon-Fri 9AM-6PM",
    "services": [
      "Asian-owned Blog writing in Indiana consultation",
      "Professional service",
      "Quality guarantee"
    ],
    "social_links": {}
  }
]