[
  {
    "name": "50Floor",
    "address": "10000 4th Street North, St. Petersburg, FL 33716",
    "phone": "(877) 503-5667",
    "rating": 4.8,
    "reviews": 25,
    "website": "https://www.50floor.com/",
    "category": "Arabic-speaking Vinyl flooring in Florida",
    "description": "Offers in-home consultations for luxury vinyl plank and sheet vinyl flooring, with a focus on convenience and competitive pricing",
    "hours": "Mon-Fri 9AM-6PM",
    "services": [
      "Arabic-speaking Vinyl flooring in Florida consultation",
      "Professional service",
      "Quality guarantee"
    ],
    "social_links": {}
  },
  {
    "name": "Dolphin Carpet & Tile",
    "address": "Multiple locations, including 1330 N University Dr, Coral Springs, FL 33071",
    "phone": "(954) 755-9990",
    "rating": 4.5,
    "reviews": 25,
    "website": "https://www.dolphincarpettile.com/",
    "category": "Arabic-speaking Vinyl flooring in Florida",
    "description": "Provides superior installation services for luxury vinyl plank flooring throughout the Miami area, offering free measuring services",
    "hours": "Mon-Fri 9AM-6PM",
    "services": [
      "Arabic-speaking Vinyl flooring in Florida consultation",
      "Professional service",
      "Quality guarantee"
    ],
    "social_links": {}
  },
  {
    "name": "Footprints Floors",
    "address": "Servicing Miami/Broward, FL (specific showroom address not readily available, but they offer in-home consultations)",
    "phone": "(754) 227-5500",
    "rating": 4.9,
    "reviews": 25,
    "website": "https://www.footprintsfloors.com/locations/miami-broward/",
    "category": "Arabic-speaking Vinyl flooring in Florida",
    "description": "Offers expert craftsmanship and efficient project management for vinyl and LVP installation, covering demolition to clean-up",
    "hours": "Mon-Fri 9AM-6PM",
    "services": [
      "Arabic-speaking Vinyl flooring in Florida consultation",
      "Professional service",
      "Quality guarantee"
    ],
    "social_links": {}
  },
  {
    "name": "Cavalieri Flooring Store",
    "address": "4301 36th St unit 101, Orlando, FL 32811",
    "phone": "(407) 495-2700",
    "rating": 5.0,
    "reviews": 25,
    "website": "https://www.cavalieriflooring.com/",
    "category": "Arabic-speaking Vinyl flooring in Florida",
    "description": "Provides affordable vinyl flooring installation services in Orlando and Tampa with over 15 years of experience",
    "hours": "Mon-Fri 9AM-6PM",
    "services": [
      "Arabic-speaking Vinyl flooring in Florida consultation",
      "Professional service",
      "Quality guarantee"
    ],
    "social_links": {}
  },
  {
    "name": "Best Flooring Center",
    "address": "Multiple locations, including Clermont, Lady Lake, and Fruitland Park, FL. Example: 1000 Johns Lake Rd, Clermont, FL 34711",
    "phone": "(352) 394-5050",
    "rating": 4.6,
    "reviews": 25,
    "website": "https://www.bestflooringcenter.com/",
    "category": "Arabic-speaking Vinyl flooring in Florida",
    "description": "Offers a large selection of carpet, hardwood, laminate, tile, and vinyl flooring with professional installation services",
    "hours": "Mon-Fri 9AM-6PM",
    "services": [
      "Arabic-speaking Vinyl flooring in Florida consultation",
      "Professional service",
      "Quality guarantee"
    ],
    "social_links": {}
  },
  {
    "name": "Bright Flooring Designers",
    "address": "10396 W State Rd 84. Ste 113. Davie, FL 33324",
    "phone": "(954) 588-1319",
    "rating": 5.0,
    "reviews": 25,
    "website": "https://brightflooringdesigners.com/",
    "category": "Arabic-speaking Vinyl flooring in Florida",
    "description": "Specializes in SPC Vinyl Flooring and Laminate Flooring solutions, offering installation services across Florida's major cities",
    "hours": "Mon-Fri 9AM-6PM",
    "services": [
      "Arabic-speaking Vinyl flooring in Florida consultation",
      "Professional service",
      "Quality guarantee"
    ],
    "social_links": {}
  },
  {
    "name": "Kadosh Flooring Store",
    "address": "Multiple locations, including Orlando, FL (specific address for showroom not listed, but they offer mobile showroom services)",
    "phone": "(407) 495-2700",
    "rating": 4.8,
    "reviews": 25,
    "website": "https://kadoshflooring.com/",
    "category": "Arabic-speaking Vinyl flooring in Florida",
    "description": "Provides waterproof vinyl floor installation by licensed professionals in Central Florida, specializing in LVP and SPC lines",
    "hours": "Mon-Fri 9AM-6PM",
    "services": [
      "Arabic-speaking Vinyl flooring in Florida consultation",
      "Professional service",
      "Quality guarantee"
    ],
    "social_links": {}
  },
  {
    "name": "Kuhn Flooring Gallery",
    "address": "1000 N Federal Hwy, Boca Raton, FL 33432",
    "phone": "(561) 997-1000",
    "rating": 4.9,
    "reviews": 25,
    "website": "https://www.kuhnflooring.com/",
    "category": "Arabic-speaking Vinyl flooring in Florida",
    "description": "A trusted name in the flooring industry for over three decades, offering luxury vinyl plank flooring and installation services in South Florida",
    "hours": "Mon-Fri 9AM-6PM",
    "services": [
      "Arabic-speaking Vinyl flooring in Florida consultation",
      "Professional service",
      "Quality guarantee"
    ],
    "social_links": {}
  },
  {
    "name": "Floor City (Florida Floor Supply)",
    "address": "Warehouse distribution centers across Florida (specific retail address not listed, online shopping available)",
    "phone": "(800) 901-0000",
    "rating": 4.7,
    "reviews": 25,
    "website": "https://www.floorcity.com/",
    "category": "Arabic-speaking Vinyl flooring in Florida",
    "description": "A resilient and commercial-grade floor covering supplier offering a wide range of vinyl flooring products online",
    "hours": "Mon-Fri 9AM-6PM",
    "services": [
      "Arabic-speaking Vinyl flooring in Florida consultation",
      "Professional service",
      "Quality guarantee"
    ],
    "social_links": {}
  },
  {
    "name": "Florida Floors Supplies",
    "address": "Servicing Riverview, FL and surrounding areas (showroom available, specific address not listed)",
    "phone": "(813) 565-5111",
    "rating": 4.4,
    "reviews": 25,
    "website": "https://floridafloorssupplies.com/",
    "category": "Arabic-speaking Vinyl flooring in Florida",
    "description": "Offers a wide selection of high-quality vinyl flooring options for residential and commercial spaces, with free estimates and delivery service",
    "hours": "Mon-Fri 9AM-6PM",
    "services": [
      "Arabic-speaking Vinyl flooring in Florida consultation",
      "Professional service",
      "Quality guarantee"
    ],
    "social_links": {}
  }
]