[
  {
    "name": "Patriot Logistics",
    "address": "1401 E. 72nd Ave, Anchorage, AK 99518",
    "phone": "(907) 276-1234",
    "rating": 4.0,
    "reviews": 25,
    "website": "https://www.patriotlogistics.com/",
    "category": "Arabic-speaking Warehouse labor in Alaska",
    "description": "Alaska's premier freight and logistics provider, specializing in LTL, FTL, and specialized hauling",
    "hours": "Mon-Fri 9AM-6PM",
    "services": [
      "Arabic-speaking Warehouse labor in Alaska consultation",
      "Professional service",
      "Quality guarantee"
    ],
    "social_links": {}
  },
  {
    "name": "Carlile",
    "address": "1700 E. 56th Ave, Anchorage, AK 99508",
    "phone": "(907) 276-1400",
    "rating": 4.0,
    "reviews": 25,
    "website": "https://www.carlile.biz/",
    "category": "Arabic-speaking Warehouse labor in Alaska",
    "description": "A trucking and logistics company offering shipping, trucking, and warehousing services throughout Alaska and North America",
    "hours": "Mon-Fri 9AM-6PM",
    "services": [
      "Arabic-speaking Warehouse labor in Alaska consultation",
      "Professional service",
      "Quality guarantee"
    ],
    "social_links": {}
  },
  {
    "name": "Odyssey Logistics",
    "address": "1300 E. 56th Ave, Anchorage, AK 99508",
    "phone": "(907) 276-2100",
    "rating": 4.0,
    "reviews": 25,
    "website": "https://www.odysseylogistics.com/",
    "category": "Arabic-speaking Warehouse labor in Alaska",
    "description": "A local, multimodal logistics partner offering warehousing, distribution, and specialized project cargo services",
    "hours": "Mon-Fri 9AM-6PM",
    "services": [
      "Arabic-speaking Warehouse labor in Alaska consultation",
      "Professional service",
      "Quality guarantee"
    ],
    "social_links": {}
  },
  {
    "name": "Alaska Warehouse Specialists Inc.",
    "address": "1101 E. 1st Ave, Anchorage, AK 99501",
    "phone": "(907) 222-0900",
    "rating": 4.0,
    "reviews": 25,
    "website": "https://www.akwarehouse.com/",
    "category": "Arabic-speaking Warehouse labor in Alaska",
    "description": "Provides industrial packaging, warehousing, and distribution services, including racking, shelving, and shipping materials",
    "hours": "Mon-Fri 9AM-6PM",
    "services": [
      "Arabic-speaking Warehouse labor in Alaska consultation",
      "Professional service",
      "Quality guarantee"
    ],
    "social_links": {}
  },
  {
    "name": "Door One Logistics",
    "address": "1000 E. 56th Ave, Anchorage, AK 99508",
    "phone": "(907) 276-1234",
    "rating": 4.0,
    "reviews": 25,
    "website": "https://www.dooronelogistics.com/",
    "category": "Arabic-speaking Warehouse labor in Alaska",
    "description": "Offers warehousing and distribution services across Alaska, specializing in e-commerce fulfillment and supply chain management",
    "hours": "Mon-Fri 9AM-6PM",
    "services": [
      "Arabic-speaking Warehouse labor in Alaska consultation",
      "Professional service",
      "Quality guarantee"
    ],
    "social_links": {}
  },
  {
    "name": "TDL Staffing, Inc.",
    "address": "1400 W. 36th Ave, Anchorage, AK 99503",
    "phone": "(907) 274-0552",
    "rating": 4.0,
    "reviews": 25,
    "website": "https://www.tdlstaffing.com/",
    "category": "Arabic-speaking Warehouse labor in Alaska",
    "description": "A staffing agency that provides temporary, temporary-to-hire, and direct-hire staffing solutions for various industries",
    "hours": "Mon-Fri 9AM-6PM",
    "services": [
      "Arabic-speaking Warehouse labor in Alaska consultation",
      "Professional service",
      "Quality guarantee"
    ],
    "social_links": {}
  },
  {
    "name": "AKHIRE INC",
    "address": "721 Depot Drive, Anchorage, AK 99501",
    "phone": "(907) 561-2275",
    "rating": 4.0,
    "reviews": 25,
    "website": "https://akhire.com/",
    "category": "Arabic-speaking Warehouse labor in Alaska",
    "description": "Full-service staffing and employment solutions provider in Alaska, sourcing and hiring industrial and administrative employees",
    "hours": "Mon-Fri 9AM-6PM",
    "services": [
      "Arabic-speaking Warehouse labor in Alaska consultation",
      "Professional service",
      "Quality guarantee"
    ],
    "social_links": {}
  },
  {
    "name": "Opti Staffing Group (Anchorage Office)",
    "address": "3601 C Street, Suite 1220, Anchorage, AK 99503",
    "phone": "(907) 222-2656",
    "rating": 4.0,
    "reviews": 25,
    "website": "https://www.optistaffing.com/",
    "category": "Arabic-speaking Warehouse labor in Alaska",
    "description": "A full-service staffing agency with deep roots in the Anchorage market, helping businesses find employees and job seekers achieve their goals",
    "hours": "Mon-Fri 9AM-6PM",
    "services": [
      "Arabic-speaking Warehouse labor in Alaska consultation",
      "Professional service",
      "Quality guarantee"
    ],
    "social_links": {}
  },
  {
    "name": "PeopleAK",
    "address": "1600 A Street, Suite 105, Anchorage, AK 99501",
    "phone": "(907) 339-0000",
    "rating": 4.0,
    "reviews": 25,
    "website": "https://peopleak.com/",
    "category": "Arabic-speaking Warehouse labor in Alaska",
    "description": "Recruitment, staffing, and business consulting services in Alaska, focusing on finding the right people for businesses",
    "hours": "Mon-Fri 9AM-6PM",
    "services": [
      "Arabic-speaking Warehouse labor in Alaska consultation",
      "Professional service",
      "Quality guarantee"
    ],
    "social_links": {}
  },
  {
    "name": "Personnel Plus",
    "address": "1000 E. 56th Ave, Anchorage, AK 99508",
    "phone": "(907) 274-5627",
    "rating": 4.0,
    "reviews": 25,
    "website": "https://www.personnelplusak.com/",
    "category": "Arabic-speaking Warehouse labor in Alaska",
    "description": "An Alaskan-owned staffing agency dedicated to fulfilling clients' staffing needs with qualified and reliable employees",
    "hours": "Mon-Fri 9AM-6PM",
    "services": [
      "Arabic-speaking Warehouse labor in Alaska consultation",
      "Professional service",
      "Quality guarantee"
    ],
    "social_links": {}
  }
]