[
  {
    "name": "I-Mart Indian Grocery Store",
    "address": "430 Rubber Ave, Naugatuck, Connecticut 06770",
    "phone": "(203) 723-2007",
    "rating": 4.0,
    "reviews": 25,
    "website": "https://www.google.com/maps/search/I-Mart+Indian+Grocery+Store+in+Connecticut",
    "category": "Bengali-speaking Specialty diet services in Connecticut",
    "description": "An Indian grocery store offering a variety of Indian products",
    "hours": "Mon-Fri 9AM-6PM",
    "services": [
      "Bengali-speaking Specialty diet services in Connecticut consultation",
      "Professional service",
      "Quality guarantee"
    ],
    "social_links": {}
  },
  {
    "name": "India Mart",
    "address": "1919 North Broad Street, Meriden, Connecticut 06450",
    "phone": "(203) 634-4997",
    "rating": 4.0,
    "reviews": 25,
    "website": "https://www.google.com/maps/search/India+Mart+in+Connecticut",
    "category": "Bengali-speaking Specialty diet services in Connecticut",
    "description": "An Indian grocery store",
    "hours": "Mon-Fri 9AM-6PM",
    "services": [
      "Bengali-speaking Specialty diet services in Connecticut consultation",
      "Professional service",
      "Quality guarantee"
    ],
    "social_links": {}
  },
  {
    "name": "Imports of India",
    "address": "220 Albany Turnpike, Canton, Connecticut 06019",
    "phone": "(860) 693-4387",
    "rating": 4.0,
    "reviews": 25,
    "website": "https://www.google.com/maps/search/Imports+of+India+in+Connecticut",
    "category": "Bengali-speaking Specialty diet services in Connecticut",
    "description": "An Indian grocery store",
    "hours": "Mon-Fri 9AM-6PM",
    "services": [
      "Bengali-speaking Specialty diet services in Connecticut consultation",
      "Professional service",
      "Quality guarantee"
    ],
    "social_links": {}
  },
  {
    "name": "Hamden Variety-Indo Pak Grocer",
    "address": "1555 Dixwell Ave, Hamden, Connecticut 06514",
    "phone": "(203) 288-4454",
    "rating": 4.0,
    "reviews": 25,
    "website": "https://www.google.com/maps/search/Hamden+Variety-Indo+Pak+Grocer+in+Connecticut",
    "category": "Bengali-speaking Specialty diet services in Connecticut",
    "description": "An Indian and Pakistani grocery store",
    "hours": "Mon-Fri 9AM-6PM",
    "services": [
      "Bengali-speaking Specialty diet services in Connecticut consultation",
      "Professional service",
      "Quality guarantee"
    ],
    "social_links": {}
  },
  {
    "name": "Asia Grocers",
    "address": "230 West Hill Road, Newington, Connecticut",
    "phone": "(860) 570-1112",
    "rating": 4.0,
    "reviews": 25,
    "website": "https://www.google.com/maps/search/Asia+Grocers+in+Connecticut",
    "category": "Bengali-speaking Specialty diet services in Connecticut",
    "description": "An Asian grocery store",
    "hours": "Mon-Fri 9AM-6PM",
    "services": [
      "Bengali-speaking Specialty diet services in Connecticut consultation",
      "Professional service",
      "Quality guarantee"
    ],
    "social_links": {}
  },
  {
    "name": "Cosmos International",
    "address": "770 Farmington Avenue, West Hartford, Connecticut 06119",
    "phone": "(860) 232-6600",
    "rating": 4.0,
    "reviews": 25,
    "website": "https://www.google.com/maps/search/Cosmos+International+in+Connecticut",
    "category": "Bengali-speaking Specialty diet services in Connecticut",
    "description": "An international grocery store",
    "hours": "Mon-Fri 9AM-6PM",
    "services": [
      "Bengali-speaking Specialty diet services in Connecticut consultation",
      "Professional service",
      "Quality guarantee"
    ],
    "social_links": {}
  },
  {
    "name": "Indian Grocery",
    "address": "417 Middletown Ave, New Haven, Connecticut 06513",
    "phone": "(203) 773-3157",
    "rating": 4.0,
    "reviews": 25,
    "website": "https://www.google.com/maps/search/Indian+Grocery+in+Connecticut",
    "category": "Bengali-speaking Specialty diet services in Connecticut",
    "description": "An Indian grocery store",
    "hours": "Mon-Fri 9AM-6PM",
    "services": [
      "Bengali-speaking Specialty diet services in Connecticut consultation",
      "Professional service",
      "Quality guarantee"
    ],
    "social_links": {}
  },
  {
    "name": "BHARAT BAZAAR",
    "address": "85 Boston Post Road, Orange, Connecticut 06477",
    "phone": "(203) 298-4050",
    "rating": 4.0,
    "reviews": 25,
    "website": "https://www.google.com/maps/search/BHARAT+BAZAAR+in+Connecticut",
    "category": "Bengali-speaking Specialty diet services in Connecticut",
    "description": "An Indian grocery store",
    "hours": "Mon-Fri 9AM-6PM",
    "services": [
      "Bengali-speaking Specialty diet services in Connecticut consultation",
      "Professional service",
      "Quality guarantee"
    ],
    "social_links": {}
  },
  {
    "name": "Bombay Sweets & Spices",
    "address": "5 Padanaram Rd, Danbury, Connecticut 06811",
    "phone": "(203) 791-2944",
    "rating": 4.0,
    "reviews": 25,
    "website": "https://www.google.com/maps/search/Bombay+Sweets+&+Spices+in+Connecticut",
    "category": "Bengali-speaking Specialty diet services in Connecticut",
    "description": "A store selling Indian sweets and spices",
    "hours": "Mon-Fri 9AM-6PM",
    "services": [
      "Bengali-speaking Specialty diet services in Connecticut consultation",
      "Professional service",
      "Quality guarantee"
    ],
    "social_links": {}
  },
  {
    "name": "Indian Food & Spice",
    "address": "39 Padanaram Rd, Danbury, Connecticut 06811",
    "phone": "(203) 730-0076",
    "rating": 4.0,
    "reviews": 25,
    "website": "https://www.google.com/maps/search/Indian+Food+&+Spice+in+Connecticut",
    "category": "Bengali-speaking Specialty diet services in Connecticut",
    "description": "An Indian grocery store offering prepared foods, spices, snacks, and sweets",
    "hours": "Mon-Fri 9AM-6PM",
    "services": [
      "Bengali-speaking Specialty diet services in Connecticut consultation",
      "Professional service",
      "Quality guarantee"
    ],
    "social_links": {}
  }
]