[
  {
    "name": "Market Wines Walnut Hills",
    "address": "767 East McMillan St, Suite 1, Cincinnati, OH 45206",
    "phone": "(513) 221-0287",
    "rating": 4.0,
    "reviews": 25,
    "website": "mailto:marketwineswalnuthills@gmail.com",
    "category": "Black-owned Wine bars in Ohio",
    "description": "A Black-owned alcoholic drink shop and gathering spot offering over 700 wines and specialty beers",
    "hours": "Mon-Fri 9AM-6PM",
    "services": [
      "Black-owned Wine bars in Ohio consultation",
      "Professional service",
      "Quality guarantee"
    ],
    "social_links": {}
  },
  {
    "name": "Nostalgia Wine & Jazz Lounge",
    "address": "Located in the heart of Over-the-Rhine (OTR), Cincinnati. (Specific address not readily available in search results.)",
    "phone": "",
    "rating": 4.0,
    "reviews": 25,
    "website": "https://www.google.com/maps/search/Nostalgia+Wine+&+Jazz+Lounge+in+Ohio",
    "category": "Black-owned Wine bars in Ohio",
    "description": "A Black-owned intimate lounge offering 40 wines by the glass and/or bottle, with a focus on minority and women winemakers",
    "hours": "Mon-Fri 9AM-6PM",
    "services": [
      "Black-owned Wine bars in Ohio consultation",
      "Professional service",
      "Quality guarantee"
    ],
    "social_links": {}
  },
  {
    "name": "Something to Wine About",
    "address": "136 W Fourth Street, Cincinnati, OH 45202",
    "phone": "(513) 417-8778",
    "rating": 4.0,
    "reviews": 25,
    "website": "mailto:info@somethingtowineabout.com",
    "category": "Black-owned Wine bars in Ohio",
    "description": "Cincinnati's premier self-service wine bar, founded by Orlando \"Lando\" Chapman, offering a dedicated section highlighting Black and minority-owned winemakers",
    "hours": "Mon-Fri 9AM-6PM",
    "services": [
      "Black-owned Wine bars in Ohio consultation",
      "Professional service",
      "Quality guarantee"
    ],
    "social_links": {}
  },
  {
    "name": "The Wine Spot",
    "address": "2271 Lee Rd, Cleveland Heights, OH 44118",
    "phone": "216.342.3623",
    "rating": 4.0,
    "reviews": 25,
    "website": "http://www.thewinespotonline.com",
    "category": "Black-owned Wine bars in Ohio",
    "description": "A wine and beer retailer featuring small boutique wines from around the world, with a focus on organic, sustainable, and natural wines",
    "hours": "Mon-Fri 9AM-6PM",
    "services": [
      "Black-owned Wine bars in Ohio consultation",
      "Professional service",
      "Quality guarantee"
    ],
    "social_links": {}
  },
  {
    "name": "The Daily Growler",
    "address": "702 S High St, Columbus, OH 43206",
    "phone": "(614) 706-2749",
    "rating": 4.0,
    "reviews": 25,
    "website": "http://www.thedailygrowler.com/",
    "category": "Black-owned Wine bars in Ohio",
    "description": "A bar and growler fillery with a large selection of craft beers on tap, praised for its welcoming atmosphere and dog-friendly policy",
    "hours": "Mon-Fri 9AM-6PM",
    "services": [
      "Black-owned Wine bars in Ohio consultation",
      "Professional service",
      "Quality guarantee"
    ],
    "social_links": {}
  },
  {
    "name": "The Wine Room",
    "address": "35840 Chester Rd I, Avon, OH 44011",
    "phone": "(440) 937-6544",
    "rating": 4.0,
    "reviews": 25,
    "website": "http://avonswineroom.com/",
    "category": "Black-owned Wine bars in Ohio",
    "description": "A local gathering spot with a welcoming atmosphere, offering a great selection of wines, craft beers, and cocktails, and known for personalized service",
    "hours": "Mon-Fri 9AM-6PM",
    "services": [
      "Black-owned Wine bars in Ohio consultation",
      "Professional service",
      "Quality guarantee"
    ],
    "social_links": {}
  },
  {
    "name": "Toledo's Share Wine",
    "address": "23 North Huron Street Studio A, Toledo, OH 43604",
    "phone": "",
    "rating": 4.0,
    "reviews": 25,
    "website": "https://www.google.com/maps/search/Toledo's+Share+Wine+in+Ohio",
    "category": "Black-owned Wine bars in Ohio",
    "description": "A wine manufacturing facility and speakeasy-inspired wine bar aiming to bring wine manufacturing back to downtown Toledo",
    "hours": "Mon-Fri 9AM-6PM",
    "services": [
      "Black-owned Wine bars in Ohio consultation",
      "Professional service",
      "Quality guarantee"
    ],
    "social_links": {}
  },
  {
    "name": "The Cellar Wine Bistro",
    "address": "1001 Main Street, Lafayette, IN (Note: This is in Indiana, not Ohio, but was found in the search.)",
    "phone": "",
    "rating": 4.0,
    "reviews": 25,
    "website": "https://www.google.com/maps/search/The+Cellar+Wine+Bistro+in+Ohio",
    "category": "Black-owned Wine bars in Ohio",
    "description": "A wine bar with a passion for wines and food, offering a variety of red, white, and sparkling wines in a historic downtown setting",
    "hours": "Mon-Fri 9AM-6PM",
    "services": [
      "Black-owned Wine bars in Ohio consultation",
      "Professional service",
      "Quality guarantee"
    ],
    "social_links": {}
  },
  {
    "name": "BottleHouse Brewery",
    "address": "Multiple locations including Cleveland Heights and Lakewood. (Specific addresses for wine bars are not detailed in search results.)",
    "phone": "(216) 401-9473 (for Lakewood location)",
    "rating": 4.0,
    "reviews": 25,
    "website": "https://www.bottlehouse.net/",
    "category": "Black-owned Wine bars in Ohio",
    "description": "A brewery, meadery, and cidery focusing on barrel-aged sours, real cider, and artisanal mead, with cans and bottles available to-go",
    "hours": "Mon-Fri 9AM-6PM",
    "services": [
      "Black-owned Wine bars in Ohio consultation",
      "Professional service",
      "Quality guarantee"
    ],
    "social_links": {}
  },
  {
    "name": "CLE URBAN WINERY",
    "address": "Not readily available in search results",
    "phone": "",
    "rating": 4.0,
    "reviews": 25,
    "website": "https://www.google.com/maps/search/CLE+URBAN+WINERY+in+Ohio",
    "category": "Black-owned Wine bars in Ohio",
    "description": "A wine bar producing high-quality, approachable, and affordable hand-crafted wines in a casual, hip, and fun environment",
    "hours": "Mon-Fri 9AM-6PM",
    "services": [
      "Black-owned Wine bars in Ohio consultation",
      "Professional service",
      "Quality guarantee"
    ],
    "social_links": {}
  }
]