[
  {
    "name": "Hickman Family Dental",
    "address": "1403 98th St, Urbandale, IA 50322",
    "phone": "(515) 276-4981",
    "rating": 4.0,
    "reviews": 25,
    "website": "https://hickmanfamilydental.com/",
    "category": "Gen-Z-owned Emergency dental care in Iowa",
    "description": "Offers same-day emergency dental care for patients in Urbandale and the Des Moines area",
    "hours": "Mon-Fri 9AM-6PM",
    "services": [
      "Gen-Z-owned Emergency dental care in Iowa consultation",
      "Professional service",
      "Quality guarantee"
    ],
    "social_links": {}
  },
  {
    "name": "James Dental",
    "address": "4539 Douglas Ave, Des Moines, IA 50310",
    "phone": "(515) 850-5131",
    "rating": 4.0,
    "reviews": 25,
    "website": "https://www.jamesdentaldesmoines.com/",
    "category": "Gen-Z-owned Emergency dental care in Iowa",
    "description": "Provides emergency dental appointments, including after-hours availability, for urgent dental issues in Des Moines",
    "hours": "Mon-Fri 9AM-6PM",
    "services": [
      "Gen-Z-owned Emergency dental care in Iowa consultation",
      "Professional service",
      "Quality guarantee"
    ],
    "social_links": {}
  },
  {
    "name": "Hill Avenue Dental",
    "address": "101 Hill Ave, Spirit Lake, IA 51360",
    "phone": "(712) 336-4895",
    "rating": 4.0,
    "reviews": 25,
    "website": "https://www.hillavenuedental.com/",
    "category": "Gen-Z-owned Emergency dental care in Iowa",
    "description": "Offers emergency dentistry services in Spirit Lake for various dental emergencies",
    "hours": "Mon-Fri 9AM-6PM",
    "services": [
      "Gen-Z-owned Emergency dental care in Iowa consultation",
      "Professional service",
      "Quality guarantee"
    ],
    "social_links": {}
  },
  {
    "name": "River Ridge Dental",
    "address": "4090 21st Ave SW, Cedar Rapids, IA 52404",
    "phone": "(319) 393-3550",
    "rating": 4.0,
    "reviews": 25,
    "website": "https://www.riverridgedentalcr.com/",
    "category": "Gen-Z-owned Emergency dental care in Iowa",
    "description": "Provides emergency and same-day appointments for dental injuries or sudden tooth/mouth pain in Cedar Rapids",
    "hours": "Mon-Fri 9AM-6PM",
    "services": [
      "Gen-Z-owned Emergency dental care in Iowa consultation",
      "Professional service",
      "Quality guarantee"
    ],
    "social_links": {}
  },
  {
    "name": "Emergency Dental Care USA",
    "address": "10070 Hickman Rd, Des Moines, IA 50322",
    "phone": "(515) 421-9000",
    "rating": 4.0,
    "reviews": 25,
    "website": "https://www.emergencydentalcareusa.com/des-moines/",
    "category": "Gen-Z-owned Emergency dental care in Iowa",
    "description": "Offers same-day emergency dental services and accepts walk-in patients in Des Moines, open seven days a week",
    "hours": "Mon-Fri 9AM-6PM",
    "services": [
      "Gen-Z-owned Emergency dental care in Iowa consultation",
      "Professional service",
      "Quality guarantee"
    ],
    "social_links": {}
  },
  {
    "name": "Jones Family Dentistry",
    "address": "300 Westbury Dr, Iowa City, IA 52245",
    "phone": "(319) 351-2442",
    "rating": 4.0,
    "reviews": 25,
    "website": "https://www.jonesfamilydentistryic.com/",
    "category": "Gen-Z-owned Emergency dental care in Iowa",
    "description": "Provides emergency dentistry services for various dental issues in Iowa City",
    "hours": "Mon-Fri 9AM-6PM",
    "services": [
      "Gen-Z-owned Emergency dental care in Iowa consultation",
      "Professional service",
      "Quality guarantee"
    ],
    "social_links": {}
  },
  {
    "name": "Endodontic Associates of Iowa",
    "address": "1530 S Monroe Ave, Mason City, IA 50401",
    "phone": "(641) 424-1656",
    "rating": 4.0,
    "reviews": 25,
    "website": "https://www.iowads.com/",
    "category": "Gen-Z-owned Emergency dental care in Iowa",
    "description": "Offers emergency root canal treatments and other endodontic services in Mason City",
    "hours": "Mon-Fri 9AM-6PM",
    "services": [
      "Gen-Z-owned Emergency dental care in Iowa consultation",
      "Professional service",
      "Quality guarantee"
    ],
    "social_links": {}
  },
  {
    "name": "Des Moines Emergency Dentist",
    "address": "4800 100th St, Urbandale, IA 50322",
    "phone": "(515) 766-9633",
    "rating": 4.0,
    "reviews": 25,
    "website": "https://desmoinesemergencydentist.com/",
    "category": "Gen-Z-owned Emergency dental care in Iowa",
    "description": "Provides immediate emergency dental care, including same-day appointments and sedation options, in Des Moines",
    "hours": "Mon-Fri 9AM-6PM",
    "services": [
      "Gen-Z-owned Emergency dental care in Iowa consultation",
      "Professional service",
      "Quality guarantee"
    ],
    "social_links": {}
  },
  {
    "name": "Kimball & Beecher Family Dentistry",
    "address": "6150 SE 14th St Ste B, Des Moines, IA 50320",
    "phone": "(515) 285-7070",
    "rating": 4.0,
    "reviews": 25,
    "website": "https://kimballbeecher.com/",
    "category": "Gen-Z-owned Emergency dental care in Iowa",
    "description": "Offers same-day emergency dental care in Des Moines and other locations across Iowa",
    "hours": "Mon-Fri 9AM-6PM",
    "services": [
      "Gen-Z-owned Emergency dental care in Iowa consultation",
      "Professional service",
      "Quality guarantee"
    ],
    "social_links": {}
  },
  {
    "name": "Iowa Dental Arts",
    "address": "5900 SE University Ave Suite 101, Pleasant Hill, IA 50327",
    "phone": "(515) 244-7615",
    "rating": 4.0,
    "reviews": 25,
    "website": "https://www.iowadentalarts.com/",
    "category": "Gen-Z-owned Emergency dental care in Iowa",
    "description": "Provides comprehensive dental care, including cosmetic and restorative services, and has positive patient reviews",
    "hours": "Mon-Fri 9AM-6PM",
    "services": [
      "Gen-Z-owned Emergency dental care in Iowa consultation",
      "Professional service",
      "Quality guarantee"
    ],
    "social_links": {}
  }
]