[
  {
    "name": "Ann Arbor Plastic Surgery",
    "address": "4200 Plymouth Rd, Ann Arbor, MI 48105",
    "phone": "(734) 470-9112",
    "rating": 4.7,
    "reviews": 25,
    "website": "https://www.annarborplasticsurgery.com/",
    "category": "Catholic-owned Dermal fillers in Michigan",
    "description": "Offers a range of dermal fillers for facial rejuvenation, including Restylane and Juvederm, with a focus on subtle and effective results",
    "hours": "Mon-Fri 9AM-6PM",
    "services": [
      "Catholic-owned Dermal fillers in Michigan consultation",
      "Professional service",
      "Quality guarantee"
    ],
    "social_links": {}
  },
  {
    "name": "The Aesthetic Co.",
    "address": "42000 Ford Rd, Canton, MI 48187",
    "phone": "(734) 222-9000",
    "rating": 4.0,
    "reviews": 25,
    "website": "https://www.theaestheticco.com/",
    "category": "Catholic-owned Dermal fillers in Michigan",
    "description": "Specializes in advanced aesthetic medicine with a focus on injectable treatments like dermal fillers, led by a certified aesthetic nurse injector under medical direction",
    "hours": "Mon-Fri 9AM-6PM",
    "services": [
      "Catholic-owned Dermal fillers in Michigan consultation",
      "Professional service",
      "Quality guarantee"
    ],
    "social_links": {}
  },
  {
    "name": "Elevate Aesthetics Medical Spa",
    "address": "100 W Michigan Ave, Jackson, MI 49201",
    "phone": "(517) 990-1411",
    "rating": 4.0,
    "reviews": 25,
    "website": "https://elevateaestheticsmi.com/",
    "category": "Catholic-owned Dermal fillers in Michigan",
    "description": "Offers a variety of medical spa treatments including Botox, dermal fillers, and Hydrafacial, aiming to help clients look and feel their best",
    "hours": "Mon-Fri 9AM-6PM",
    "services": [
      "Catholic-owned Dermal fillers in Michigan consultation",
      "Professional service",
      "Quality guarantee"
    ],
    "social_links": {}
  },
  {
    "name": "Aesthetics MedSpa",
    "address": "5307 W Saginaw St, Lansing, MI 48917",
    "phone": "(517) 327-7377",
    "rating": 4.0,
    "reviews": 25,
    "website": "https://www.aestheticsmedspalansing.com/",
    "category": "Catholic-owned Dermal fillers in Michigan",
    "description": "Provides dermal fillers to add volume to the face, with a focus on safe and effective procedures in a clinical setting",
    "hours": "Mon-Fri 9AM-6PM",
    "services": [
      "Catholic-owned Dermal fillers in Michigan consultation",
      "Professional service",
      "Quality guarantee"
    ],
    "social_links": {}
  },
  {
    "name": "Michigan Advanced Aesthetics",
    "address": "30100 Telegraph Rd, Suite 150, Bingham Farms, MI 48025",
    "phone": "(248) 593-0000",
    "rating": 4.0,
    "reviews": 25,
    "website": "https://www.michiganadvancedaesthetics.com/",
    "category": "Catholic-owned Dermal fillers in Michigan",
    "description": "Offers a wide range of anti-aging treatments, including facials, Botox, and fillers, with experienced clinicians and a professional, clean environment",
    "hours": "Mon-Fri 9AM-6PM",
    "services": [
      "Catholic-owned Dermal fillers in Michigan consultation",
      "Professional service",
      "Quality guarantee"
    ],
    "social_links": {}
  },
  {
    "name": "Dr. Steven L. Ringler, MD, FACS",
    "address": "1000 E Paris Ave SE, Grand Rapids, MI 49546",
    "phone": "(616) 575-5300",
    "rating": 5.0,
    "reviews": 25,
    "website": "https://www.ringlerplasticsurgery.com/",
    "category": "Catholic-owned Dermal fillers in Michigan",
    "description": "A board-certified plastic surgeon offering various cosmetic procedures, including dermal fillers, with a focus on achieving amazing results",
    "hours": "Mon-Fri 9AM-6PM",
    "services": [
      "Catholic-owned Dermal fillers in Michigan consultation",
      "Professional service",
      "Quality guarantee"
    ],
    "social_links": {}
  },
  {
    "name": "Dr. Ellen A. Janetzke, MD",
    "address": "30100 Telegraph Rd, Suite 150, Bingham Farms, MI 48025",
    "phone": "(248) 737-1000",
    "rating": 4.5,
    "reviews": 25,
    "website": "https://www.janetzkeplasticsurgery.com/",
    "category": "Catholic-owned Dermal fillers in Michigan",
    "description": "A board-certified plastic surgeon providing a comfortable and informative experience for cosmetic procedures, including those involving fillers",
    "hours": "Mon-Fri 9AM-6PM",
    "services": [
      "Catholic-owned Dermal fillers in Michigan consultation",
      "Professional service",
      "Quality guarantee"
    ],
    "social_links": {}
  },
  {
    "name": "Dr. Evan H. Black, MD",
    "address": "20000 W 12 Mile Rd, Suite 302, Southfield, MI 48076",
    "phone": "(248) 357-2000",
    "rating": 4.5,
    "reviews": 25,
    "website": "https://www.evanblackmd.com/",
    "category": "Catholic-owned Dermal fillers in Michigan",
    "description": "An oculoplastic surgeon who explains procedures thoroughly and provides expertise in cosmetic treatments",
    "hours": "Mon-Fri 9AM-6PM",
    "services": [
      "Catholic-owned Dermal fillers in Michigan consultation",
      "Professional service",
      "Quality guarantee"
    ],
    "social_links": {}
  },
  {
    "name": "Revive Medical Spa",
    "address": "23077 Greenfield Rd, Suite 100, Southfield, MI 48075",
    "phone": "(248) 305-8400",
    "rating": 4.0,
    "reviews": 25,
    "website": "https://revivemedicalspa.com/",
    "category": "Catholic-owned Dermal fillers in Michigan",
    "description": "Offers advanced aesthetic treatments and solutions, including microneedling and plasma rejuvenation, with a focus on quality and advanced technology",
    "hours": "Mon-Fri 9AM-6PM",
    "services": [
      "Catholic-owned Dermal fillers in Michigan consultation",
      "Professional service",
      "Quality guarantee"
    ],
    "social_links": {}
  },
  {
    "name": "Zuliani",
    "address": "32000 Northwestern Hwy, Suite 170, Farmington Hills, MI 48334",
    "phone": "(248) 322-3333",
    "rating": 4.0,
    "reviews": 25,
    "website": "https://www.zulianimd.com/",
    "category": "Catholic-owned Dermal fillers in Michigan",
    "description": "Offers cosmetic injectables like Botox and fillers, with a focus on providing excellent results and a positive patient experience",
    "hours": "Mon-Fri 9AM-6PM",
    "services": [
      "Catholic-owned Dermal fillers in Michigan consultation",
      "Professional service",
      "Quality guarantee"
    ],
    "social_links": {}
  }
]