[
  {
    "name": "Pest Management of Texas, Inc.",
    "address": "1000 E Arapaho Rd, Richardson, TX 75081",
    "phone": "(972) 495-2847",
    "rating": 4.0,
    "reviews": 25,
    "website": "https://www.pestmanagementoftexas.com/",
    "category": "Bengali-speaking Roach control in Texas",
    "description": "Offers professional roach control in Dallas, TX, and surrounding areas with a three-step process: inspection, customized treatment plan, and consultation",
    "hours": "Mon-Fri 9AM-6PM",
    "services": [
      "Bengali-speaking Roach control in Texas consultation",
      "Professional service",
      "Quality guarantee"
    ],
    "social_links": {}
  },
  {
    "name": "ABC Home & Commercial Services",
    "address": "1707 W Anderson Ln, Austin, TX 78757",
    "phone": "(512) 837-9500",
    "rating": 4.0,
    "reviews": 25,
    "website": "https://www.abchomeandcommercial.com/",
    "category": "Bengali-speaking Roach control in Texas",
    "description": "Provides effective cockroach extermination in Austin, TX, using a two-fold approach that includes halting the reproductive cycle and eliminating adult roaches",
    "hours": "Mon-Fri 9AM-6PM",
    "services": [
      "Bengali-speaking Roach control in Texas consultation",
      "Professional service",
      "Quality guarantee"
    ],
    "social_links": {}
  },
  {
    "name": "Bulwark Exterminating",
    "address": "1500 W. Sam Houston Pkwy N, Suite 100, Houston, TX 77043",
    "phone": "(713) 722-8717",
    "rating": 4.0,
    "reviews": 25,
    "website": "https://bulwarkpestcontrol.com/",
    "category": "Bengali-speaking Roach control in Texas",
    "description": "Specializes in pest and rodent control throughout the Houston area, offering effective treatments and a commitment to customer satisfaction",
    "hours": "Mon-Fri 9AM-6PM",
    "services": [
      "Bengali-speaking Roach control in Texas consultation",
      "Professional service",
      "Quality guarantee"
    ],
    "social_links": {}
  },
  {
    "name": "The Bug Master",
    "address": "1000 E 41st St, Austin, TX 78751",
    "phone": "(512) 345-0111",
    "rating": 4.0,
    "reviews": 25,
    "website": "https://www.thebugmaster.com/",
    "category": "Bengali-speaking Roach control in Texas",
    "description": "Offers roach removal and prevention services in the Austin area with 40 years of experience and licensed technicians",
    "hours": "Mon-Fri 9AM-6PM",
    "services": [
      "Bengali-speaking Roach control in Texas consultation",
      "Professional service",
      "Quality guarantee"
    ],
    "social_links": {}
  },
  {
    "name": "Stampede Pest Control",
    "address": "1302 N Shepherd Dr, Houston, TX 77008",
    "phone": "(713) 781-1151",
    "rating": 4.0,
    "reviews": 25,
    "website": "https://stampede\u0aa8\u0ac7pestcontrol.com/",
    "category": "Bengali-speaking Roach control in Texas",
    "description": "Provides expert roach extermination in Houston, TX, using specialized baits and sprays, and offering a guaranteed service",
    "hours": "Mon-Fri 9AM-6PM",
    "services": [
      "Bengali-speaking Roach control in Texas consultation",
      "Professional service",
      "Quality guarantee"
    ],
    "social_links": {}
  },
  {
    "name": "Alamo Termite & Pest Control",
    "address": "10627 Sentinel Dr, San Antonio, TX 78217",
    "phone": "(210) 494-5100",
    "rating": 4.0,
    "reviews": 25,
    "website": "https://alamotermiteandpestcontrol.com/",
    "category": "Bengali-speaking Roach control in Texas",
    "description": "Offers experienced cockroach exterminators with comprehensive inspections and customized treatment plans, including ongoing protection options",
    "hours": "Mon-Fri 9AM-6PM",
    "services": [
      "Bengali-speaking Roach control in Texas consultation",
      "Professional service",
      "Quality guarantee"
    ],
    "social_links": {}
  },
  {
    "name": "Massey Services",
    "address": "10000 W. Sam Houston Pkwy S, Suite 100, Houston, TX 77071",
    "phone": "(800) 270-0077",
    "rating": 4.0,
    "reviews": 25,
    "website": "https://www.masseyservices.com/",
    "category": "Bengali-speaking Roach control in Texas",
    "description": "Provides personalized pest control services with a proactive approach to prevent infestations and ensure long-term peace of mind",
    "hours": "Mon-Fri 9AM-6PM",
    "services": [
      "Bengali-speaking Roach control in Texas consultation",
      "Professional service",
      "Quality guarantee"
    ],
    "social_links": {}
  },
  {
    "name": "John Moore Services",
    "address": "1100 W. 22nd St, Houston, TX 77008",
    "phone": "(713) 462-8222",
    "rating": 4.0,
    "reviews": 25,
    "website": "https://www.johnmooreservices.com/",
    "category": "Bengali-speaking Roach control in Texas",
    "description": "Offers a variety of pest control services in the Greater Houston area, including termite treatments, bed bug treatments, and bee removal",
    "hours": "Mon-Fri 9AM-6PM",
    "services": [
      "Bengali-speaking Roach control in Texas consultation",
      "Professional service",
      "Quality guarantee"
    ],
    "social_links": {}
  },
  {
    "name": "A-Tex Pest Management",
    "address": "1000 E 41st St, Austin, TX 78751",
    "phone": "(512) 734-0057",
    "rating": 4.0,
    "reviews": 25,
    "website": "https://www.atexpest.com/",
    "category": "Bengali-speaking Roach control in Texas",
    "description": "Provides pest control services for residential and commercial properties in the Greater Austin, Texas area, with a commitment to high moral standards and work ethics",
    "hours": "Mon-Fri 9AM-6PM",
    "services": [
      "Bengali-speaking Roach control in Texas consultation",
      "Professional service",
      "Quality guarantee"
    ],
    "social_links": {}
  },
  {
    "name": "EnviroCon Pest Control",
    "address": "17003 Red Oak Dr, Houston, TX 77090",
    "phone": "(281) 356-5284",
    "rating": 4.0,
    "reviews": 25,
    "website": "https://www.enviroconpest.com/",
    "category": "Bengali-speaking Roach control in Texas",
    "description": "Offers effective roach control in Houston and surrounding areas with a money-back guarantee and family-friendly treatments",
    "hours": "Mon-Fri 9AM-6PM",
    "services": [
      "Bengali-speaking Roach control in Texas consultation",
      "Professional service",
      "Quality guarantee"
    ],
    "social_links": {}
  }
]