[
  {
    "name": "Hair Artists Inc.",
    "address": "2111 Polaris Parkway, Columbus, OH 43240",
    "phone": "(614) 436-1000",
    "rating": 4.0,
    "reviews": 25,
    "website": "https://www.google.com/maps/search/Hair+Artists+Inc.+in+Ohio",
    "category": "Baby-Boomer-owned Keratin treatments in Ohio",
    "description": "Offers Keratin Complex\u00ae treatments",
    "hours": "Mon-Fri 9AM-6PM",
    "services": [
      "Baby-Boomer-owned Keratin treatments in Ohio consultation",
      "Professional service",
      "Quality guarantee"
    ],
    "social_links": {}
  },
  {
    "name": "Kenneths Hair Salon & Day Spa (Columbus)",
    "address": "5151 Reed Rd #110A, Columbus, OH 43220",
    "phone": "(614) 451-3000",
    "rating": 4.0,
    "reviews": 25,
    "website": "https://www.google.com/maps/search/Kenneths+Hair+Salon+&+Day+Spa+(Columbus)+in+Ohio",
    "category": "Baby-Boomer-owned Keratin treatments in Ohio",
    "description": "Offers Keratin Complex\u00ae treatments",
    "hours": "Mon-Fri 9AM-6PM",
    "services": [
      "Baby-Boomer-owned Keratin treatments in Ohio consultation",
      "Professional service",
      "Quality guarantee"
    ],
    "social_links": {}
  },
  {
    "name": "The Blowdry Cafe (Columbus)",
    "address": "4740 Reed Rd #104, Columbus, OH 43220",
    "phone": "(614) 451-3000",
    "rating": 4.0,
    "reviews": 25,
    "website": "https://www.google.com/maps/search/The+Blowdry+Cafe+(Columbus)+in+Ohio",
    "category": "Baby-Boomer-owned Keratin treatments in Ohio",
    "description": "Offers Keratin Complex\u00ae treatments",
    "hours": "Mon-Fri 9AM-6PM",
    "services": [
      "Baby-Boomer-owned Keratin treatments in Ohio consultation",
      "Professional service",
      "Quality guarantee"
    ],
    "social_links": {}
  },
  {
    "name": "Susanne Farkas Salon",
    "address": "57 Orchard Ln, Columbus, OH 43214",
    "phone": "(614) 442-7000",
    "rating": 4.0,
    "reviews": 25,
    "website": "https://www.google.com/maps/search/Susanne+Farkas+Salon+in+Ohio",
    "category": "Baby-Boomer-owned Keratin treatments in Ohio",
    "description": "Offers Keratin Complex\u00ae treatments",
    "hours": "Mon-Fri 9AM-6PM",
    "services": [
      "Baby-Boomer-owned Keratin treatments in Ohio consultation",
      "Professional service",
      "Quality guarantee"
    ],
    "social_links": {}
  },
  {
    "name": "Kenneths Hair Salon & Day Spa (Powell)",
    "address": "9868 Brewster Ln., Powell, OH 43065",
    "phone": "(614) 451-3000",
    "rating": 4.0,
    "reviews": 25,
    "website": "https://www.google.com/maps/search/Kenneths+Hair+Salon+&+Day+Spa+(Powell)+in+Ohio",
    "category": "Baby-Boomer-owned Keratin treatments in Ohio",
    "description": "Offers Keratin Complex\u00ae treatments",
    "hours": "Mon-Fri 9AM-6PM",
    "services": [
      "Baby-Boomer-owned Keratin treatments in Ohio consultation",
      "Professional service",
      "Quality guarantee"
    ],
    "social_links": {}
  },
  {
    "name": "J Bentley Hair Studio & Day Spa",
    "address": "8882 Moreland St, Powell, OH 43065",
    "phone": "(614) 792-3200",
    "rating": 4.0,
    "reviews": 25,
    "website": "https://www.google.com/maps/search/J+Bentley+Hair+Studio+&+Day+Spa+in+Ohio",
    "category": "Baby-Boomer-owned Keratin treatments in Ohio",
    "description": "Offers Keratin Complex\u00ae treatments",
    "hours": "Mon-Fri 9AM-6PM",
    "services": [
      "Baby-Boomer-owned Keratin treatments in Ohio consultation",
      "Professional service",
      "Quality guarantee"
    ],
    "social_links": {}
  },
  {
    "name": "The Blowdry Cafe (Powell)",
    "address": "141 Greenside St, Powell, OH 43065",
    "phone": "(614) 792-3200",
    "rating": 4.0,
    "reviews": 25,
    "website": "https://www.google.com/maps/search/The+Blowdry+Cafe+(Powell)+in+Ohio",
    "category": "Baby-Boomer-owned Keratin treatments in Ohio",
    "description": "Offers Keratin Complex\u00ae treatments",
    "hours": "Mon-Fri 9AM-6PM",
    "services": [
      "Baby-Boomer-owned Keratin treatments in Ohio consultation",
      "Professional service",
      "Quality guarantee"
    ],
    "social_links": {}
  },
  {
    "name": "Lemon Tree Hair Salon - Westerville",
    "address": "450 N State St, Westerville, OH 43081",
    "phone": "(614) 889-0000",
    "rating": 4.0,
    "reviews": 25,
    "website": "https://www.lemontreesalons.com/locations/westerville-oh/",
    "category": "Baby-Boomer-owned Keratin treatments in Ohio",
    "description": "Offers keratin treatments for smoother, more manageable hair. They are a Paul Mitchell Focus salon",
    "hours": "Mon-Fri 9AM-6PM",
    "services": [
      "Baby-Boomer-owned Keratin treatments in Ohio consultation",
      "Professional service",
      "Quality guarantee"
    ],
    "social_links": {}
  },
  {
    "name": "Square One Salon (Dayton)",
    "address": "Multiple locations in Dayton, OH. A specific address for keratin treatments is not listed, but they offer various hair texture services",
    "phone": "(937) 434-5400 (General inquiry number for Dayton locations)",
    "rating": 4.0,
    "reviews": 25,
    "website": "https://www.squareonesalons.com/",
    "category": "Baby-Boomer-owned Keratin treatments in Ohio",
    "description": "Offers keratin treatments, blowouts, perms, and relaxers for different hair types",
    "hours": "Mon-Fri 9AM-6PM",
    "services": [
      "Baby-Boomer-owned Keratin treatments in Ohio consultation",
      "Professional service",
      "Quality guarantee"
    ],
    "social_links": {}
  },
  {
    "name": "Lovisa Salon",
    "address": "2633 Erie Ave Suite 11, Cincinnati, OH 45208",
    "phone": "(513) 871-2222",
    "rating": 4.0,
    "reviews": 25,
    "website": "https://www.lovisasalon.com/",
    "category": "Baby-Boomer-owned Keratin treatments in Ohio",
    "description": "Offers Brazilian Blowout and Keratin Smoothing treatments to eliminate frizz and smooth the hair cuticle",
    "hours": "Mon-Fri 9AM-6PM",
    "services": [
      "Baby-Boomer-owned Keratin treatments in Ohio consultation",
      "Professional service",
      "Quality guarantee"
    ],
    "social_links": {}
  }
]