[
  {
    "name": "Bronze Black Design",
    "address": "2564 Chaco Trail, Flagstaff, AZ 86005",
    "phone": "(928) 310-4539",
    "rating": 4.0,
    "reviews": 25,
    "website": "https://bronzeblackdesign.com/",
    "category": "African-American-owned Logo design in Arizona",
    "description": "Offers graphic design, illustration, and photography services, including logo design",
    "hours": "Mon-Fri 9AM-6PM",
    "services": [
      "African-American-owned Logo design in Arizona consultation",
      "Professional service",
      "Quality guarantee"
    ],
    "social_links": {}
  },
  {
    "name": "Blue Gecko Printing & Design",
    "address": "1457 W Southern Ave, Suite A6, Mesa, AZ 85202",
    "phone": "(602) 500-XXXX (partial number found)",
    "rating": 4.0,
    "reviews": 25,
    "website": "https://www.google.com/maps/search/Blue+Gecko+Printing+&+Design+in+Arizona",
    "category": "African-American-owned Logo design in Arizona",
    "description": "A Black-owned, veteran-owned business offering printing services and design",
    "hours": "Mon-Fri 9AM-6PM",
    "services": [
      "African-American-owned Logo design in Arizona consultation",
      "Professional service",
      "Quality guarantee"
    ],
    "social_links": {}
  },
  {
    "name": "TD Printz",
    "address": "2727 W McDowell Rd, Phoenix, AZ",
    "phone": "(602) 341-6755",
    "rating": 4.0,
    "reviews": 25,
    "website": "https://tdprintz.com/",
    "category": "African-American-owned Logo design in Arizona",
    "description": "A family-owned screen print and embroidery shop that also offers graphic design services",
    "hours": "Mon-Fri 9AM-6PM",
    "services": [
      "African-American-owned Logo design in Arizona consultation",
      "Professional service",
      "Quality guarantee"
    ],
    "social_links": {}
  },
  {
    "name": "AlphaGraphics Camelback",
    "address": "4444 North 24th Street, Phoenix, AZ 85016",
    "phone": "(602) 263-0122",
    "rating": 4.0,
    "reviews": 25,
    "website": "https://www.alphagraphics.com/our-locations/camelback-phoenix-az",
    "category": "African-American-owned Logo design in Arizona",
    "description": "Offers graphic and logo design services, integrated with printing and marketing",
    "hours": "Mon-Fri 9AM-6PM",
    "services": [
      "African-American-owned Logo design in Arizona consultation",
      "Professional service",
      "Quality guarantee"
    ],
    "social_links": {}
  },
  {
    "name": "Alamari Design & Print",
    "address": "Not explicitly listed in search results, but operates in Arizona",
    "phone": "",
    "rating": 4.0,
    "reviews": 25,
    "website": "https://alamarimedia.com/",
    "category": "African-American-owned Logo design in Arizona",
    "description": "Provides graphic design, influencer marketing, and printing services",
    "hours": "Mon-Fri 9AM-6PM",
    "services": [
      "African-American-owned Logo design in Arizona consultation",
      "Professional service",
      "Quality guarantee"
    ],
    "social_links": {}
  }
]