[
  {
    "name": "Elaborate Wedding & Event Planner LLC",
    "address": "357 N Main St, Bristol, CT 06010, United States",
    "phone": "959-888-1438",
    "rating": 4.0,
    "reviews": 25,
    "website": "https://elaboratewep.com/",
    "category": "Black-owned Gala planning in Connecticut",
    "description": "Offers wedding and event planning services",
    "hours": "Mon-Fri 9AM-6PM",
    "services": [
      "Black-owned Gala planning in Connecticut consultation",
      "Professional service",
      "Quality guarantee"
    ],
    "social_links": {}
  },
  {
    "name": "Lil & Co LLC. (Liltrisha's Wedding Planning and Events)",
    "address": "Hartford, CT",
    "phone": "",
    "rating": 4.0,
    "reviews": 25,
    "website": "https://www.google.com/maps/search/Lil+&+Co+LLC.+(Liltrisha's+Wedding+Planning+and+Events)+in+Connecticut",
    "category": "Black-owned Gala planning in Connecticut",
    "description": "Wedding planning and coordination service aiming to streamline the planning process and bring visions to life",
    "hours": "Mon-Fri 9AM-6PM",
    "services": [
      "Black-owned Gala planning in Connecticut consultation",
      "Professional service",
      "Quality guarantee"
    ],
    "social_links": {}
  },
  {
    "name": "Jubilee Events",
    "address": "Hartford, Connecticut",
    "phone": "",
    "rating": 4.0,
    "reviews": 25,
    "website": "https://www.google.com/maps/search/Jubilee+Events+in+Connecticut",
    "category": "Black-owned Gala planning in Connecticut",
    "description": "Offers wedding and event planning services with a focus on design aesthetics",
    "hours": "Mon-Fri 9AM-6PM",
    "services": [
      "Black-owned Gala planning in Connecticut consultation",
      "Professional service",
      "Quality guarantee"
    ],
    "social_links": {}
  },
  {
    "name": "Amour Noir Weddings (Wedding Planning)",
    "address": "Stamford, CT",
    "phone": "",
    "rating": 4.0,
    "reviews": 25,
    "website": "https://www.google.com/maps/search/Amour+Noir+Weddings+(Wedding+Planning)+in+Connecticut",
    "category": "Black-owned Gala planning in Connecticut",
    "description": "Listed as a wedding planning service",
    "hours": "Mon-Fri 9AM-6PM",
    "services": [
      "Black-owned Gala planning in Connecticut consultation",
      "Professional service",
      "Quality guarantee"
    ],
    "social_links": {}
  },
  {
    "name": "Blissful Royal Creations (Wedding Planning)",
    "address": "Windsor, CT",
    "phone": "",
    "rating": 4.0,
    "reviews": 25,
    "website": "https://www.google.com/maps/search/Blissful+Royal+Creations+(Wedding+Planning)+in+Connecticut",
    "category": "Black-owned Gala planning in Connecticut",
    "description": "Listed as a wedding planning service",
    "hours": "Mon-Fri 9AM-6PM",
    "services": [
      "Black-owned Gala planning in Connecticut consultation",
      "Professional service",
      "Quality guarantee"
    ],
    "social_links": {}
  },
  {
    "name": "A Gala Affair-Event Design, Decorating & Floral",
    "address": "Stonington, CT",
    "phone": "860-572-7507",
    "rating": 4.0,
    "reviews": 25,
    "website": "https://www.google.com/maps/search/A+Gala+Affair-Event+Design,+Decorating+&+Floral+in+Connecticut",
    "category": "Black-owned Gala planning in Connecticut",
    "description": "Offers event design, decorating, and floral services for galas and other events",
    "hours": "Mon-Fri 9AM-6PM",
    "services": [
      "Black-owned Gala planning in Connecticut consultation",
      "Professional service",
      "Quality guarantee"
    ],
    "social_links": {}
  },
  {
    "name": "Noir Events & Experiences",
    "address": "785 Union Avenue, Bridgeport, CT",
    "phone": "203-522-1800",
    "rating": 4.0,
    "reviews": 25,
    "website": "https://www.eventsatnoir.com/",
    "category": "Black-owned Gala planning in Connecticut",
    "description": "Premier event venue offering services for corporate gatherings, fundraising galas, weddings, and special events",
    "hours": "Mon-Fri 9AM-6PM",
    "services": [
      "Black-owned Gala planning in Connecticut consultation",
      "Professional service",
      "Quality guarantee"
    ],
    "social_links": {}
  }
]