[
  {
    "name": "Empire Title & Escrow",
    "address": "Multiple locations including Boise, Meridian, and Nampa. For specific addresses, please visit their website",
    "phone": "(208) 433-1021 (Meridian Office)",
    "rating": 4.0,
    "reviews": 25,
    "website": "https://www.empiretitle.com/",
    "category": "Central-American-owned Escrow services in Idaho",
    "description": "Empire Title is a locally owned company providing title and escrow services throughout southern Idaho. They emphasize fast local decisions and customer satisfaction",
    "hours": "Mon-Fri 9AM-6PM",
    "services": [
      "Central-American-owned Escrow services in Idaho consultation",
      "Professional service",
      "Quality guarantee"
    ],
    "social_links": {}
  },
  {
    "name": "Alliance Title & Escrow",
    "address": "Headquarters in Boise, with multiple branches across Idaho. For specific addresses, please visit their website",
    "phone": "(208) 377-0400 (Boise Headquarters)",
    "rating": 4.0,
    "reviews": 25,
    "website": "https://www.alliancetitle.com/",
    "category": "Central-American-owned Escrow services in Idaho",
    "description": "Alliance Title & Escrow is a large independent title insurance agency with a long history in the Pacific Northwest, offering comprehensive title and escrow services",
    "hours": "Mon-Fri 9AM-6PM",
    "services": [
      "Central-American-owned Escrow services in Idaho consultation",
      "Professional service",
      "Quality guarantee"
    ],
    "social_links": {}
  },
  {
    "name": "Pioneer Title Company",
    "address": "Multiple locations throughout Idaho, including Boise, Meridian, Nampa, Idaho Falls, and Coeur d'Alene. For specific addresses, please visit their website",
    "phone": "(208) 377-3000 (Boise)",
    "rating": 4.0,
    "reviews": 25,
    "website": "https://www.pioneertitle.com/",
    "category": "Central-American-owned Escrow services in Idaho",
    "description": "Pioneer Title Company has been providing title and escrow services for over 70 years, emphasizing a \"Going Beyond\" culture and community involvement",
    "hours": "Mon-Fri 9AM-6PM",
    "services": [
      "Central-American-owned Escrow services in Idaho consultation",
      "Professional service",
      "Quality guarantee"
    ],
    "social_links": {}
  },
  {
    "name": "Flying S Title & Escrow",
    "address": "Offices in Coeur d'Alene, Rexburg, Twin Falls, Idaho Falls, and Pocatello. For specific addresses, please visit their website",
    "phone": "(208) 667-0567 (Coeur d'Alene)",
    "rating": 4.0,
    "reviews": 25,
    "website": "https://flyings.com/",
    "category": "Central-American-owned Escrow services in Idaho",
    "description": "Flying S Title & Escrow offers title and escrow services across various locations in Idaho, serving Kootenai County and beyond",
    "hours": "Mon-Fri 9AM-6PM",
    "services": [
      "Central-American-owned Escrow services in Idaho consultation",
      "Professional service",
      "Quality guarantee"
    ],
    "social_links": {}
  },
  {
    "name": "AmeriTitle LLC",
    "address": "Offices in Twin Falls and Idaho Falls, among other locations in the Pacific Northwest. For specific addresses, please visit their website",
    "phone": "(208) 595-4962 (Twin Falls)",
    "rating": 4.0,
    "reviews": 25,
    "website": "https://www.amerititle.com/",
    "category": "Central-American-owned Escrow services in Idaho",
    "description": "AmeriTitle provides trusted title and escrow services, aiming for seamless property transactions with integrity and professionalism",
    "hours": "Mon-Fri 9AM-6PM",
    "services": [
      "Central-American-owned Escrow services in Idaho consultation",
      "Professional service",
      "Quality guarantee"
    ],
    "social_links": {}
  },
  {
    "name": "TitleOne Corporation",
    "address": "Multiple offices across Idaho, including Coeur d'Alene, Caldwell, Meridian, and Idaho Falls. For specific addresses, please visit their website",
    "phone": "(208) 765-3333 (Coeur d'Alene)",
    "rating": 4.0,
    "reviews": 25,
    "website": "https://www.titleonecorp.com/",
    "category": "Central-American-owned Escrow services in Idaho",
    "description": "TitleOne is a title and escrow company dedicated to helping real estate professionals and consumers with innovative tools and legendary service",
    "hours": "Mon-Fri 9AM-6PM",
    "services": [
      "Central-American-owned Escrow services in Idaho consultation",
      "Professional service",
      "Quality guarantee"
    ],
    "social_links": {}
  },
  {
    "name": "North Idaho Title & Escrow",
    "address": "601 E Front Avenue, Suite 204, Coeur d'Alene, ID 83814",
    "phone": "(208) 765-3333",
    "rating": 4.0,
    "reviews": 25,
    "website": "https://www.northidahotitle.com/",
    "category": "Central-American-owned Escrow services in Idaho",
    "description": "Described as the best title and closing provider in the Coeur d'Alene and Sandpoint area",
    "hours": "Mon-Fri 9AM-6PM",
    "services": [
      "Central-American-owned Escrow services in Idaho consultation",
      "Professional service",
      "Quality guarantee"
    ],
    "social_links": {}
  },
  {
    "name": "Panhandle Escrow Company Inc.",
    "address": "320 N. Neider Avenue, Ste. 201, Coeur d'Alene, ID 83815",
    "phone": "(208) 667-9200",
    "rating": 4.0,
    "reviews": 25,
    "website": "https://www.panhandleescrow.com/",
    "category": "Central-American-owned Escrow services in Idaho",
    "description": "Offers escrow services in Coeur d'Alene, ID",
    "hours": "Mon-Fri 9AM-6PM",
    "services": [
      "Central-American-owned Escrow services in Idaho consultation",
      "Professional service",
      "Quality guarantee"
    ],
    "social_links": {}
  },
  {
    "name": "Twin Falls Escrow Company",
    "address": "163 Fourth Avenue North, Twin Falls, ID 83301",
    "phone": "(208) 733-3821",
    "rating": 4.0,
    "reviews": 25,
    "website": "https://www.titlefact.com/",
    "category": "Central-American-owned Escrow services in Idaho",
    "description": "Provides home and land title services in Twin Falls",
    "hours": "Mon-Fri 9AM-6PM",
    "services": [
      "Central-American-owned Escrow services in Idaho consultation",
      "Professional service",
      "Quality guarantee"
    ],
    "social_links": {}
  },
  {
    "name": "Stewart Title Company",
    "address": "Offices in Nampa and Meridian. For specific addresses, please visit their website",
    "phone": "(208) 373-0009 (Meridian Office)",
    "rating": 4.0,
    "reviews": 25,
    "website": "https://www.stewart.com/",
    "category": "Central-American-owned Escrow services in Idaho",
    "description": "Stewart Title offers a wide range of title and escrow services for residential and commercial transactions",
    "hours": "Mon-Fri 9AM-6PM",
    "services": [
      "Central-American-owned Escrow services in Idaho consultation",
      "Professional service",
      "Quality guarantee"
    ],
    "social_links": {}
  }
]