[
  {
    "name": "Trees By Jake",
    "address": "7107 S. Peoria Ave., Tulsa, OK 74136",
    "phone": "(918) 500-9955",
    "rating": 4.9,
    "reviews": 25,
    "website": "https://treesbyjake.com/",
    "category": "Chinese-speaking Stump grinding in Oklahoma",
    "description": "Offers tree removal and stump grinding services with a variety of stump grinders, including remote-controlled options for safety. They are TCIA Accredited and have ISA Certified Arborists",
    "hours": "Mon-Fri 9AM-6PM",
    "services": [
      "Chinese-speaking Stump grinding in Oklahoma consultation",
      "Professional service",
      "Quality guarantee"
    ],
    "social_links": {}
  },
  {
    "name": "Mercer Tree Service",
    "address": "10413 S.W. 15th St., Oklahoma City, OK 73128",
    "phone": "(405) 627-0405",
    "rating": 4.8,
    "reviews": 25,
    "website": "https://merceroctree.com/",
    "category": "Chinese-speaking Stump grinding in Oklahoma",
    "description": "Provides professional stump grinding services, grinding stumps 6-12 inches below ground level with complete cleanup. They utilize commercial-grade equipment for efficient stump removal",
    "hours": "Mon-Fri 9AM-6PM",
    "services": [
      "Chinese-speaking Stump grinding in Oklahoma consultation",
      "Professional service",
      "Quality guarantee"
    ],
    "social_links": {}
  },
  {
    "name": "Forest Tree Service OKC",
    "address": "7001 NW 10th St., Oklahoma City, OK 73127",
    "phone": "(405) 200-3157",
    "rating": 4.7,
    "reviews": 25,
    "website": "https://foresttreeserviceokc.com/",
    "category": "Chinese-speaking Stump grinding in Oklahoma",
    "description": "Offers affordable tree removal and stump grinding services for residential and commercial clients. They are licensed and insured with over 20 years of experience",
    "hours": "Mon-Fri 9AM-6PM",
    "services": [
      "Chinese-speaking Stump grinding in Oklahoma consultation",
      "Professional service",
      "Quality guarantee"
    ],
    "social_links": {}
  },
  {
    "name": "Salas Tree Service",
    "address": "3400 NW 39th St., Oklahoma City, OK 73112",
    "phone": "(405) 802-4000",
    "rating": 4.9,
    "reviews": 25,
    "website": "https://salastreeservice.com/",
    "category": "Chinese-speaking Stump grinding in Oklahoma",
    "description": "Provides stump grinding services to restore lawn beauty, grinding stumps to ground level for a smooth, safe surface. They serve Oklahoma City and surrounding areas",
    "hours": "Mon-Fri 9AM-6PM",
    "services": [
      "Chinese-speaking Stump grinding in Oklahoma consultation",
      "Professional service",
      "Quality guarantee"
    ],
    "social_links": {}
  },
  {
    "name": "English Tree Service, Inc.",
    "address": "5803 N.W. 26th St., Oklahoma City, OK 73127",
    "phone": "(405) 495-1982",
    "rating": 4.8,
    "reviews": 25,
    "website": "https://englishtreeservice.com/",
    "category": "Chinese-speaking Stump grinding in Oklahoma",
    "description": "A long-standing company (over 30 years) offering expert pruning, tree removal, and stump grinding services. They emphasize proper arboriculture techniques and have certified arborists",
    "hours": "Mon-Fri 9AM-6PM",
    "services": [
      "Chinese-speaking Stump grinding in Oklahoma consultation",
      "Professional service",
      "Quality guarantee"
    ],
    "social_links": {}
  },
  {
    "name": "Arbor Masters",
    "address": "1101 SW 59th St., Oklahoma City, OK 73119",
    "phone": "(405) 495-8746",
    "rating": 4.7,
    "reviews": 25,
    "website": "https://arbormastersok.com/",
    "category": "Chinese-speaking Stump grinding in Oklahoma",
    "description": "Providing tree care since 1960, they offer a comprehensive range of services including tree removal and stump grinding. They have ISA Certified Arborists and extensive local experience",
    "hours": "Mon-Fri 9AM-6PM",
    "services": [
      "Chinese-speaking Stump grinding in Oklahoma consultation",
      "Professional service",
      "Quality guarantee"
    ],
    "social_links": {}
  },
  {
    "name": "Vision Tree Service",
    "address": "1101 SW 59th St., Oklahoma City, OK 73119",
    "phone": "(405) 495-8746",
    "rating": 4.8,
    "reviews": 25,
    "website": "https://visiontreeservice.com/",
    "category": "Chinese-speaking Stump grinding in Oklahoma",
    "description": "Offers high-quality tree care, including stump grinding, with ISA Certified Arborists. They serve Edmond, Arcadia, and the Oklahoma City Metro area",
    "hours": "Mon-Fri 9AM-6PM",
    "services": [
      "Chinese-speaking Stump grinding in Oklahoma consultation",
      "Professional service",
      "Quality guarantee"
    ],
    "social_links": {}
  },
  {
    "name": "Callahan Tree Care LLC.",
    "address": "1040 E 10th St., Claremore, OK 74017",
    "phone": "(918) 230-7900",
    "rating": 4.9,
    "reviews": 25,
    "website": "https://callahantreecare.com/",
    "category": "Chinese-speaking Stump grinding in Oklahoma",
    "description": "Provides tree stump grinding services in Claremore, Owasso, OK, and surrounding areas. They have the tools and knowledge to grind stumps to create a flat surface",
    "hours": "Mon-Fri 9AM-6PM",
    "services": [
      "Chinese-speaking Stump grinding in Oklahoma consultation",
      "Professional service",
      "Quality guarantee"
    ],
    "social_links": {}
  },
  {
    "name": "Heartland Tree Service",
    "address": "1010 N. Sheridan Rd., Tulsa, OK 74115",
    "phone": "(918) 855-0750",
    "rating": 4.7,
    "reviews": 25,
    "website": "https://heartlandtreeservice.com/",
    "category": "Chinese-speaking Stump grinding in Oklahoma",
    "description": "Offers stump grinding services in Tulsa, OK, grinding stumps several inches below the surface. They have 10 years of experience and focus on leaving minimal trace of the former tree",
    "hours": "Mon-Fri 9AM-6PM",
    "services": [
      "Chinese-speaking Stump grinding in Oklahoma consultation",
      "Professional service",
      "Quality guarantee"
    ],
    "social_links": {}
  },
  {
    "name": "Tree Wizard LLC",
    "address": "1001 W. Brooks St., Norman, OK 73069",
    "phone": "(405) 360-5555",
    "rating": 4.9,
    "reviews": 25,
    "website": "https://treewizard.com/",
    "category": "Chinese-speaking Stump grinding in Oklahoma",
    "description": "Features Master Arborists and Certified Arborists providing comprehensive tree care, including stump grinding. They have served central Oklahoma and the Norman community since 1995",
    "hours": "Mon-Fri 9AM-6PM",
    "services": [
      "Chinese-speaking Stump grinding in Oklahoma consultation",
      "Professional service",
      "Quality guarantee"
    ],
    "social_links": {}
  }
]