[
  {
    "name": "Soul Veg City",
    "address": "201-209 East 75th Street, Chicago, Illinois 60619",
    "phone": "(773) 224-0104",
    "rating": 4.0,
    "reviews": 25,
    "website": "https://www.soulvegcity.com/",
    "category": "African-American-owned Diet-specific catering in Illinois",
    "description": "A long-standing Black-owned vegan restaurant known for its plant-based soul food. They also offer catering services",
    "hours": "Mon-Fri 9AM-6PM",
    "services": [
      "African-American-owned Diet-specific catering in Illinois consultation",
      "Professional service",
      "Quality guarantee"
    ],
    "social_links": {}
  },
  {
    "name": "Majani Soulful Vegan Cuisine",
    "address": "7167 S Exchange Ave, Chicago, IL 60649",
    "phone": "",
    "rating": 4.0,
    "reviews": 25,
    "website": "https://www.google.com/maps/search/Majani+Soulful+Vegan+Cuisine+in+Illinois",
    "category": "African-American-owned Diet-specific catering in Illinois",
    "description": "Owned by vegan chefs, this Black-owned eatery focuses on plant-based soul food and offers catering",
    "hours": "Mon-Fri 9AM-6PM",
    "services": [
      "African-American-owned Diet-specific catering in Illinois consultation",
      "Professional service",
      "Quality guarantee"
    ],
    "social_links": {}
  },
  {
    "name": "Sweet Vegan Bakes",
    "address": "409 W North Ave, Chicago, IL 60610",
    "phone": "(312) 526-3555",
    "rating": 4.0,
    "reviews": 25,
    "website": "https://www.google.com/maps/search/Sweet+Vegan+Bakes+in+Illinois",
    "category": "African-American-owned Diet-specific catering in Illinois",
    "description": "A Black-owned vegan bakery and restaurant offering plant-based soul food and treats, with catering services available",
    "hours": "Mon-Fri 9AM-6PM",
    "services": [
      "African-American-owned Diet-specific catering in Illinois consultation",
      "Professional service",
      "Quality guarantee"
    ],
    "social_links": {}
  },
  {
    "name": "The Black Vegan",
    "address": "2300 S Kedzie, Chicago, IL 60623",
    "phone": "(773) 639-0896",
    "rating": 4.0,
    "reviews": 25,
    "website": "https://www.google.com/maps/search/The+Black+Vegan+in+Illinois",
    "category": "African-American-owned Diet-specific catering in Illinois",
    "description": "This Black-owned Chicago spot serves vegan soul food and offers catering for events",
    "hours": "Mon-Fri 9AM-6PM",
    "services": [
      "African-American-owned Diet-specific catering in Illinois consultation",
      "Professional service",
      "Quality guarantee"
    ],
    "social_links": {}
  },
  {
    "name": "Vegan World Cafe",
    "address": "5419 W. North Avenue, Chicago, IL 60639",
    "phone": "(773) 729-2188",
    "rating": 4.0,
    "reviews": 25,
    "website": "https://www.google.com/maps/search/Vegan+World+Cafe+in+Illinois",
    "category": "African-American-owned Diet-specific catering in Illinois",
    "description": "Offers a variety of vegan soul food and has strong catering services",
    "hours": "Mon-Fri 9AM-6PM",
    "services": [
      "African-American-owned Diet-specific catering in Illinois consultation",
      "Professional service",
      "Quality guarantee"
    ],
    "social_links": {}
  },
  {
    "name": "Dozzy's Grill",
    "address": "While a specific street address for catering is not provided, they are located in Chicago",
    "phone": "(312) 351-9551",
    "rating": 4.0,
    "reviews": 25,
    "website": "https://www.dozzysgrill.com/",
    "category": "African-American-owned Diet-specific catering in Illinois",
    "description": "A Black-owned establishment serving traditional West African cuisines with contemporary twists, focusing on catering services",
    "hours": "Mon-Fri 9AM-6PM",
    "services": [
      "African-American-owned Diet-specific catering in Illinois consultation",
      "Professional service",
      "Quality guarantee"
    ],
    "social_links": {}
  },
  {
    "name": "Dreamyvents Catering",
    "address": "Based in Chicago, with nationwide delivery",
    "phone": "",
    "rating": 4.0,
    "reviews": 25,
    "website": "https://www.google.com/maps/search/Dreamyvents+Catering+in+Illinois",
    "category": "African-American-owned Diet-specific catering in Illinois",
    "description": "This Black-owned catering service offers custom menus, including options for dietary needs, vegan, and detox-oriented meals",
    "hours": "Mon-Fri 9AM-6PM",
    "services": [
      "African-American-owned Diet-specific catering in Illinois consultation",
      "Professional service",
      "Quality guarantee"
    ],
    "social_links": {}
  },
  {
    "name": "Soul & Smoke",
    "address": "1601 Payne St, Evanston, IL 60201",
    "phone": "(847) 859-2732",
    "rating": 4.0,
    "reviews": 25,
    "website": "https://www.soulandsmoke.com/",
    "category": "African-American-owned Diet-specific catering in Illinois",
    "description": "A Black-owned, women-led business serving slow-smoked barbecue and comfort food, with catering services available and gluten-free options",
    "hours": "Mon-Fri 9AM-6PM",
    "services": [
      "African-American-owned Diet-specific catering in Illinois consultation",
      "Professional service",
      "Quality guarantee"
    ],
    "social_links": {}
  },
  {
    "name": "Bronzeville Soul",
    "address": "Located on the corner of 47th & King Drive, Chicago, IL (specific street number not provided)",
    "phone": "",
    "rating": 4.0,
    "reviews": 25,
    "website": "https://bronvillesoul.com/",
    "category": "African-American-owned Diet-specific catering in Illinois",
    "description": "An authentic soul food restaurant in Chicago that offers catering services. They note that \"Fried Cabbage (can be served vegan)\" is an option",
    "hours": "Mon-Fri 9AM-6PM",
    "services": [
      "African-American-owned Diet-specific catering in Illinois consultation",
      "Professional service",
      "Quality guarantee"
    ],
    "social_links": {}
  },
  {
    "name": "ChiFresh Kitchen",
    "address": "Chicago, IL 60619",
    "phone": "(312) 620-7564",
    "rating": 4.0,
    "reviews": 25,
    "website": "https://www.chifreshkitchen.com/",
    "category": "African-American-owned Diet-specific catering in Illinois",
    "description": "A Chicago-based, worker-owned business that provides healthy, culturally rooted meals. Their menu options take into account dietary preferences and allergies",
    "hours": "Mon-Fri 9AM-6PM",
    "services": [
      "African-American-owned Diet-specific catering in Illinois consultation",
      "Professional service",
      "Quality guarantee"
    ],
    "social_links": {}
  }
]