[
  {
    "name": "Aqua Plumbing Service & Repair, LLC",
    "address": "Las Vegas, NV",
    "phone": "(702) 795-0455",
    "rating": 4.0,
    "reviews": 25,
    "website": "https://aquaplumbingservicerepair.com/",
    "category": "Croatian-speaking Water heaters in Nevada",
    "description": "Offers full-service plumbing for residential and commercial properties, including water heater installation and repair",
    "hours": "Mon-Fri 9AM-6PM",
    "services": [
      "Croatian-speaking Water heaters in Nevada consultation",
      "Professional service",
      "Quality guarantee"
    ],
    "social_links": {}
  },
  {
    "name": "Plumbing Solutions of Nevada",
    "address": "Las Vegas, NV",
    "phone": "(702) 463-2500",
    "rating": 4.0,
    "reviews": 25,
    "website": "https://plumbingsolutionsofnv.com/",
    "category": "Croatian-speaking Water heaters in Nevada",
    "description": "Provides 24/7 plumbing services, including water heater repair and installation, for residential and commercial clients",
    "hours": "Mon-Fri 9AM-6PM",
    "services": [
      "Croatian-speaking Water heaters in Nevada consultation",
      "Professional service",
      "Quality guarantee"
    ],
    "social_links": {}
  },
  {
    "name": "Precision Plumbing",
    "address": "Las Vegas, NV",
    "phone": "(702) 505-4414",
    "rating": 4.0,
    "reviews": 25,
    "website": "https://www.precisionplumbinglv.com/",
    "category": "Croatian-speaking Water heaters in Nevada",
    "description": "Offers 24/7 emergency plumbing services, including water heater repair and replacement, with an on-time guarantee",
    "hours": "Mon-Fri 9AM-6PM",
    "services": [
      "Croatian-speaking Water heaters in Nevada consultation",
      "Professional service",
      "Quality guarantee"
    ],
    "social_links": {}
  },
  {
    "name": "Focus Plumbing LLC",
    "address": "Las Vegas, NV",
    "phone": "(702) 710-4420",
    "rating": 4.0,
    "reviews": 25,
    "website": "https://focusplumbinglv.com/",
    "category": "Croatian-speaking Water heaters in Nevada",
    "description": "Specializes in water heater installation and replacement for homes in the Las Vegas area",
    "hours": "Mon-Fri 9AM-6PM",
    "services": [
      "Croatian-speaking Water heaters in Nevada consultation",
      "Professional service",
      "Quality guarantee"
    ],
    "social_links": {}
  },
  {
    "name": "ASK Plumbing",
    "address": "Las Vegas, NV",
    "phone": "(702) 439-3974",
    "rating": 4.0,
    "reviews": 25,
    "website": "https://askplumbing.com/",
    "category": "Croatian-speaking Water heaters in Nevada",
    "description": "Provides residential and commercial plumbing services, including emergency repairs and water heater services, with 26 years of experience",
    "hours": "Mon-Fri 9AM-6PM",
    "services": [
      "Croatian-speaking Water heaters in Nevada consultation",
      "Professional service",
      "Quality guarantee"
    ],
    "social_links": {}
  },
  {
    "name": "365 Plumbing",
    "address": "Las Vegas, NV",
    "phone": "(702) 857-2583",
    "rating": 4.0,
    "reviews": 25,
    "website": "https://www.365plumbingnv.com/",
    "category": "Croatian-speaking Water heaters in Nevada",
    "description": "Offers 24/7 plumbing repair services, including water heater failures, with over 50 years of combined experience",
    "hours": "Mon-Fri 9AM-6PM",
    "services": [
      "Croatian-speaking Water heaters in Nevada consultation",
      "Professional service",
      "Quality guarantee"
    ],
    "social_links": {}
  },
  {
    "name": "Vegas Valley Plumbing",
    "address": "Las Vegas, NV",
    "phone": "(702) 886-2485",
    "rating": 4.0,
    "reviews": 25,
    "website": "https://vegasvalleyplumbing.com/",
    "category": "Croatian-speaking Water heaters in Nevada",
    "description": "Provides comprehensive water heater services, including installation and repair of tank, tankless, electric, and gas water heaters",
    "hours": "Mon-Fri 9AM-6PM",
    "services": [
      "Croatian-speaking Water heaters in Nevada consultation",
      "Professional service",
      "Quality guarantee"
    ],
    "social_links": {}
  },
  {
    "name": "Desert Water Heaters",
    "address": "Las Vegas, NV",
    "phone": "(702) 795-0455",
    "rating": 4.0,
    "reviews": 25,
    "website": "https://www.desertwaterheaters.com/",
    "category": "Croatian-speaking Water heaters in Nevada",
    "description": "Specializes exclusively in water heater repair, maintenance, and installation in the Las Vegas area since 1959",
    "hours": "Mon-Fri 9AM-6PM",
    "services": [
      "Croatian-speaking Water heaters in Nevada consultation",
      "Professional service",
      "Quality guarantee"
    ],
    "social_links": {}
  },
  {
    "name": "Atlas Plumbing",
    "address": "Las Vegas, NV",
    "phone": "(702) 819-7137",
    "rating": 4.0,
    "reviews": 25,
    "website": "https://www.atlasplumbinglv.com/",
    "category": "Croatian-speaking Water heaters in Nevada",
    "description": "Offers tankless water heater installation and water heater repair services in Las Vegas and Henderson",
    "hours": "Mon-Fri 9AM-6PM",
    "services": [
      "Croatian-speaking Water heaters in Nevada consultation",
      "Professional service",
      "Quality guarantee"
    ],
    "social_links": {}
  },
  {
    "name": "Active Plumbing & Air Conditioning",
    "address": "Las Vegas, NV",
    "phone": "(702) 553-1171",
    "rating": 5.0,
    "reviews": 25,
    "website": "https://www.activeplumbinglv.com/",
    "category": "Croatian-speaking Water heaters in Nevada",
    "description": "Provides water heater installation, repair, and maintenance services with over 25 years of experience in Las Vegas",
    "hours": "Mon-Fri 9AM-6PM",
    "services": [
      "Croatian-speaking Water heaters in Nevada consultation",
      "Professional service",
      "Quality guarantee"
    ],
    "social_links": {}
  }
]