[
  {
    "name": "Consolidated Insurance Consultants, Inc.",
    "address": "4000 North Hills Blvd, North Little Rock, AR 72116",
    "phone": "501-753-0353",
    "rating": 4.0,
    "reviews": 25,
    "website": "https://www.consolidatedinsuranceconsultants.com/",
    "category": "African-American-owned Life insurance in Arkansas",
    "description": "An independent insurance agency offering auto, home, business, life, and health insurance",
    "hours": "Mon-Fri 9AM-6PM",
    "services": [
      "African-American-owned Life insurance in Arkansas consultation",
      "Professional service",
      "Quality guarantee"
    ],
    "social_links": {}
  },
  {
    "name": "Black & Associates, Inc. Insurance",
    "address": "100 Court Square, Sheridan, AR 72150",
    "phone": "870-942-3121",
    "rating": 4.0,
    "reviews": 25,
    "website": "https://www.blackandassociatesinsurance.com/",
    "category": "African-American-owned Life insurance in Arkansas",
    "description": "An independent insurance agency representing multiple reputable insurance companies, offering various insurance plans",
    "hours": "Mon-Fri 9AM-6PM",
    "services": [
      "African-American-owned Life insurance in Arkansas consultation",
      "Professional service",
      "Quality guarantee"
    ],
    "social_links": {}
  },
  {
    "name": "Bankers Life",
    "address": "400 N Shackleford Rd Ste 101, Little Rock, AR 72211 (Multiple locations in Arkansas)",
    "phone": "800-621-3724",
    "rating": 4.0,
    "reviews": 25,
    "website": "https://www.bankerslife.com/",
    "category": "African-American-owned Life insurance in Arkansas",
    "description": "Offers life insurance, annuities, Medicare Supplement insurance, and long-term care insurance",
    "hours": "Mon-Fri 9AM-6PM",
    "services": [
      "African-American-owned Life insurance in Arkansas consultation",
      "Professional service",
      "Quality guarantee"
    ],
    "social_links": {}
  },
  {
    "name": "HealthQuest Insurance Services LLC",
    "address": "1020 S. Pleasant Ave, Fayetteville, AR 72701",
    "phone": "479-443-4300",
    "rating": 4.0,
    "reviews": 25,
    "website": "https://www.healthquestins.com/",
    "category": "African-American-owned Life insurance in Arkansas",
    "description": "Specializes in health and life insurance products for individuals and groups",
    "hours": "Mon-Fri 9AM-6PM",
    "services": [
      "African-American-owned Life insurance in Arkansas consultation",
      "Professional service",
      "Quality guarantee"
    ],
    "social_links": {}
  },
  {
    "name": "Jonesboro Insurance Group, Inc.",
    "address": "2410 E Nettleton Ave, Jonesboro, AR 72401",
    "phone": "870-931-1005",
    "rating": 4.0,
    "reviews": 25,
    "website": "https://www.jonesborainsurance.com/",
    "category": "African-American-owned Life insurance in Arkansas",
    "description": "Offers life insurance policies to safeguard families' futures",
    "hours": "Mon-Fri 9AM-6PM",
    "services": [
      "African-American-owned Life insurance in Arkansas consultation",
      "Professional service",
      "Quality guarantee"
    ],
    "social_links": {}
  },
  {
    "name": "Farris Agency",
    "address": "801 Parkway St, Conway, AR 72034",
    "phone": "501-329-1221",
    "rating": 4.0,
    "reviews": 25,
    "website": "https://www.farrisagency.com/",
    "category": "African-American-owned Life insurance in Arkansas",
    "description": "Provides personal and commercial insurance, including health and life insurance",
    "hours": "Mon-Fri 9AM-6PM",
    "services": [
      "African-American-owned Life insurance in Arkansas consultation",
      "Professional service",
      "Quality guarantee"
    ],
    "social_links": {}
  },
  {
    "name": "Foundation Life Insurance Company of Arkansas",
    "address": "109 N. 6th Street, Fort Smith, AR 72901",
    "phone": "800-446-2214",
    "rating": 4.0,
    "reviews": 25,
    "website": "https://www.flicar.com/",
    "category": "African-American-owned Life insurance in Arkansas",
    "description": "Provides credit life and disability insurance, and has been in business since 1959",
    "hours": "Mon-Fri 9AM-6PM",
    "services": [
      "African-American-owned Life insurance in Arkansas consultation",
      "Professional service",
      "Quality guarantee"
    ],
    "social_links": {}
  },
  {
    "name": "Cross Pointe Insurance Advisors",
    "address": "1120 Garrison Ave, Fort Smith, AR 72901",
    "phone": "479-785-2912",
    "rating": 4.0,
    "reviews": 25,
    "website": "https://www.cpiadvisors.com/",
    "category": "African-American-owned Life insurance in Arkansas",
    "description": "An independent insurance agency specializing in auto, home, business, life, and health insurance",
    "hours": "Mon-Fri 9AM-6PM",
    "services": [
      "African-American-owned Life insurance in Arkansas consultation",
      "Professional service",
      "Quality guarantee"
    ],
    "social_links": {}
  },
  {
    "name": "Walker Brothers Insurance",
    "address": "101 W Spring St, Springdale, AR 72764 (Also serves Fayetteville)",
    "phone": "479-751-7474",
    "rating": 4.0,
    "reviews": 25,
    "website": "https://walkerbrothersinsurance.com/",
    "category": "African-American-owned Life insurance in Arkansas",
    "description": "Offers life insurance solutions, including individual and group life insurance",
    "hours": "Mon-Fri 9AM-6PM",
    "services": [
      "African-American-owned Life insurance in Arkansas consultation",
      "Professional service",
      "Quality guarantee"
    ],
    "social_links": {}
  },
  {
    "name": "Selby Insurance & Financial",
    "address": "1907 E Nettleton Ave, Jonesboro, AR 72401",
    "phone": "870-336-2121",
    "rating": 4.0,
    "reviews": 25,
    "website": "https://www.selbyinsurance.com/",
    "category": "African-American-owned Life insurance in Arkansas",
    "description": "A full-service, independent insurance agency offering a wide range of insurance and financial services",
    "hours": "Mon-Fri 9AM-6PM",
    "services": [
      "African-American-owned Life insurance in Arkansas consultation",
      "Professional service",
      "Quality guarantee"
    ],
    "social_links": {}
  }
]