[
  {
    "name": "Duke & Bob's Automotive",
    "address": "1300 Emanuel Cleaver Blvd, Kansas City, MO 64110",
    "phone": "816-931-7808",
    "rating": 4.0,
    "reviews": 25,
    "website": "https://www.google.com/maps/search/Duke+&+Bob's+Automotive+in+Missouri",
    "category": "Chinese-speaking Bumper repair in Missouri",
    "description": "A full-service auto repair and preventative maintenance facility specializing in Asian vehicles",
    "hours": "Mon-Fri 9AM-6PM",
    "services": [
      "Chinese-speaking Bumper repair in Missouri consultation",
      "Professional service",
      "Quality guarantee"
    ],
    "social_links": {}
  },
  {
    "name": "Marty's Auto Shop",
    "address": "Information not available (St. Louis area)",
    "phone": "314-631-9171",
    "rating": 4.0,
    "reviews": 25,
    "website": "https://www.google.com/maps/search/Marty's+Auto+Shop+in+Missouri",
    "category": "Chinese-speaking Bumper repair in Missouri",
    "description": "A full-service auto repair and preventative maintenance facility specializing in Asian vehicles",
    "hours": "Mon-Fri 9AM-6PM",
    "services": [
      "Chinese-speaking Bumper repair in Missouri consultation",
      "Professional service",
      "Quality guarantee"
    ],
    "social_links": {}
  },
  {
    "name": "Lee's Summit Total Auto Care",
    "address": "512 SW 3rd St, Lee's Summit, MO 64063",
    "phone": "816-525-0414",
    "rating": 4.0,
    "reviews": 25,
    "website": "https://www.google.com/maps/search/Lee's+Summit+Total+Auto+Care+in+Missouri",
    "category": "Chinese-speaking Bumper repair in Missouri",
    "description": "A full-scale auto repair and preventive maintenance center with a specific focus on servicing imported and foreign vehicles",
    "hours": "Mon-Fri 9AM-6PM",
    "services": [
      "Chinese-speaking Bumper repair in Missouri consultation",
      "Professional service",
      "Quality guarantee"
    ],
    "social_links": {}
  },
  {
    "name": "Dave's Foreign & Domestic Car Repair",
    "address": "Information not available (Parkville, MO area)",
    "phone": "",
    "rating": 4.0,
    "reviews": 25,
    "website": "https://www.google.com/maps/search/Dave's+Foreign+&+Domestic+Car+Repair+in+Missouri",
    "category": "Chinese-speaking Bumper repair in Missouri",
    "description": "Repairs and services imported and domestic cars, trucks, and any other vehicle",
    "hours": "Mon-Fri 9AM-6PM",
    "services": [
      "Chinese-speaking Bumper repair in Missouri consultation",
      "Professional service",
      "Quality guarantee"
    ],
    "social_links": {}
  },
  {
    "name": "The Dent Devil",
    "address": "Information not available (St. Louis area)",
    "phone": "",
    "rating": 4.0,
    "reviews": 25,
    "website": "https://www.google.com/maps/search/The+Dent+Devil+in+Missouri",
    "category": "Chinese-speaking Bumper repair in Missouri",
    "description": "Offers bumper repair and replacement services, specializing in minor scratches, paint damage, and more extensive damage requiring replacement",
    "hours": "Mon-Fri 9AM-6PM",
    "services": [
      "Chinese-speaking Bumper repair in Missouri consultation",
      "Professional service",
      "Quality guarantee"
    ],
    "social_links": {}
  },
  {
    "name": "Precision Import Auto Service",
    "address": "5050 Griffin Rd, St. Louis, MO 63128",
    "phone": "314-842-1970",
    "rating": 4.0,
    "reviews": 25,
    "website": "https://www.google.com/maps/search/Precision+Import+Auto+Service+in+Missouri",
    "category": "Chinese-speaking Bumper repair in Missouri",
    "description": "Provides professional and reliable auto maintenance for all vehicle types, specializing in import and domestic automobiles",
    "hours": "Mon-Fri 9AM-6PM",
    "services": [
      "Chinese-speaking Bumper repair in Missouri consultation",
      "Professional service",
      "Quality guarantee"
    ],
    "social_links": {}
  },
  {
    "name": "Impressive Auto Service",
    "address": "1249 East Karsch Blvd, Farmington, MO 63640",
    "phone": "(573) 756-0011",
    "rating": 4.0,
    "reviews": 25,
    "website": "https://www.google.com/maps/search/Impressive+Auto+Service+in+Missouri",
    "category": "Chinese-speaking Bumper repair in Missouri",
    "description": "A NAPA AutoCare Center and full-service auto repair shop for foreign and domestic vehicles",
    "hours": "Mon-Fri 9AM-6PM",
    "services": [
      "Chinese-speaking Bumper repair in Missouri consultation",
      "Professional service",
      "Quality guarantee"
    ],
    "social_links": {}
  },
  {
    "name": "Honea AutoBody",
    "address": "Information not available (St. Louis, MO)",
    "phone": "(314) 644-1266",
    "rating": 4.0,
    "reviews": 25,
    "website": "https://www.google.com/maps/search/Honea+AutoBody+in+Missouri",
    "category": "Chinese-speaking Bumper repair in Missouri",
    "description": "An auto body shop with over 50 years of experience offering collision repair",
    "hours": "Mon-Fri 9AM-6PM",
    "services": [
      "Chinese-speaking Bumper repair in Missouri consultation",
      "Professional service",
      "Quality guarantee"
    ],
    "social_links": {}
  },
  {
    "name": "Mid-America Collision Repair",
    "address": "Information not available (Saint Peters, MO)",
    "phone": "636-498-1899",
    "rating": 4.0,
    "reviews": 25,
    "website": "https://www.google.com/maps/search/Mid-America+Collision+Repair+in+Missouri",
    "category": "Chinese-speaking Bumper repair in Missouri",
    "description": "A full-service mechanical and collision repair shop serving the St. Charles, St. Louis, O'fallon and surrounding areas",
    "hours": "Mon-Fri 9AM-6PM",
    "services": [
      "Chinese-speaking Bumper repair in Missouri consultation",
      "Professional service",
      "Quality guarantee"
    ],
    "social_links": {}
  },
  {
    "name": "BumperDoc Express Auto Body Repair",
    "address": "Information not available (St. Louis, MO)",
    "phone": "",
    "rating": 4.0,
    "reviews": 25,
    "website": "https://www.google.com/maps/search/BumperDoc+Express+Auto+Body+Repair+in+Missouri",
    "category": "Chinese-speaking Bumper repair in Missouri",
    "description": "Offers bumper repair and replacement services, focusing on environmentally friendly repair methods",
    "hours": "Mon-Fri 9AM-6PM",
    "services": [
      "Chinese-speaking Bumper repair in Missouri consultation",
      "Professional service",
      "Quality guarantee"
    ],
    "social_links": {}
  }
]