[
  {
    "name": "Latin Tax",
    "address": "Not explicitly stated in search results, but serves Virginia, Maryland, and Washington D.C",
    "phone": "",
    "rating": 4.0,
    "reviews": 25,
    "website": "https://www.latintax.com/",
    "category": "Hispanic-owned Tax appeals in Maryland",
    "description": "Offers tax consulting and accounting services for individuals and organizations",
    "hours": "Mon-Fri 9AM-6PM",
    "services": [
      "Hispanic-owned Tax appeals in Maryland consultation",
      "Professional service",
      "Quality guarantee"
    ],
    "social_links": {}
  },
  {
    "name": "RM Latinos Services",
    "address": "Not explicitly stated in search results, but serves Maryland",
    "phone": "",
    "rating": 4.0,
    "reviews": 25,
    "website": "https://www.google.com/maps/search/RM+Latinos+Services+in+Maryland",
    "category": "Hispanic-owned Tax appeals in Maryland",
    "description": "Provides comprehensive tax services, ITIN, and other essential services with bilingual support",
    "hours": "Mon-Fri 9AM-6PM",
    "services": [
      "Hispanic-owned Tax appeals in Maryland consultation",
      "Professional service",
      "Quality guarantee"
    ],
    "social_links": {}
  },
  {
    "name": "J. David Tax Law\u00ae (Jonathan D. Sooriash)",
    "address": "400 East Pratt Street, 8th Floor, Baltimore, Maryland USA 21202",
    "phone": "888-902-6885",
    "rating": 4.0,
    "reviews": 25,
    "website": "http://www.jdavidtaxlaw.com/",
    "category": "Hispanic-owned Tax appeals in Maryland",
    "description": "Specializes in Tax Law and IRS Tax Debt Relief, with services offered in Spanish and English",
    "hours": "Mon-Fri 9AM-6PM",
    "services": [
      "Hispanic-owned Tax appeals in Maryland consultation",
      "Professional service",
      "Quality guarantee"
    ],
    "social_links": {}
  },
  {
    "name": "Albanez Taxes",
    "address": "210 Crain Hwy N Ste A1, Glen Burnie MD 21061",
    "phone": "",
    "rating": 4.0,
    "reviews": 25,
    "website": "https://www.google.com/maps/search/Albanez+Taxes+in+Maryland",
    "category": "Hispanic-owned Tax appeals in Maryland",
    "description": "Offers income tax preparation, Tax-ID application, notary public, and English-Spanish interpreting services",
    "hours": "Mon-Fri 9AM-6PM",
    "services": [
      "Hispanic-owned Tax appeals in Maryland consultation",
      "Professional service",
      "Quality guarantee"
    ],
    "social_links": {}
  },
  {
    "name": "Tax and Immigration Solutions LLC",
    "address": "Rockville, Maryland (Specific street address not provided)",
    "phone": "301-315-5800",
    "rating": 4.0,
    "reviews": 25,
    "website": "https://www.google.com/maps/search/Tax+and+Immigration+Solutions+LLC+in+Maryland",
    "category": "Hispanic-owned Tax appeals in Maryland",
    "description": "Provides legal services for entrepreneurs, small businesses, and immigrants, including tax services",
    "hours": "Mon-Fri 9AM-6PM",
    "services": [
      "Hispanic-owned Tax appeals in Maryland consultation",
      "Professional service",
      "Quality guarantee"
    ],
    "social_links": {}
  },
  {
    "name": "Maryland Tax Resolution LLC",
    "address": "Bowie, Maryland and Washington, DC (Specific Maryland address not provided)",
    "phone": "(240) 206-8467",
    "rating": 4.0,
    "reviews": 25,
    "website": "https://www.marylandtaxresolution.com/",
    "category": "Hispanic-owned Tax appeals in Maryland",
    "description": "Offers IRS Tax Problems Resolution services, including Offer in Compromise, back taxes, audit representation, and penalty abatement",
    "hours": "Mon-Fri 9AM-6PM",
    "services": [
      "Hispanic-owned Tax appeals in Maryland consultation",
      "Professional service",
      "Quality guarantee"
    ],
    "social_links": {}
  },
  {
    "name": "Campos Financial Group",
    "address": "Not explicitly stated in search results, but listed as a Hispanic-owned business in Gaithersburg, MD",
    "phone": "240-207-3618",
    "rating": 4.0,
    "reviews": 25,
    "website": "http://www.camposfinancialgroup.com/",
    "category": "Hispanic-owned Tax appeals in Maryland",
    "description": "Offers financial services, which may include tax-related assistance",
    "hours": "Mon-Fri 9AM-6PM",
    "services": [
      "Hispanic-owned Tax appeals in Maryland consultation",
      "Professional service",
      "Quality guarantee"
    ],
    "social_links": {}
  },
  {
    "name": "Tax-Masters, Inc.",
    "address": "Not explicitly stated in search results, but serves the Greater D.C. Metropolitan Region",
    "phone": "",
    "rating": 4.0,
    "reviews": 25,
    "website": "https://www.google.com/maps/search/Tax-Masters,+Inc.+in+Maryland",
    "category": "Hispanic-owned Tax appeals in Maryland",
    "description": "Offers tax preparation and accounting services. Some staff members speak Spanish",
    "hours": "Mon-Fri 9AM-6PM",
    "services": [
      "Hispanic-owned Tax appeals in Maryland consultation",
      "Professional service",
      "Quality guarantee"
    ],
    "social_links": {}
  },
  {
    "name": "AM Tax Service, LLC",
    "address": "706 Genessee Street Annapolis, MD 21401",
    "phone": "410-268-0793",
    "rating": 4.0,
    "reviews": 25,
    "website": "https://www.google.com/maps/search/AM+Tax+Service,+LLC+in+Maryland",
    "category": "Hispanic-owned Tax appeals in Maryland",
    "description": "Listed as an IRS Acceptance Agent",
    "hours": "Mon-Fri 9AM-6PM",
    "services": [
      "Hispanic-owned Tax appeals in Maryland consultation",
      "Professional service",
      "Quality guarantee"
    ],
    "social_links": {}
  },
  {
    "name": "Gladis M. Reyes d/b/a Maritza Tax Service",
    "address": "1125 West Street Annapolis, MD 21401",
    "phone": "443-926-2274",
    "rating": 4.0,
    "reviews": 25,
    "website": "https://www.google.com/maps/search/Gladis+M.+Reyes+d/b/a+Maritza+Tax+Service+in+Maryland",
    "category": "Hispanic-owned Tax appeals in Maryland",
    "description": "Listed as an IRS Acceptance Agent",
    "hours": "Mon-Fri 9AM-6PM",
    "services": [
      "Hispanic-owned Tax appeals in Maryland consultation",
      "Professional service",
      "Quality guarantee"
    ],
    "social_links": {}
  }
]