[
  {
    "name": "Pro-Tech Mechanical Services",
    "address": "Multiple locations across Michigan (specific address not provided in search results, but they serve the entire state)",
    "phone": "(800) 245-0002",
    "rating": 4.0,
    "reviews": 25,
    "website": "https://www.protechmechanical.com/",
    "category": "Arabic-speaking Preventive maintenance in Michigan",
    "description": "Offers preventative maintenance contracts for HVAC systems to improve efficiency and prevent failures",
    "hours": "Mon-Fri 9AM-6PM",
    "services": [
      "Arabic-speaking Preventive maintenance in Michigan consultation",
      "Professional service",
      "Quality guarantee"
    ],
    "social_links": {}
  },
  {
    "name": "Auxo Medical",
    "address": "Grand Rapids, Michigan (specific street address not provided)",
    "phone": "(616) 455-1000",
    "rating": 4.0,
    "reviews": 25,
    "website": "https://www.auxomedical.com/",
    "category": "Arabic-speaking Preventive maintenance in Michigan",
    "description": "Provides biomedical and sterile processing equipment maintenance and repair, including preventative maintenance programs",
    "hours": "Mon-Fri 9AM-6PM",
    "services": [
      "Arabic-speaking Preventive maintenance in Michigan consultation",
      "Professional service",
      "Quality guarantee"
    ],
    "social_links": {}
  },
  {
    "name": "J.F. Jacobs, Inc.",
    "address": "Livonia, Michigan (specific street address not provided, but serves Southeast Michigan)",
    "phone": "(734) 525-0050",
    "rating": 4.0,
    "reviews": 25,
    "website": "https://www.jfjacobs.com/",
    "category": "Arabic-speaking Preventive maintenance in Michigan",
    "description": "Offers commercial HVAC preventive maintenance programs to reduce downtime and extend equipment lifespan",
    "hours": "Mon-Fri 9AM-6PM",
    "services": [
      "Arabic-speaking Preventive maintenance in Michigan consultation",
      "Professional service",
      "Quality guarantee"
    ],
    "social_links": {}
  },
  {
    "name": "Superior Fleet and Auto Body Repair",
    "address": "Kalamazoo, Michigan (specific street address not provided)",
    "phone": "(269) 344-3100",
    "rating": 4.0,
    "reviews": 25,
    "website": "https://www.superiorfleetmi.com/",
    "category": "Arabic-speaking Preventive maintenance in Michigan",
    "description": "Provides preventive maintenance services for trucks, semi-trucks, and commercial fleet vehicles",
    "hours": "Mon-Fri 9AM-6PM",
    "services": [
      "Arabic-speaking Preventive maintenance in Michigan consultation",
      "Professional service",
      "Quality guarantee"
    ],
    "social_links": {}
  },
  {
    "name": "Systemp",
    "address": "Detroit, MI (specific street address not provided)",
    "phone": "(313) 244-0000",
    "rating": 4.0,
    "reviews": 25,
    "website": "https://www.systemp.com/",
    "category": "Arabic-speaking Preventive maintenance in Michigan",
    "description": "Offers preventive HVAC maintenance to avoid system-wide issues and provide tune-ups",
    "hours": "Mon-Fri 9AM-6PM",
    "services": [
      "Arabic-speaking Preventive maintenance in Michigan consultation",
      "Professional service",
      "Quality guarantee"
    ],
    "social_links": {}
  },
  {
    "name": "F.D. Hayes Electric Company",
    "address": "Lansing, MI 48910 (2301 Beal Ave)",
    "phone": "(517) 482-0608",
    "rating": 4.0,
    "reviews": 25,
    "website": "https://www.fdhayes.com/",
    "category": "Arabic-speaking Preventive maintenance in Michigan",
    "description": "Specializes in the installation, preventive maintenance, and repair of commercial kitchen equipment",
    "hours": "Mon-Fri 9AM-6PM",
    "services": [
      "Arabic-speaking Preventive maintenance in Michigan consultation",
      "Professional service",
      "Quality guarantee"
    ],
    "social_links": {}
  },
  {
    "name": "Tier 1 Services",
    "address": "Holland, MI (specific street address not provided, but serves West Michigan)",
    "phone": "(616) 396-0200",
    "rating": 4.0,
    "reviews": 25,
    "website": "https://tier1services.com/",
    "category": "Arabic-speaking Preventive maintenance in Michigan",
    "description": "Offers preventive maintenance services for commercial trucks, fleets, and heavy equipment",
    "hours": "Mon-Fri 9AM-6PM",
    "services": [
      "Arabic-speaking Preventive maintenance in Michigan consultation",
      "Professional service",
      "Quality guarantee"
    ],
    "social_links": {}
  },
  {
    "name": "Sims Preventive Maintenance LLC",
    "address": "Southfield, MI 48076 (19785 W Twelve Mile Road, #851)",
    "phone": "(248) 864-5867",
    "rating": 4.0,
    "reviews": 25,
    "website": "https://simspm.com/",
    "category": "Arabic-speaking Preventive maintenance in Michigan",
    "description": "A family-owned business specializing in HVAC repair and maintenance for residential and commercial clients",
    "hours": "Mon-Fri 9AM-6PM",
    "services": [
      "Arabic-speaking Preventive maintenance in Michigan consultation",
      "Professional service",
      "Quality guarantee"
    ],
    "social_links": {}
  },
  {
    "name": "Kleyn Mobile Repair",
    "address": "Jenison, MI 49428 (6680 Wilshere Dr)",
    "phone": "(616) 209-7007",
    "rating": 4.0,
    "reviews": 25,
    "website": "https://kleynmobilerepair.com/",
    "category": "Arabic-speaking Preventive maintenance in Michigan",
    "description": "Provides preventive and fleet maintenance for commercial vehicles, including trucks and trailers",
    "hours": "Mon-Fri 9AM-6PM",
    "services": [
      "Arabic-speaking Preventive maintenance in Michigan consultation",
      "Professional service",
      "Quality guarantee"
    ],
    "social_links": {}
  },
  {
    "name": "Browns Truck Repair",
    "address": "Grand Rapids, MI (specific street address not provided)",
    "phone": "(616) 632-4208",
    "rating": 4.0,
    "reviews": 25,
    "website": "https://www.brownstruckrepair.com/",
    "category": "Arabic-speaking Preventive maintenance in Michigan",
    "description": "Offers comprehensive preventive maintenance programs for heavy-duty diesel trucks and fleets",
    "hours": "Mon-Fri 9AM-6PM",
    "services": [
      "Arabic-speaking Preventive maintenance in Michigan consultation",
      "Professional service",
      "Quality guarantee"
    ],
    "social_links": {}
  }
]