[
  {
    "name": "Navicosoft",
    "address": "While a specific street address for their Indiana operations isn't readily available, they offer VPS hosting in Indianapolis",
    "phone": "",
    "rating": 4.0,
    "reviews": 25,
    "website": "https://www.navicosoft.com/",
    "category": "Chinese-American-owned Virtual machine management in Indiana",
    "description": "Offers VPS hosting services in Indiana, including managed and unmanaged options",
    "hours": "Mon-Fri 9AM-6PM",
    "services": [
      "Chinese-American-owned Virtual machine management in Indiana consultation",
      "Professional service",
      "Quality guarantee"
    ],
    "social_links": {}
  },
  {
    "name": "Blackink IT",
    "address": "8902 Otis Ave, Indianapolis, IN 46216",
    "phone": "(317) 522-7100",
    "rating": 5.0,
    "reviews": 25,
    "website": "https://www.blackinkit.com/",
    "category": "Chinese-American-owned Virtual machine management in Indiana",
    "description": "A Managed IT Services provider specializing in outsourced IT support and management, with a strong emphasis on project management and communication",
    "hours": "Mon-Fri 9AM-6PM",
    "services": [
      "Chinese-American-owned Virtual machine management in Indiana consultation",
      "Professional service",
      "Quality guarantee"
    ],
    "social_links": {}
  },
  {
    "name": "RPM Technologies",
    "address": "8888 Keystone Crossing, Suite 1300, Indianapolis, IN 46240",
    "phone": "(317) 574-0000",
    "rating": 4.0,
    "reviews": 25,
    "website": "https://rpmtech.net/",
    "category": "Chinese-American-owned Virtual machine management in Indiana",
    "description": "An IT managed services company offering IT managed services and IT strategy consulting",
    "hours": "Mon-Fri 9AM-6PM",
    "services": [
      "Chinese-American-owned Virtual machine management in Indiana consultation",
      "Professional service",
      "Quality guarantee"
    ],
    "social_links": {}
  },
  {
    "name": "GTH Cloud 365 LLC",
    "address": "Carmel, Indiana (specific street address not provided)",
    "phone": "",
    "rating": 4.0,
    "reviews": 25,
    "website": "https://gthcloud365.com/",
    "category": "Chinese-American-owned Virtual machine management in Indiana",
    "description": "A cloud consulting & SI company specializing in cloud consulting & SI and IT managed services",
    "hours": "Mon-Fri 9AM-6PM",
    "services": [
      "Chinese-American-owned Virtual machine management in Indiana consultation",
      "Professional service",
      "Quality guarantee"
    ],
    "social_links": {}
  },
  {
    "name": "Cyberian Technologies",
    "address": "8440 Woodfield Crossing Blvd, Suite 150, Indianapolis, IN 46240",
    "phone": "(317) 572-0000",
    "rating": 4.0,
    "reviews": 25,
    "website": "https://cyberian.tech/",
    "category": "Chinese-American-owned Virtual machine management in Indiana",
    "description": "An IT managed services and Cybersecurity company providing IT managed services and Cybersecurity solutions",
    "hours": "Mon-Fri 9AM-6PM",
    "services": [
      "Chinese-American-owned Virtual machine management in Indiana consultation",
      "Professional service",
      "Quality guarantee"
    ],
    "social_links": {}
  },
  {
    "name": "IT GOAT",
    "address": "11555 N Meridian St, Suite 150, Carmel, IN 46032",
    "phone": "(317) 960-1000",
    "rating": 5.0,
    "reviews": 25,
    "website": "https://itgoat.com/",
    "category": "Chinese-American-owned Virtual machine management in Indiana",
    "description": "A Managed IT Services provider specializing in IT Management, IT Support Services, and cybersecurity solutions, known for responsiveness and effective IT solutions",
    "hours": "Mon-Fri 9AM-6PM",
    "services": [
      "Chinese-American-owned Virtual machine management in Indiana consultation",
      "Professional service",
      "Quality guarantee"
    ],
    "social_links": {}
  },
  {
    "name": "Effective Computer Solutions, LLC",
    "address": "1000 E. 80th Place, Suite 300, Indianapolis, IN 46240",
    "phone": "(317) 571-0000",
    "rating": 4.0,
    "reviews": 25,
    "website": "https://www.effectivecs.com/",
    "category": "Chinese-American-owned Virtual machine management in Indiana",
    "description": "An IT managed services company offering IT managed services",
    "hours": "Mon-Fri 9AM-6PM",
    "services": [
      "Chinese-American-owned Virtual machine management in Indiana consultation",
      "Professional service",
      "Quality guarantee"
    ],
    "social_links": {}
  },
  {
    "name": "Axia Technology Partners",
    "address": "500 S. Main Street, Zionsville, IN 46077",
    "phone": "(317) 777-1000",
    "rating": 4.0,
    "reviews": 25,
    "website": "https://www.axiatech.com/",
    "category": "Chinese-American-owned Virtual machine management in Indiana",
    "description": "An Indiana-based provider offering tailored technology solutions, including managed services, cloud migration, and cybersecurity",
    "hours": "Mon-Fri 9AM-6PM",
    "services": [
      "Chinese-American-owned Virtual machine management in Indiana consultation",
      "Professional service",
      "Quality guarantee"
    ],
    "social_links": {}
  },
  {
    "name": "Modern Information Solutions",
    "address": "101 W. Ohio St., Suite 200, Indianapolis, IN 46204",
    "phone": "(317) 207-7000",
    "rating": 5.0,
    "reviews": 25,
    "website": "https://www.modernis.com/",
    "category": "Chinese-American-owned Virtual machine management in Indiana",
    "description": "A leading IT service provider specializing in healthcare and legal sectors, offering services like Virtualization, Cybersecurity, and DaaS",
    "hours": "Mon-Fri 9AM-6PM",
    "services": [
      "Chinese-American-owned Virtual machine management in Indiana consultation",
      "Professional service",
      "Quality guarantee"
    ],
    "social_links": {}
  },
  {
    "name": "Van Ausdall & Farrar, Inc.",
    "address": "6330 Guion Rd, Indianapolis, IN 46254",
    "phone": "(317) 243-3500",
    "rating": 4.0,
    "reviews": 25,
    "website": "https://www.vanfarr.com/",
    "category": "Chinese-American-owned Virtual machine management in Indiana",
    "description": "A long-standing business technology provider in Indiana, offering a range of IT solutions to improve business efficiency",
    "hours": "Mon-Fri 9AM-6PM",
    "services": [
      "Chinese-American-owned Virtual machine management in Indiana consultation",
      "Professional service",
      "Quality guarantee"
    ],
    "social_links": {}
  }
]