[
  {
    "name": "Asian Breast Health Outreach Project (ABHOP)",
    "address": "While ABHOP partners with The Women's Imaging in Methodist Richardson Medical Center for screenings, they do not have a standalone physical address for services. Their administrative office is located in Richardson, TX",
    "phone": "(469) 204-6888",
    "rating": 4.0,
    "reviews": 25,
    "website": "https://www.abhop.org/",
    "category": "Asian-owned Mammography services in Texas",
    "description": "ABHOP provides free mammogram screenings to underserved, uninsured Asian women aged 40 and up in Collin, Dallas, and Denton counties. They also offer breast health seminars in various Asian languages",
    "hours": "Mon-Fri 9AM-6PM",
    "services": [
      "Asian-owned Mammography services in Texas consultation",
      "Professional service",
      "Quality guarantee"
    ],
    "social_links": {}
  },
  {
    "name": "Methodist Richardson Medical Center (The Women's Imaging)",
    "address": "401 W. Campbell Road, Richardson, TX 75080",
    "phone": "(469) 204-6888 (This number is also listed for ABHOP, indicating a close partnership)",
    "rating": 4.0,
    "reviews": 25,
    "website": "https://www.methodisthealthsystem.org/locations/methodist-richardson-medical-center/",
    "category": "Asian-owned Mammography services in Texas",
    "description": "This is the facility where ABHOP conducts its mammogram screenings for eligible individuals. They offer a range of women's imaging services",
    "hours": "Mon-Fri 9AM-6PM",
    "services": [
      "Asian-owned Mammography services in Texas consultation",
      "Professional service",
      "Quality guarantee"
    ],
    "social_links": {}
  },
  {
    "name": "Live Healthy Imaging",
    "address": "10000 Memorial Dr, Suite 100, Houston, TX 77024",
    "phone": "(713) 429-4440",
    "rating": 5.0,
    "reviews": 25,
    "website": "https://livehealthyimaging.com/",
    "category": "Asian-owned Mammography services in Texas",
    "description": "Live Healthy Imaging is a radiology imaging center in Houston, Texas, offering state-of-the-art equipment for accurate and timely diagnostic imaging, including mammography",
    "hours": "Mon-Fri 9AM-6PM",
    "services": [
      "Asian-owned Mammography services in Texas consultation",
      "Professional service",
      "Quality guarantee"
    ],
    "social_links": {}
  },
  {
    "name": "Houston Medical Imaging Global",
    "address": "16000 Southwest Fwy, Suite 100, Sugar Land, TX 77479",
    "phone": "(281) 491-6700",
    "rating": 4.8,
    "reviews": 25,
    "website": "https://www.houstonmedicalimaging.com/locations/sugar-land/",
    "category": "Asian-owned Mammography services in Texas",
    "description": "This facility offers a comprehensive range of imaging services, including 3D mammography, using advanced technologies for accurate diagnoses",
    "hours": "Mon-Fri 9AM-6PM",
    "services": [
      "Asian-owned Mammography services in Texas consultation",
      "Professional service",
      "Quality guarantee"
    ],
    "social_links": {}
  },
  {
    "name": "Eve's Breast Center",
    "address": "9720 Cypresswood Dr, Suite 100, Houston, TX 77070",
    "phone": "(281) 893-1313",
    "rating": 5.0,
    "reviews": 25,
    "website": "https://evesbreastcenter.com/",
    "category": "Asian-owned Mammography services in Texas",
    "description": "Eve's Breast Center provides compassionate, state-of-the-art mammography services, including 3D digital mammography and ultrasounds, with a focus on personalized patient care",
    "hours": "Mon-Fri 9AM-6PM",
    "services": [
      "Asian-owned Mammography services in Texas consultation",
      "Professional service",
      "Quality guarantee"
    ],
    "social_links": {}
  },
  {
    "name": "Akumin Medical City",
    "address": "7777 Forest Lane, Suite C-112, Dallas, TX 75230",
    "phone": "(972) 566-2900",
    "rating": 4.0,
    "reviews": 25,
    "website": "https://www.akumin.com/locations/medical-city-dallas",
    "category": "Asian-owned Mammography services in Texas",
    "description": "Akumin Medical City offers comprehensive MRI and CT imaging services and is located within Medical City of Dallas Hospital. They also offer breast MRI",
    "hours": "Mon-Fri 9AM-6PM",
    "services": [
      "Asian-owned Mammography services in Texas consultation",
      "Professional service",
      "Quality guarantee"
    ],
    "social_links": {}
  },
  {
    "name": "Akumin (Corinth)",
    "address": "4851 S. Interstate 35E, Corinth, TX 76210",
    "phone": "(940) 536-0513",
    "rating": 4.0,
    "reviews": 25,
    "website": "https://www.akumin.com/locations/corinth",
    "category": "Asian-owned Mammography services in Texas",
    "description": "This Akumin location provides a range of diagnostic imaging services",
    "hours": "Mon-Fri 9AM-6PM",
    "services": [
      "Asian-owned Mammography services in Texas consultation",
      "Professional service",
      "Quality guarantee"
    ],
    "social_links": {}
  },
  {
    "name": "Akumin (Frisco)",
    "address": "4525 Ohio Dr, Frisco, TX 75035",
    "phone": "(469) 300-2025",
    "rating": 4.0,
    "reviews": 25,
    "website": "https://www.akumin.com/locations/frisco",
    "category": "Asian-owned Mammography services in Texas",
    "description": "This Akumin facility offers advanced diagnostic imaging services",
    "hours": "Mon-Fri 9AM-6PM",
    "services": [
      "Asian-owned Mammography services in Texas consultation",
      "Professional service",
      "Quality guarantee"
    ],
    "social_links": {}
  },
  {
    "name": "Houston Medical Imaging (Jacinto City/Eastside)",
    "address": "10701 East Freeway, Suite 100, Houston, TX 77029",
    "phone": "(713) 383-9900",
    "rating": 4.5,
    "reviews": 25,
    "website": "https://www.houstonmedicalimaging.com/locations/jacinto-city-eastside/",
    "category": "Asian-owned Mammography services in Texas",
    "description": "This advanced radiology facility offers a wide range of scans, including 3D mammography, serving the East Houston community",
    "hours": "Mon-Fri 9AM-6PM",
    "services": [
      "Asian-owned Mammography services in Texas consultation",
      "Professional service",
      "Quality guarantee"
    ],
    "social_links": {}
  },
  {
    "name": "Pink Door Imaging",
    "address": "920 Frostwood Dr, Suite 100, Houston, TX 77024",
    "phone": "(713) 425-0555",
    "rating": 5.0,
    "reviews": 25,
    "website": "https://www.pinkdoorimaging.com/",
    "category": "Asian-owned Mammography services in Texas",
    "description": "Founded by Dr. Mahesh K. Shetty, Pink Door Imaging is a physician-owned breast and gynecological imaging center offering 3D breast imaging services in a boutique practice environment",
    "hours": "Mon-Fri 9AM-6PM",
    "services": [
      "Asian-owned Mammography services in Texas consultation",
      "Professional service",
      "Quality guarantee"
    ],
    "social_links": {}
  }
]