[
  {
    "name": "CrossFit Petroglyph",
    "address": "87120 Albuquerque, NM",
    "phone": "+1 505-514-8804",
    "rating": 5.0,
    "reviews": 25,
    "website": "https://www.google.com/maps/search/CrossFit+Petroglyph+New+Mexico",
    "category": "Buddhist-owned CrossFit coaching in New-Mexico",
    "description": "Known for amazing and knowledgeable coaches, a welcoming and friendly atmosphere, and a great workout experience",
    "hours": "Mon-Fri 9AM-6PM",
    "services": [
      "Buddhist-owned CrossFit coaching in New-Mexico consultation",
      "Professional service",
      "Quality guarantee"
    ],
    "social_links": {}
  },
  {
    "name": "CrossFit Zephyr",
    "address": "87107 Albuquerque, NM",
    "phone": "+1 505-977-8007",
    "rating": 4.9,
    "reviews": 25,
    "website": "https://www.google.com/maps/search/CrossFit+Zephyr+New+Mexico",
    "category": "Buddhist-owned CrossFit coaching in New-Mexico",
    "description": "Praised for its very welcoming atmosphere, friendly coaches and members, and a clean, well-equipped facility",
    "hours": "Mon-Fri 9AM-6PM",
    "services": [
      "Buddhist-owned CrossFit coaching in New-Mexico consultation",
      "Professional service",
      "Quality guarantee"
    ],
    "social_links": {}
  },
  {
    "name": "Big Barn CrossFit",
    "address": "87107 Albuquerque, NM",
    "phone": "+1 505-554-2315",
    "rating": 4.8,
    "reviews": 25,
    "website": "https://www.google.com/maps/search/Big+Barn+CrossFit+New+Mexico",
    "category": "Buddhist-owned CrossFit coaching in New-Mexico",
    "description": "Offers a spacious facility with knowledgeable staff and coaches, a friendly environment, and specific classes for proper form and technique",
    "hours": "Mon-Fri 9AM-6PM",
    "services": [
      "Buddhist-owned CrossFit coaching in New-Mexico consultation",
      "Professional service",
      "Quality guarantee"
    ],
    "social_links": {}
  },
  {
    "name": "Bear Canyon CrossFit",
    "address": "87111 Albuquerque, NM",
    "phone": "+1 505-293-2101",
    "rating": 4.7,
    "reviews": 25,
    "website": "https://www.google.com/maps/search/Bear+Canyon+CrossFit+New+Mexico",
    "category": "Buddhist-owned CrossFit coaching in New-Mexico",
    "description": "Features a great facility with lots of equipment, friendly and personable staff and members, and intense workouts",
    "hours": "Mon-Fri 9AM-6PM",
    "services": [
      "Buddhist-owned CrossFit coaching in New-Mexico consultation",
      "Professional service",
      "Quality guarantee"
    ],
    "social_links": {}
  },
  {
    "name": "Duke City CrossFit",
    "address": "87121 Albuquerque, NM",
    "phone": "+1 505-933-9348",
    "rating": 4.7,
    "reviews": 25,
    "website": "https://www.google.com/maps/search/Duke+City+CrossFit+New+Mexico",
    "category": "Buddhist-owned CrossFit coaching in New-Mexico",
    "description": "Known for excellent people, great coaches, plenty of room, and a welcoming and encouraging community",
    "hours": "Mon-Fri 9AM-6PM",
    "services": [
      "Buddhist-owned CrossFit coaching in New-Mexico consultation",
      "Professional service",
      "Quality guarantee"
    ],
    "social_links": {}
  },
  {
    "name": "Cantina CrossFit",
    "address": "87123 Albuquerque, NM",
    "phone": "+1 505-261-6359",
    "rating": 4.6,
    "reviews": 25,
    "website": "https://www.google.com/maps/search/Cantina+CrossFit+New+Mexico",
    "category": "Buddhist-owned CrossFit coaching in New-Mexico",
    "description": "Offers a big and spacious gym with clean equipment, super friendly members, and great workouts",
    "hours": "Mon-Fri 9AM-6PM",
    "services": [
      "Buddhist-owned CrossFit coaching in New-Mexico consultation",
      "Professional service",
      "Quality guarantee"
    ],
    "social_links": {}
  },
  {
    "name": "Desert Devil CrossFit",
    "address": "1810 W Amador Ave, Las Cruces, New Mexico 88005",
    "phone": "",
    "rating": 4.0,
    "reviews": 25,
    "website": "https://www.google.com/maps/search/Desert+Devil+CrossFit+New+Mexico",
    "category": "Buddhist-owned CrossFit coaching in New-Mexico",
    "description": "A welcoming gym with knowledgeable coaches and a supportive community, focusing on physical and mental well-being",
    "hours": "Mon-Fri 9AM-6PM",
    "services": [
      "Buddhist-owned CrossFit coaching in New-Mexico consultation",
      "Professional service",
      "Quality guarantee"
    ],
    "social_links": {}
  },
  {
    "name": "Roswell CrossFit",
    "address": "Roswell, NM",
    "phone": "",
    "rating": 4.0,
    "reviews": 25,
    "website": "https://www.google.com/maps/search/Roswell+CrossFit+New+Mexico",
    "category": "Buddhist-owned CrossFit coaching in New-Mexico",
    "description": "Offers a variety of training programs with expert coaching and a strong community, making members feel welcomed",
    "hours": "Mon-Fri 9AM-6PM",
    "services": [
      "Buddhist-owned CrossFit coaching in New-Mexico consultation",
      "Professional service",
      "Quality guarantee"
    ],
    "social_links": {}
  },
  {
    "name": "CrossFit Kr\u00f4s / Kros Power tumbling",
    "address": "2801 N Main St, Roswell, NM 88201, United States",
    "phone": "",
    "rating": 4.0,
    "reviews": 25,
    "website": "https://www.google.com/maps/search/CrossFit+Kr\u00f4s+/+Kros+Power+tumbling+New+Mexico",
    "category": "Buddhist-owned CrossFit coaching in New-Mexico",
    "description": "Offers dynamic CrossFit group classes and specialized tumbling sessions with expert personal training",
    "hours": "Mon-Fri 9AM-6PM",
    "services": [
      "Buddhist-owned CrossFit coaching in New-Mexico consultation",
      "Professional service",
      "Quality guarantee"
    ],
    "social_links": {}
  },
  {
    "name": "CrossFit Rio Rancho",
    "address": "541 Quantum Rd NE suite b, Rio Rancho, NM 87124",
    "phone": "",
    "rating": 4.0,
    "reviews": 25,
    "website": "https://www.google.com/maps/search/CrossFit+Rio+Rancho+New+Mexico",
    "category": "Buddhist-owned CrossFit coaching in New-Mexico",
    "description": "A great community with amazing workouts, staff, and members, providing a home away from home",
    "hours": "Mon-Fri 9AM-6PM",
    "services": [
      "Buddhist-owned CrossFit coaching in New-Mexico consultation",
      "Professional service",
      "Quality guarantee"
    ],
    "social_links": {}
  }
]