[
  {
    "name": "Center for Advanced Imaging (CAI)",
    "address": "64 Medical Center Drive, Morgantown, WV 26506-9600",
    "phone": "(304) 598-4000 (General WVU Medicine number, specific department may vary)",
    "rating": 4.0,
    "reviews": 25,
    "website": "https://medicine.hsc.wvu.edu/radiology/center-for-advanced-imaging/",
    "category": "Arabic-speaking X-ray services in West-Virginia",
    "description": "Offers a wide range of advanced imaging services, including PET/CT, MRI, and nuclear imaging",
    "hours": "Mon-Fri 9AM-6PM",
    "services": [
      "Arabic-speaking X-ray services in West-Virginia consultation",
      "Professional service",
      "Quality guarantee"
    ],
    "social_links": {}
  },
  {
    "name": "WVU Medicine Imaging Services (Ruby Memorial Hospital)",
    "address": "University Town Centre Clinic, 6040 University Town Centre Drive, Morgantown, WV 26501",
    "phone": "(304) 598-6500 (General scheduling number)",
    "rating": 4.0,
    "reviews": 25,
    "website": "https://wvumedicine.org/ruby-memorial-hospital/services/imaging/",
    "category": "Arabic-speaking X-ray services in West-Virginia",
    "description": "Provides various imaging tests such as X-ray, MRI, CT, PET, and ultrasound",
    "hours": "Mon-Fri 9AM-6PM",
    "services": [
      "Arabic-speaking X-ray services in West-Virginia consultation",
      "Professional service",
      "Quality guarantee"
    ],
    "social_links": {}
  },
  {
    "name": "Princeton Community Hospital - Medical Imaging",
    "address": "122 Twelfth Street, Princeton, WV 24740",
    "phone": "(304) 487-7665",
    "rating": 4.0,
    "reviews": 25,
    "website": "https://www.princetoncommunityhosp.com/services/medical-imaging",
    "category": "Arabic-speaking X-ray services in West-Virginia",
    "description": "Offers advanced imaging capabilities including MRI, CT scanners, ultrasound, PET/CT, and nuclear medicine",
    "hours": "Mon-Fri 9AM-6PM",
    "services": [
      "Arabic-speaking X-ray services in West-Virginia consultation",
      "Professional service",
      "Quality guarantee"
    ],
    "social_links": {}
  },
  {
    "name": "Berkeley Medical Center - Radiology",
    "address": "2500 Hospital Drive, Martinsburg, WV 25401",
    "phone": "(304) 264-1297 (Option 2 for scheduling)",
    "rating": 4.0,
    "reviews": 25,
    "website": "https://wvumedicine.org/berkeley-medical-center/services/radiology/",
    "category": "Arabic-speaking X-ray services in West-Virginia",
    "description": "Provides high-quality imaging services including MRI, CT scans, ultrasound, and PET scans",
    "hours": "Mon-Fri 9AM-6PM",
    "services": [
      "Arabic-speaking X-ray services in West-Virginia consultation",
      "Professional service",
      "Quality guarantee"
    ],
    "social_links": {}
  },
  {
    "name": "MedBridge WV",
    "address": "51 Southland Dr Suite 1200, Fairmont, WV 26554",
    "phone": "(304) 363-1111",
    "rating": 4.0,
    "reviews": 25,
    "website": "https://medbridgewv.com/services/x-ray-imaging/",
    "category": "Arabic-speaking X-ray services in West-Virginia",
    "description": "Offers on-site X-ray services for diagnostic purposes",
    "hours": "Mon-Fri 9AM-6PM",
    "services": [
      "Arabic-speaking X-ray services in West-Virginia consultation",
      "Professional service",
      "Quality guarantee"
    ],
    "social_links": {}
  },
  {
    "name": "Wheeling Hospital - Radiology Outpatient Clinics",
    "address": "Wheeling Clinic, 58 16th Street, Wheeling, WV 26003",
    "phone": "(304) 234-2100",
    "rating": 4.0,
    "reviews": 25,
    "website": "https://www.wheelinghospital.org/services/radiology/",
    "category": "Arabic-speaking X-ray services in West-Virginia",
    "description": "Provides general radiology services at various outpatient locations",
    "hours": "Mon-Fri 9AM-6PM",
    "services": [
      "Arabic-speaking X-ray services in West-Virginia consultation",
      "Professional service",
      "Quality guarantee"
    ],
    "social_links": {}
  },
  {
    "name": "Southern West Virginia Health System - X-Ray Services",
    "address": "Participating locations (specific addresses not detailed for all)",
    "phone": "(304) 824-5860 (Billing office, general inquiries may vary)",
    "rating": 4.0,
    "reviews": 25,
    "website": "https://www.swvhs.org/services/x-ray-services/",
    "category": "Arabic-speaking X-ray services in West-Virginia",
    "description": "Offers convenient on-site X-ray services at select locations",
    "hours": "Mon-Fri 9AM-6PM",
    "services": [
      "Arabic-speaking X-ray services in West-Virginia consultation",
      "Professional service",
      "Quality guarantee"
    ],
    "social_links": {}
  },
  {
    "name": "Cabell Huntington Hospital - Radiology",
    "address": "1340 Hal Greer Blvd, Huntington, WV 25701",
    "phone": "(304) 526-2120 (Radiology Main)",
    "rating": 4.0,
    "reviews": 25,
    "website": "https://www.cabellhuntington.org/services/radiology/",
    "category": "Arabic-speaking X-ray services in West-Virginia",
    "description": "Provides a complete range of modern radiology techniques, including X-rays, CT, MRI, and ultrasound",
    "hours": "Mon-Fri 9AM-6PM",
    "services": [
      "Arabic-speaking X-ray services in West-Virginia consultation",
      "Professional service",
      "Quality guarantee"
    ],
    "social_links": {}
  },
  {
    "name": "Barbour Community Health Association - Radiology Services",
    "address": "Barbour Quick Care, 95 S. Crim Ave, Belington, WV 26250",
    "phone": "(304) 823-3980",
    "rating": 4.0,
    "reviews": 25,
    "website": "https://www.bcha.com/radiology-services/",
    "category": "Arabic-speaking X-ray services in West-Virginia",
    "description": "Offers digital X-rays for diagnosis and treatment guidance",
    "hours": "Mon-Fri 9AM-6PM",
    "services": [
      "Arabic-speaking X-ray services in West-Virginia consultation",
      "Professional service",
      "Quality guarantee"
    ],
    "social_links": {}
  },
  {
    "name": "Mon Health Medical Center - Radiology Services",
    "address": "1 Medical Center Drive, Morgantown, WV 26506",
    "phone": "(304) 598-1280 (For questions)",
    "rating": 4.0,
    "reviews": 25,
    "website": "https://www.monhealth.org/services/radiology",
    "category": "Arabic-speaking X-ray services in West-Virginia",
    "description": "Provides high-quality diagnostic services using advanced digital imaging equipment",
    "hours": "Mon-Fri 9AM-6PM",
    "services": [
      "Arabic-speaking X-ray services in West-Virginia consultation",
      "Professional service",
      "Quality guarantee"
    ],
    "social_links": {}
  }
]