[
  {
    "name": "Lincoln Technical Institute",
    "address": "919 US-1, South Plainfield, NJ 07080",
    "phone": "(888) 557-1974",
    "rating": 4.0,
    "reviews": 25,
    "website": "https://www.lincolntech.edu/campus/south-plainfield-nj",
    "category": "Central-American-owned Trade schools in New-Jersey",
    "description": "Lincoln Tech offers career training programs in areas such as automotive technology, HVAC, and electrical and electronics. They emphasize hands-on learning and career services to help graduates find employment",
    "hours": "Mon-Fri 9AM-6PM",
    "services": [
      "Central-American-owned Trade schools in New-Jersey consultation",
      "Professional service",
      "Quality guarantee"
    ],
    "social_links": {}
  },
  {
    "name": "Universal Technical Institute (UTI)",
    "address": "1539 Springfield Ave, Bloomfield, NJ 07003",
    "phone": "(800) 915-3355",
    "rating": 3.7,
    "reviews": 25,
    "website": "https://www.uti.edu/locations/new-jersey/bloomfield",
    "category": "Central-American-owned Trade schools in New-Jersey",
    "description": "UTI provides specialized training for careers in the transportation, energy, and advanced manufacturing industries, including automotive, diesel, and welding technology",
    "hours": "Mon-Fri 9AM-6PM",
    "services": [
      "Central-American-owned Trade schools in New-Jersey consultation",
      "Professional service",
      "Quality guarantee"
    ],
    "social_links": {}
  },
  {
    "name": "American Institute",
    "address": "1077 Route 34, Ste 101, Wall Township, NJ 07719",
    "phone": "(888) 387-5260",
    "rating": 4.0,
    "reviews": 25,
    "website": "https://www.american-institute.com/locations/wall-township-nj/",
    "category": "Central-American-owned Trade schools in New-Jersey",
    "description": "American Institute offers career education in allied health, diagnostic medical sonography, and information technology, preparing students for entry-level positions in these fields",
    "hours": "Mon-Fri 9AM-6PM",
    "services": [
      "Central-American-owned Trade schools in New-Jersey consultation",
      "Professional service",
      "Quality guarantee"
    ],
    "social_links": {}
  },
  {
    "name": "Eastwick College",
    "address": "250 Passaic St, Hackensack, NJ 07601",
    "phone": "(201) 487-2777",
    "rating": 4.1,
    "reviews": 25,
    "website": "https://www.eastwick.edu/",
    "category": "Central-American-owned Trade schools in New-Jersey",
    "description": "Eastwick College provides a range of healthcare and technology programs, focusing on practical skills and career development for students",
    "hours": "Mon-Fri 9AM-6PM",
    "services": [
      "Central-American-owned Trade schools in New-Jersey consultation",
      "Professional service",
      "Quality guarantee"
    ],
    "social_links": {}
  },
  {
    "name": "Fortis Institute",
    "address": "1000 Valley Rd, Wayne, NJ 07470",
    "phone": "(973) 633-7000",
    "rating": 3.9,
    "reviews": 25,
    "website": "https://www.fortisinstitute.com/locations/wayne-nj/",
    "category": "Central-American-owned Trade schools in New-Jersey",
    "description": "Fortis Institute offers career training in healthcare and skilled trades, including medical assisting, HVAC, and electrical systems technician programs",
    "hours": "Mon-Fri 9AM-6PM",
    "services": [
      "Central-American-owned Trade schools in New-Jersey consultation",
      "Professional service",
      "Quality guarantee"
    ],
    "social_links": {}
  },
  {
    "name": "Camden County College",
    "address": "200 College Dr, Blackwood, NJ 08012",
    "phone": "(856) 227-7200",
    "rating": 4.3,
    "reviews": 25,
    "website": "https://www.camdencc.edu/",
    "category": "Central-American-owned Trade schools in New-Jersey",
    "description": "This community college offers numerous certificate and associate degree programs in various technical fields, providing a strong foundation for career entry or further education",
    "hours": "Mon-Fri 9AM-6PM",
    "services": [
      "Central-American-owned Trade schools in New-Jersey consultation",
      "Professional service",
      "Quality guarantee"
    ],
    "social_links": {}
  },
  {
    "name": "Raritan Valley Community College",
    "address": "1400 T Somerville Rd, Branchburg, NJ 08876",
    "phone": "(908) 526-1200",
    "rating": 4.2,
    "reviews": 25,
    "website": "https://www.raritanvalley.edu/",
    "category": "Central-American-owned Trade schools in New-Jersey",
    "description": "RVCC offers a wide array of technical and academic programs, including certificates and associate degrees in high-demand fields like cybersecurity, nursing, and business",
    "hours": "Mon-Fri 9AM-6PM",
    "services": [
      "Central-American-owned Trade schools in New-Jersey consultation",
      "Professional service",
      "Quality guarantee"
    ],
    "social_links": {}
  },
  {
    "name": "Hudson County Community College",
    "address": "70 Sip Ave, Jersey City, NJ 07306",
    "phone": "(201) 615-2000",
    "rating": 4.0,
    "reviews": 25,
    "website": "https://www.hccc.edu/",
    "category": "Central-American-owned Trade schools in New-Jersey",
    "description": "HCCC provides career-focused programs and technical training, along with associate degrees and certificates designed to prepare students for immediate employment or transfer",
    "hours": "Mon-Fri 9AM-6PM",
    "services": [
      "Central-American-owned Trade schools in New-Jersey consultation",
      "Professional service",
      "Quality guarantee"
    ],
    "social_links": {}
  },
  {
    "name": "Bergen Community College",
    "address": "400 Paramus Rd, Paramus, NJ 07652",
    "phone": "(201) 447-7100",
    "rating": 4.1,
    "reviews": 25,
    "website": "https://www.bergen.edu/",
    "category": "Central-American-owned Trade schools in New-Jersey",
    "description": "Bergen Community College offers a variety of career and technical education programs, including certificates and associate degrees, with flexible learning options",
    "hours": "Mon-Fri 9AM-6PM",
    "services": [
      "Central-American-owned Trade schools in New-Jersey consultation",
      "Professional service",
      "Quality guarantee"
    ],
    "social_links": {}
  },
  {
    "name": "Passaic County Community College",
    "address": "1 College Blvd, Paterson, NJ 07501",
    "phone": "(973) 614-7000",
    "rating": 4.2,
    "reviews": 25,
    "website": "https://www.pccc.edu/",
    "category": "Central-American-owned Trade schools in New-Jersey",
    "description": "PCCC offers career-oriented programs and technical training, with certificate and associate degree options aimed at preparing students for specific job roles",
    "hours": "Mon-Fri 9AM-6PM",
    "services": [
      "Central-American-owned Trade schools in New-Jersey consultation",
      "Professional service",
      "Quality guarantee"
    ],
    "social_links": {}
  }
]