[
  {
    "name": "Shoshinkan Las Vegas Dojo",
    "address": "4450 N Tenaya Way #260, Las Vegas, NV 89129",
    "phone": "(702) 338-6463",
    "rating": 4.0,
    "reviews": 25,
    "website": "https://shoshinkanlv.com/",
    "category": "Chinese-speaking Judo classes in Nevada",
    "description": "Offers Judo, Aikido, and Karate. The head instructor, Sensei Yasuo Otoguro, is a former All Japan Judo Champion",
    "hours": "Mon-Fri 9AM-6PM",
    "services": [
      "Chinese-speaking Judo classes in Nevada consultation",
      "Professional service",
      "Quality guarantee"
    ],
    "social_links": {}
  },
  {
    "name": "Ryoku Judo Club",
    "address": "Information not available",
    "phone": "",
    "rating": 4.0,
    "reviews": 25,
    "website": "https://www.google.com/maps/search/Ryoku+Judo+Club+in+Nevada",
    "category": "Chinese-speaking Judo classes in Nevada",
    "description": "Mentioned as a Judo club in Las Vegas, but current status and specific offerings are unclear",
    "hours": "Mon-Fri 9AM-6PM",
    "services": [
      "Chinese-speaking Judo classes in Nevada consultation",
      "Professional service",
      "Quality guarantee"
    ],
    "social_links": {}
  },
  {
    "name": "Las Vegas Kung Fu Academy",
    "address": "Information not available (serves Las Vegas/Henderson area)",
    "phone": "",
    "rating": 4.0,
    "reviews": 25,
    "website": "https://www.google.com/maps/search/Las+Vegas+Kung+Fu+Academy+in+Nevada",
    "category": "Chinese-speaking Judo classes in Nevada",
    "description": "Offers various martial arts including Judo",
    "hours": "Mon-Fri 9AM-6PM",
    "services": [
      "Chinese-speaking Judo classes in Nevada consultation",
      "Professional service",
      "Quality guarantee"
    ],
    "social_links": {}
  },
  {
    "name": "Milestone Martial Arts",
    "address": "Information not available (Las Vegas)",
    "phone": "702-538-8300",
    "rating": 4.0,
    "reviews": 25,
    "website": "https://www.milestonenv.com/",
    "category": "Chinese-speaking Judo classes in Nevada",
    "description": "Offers Jiu-Jitsu, Judo, and Muay Thai",
    "hours": "Mon-Fri 9AM-6PM",
    "services": [
      "Chinese-speaking Judo classes in Nevada consultation",
      "Professional service",
      "Quality guarantee"
    ],
    "social_links": {}
  },
  {
    "name": "Reno Judo Club",
    "address": "Information not available (Reno)",
    "phone": "(775) 350-2700",
    "rating": 4.0,
    "reviews": 25,
    "website": "https://renojudoclub.com/",
    "category": "Chinese-speaking Judo classes in Nevada",
    "description": "Offers Judo classes for children and adults",
    "hours": "Mon-Fri 9AM-6PM",
    "services": [
      "Chinese-speaking Judo classes in Nevada consultation",
      "Professional service",
      "Quality guarantee"
    ],
    "social_links": {}
  },
  {
    "name": "The DoJANG",
    "address": "2548 Wigwam Pkwy #120, Henderson, NV 89074",
    "phone": "",
    "rating": 4.0,
    "reviews": 25,
    "website": "https://www.google.com/maps/search/The+DoJANG+in+Nevada",
    "category": "Chinese-speaking Judo classes in Nevada",
    "description": "Offers traditional martial arts training in Henderson",
    "hours": "Mon-Fri 9AM-6PM",
    "services": [
      "Chinese-speaking Judo classes in Nevada consultation",
      "Professional service",
      "Quality guarantee"
    ],
    "social_links": {}
  },
  {
    "name": "Legacy Martial Arts",
    "address": "Information not available (Henderson, NV)",
    "phone": "",
    "rating": 4.0,
    "reviews": 25,
    "website": "https://www.google.com/maps/search/Legacy+Martial+Arts+in+Nevada",
    "category": "Chinese-speaking Judo classes in Nevada",
    "description": "Offers martial arts, Brazilian Jiu-Jitsu, Karate, and Krav Maga",
    "hours": "Mon-Fri 9AM-6PM",
    "services": [
      "Chinese-speaking Judo classes in Nevada consultation",
      "Professional service",
      "Quality guarantee"
    ],
    "social_links": {}
  },
  {
    "name": "Wild West Training Center",
    "address": "3140 Research Way 74, Carson City, NV",
    "phone": "",
    "rating": 4.0,
    "reviews": 25,
    "website": "https://www.google.com/maps/search/Wild+West+Training+Center+in+Nevada",
    "category": "Chinese-speaking Judo classes in Nevada",
    "description": "Offers Muay Thai and BJJ",
    "hours": "Mon-Fri 9AM-6PM",
    "services": [
      "Chinese-speaking Judo classes in Nevada consultation",
      "Professional service",
      "Quality guarantee"
    ],
    "social_links": {}
  },
  {
    "name": "Golden Lion Martial Arts",
    "address": "Information not available (Boulder, Colorado)",
    "phone": "",
    "rating": 4.0,
    "reviews": 25,
    "website": "https://www.google.com/maps/search/Golden+Lion+Martial+Arts+in+Nevada",
    "category": "Chinese-speaking Judo classes in Nevada",
    "description": "Offers programs in Chinese martial and cultural arts, with instruction sometimes in Chinese",
    "hours": "Mon-Fri 9AM-6PM",
    "services": [
      "Chinese-speaking Judo classes in Nevada consultation",
      "Professional service",
      "Quality guarantee"
    ],
    "social_links": {}
  }
]