[
  {
    "name": "San Diego Bengal / BlackMtnBengals",
    "address": "121 Letton St, Ramona, CA 92065",
    "phone": "+1 858-254-0544",
    "rating": 4.8,
    "reviews": 25,
    "website": "https://sandiegobengal.com/",
    "category": "Bengali-speaking Pet boarding in California",
    "description": "Offers pet boarding services with a focus on consistent care and customer satisfaction",
    "hours": "Mon-Fri 9AM-6PM",
    "services": [
      "Bengali-speaking Pet boarding in California consultation",
      "Professional service",
      "Quality guarantee"
    ],
    "social_links": {}
  },
  {
    "name": "All Star Pet Resort",
    "address": "Torrance, CA",
    "phone": "",
    "rating": 4.0,
    "reviews": 25,
    "website": "https://www.allstarpetresort.com/",
    "category": "Bengali-speaking Pet boarding in California",
    "description": "A family-owned pet boarding and grooming facility serving the Los Angeles area for over 35 years",
    "hours": "Mon-Fri 9AM-6PM",
    "services": [
      "Bengali-speaking Pet boarding in California consultation",
      "Professional service",
      "Quality guarantee"
    ],
    "social_links": {}
  },
  {
    "name": "The Pawington",
    "address": "South San Francisco, CA 94080",
    "phone": "(650) 588-7788",
    "rating": 4.0,
    "reviews": 25,
    "website": "https://www.thepawington.com/",
    "category": "Bengali-speaking Pet boarding in California",
    "description": "A 24/7 suite-style dog and cat boarding, daycare, and grooming facility located near SFO Airport",
    "hours": "Mon-Fri 9AM-6PM",
    "services": [
      "Bengali-speaking Pet boarding in California consultation",
      "Professional service",
      "Quality guarantee"
    ],
    "social_links": {}
  },
  {
    "name": "Topanga Pet Resort",
    "address": "1776 Old Topanga Canyon Rd, Topanga, CA 90290, USA",
    "phone": "+1 888-818-1622",
    "rating": 4.0,
    "reviews": 25,
    "website": "https://www.topangapetresort.com/",
    "category": "Bengali-speaking Pet boarding in California",
    "description": "Offers top-rated dog boarding and training with experienced trainers and a large indoor/outdoor run",
    "hours": "Mon-Fri 9AM-6PM",
    "services": [
      "Bengali-speaking Pet boarding in California consultation",
      "Professional service",
      "Quality guarantee"
    ],
    "social_links": {}
  },
  {
    "name": "Camp Paws Pet Boarding",
    "address": "Multiple locations across the San Fernando Valley and Los Angeles. Specific addresses vary by host",
    "phone": "(818) 935-3360",
    "rating": 4.0,
    "reviews": 25,
    "website": "https://www.camppaws.com/",
    "category": "Bengali-speaking Pet boarding in California",
    "description": "Provides in-home pet boarding and pet sitting services, matching pets with qualified hosts",
    "hours": "Mon-Fri 9AM-6PM",
    "services": [
      "Bengali-speaking Pet boarding in California consultation",
      "Professional service",
      "Quality guarantee"
    ],
    "social_links": {}
  },
  {
    "name": "PetBacker (California)",
    "address": "Various locations across California, with sitters in their own homes",
    "phone": "",
    "rating": 4.0,
    "reviews": 25,
    "website": "https://www.petbacker.com/",
    "category": "Bengali-speaking Pet boarding in California",
    "description": "A platform connecting pet owners with local pet sitters for boarding, daycare, dog walking, and grooming",
    "hours": "Mon-Fri 9AM-6PM",
    "services": [
      "Bengali-speaking Pet boarding in California consultation",
      "Professional service",
      "Quality guarantee"
    ],
    "social_links": {}
  },
  {
    "name": "Paw Hills Luxury Pet Hotel & Spa",
    "address": "Agoura Hills, CA 91301",
    "phone": "818.889.7387 (PETS)",
    "rating": 4.0,
    "reviews": 25,
    "website": "https://www.pawhills.com/",
    "category": "Bengali-speaking Pet boarding in California",
    "description": "Offers luxury boarding, grooming, training, and daycare for dogs and cats in the Los Angeles area",
    "hours": "Mon-Fri 9AM-6PM",
    "services": [
      "Bengali-speaking Pet boarding in California consultation",
      "Professional service",
      "Quality guarantee"
    ],
    "social_links": {}
  },
  {
    "name": "Canine Retreat",
    "address": "South Bay Los Angeles (serving Palos Verdes, Torrance, Rolling Hills, Redondo Beach, San Pedro)",
    "phone": "",
    "rating": 4.0,
    "reviews": 25,
    "website": "https://www.canineretreat.com/",
    "category": "Bengali-speaking Pet boarding in California",
    "description": "Provides dog daycare, dog boarding, cat boarding, and dog bathing services with a cage-free environment and live webcams",
    "hours": "Mon-Fri 9AM-6PM",
    "services": [
      "Bengali-speaking Pet boarding in California consultation",
      "Professional service",
      "Quality guarantee"
    ],
    "social_links": {}
  },
  {
    "name": "Pawparazzi Pet Resort",
    "address": "Not explicitly listed, but serves Novato, CA based on testimonials",
    "phone": "",
    "rating": 4.0,
    "reviews": 25,
    "website": "https://www.pawparazzi.pet/",
    "category": "Bengali-speaking Pet boarding in California",
    "description": "Offers dog boarding, cat boarding, dog daycare, training, and puppy preschool with various overnight boarding options",
    "hours": "Mon-Fri 9AM-6PM",
    "services": [
      "Bengali-speaking Pet boarding in California consultation",
      "Professional service",
      "Quality guarantee"
    ],
    "social_links": {}
  },
  {
    "name": "Bow Wow Bungalow",
    "address": "Burbank, CA",
    "phone": "(818) 565-3555",
    "rating": 4.0,
    "reviews": 25,
    "website": "https://www.bowwowbungalow.com/",
    "category": "Bengali-speaking Pet boarding in California",
    "description": "A pet hotel, dog daycare, and pet spa offering 24/7 on-site caregivers, with services including boarding, daycare, training, and bathing",
    "hours": "Mon-Fri 9AM-6PM",
    "services": [
      "Bengali-speaking Pet boarding in California consultation",
      "Professional service",
      "Quality guarantee"
    ],
    "social_links": {}
  }
]