[
  {
    "name": "New Grand Mart",
    "address": "Multiple locations in Virginia, including Alexandria, Chesterfield, and Falls Church",
    "phone": "(703) 914-9000 (Alexandria location)",
    "rating": 4.0,
    "reviews": 25,
    "website": "https://www.newgrandmart.com/",
    "category": "Asian-owned Shopping ads in Virginia",
    "description": "An international grocery store chain specializing in Asian, Middle Eastern, African, and Latin grocery items",
    "hours": "Mon-Fri 9AM-6PM",
    "services": [
      "Asian-owned Shopping ads in Virginia consultation",
      "Professional service",
      "Quality guarantee"
    ],
    "social_links": {}
  },
  {
    "name": "Hampton Oriental Market",
    "address": "2001 E Little Creek Rd, Norfolk, VA 23518",
    "phone": "(757) 490-7901",
    "rating": 4.0,
    "reviews": 25,
    "website": "https://hamptonorientalmarket.com/",
    "category": "Asian-owned Shopping ads in Virginia",
    "description": "An Asian grocery store serving the Hampton Roads area, offering a wide selection of quality ingredients, fresh meats, seafood, fruits, and vegetables",
    "hours": "Mon-Fri 9AM-6PM",
    "services": [
      "Asian-owned Shopping ads in Virginia consultation",
      "Professional service",
      "Quality guarantee"
    ],
    "social_links": {}
  },
  {
    "name": "Grand Mart International Market",
    "address": "Multiple locations in Hampton Roads, Virginia",
    "phone": "(757) 490-7901",
    "rating": 4.0,
    "reviews": 25,
    "website": "https://grandmartinternational.com/",
    "category": "Asian-owned Shopping ads in Virginia",
    "description": "A premier international grocery store with a large selection of meats, seafood, produce, and international food items",
    "hours": "Mon-Fri 9AM-6PM",
    "services": [
      "Asian-owned Shopping ads in Virginia consultation",
      "Professional service",
      "Quality guarantee"
    ],
    "social_links": {}
  },
  {
    "name": "99 Ranch Market",
    "address": "10780 Fairfax Blvd, Fairfax, VA 22030",
    "phone": "(703) 352-5555",
    "rating": 4.0,
    "reviews": 25,
    "website": "https://www.99ranch.com/",
    "category": "Asian-owned Shopping ads in Virginia",
    "description": "A large Asian supermarket offering a wide variety of Asian groceries, produce, meats, and a food court",
    "hours": "Mon-Fri 9AM-6PM",
    "services": [
      "Asian-owned Shopping ads in Virginia consultation",
      "Professional service",
      "Quality guarantee"
    ],
    "social_links": {}
  },
  {
    "name": "H Mart",
    "address": "Multiple locations in Northern Virginia, including Herndon and Fairfax",
    "phone": "(703) 707-0777 (Herndon location)",
    "rating": 4.0,
    "reviews": 25,
    "website": "https://www.hmart.com/",
    "category": "Asian-owned Shopping ads in Virginia",
    "description": "A large Korean supermarket chain with a wide selection of Korean and other Asian groceries, as well as some international specialties depending on the location",
    "hours": "Mon-Fri 9AM-6PM",
    "services": [
      "Asian-owned Shopping ads in Virginia consultation",
      "Professional service",
      "Quality guarantee"
    ],
    "social_links": {}
  },
  {
    "name": "K Market International",
    "address": "4239 John Marr Dr, Annandale, VA 22003",
    "phone": "(703) 354-0700",
    "rating": 4.0,
    "reviews": 25,
    "website": "https://www.kmarketinternational.com/",
    "category": "Asian-owned Shopping ads in Virginia",
    "description": "A pan-Asian market known for its food court, offering a variety of Asian cuisines and groceries",
    "hours": "Mon-Fri 9AM-6PM",
    "services": [
      "Asian-owned Shopping ads in Virginia consultation",
      "Professional service",
      "Quality guarantee"
    ],
    "social_links": {}
  },
  {
    "name": "Lotte Plaza Market",
    "address": "Multiple locations in Northern Virginia, including Chantilly",
    "phone": "(703) 802-1111 (Chantilly location)",
    "rating": 4.0,
    "reviews": 25,
    "website": "https://www.lotteplazmarket.com/",
    "category": "Asian-owned Shopping ads in Virginia",
    "description": "A Korean-owned supermarket with a wide selection of groceries, including Malaysian, Indian, and Central American items, and restaurants within the store",
    "hours": "Mon-Fri 9AM-6PM",
    "services": [
      "Asian-owned Shopping ads in Virginia consultation",
      "Professional service",
      "Quality guarantee"
    ],
    "social_links": {}
  },
  {
    "name": "Nayak Beauty Supply, LLC",
    "address": "14170B Sullyfield Cir, Chantilly, VA 20151",
    "phone": "(703) 230-1000",
    "rating": 5.0,
    "reviews": 25,
    "website": "https://nayakbeauty.com/",
    "category": "Asian-owned Shopping ads in Virginia",
    "description": "A family-owned beauty supply business specializing in haircare, braiding services, cosmetics, and fragrance products",
    "hours": "Mon-Fri 9AM-6PM",
    "services": [
      "Asian-owned Shopping ads in Virginia consultation",
      "Professional service",
      "Quality guarantee"
    ],
    "social_links": {}
  },
  {
    "name": "Kirei Beauty & Salon",
    "address": "6198A Little River Turnpike, Alexandria, VA 22312",
    "phone": "(703) 752-4633",
    "rating": 4.0,
    "reviews": 25,
    "website": "https://kireibeauty.com/",
    "category": "Asian-owned Shopping ads in Virginia",
    "description": "A beauty specialist offering a wide selection of hair, makeup, skincare, and fragrance products, along with in-store salon services",
    "hours": "Mon-Fri 9AM-6PM",
    "services": [
      "Asian-owned Shopping ads in Virginia consultation",
      "Professional service",
      "Quality guarantee"
    ],
    "social_links": {}
  },
  {
    "name": "Besfren Beauty",
    "address": "6795 Wilson Blvd, Suite B1, Falls Church, VA 22044",
    "phone": "(703) 825-4111",
    "rating": 4.0,
    "reviews": 25,
    "website": "https://besfrenbeauty.com/",
    "category": "Asian-owned Shopping ads in Virginia",
    "description": "A K-Beauty store offering a wide range of Korean beauty products",
    "hours": "Mon-Fri 9AM-6PM",
    "services": [
      "Asian-owned Shopping ads in Virginia consultation",
      "Professional service",
      "Quality guarantee"
    ],
    "social_links": {}
  }
]