[
  {
    "name": "Aesthetic Med Studio",
    "address": "1201 E Republic Rd, Springfield, MO 65807",
    "phone": "(417) 720-2020",
    "rating": 5.0,
    "reviews": 25,
    "website": "https://www.aestheticmedstudio.com/",
    "category": "Catholic-owned Skin tightening in Missouri",
    "description": "Offers a range of aesthetic treatments including skin tightening, facials, and injectables",
    "hours": "Mon-Fri 9AM-6PM",
    "services": [
      "Catholic-owned Skin tightening in Missouri consultation",
      "Professional service",
      "Quality guarantee"
    ],
    "social_links": {}
  },
  {
    "name": "Pink Medspa",
    "address": "100 SE 3rd St, Lee's Summit, MO 64063",
    "phone": "(816) 347-0200",
    "rating": 4.8,
    "reviews": 25,
    "website": "https://www.pinkmedspa.com/",
    "category": "Catholic-owned Skin tightening in Missouri",
    "description": "A medical spa offering various cosmetic and wellness services, including skin tightening treatments",
    "hours": "Mon-Fri 9AM-6PM",
    "services": [
      "Catholic-owned Skin tightening in Missouri consultation",
      "Professional service",
      "Quality guarantee"
    ],
    "social_links": {}
  },
  {
    "name": "Face KC Medical Spa",
    "address": "9225 Ward Pkwy #200, Kansas City, MO 64114",
    "phone": "(816) 338-7881",
    "rating": 4.7,
    "reviews": 25,
    "website": "https://facekc.com/",
    "category": "Catholic-owned Skin tightening in Missouri",
    "description": "Provides advanced aesthetic medicine and dedicated customer service, including skin tightening procedures",
    "hours": "Mon-Fri 9AM-6PM",
    "services": [
      "Catholic-owned Skin tightening in Missouri consultation",
      "Professional service",
      "Quality guarantee"
    ],
    "social_links": {}
  },
  {
    "name": "AesthetiCare Medspa",
    "address": "9225 Ward Pkwy #200, Kansas City, MO 64114",
    "phone": "(816) 338-7881",
    "rating": 4.7,
    "reviews": 25,
    "website": "https://www.aestheticaremedspa.com/",
    "category": "Catholic-owned Skin tightening in Missouri",
    "description": "Specializes in advanced aesthetic medicine and offers a wide range of treatments, including skin tightening",
    "hours": "Mon-Fri 9AM-6PM",
    "services": [
      "Catholic-owned Skin tightening in Missouri consultation",
      "Professional service",
      "Quality guarantee"
    ],
    "social_links": {}
  },
  {
    "name": "LightRx Face & Body",
    "address": "1000 W 101st Terrace, Kansas City, MO 64114",
    "phone": "(816) 338-7881",
    "rating": 4.5,
    "reviews": 25,
    "website": "https://www.lightrx.com/locations/kansas-city-mo/",
    "category": "Catholic-owned Skin tightening in Missouri",
    "description": "Offers skin tightening treatments using advanced technology to improve skin appearance",
    "hours": "Mon-Fri 9AM-6PM",
    "services": [
      "Catholic-owned Skin tightening in Missouri consultation",
      "Professional service",
      "Quality guarantee"
    ],
    "social_links": {}
  },
  {
    "name": "Amici MedSpa",
    "address": "10000 Watson Road, Suite 2-L-28, St. Louis, MO 63126",
    "phone": "(314) 528-9040",
    "rating": 5.0,
    "reviews": 25,
    "website": "https://www.amicimedspa.com/",
    "category": "Catholic-owned Skin tightening in Missouri",
    "description": "Provides various aesthetic treatments, including skin tightening and anti-wrinkle injections",
    "hours": "Mon-Fri 9AM-6PM",
    "services": [
      "Catholic-owned Skin tightening in Missouri consultation",
      "Professional service",
      "Quality guarantee"
    ],
    "social_links": {}
  },
  {
    "name": "Centered Wellness Clinic and Spa",
    "address": "117 West Allen Street, Wentzville, MO 63385",
    "phone": "(636) 887-2000",
    "rating": 5.0,
    "reviews": 25,
    "website": "https://www.centeredwellness.com/",
    "category": "Catholic-owned Skin tightening in Missouri",
    "description": "Offers radio frequency skin tightening and other rejuvenation treatments",
    "hours": "Mon-Fri 9AM-6PM",
    "services": [
      "Catholic-owned Skin tightening in Missouri consultation",
      "Professional service",
      "Quality guarantee"
    ],
    "social_links": {}
  },
  {
    "name": "Drip City Medspa",
    "address": "2427 State Highway K, O'Fallon, MO 63368",
    "phone": "(636) 542-8000",
    "rating": 5.0,
    "reviews": 25,
    "website": "https://dripcitymedspa.com/",
    "category": "Catholic-owned Skin tightening in Missouri",
    "description": "Provides a range of cosmetic treatments, including skin tightening and laser treatments",
    "hours": "Mon-Fri 9AM-6PM",
    "services": [
      "Catholic-owned Skin tightening in Missouri consultation",
      "Professional service",
      "Quality guarantee"
    ],
    "social_links": {}
  },
  {
    "name": "Just in Style",
    "address": "3845 Lemay Ferry Road, St. Louis, MO 63125",
    "phone": "(314) 892-3300",
    "rating": 5.0,
    "reviews": 25,
    "website": "https://justinstyle.com/",
    "category": "Catholic-owned Skin tightening in Missouri",
    "description": "Offers skin tightening treatments and other aesthetic services",
    "hours": "Mon-Fri 9AM-6PM",
    "services": [
      "Catholic-owned Skin tightening in Missouri consultation",
      "Professional service",
      "Quality guarantee"
    ],
    "social_links": {}
  },
  {
    "name": "Above and Beyond Wellness Spa",
    "address": "50 Fenton Plaza, Fenton, MO 63026",
    "phone": "(636) 717-1000",
    "rating": 4.9,
    "reviews": 25,
    "website": "https://www.aboveandbeyondwellness.com/",
    "category": "Catholic-owned Skin tightening in Missouri",
    "description": "Provides wellness and aesthetic services, including skin tightening treatments like TightWave Rehab",
    "hours": "Mon-Fri 9AM-6PM",
    "services": [
      "Catholic-owned Skin tightening in Missouri consultation",
      "Professional service",
      "Quality guarantee"
    ],
    "social_links": {}
  }
]