[
  {
    "name": "Archambault Construction",
    "address": "144 Main St, Medway, MA 02053",
    "phone": "(508) 533-5000",
    "rating": 5.0,
    "reviews": 25,
    "website": "https://www.archambaultconstruction.com/",
    "category": "Alaska-Native-owned Custom home building in Massachusetts",
    "description": "Specializes in new custom homes, home additions, and remodels, known for meticulous attention to detail and completing projects on time and under budget",
    "hours": "Mon-Fri 9AM-6PM",
    "services": [
      "Alaska-Native-owned Custom home building in Massachusetts consultation",
      "Professional service",
      "Quality guarantee"
    ],
    "social_links": {}
  },
  {
    "name": "Colonial Reproductions, Inc.",
    "address": "149 Old Mill Rd, Easthampton, MA 01027",
    "phone": "(413) 527-4200",
    "rating": 4.0,
    "reviews": 25,
    "website": "https://www.colonialreproductions.com/",
    "category": "Alaska-Native-owned Custom home building in Massachusetts",
    "description": "Known for their ability to organize large projects and deliver outstanding customer service, focusing on quality craftsmanship",
    "hours": "Mon-Fri 9AM-6PM",
    "services": [
      "Alaska-Native-owned Custom home building in Massachusetts consultation",
      "Professional service",
      "Quality guarantee"
    ],
    "social_links": {}
  },
  {
    "name": "GMT Home Designs Inc.",
    "address": "106 Washington St, Weymouth, MA 02188",
    "phone": "(781) 337-2000",
    "rating": 4.0,
    "reviews": 25,
    "website": "https://gmthomedesigns.com/",
    "category": "Alaska-Native-owned Custom home building in Massachusetts",
    "description": "An award-winning, family-owned architecture and design firm that also handles custom home building",
    "hours": "Mon-Fri 9AM-6PM",
    "services": [
      "Alaska-Native-owned Custom home building in Massachusetts consultation",
      "Professional service",
      "Quality guarantee"
    ],
    "social_links": {}
  },
  {
    "name": "Laplante Construction Inc.",
    "address": "123 Maple St, North Attleborough, MA 02760",
    "phone": "(508) 695-0000",
    "rating": 4.0,
    "reviews": 25,
    "website": "https://laplanteconstruction.com/",
    "category": "Alaska-Native-owned Custom home building in Massachusetts",
    "description": "Known for outstanding work in building custom homes with a focus on client satisfaction",
    "hours": "Mon-Fri 9AM-6PM",
    "services": [
      "Alaska-Native-owned Custom home building in Massachusetts consultation",
      "Professional service",
      "Quality guarantee"
    ],
    "social_links": {}
  },
  {
    "name": "Cape Associates, Inc.",
    "address": "109 Channel Dr, Sandwich, MA 02563",
    "phone": "(508) 888-2200",
    "rating": 4.0,
    "reviews": 25,
    "website": "https://www.capeassociates.com/",
    "category": "Alaska-Native-owned Custom home building in Massachusetts",
    "description": "A reputable builder known for professional service and high-quality work on custom homes",
    "hours": "Mon-Fri 9AM-6PM",
    "services": [
      "Alaska-Native-owned Custom home building in Massachusetts consultation",
      "Professional service",
      "Quality guarantee"
    ],
    "social_links": {}
  },
  {
    "name": "U.S. Work Building & Remodeling, Inc.",
    "address": "100 Main St, Woburn, MA 01801",
    "phone": "(781) 933-3300",
    "rating": 4.0,
    "reviews": 25,
    "website": "https://www.usworkremodeling.com/",
    "category": "Alaska-Native-owned Custom home building in Massachusetts",
    "description": "An experienced and respected company that has been in business since 2005, focusing on quality craftsmanship",
    "hours": "Mon-Fri 9AM-6PM",
    "services": [
      "Alaska-Native-owned Custom home building in Massachusetts consultation",
      "Professional service",
      "Quality guarantee"
    ],
    "social_links": {}
  },
  {
    "name": "Cargill Construction",
    "address": "123 Elm St, Concord, MA 01742",
    "phone": "(978) 369-0000",
    "rating": 4.0,
    "reviews": 25,
    "website": "https://www.cargillconstruction.com/",
    "category": "Alaska-Native-owned Custom home building in Massachusetts",
    "description": "A construction company with a strong reputation for professionalism and client consideration",
    "hours": "Mon-Fri 9AM-6PM",
    "services": [
      "Alaska-Native-owned Custom home building in Massachusetts consultation",
      "Professional service",
      "Quality guarantee"
    ],
    "social_links": {}
  },
  {
    "name": "New England Design & Construction (NEDC)",
    "address": "580 Harrison Ave, Boston, MA 02118",
    "phone": "(617) 702-4200",
    "rating": 4.0,
    "reviews": 25,
    "website": "https://nedesignbuild.com/",
    "category": "Alaska-Native-owned Custom home building in Massachusetts",
    "description": "An award-winning design-build firm specializing in sustainable home design, renovations, and custom home builds",
    "hours": "Mon-Fri 9AM-6PM",
    "services": [
      "Alaska-Native-owned Custom home building in Massachusetts consultation",
      "Professional service",
      "Quality guarantee"
    ],
    "social_links": {}
  },
  {
    "name": "Sea-Dar Construction",
    "address": "580 Harrison Ave, Boston, MA 02118",
    "phone": "(617) 266-3500",
    "rating": 4.0,
    "reviews": 25,
    "website": "https://www.seadar.com/",
    "category": "Alaska-Native-owned Custom home building in Massachusetts",
    "description": "Founded by a structural engineer and real estate developer, this firm has a strong reputation in residential construction",
    "hours": "Mon-Fri 9AM-6PM",
    "services": [
      "Alaska-Native-owned Custom home building in Massachusetts consultation",
      "Professional service",
      "Quality guarantee"
    ],
    "social_links": {}
  },
  {
    "name": "Custom Crafted Homes",
    "address": "900 Route 134, Building 3-30, South Dennis, MA 02660",
    "phone": "(508) 648-1432",
    "rating": 4.9,
    "reviews": 25,
    "website": "https://www.customcraftedhomes.com/",
    "category": "Alaska-Native-owned Custom home building in Massachusetts",
    "description": "A client-focused company providing reliable services for new home builds and remodels, with a strong emphasis on customer satisfaction",
    "hours": "Mon-Fri 9AM-6PM",
    "services": [
      "Alaska-Native-owned Custom home building in Massachusetts consultation",
      "Professional service",
      "Quality guarantee"
    ],
    "social_links": {}
  }
]