[
  {
    "name": "Sunrise of Baton Rouge",
    "address": "8502 Jefferson Highway, Baton Rouge, LA 70809",
    "phone": "(225) 271-4000",
    "rating": 4.2,
    "reviews": 25,
    "website": "https://www.sunriseseniorliving.com/communities/sunrise-of-baton-rouge/",
    "category": "African-American-owned Dementia care in Louisiana",
    "description": "Offers assisted living and memory care services with a focus on personalized care and a supportive environment",
    "hours": "Mon-Fri 9AM-6PM",
    "services": [
      "African-American-owned Dementia care in Louisiana consultation",
      "Professional service",
      "Quality guarantee"
    ],
    "social_links": {}
  },
  {
    "name": "Williamsburg Senior Living Community",
    "address": "5445 Government Street, Baton Rouge, LA 70806",
    "phone": "(225) 927-1100",
    "rating": 4.0,
    "reviews": 25,
    "website": "https://williamsburgseniorliving.com/",
    "category": "African-American-owned Dementia care in Louisiana",
    "description": "Provides assisted living and memory care services in a community setting",
    "hours": "Mon-Fri 9AM-6PM",
    "services": [
      "African-American-owned Dementia care in Louisiana consultation",
      "Professional service",
      "Quality guarantee"
    ],
    "social_links": {}
  },
  {
    "name": "Holly Court Assisted Living and Memory Care",
    "address": "8585 Summa Ave, Baton Rouge, LA 70809",
    "phone": "(225) 923-7777",
    "rating": 4.0,
    "reviews": 25,
    "website": "https://www.hollycourt.com/",
    "category": "African-American-owned Dementia care in Louisiana",
    "description": "Offers assisted living and specialized memory care for individuals with dementia and Alzheimer's",
    "hours": "Mon-Fri 9AM-6PM",
    "services": [
      "African-American-owned Dementia care in Louisiana consultation",
      "Professional service",
      "Quality guarantee"
    ],
    "social_links": {}
  },
  {
    "name": "The Claiborne at Baton Rouge",
    "address": "7717 Old Hammond Hwy, Baton Rouge, LA 70809",
    "phone": "(225) 442-1100",
    "rating": 4.0,
    "reviews": 25,
    "website": "https://www.theclaiborne.com/baton-rouge/",
    "category": "African-American-owned Dementia care in Louisiana",
    "description": "Provides independent living, assisted living, and memory care programs with a focus on individualized care and a continuum of services",
    "hours": "Mon-Fri 9AM-6PM",
    "services": [
      "African-American-owned Dementia care in Louisiana consultation",
      "Professional service",
      "Quality guarantee"
    ],
    "social_links": {}
  },
  {
    "name": "Lafreniere Assisted Living and Memory Care",
    "address": "6555 Park Manor Dr, Metairie, LA 70003",
    "phone": "(504) 733-0077",
    "rating": 3.6,
    "reviews": 25,
    "website": "https://lafreniereassistedliving.com/",
    "category": "African-American-owned Dementia care in Louisiana",
    "description": "Offers assisted living and memory care services in a compassionate and affordable environment",
    "hours": "Mon-Fri 9AM-6PM",
    "services": [
      "African-American-owned Dementia care in Louisiana consultation",
      "Professional service",
      "Quality guarantee"
    ],
    "social_links": {}
  },
  {
    "name": "Sunrise of Metairie",
    "address": "3732 West Esplanade Ave. South, Metairie, LA 70002",
    "phone": "(504) 400-9071",
    "rating": 4.2,
    "reviews": 25,
    "website": "https://www.sunriseseniorliving.com/communities/sunrise-of-metairie/",
    "category": "African-American-owned Dementia care in Louisiana",
    "description": "Provides memory care services in a supportive and engaging community",
    "hours": "Mon-Fri 9AM-6PM",
    "services": [
      "African-American-owned Dementia care in Louisiana consultation",
      "Professional service",
      "Quality guarantee"
    ],
    "social_links": {}
  },
  {
    "name": "Inspired Living at Kenner",
    "address": "3801 Loyola Dr, Kenner, LA 70065",
    "phone": "(504) 444-1000",
    "rating": 4.6,
    "reviews": 25,
    "website": "https://inspiredlivingkenner.com/",
    "category": "African-American-owned Dementia care in Louisiana",
    "description": "Offers memory care with a focus on creating a home-like environment and providing specialized support",
    "hours": "Mon-Fri 9AM-6PM",
    "services": [
      "African-American-owned Dementia care in Louisiana consultation",
      "Professional service",
      "Quality guarantee"
    ],
    "social_links": {}
  },
  {
    "name": "Brookdale Lafayette",
    "address": "215 West Farrel Road, Lafayette, LA 70508",
    "phone": "(888) 997-3898",
    "rating": 4.0,
    "reviews": 25,
    "website": "https://www.brookdale.com/en/communities/brookdale-lafayette.html",
    "category": "African-American-owned Dementia care in Louisiana",
    "description": "Provides memory care services using the Clare Bridge approach, focusing on structured programs and stimulating activities",
    "hours": "Mon-Fri 9AM-6PM",
    "services": [
      "African-American-owned Dementia care in Louisiana consultation",
      "Professional service",
      "Quality guarantee"
    ],
    "social_links": {}
  },
  {
    "name": "The Vincent Senior Living",
    "address": "1707 W Pinhook Rd, Lafayette, LA 70508",
    "phone": "(337) 237-0070",
    "rating": 4.0,
    "reviews": 25,
    "website": "https://www.thevincent.com/",
    "category": "African-American-owned Dementia care in Louisiana",
    "description": "Offers memory care with various cognitive therapies, including music, pet, and sensory stimulation",
    "hours": "Mon-Fri 9AM-6PM",
    "services": [
      "African-American-owned Dementia care in Louisiana consultation",
      "Professional service",
      "Quality guarantee"
    ],
    "social_links": {}
  },
  {
    "name": "Montclair Park",
    "address": "1000 Montclair Dr, Shreveport, LA 71106",
    "phone": "(318) 797-1114",
    "rating": 4.0,
    "reviews": 25,
    "website": "https://www.montclairpark.com/",
    "category": "African-American-owned Dementia care in Louisiana",
    "description": "Provides specialized memory care for seniors with Alzheimer's, dementia, and other cognitive conditions in a safe and caring atmosphere",
    "hours": "Mon-Fri 9AM-6PM",
    "services": [
      "African-American-owned Dementia care in Louisiana consultation",
      "Professional service",
      "Quality guarantee"
    ],
    "social_links": {}
  }
]