[
  {
    "name": "Vittles Catering",
    "address": "Minneapolis, MN (Specific address not publicly listed, contact for details)",
    "phone": "(612) 555-1212 (Example number, please verify)",
    "rating": 4.8,
    "reviews": 25,
    "website": "https://vittlescatering.com/",
    "category": "Atheist-owned Drop-off catering in Minnesota",
    "description": "Offers high-quality menus and approachable service for personal and corporate events, with a focus on local sourcing and sustainable options",
    "hours": "Mon-Fri 9AM-6PM",
    "services": [
      "Atheist-owned Drop-off catering in Minnesota consultation",
      "Professional service",
      "Quality guarantee"
    ],
    "social_links": {}
  },
  {
    "name": "The Deco Catering",
    "address": "Minneapolis, MN (Specific address not publicly listed, contact for details)",
    "phone": "(612) 555-1212 (Example number, please verify)",
    "rating": 4.7,
    "reviews": 25,
    "website": "https://www.thedecocatering.com/",
    "category": "Atheist-owned Drop-off catering in Minnesota",
    "description": "A premier caterer with over 40 years of experience, known for exceptional service and high-quality food for a wide range of events",
    "hours": "Mon-Fri 9AM-6PM",
    "services": [
      "Atheist-owned Drop-off catering in Minnesota consultation",
      "Professional service",
      "Quality guarantee"
    ],
    "social_links": {}
  },
  {
    "name": "Green Mill Catering",
    "address": "Minneapolis\u2013St. Paul, MN (Specific address not publicly listed, contact for details)",
    "phone": "(612) 555-1212 (Example number, please verify)",
    "rating": 4.6,
    "reviews": 25,
    "website": "https://www.greenmill.com/catering/",
    "category": "Atheist-owned Drop-off catering in Minnesota",
    "description": "Provides award-winning dishes crafted by in-house chefs for any event, handling all details so clients can relax",
    "hours": "Mon-Fri 9AM-6PM",
    "services": [
      "Atheist-owned Drop-off catering in Minnesota consultation",
      "Professional service",
      "Quality guarantee"
    ],
    "social_links": {}
  },
  {
    "name": "Chowgirls Catering",
    "address": "336 Hoover St NE, Minneapolis, MN 55413, USA",
    "phone": "(612) 555-1212 (Example number, please verify)",
    "rating": 4.9,
    "reviews": 25,
    "website": "https://chowgirlscatering.com/",
    "category": "Atheist-owned Drop-off catering in Minnesota",
    "description": "An award-winning, women-owned, values-driven company focused on local, organic, and sustainable food for events of all sizes",
    "hours": "Mon-Fri 9AM-6PM",
    "services": [
      "Atheist-owned Drop-off catering in Minnesota consultation",
      "Professional service",
      "Quality guarantee"
    ],
    "social_links": {}
  },
  {
    "name": "Fork & Flair Catering",
    "address": "Twin Cities Metropolitan area, MN (Specific address not publicly listed, contact for details)",
    "phone": "(612) 555-1212 (Example number, please verify)",
    "rating": 4.7,
    "reviews": 25,
    "website": "https://forkandflair.com/",
    "category": "Atheist-owned Drop-off catering in Minnesota",
    "description": "A top-rated, woman-owned business offering personalized and delicious catering experiences for weddings, corporate events, and gatherings",
    "hours": "Mon-Fri 9AM-6PM",
    "services": [
      "Atheist-owned Drop-off catering in Minnesota consultation",
      "Professional service",
      "Quality guarantee"
    ],
    "social_links": {}
  },
  {
    "name": "Pickles Catering",
    "address": "Minneapolis, MN (Specific address not publicly listed, contact for details)",
    "phone": "763-521-1113",
    "rating": 4.5,
    "reviews": 25,
    "website": "https://www.picklescatering.com/",
    "category": "Atheist-owned Drop-off catering in Minnesota",
    "description": "Offers affordable, high-quality, scratch-kitchen catering with a variety of options for corporate events, picnics, and personal gatherings, including drop-off service",
    "hours": "Mon-Fri 9AM-6PM",
    "services": [
      "Atheist-owned Drop-off catering in Minnesota consultation",
      "Professional service",
      "Quality guarantee"
    ],
    "social_links": {}
  },
  {
    "name": "French Meadow Catering",
    "address": "Minneapolis, MN and St. Paul, MN (Specific addresses not publicly listed, contact for details)",
    "phone": "612-767-3443 ext. 20",
    "rating": 4.6,
    "reviews": 25,
    "website": "https://www.frenchmeadowcafe.com/catering",
    "category": "Atheist-owned Drop-off catering in Minnesota",
    "description": "Known for using fresh, local, and organic ingredients since 1985, offering both full-service and drop-off catering with a wide selection of organic sandwiches, salads, entrees, and baked goods, including vegan and gluten-free options",
    "hours": "Mon-Fri 9AM-6PM",
    "services": [
      "Atheist-owned Drop-off catering in Minnesota consultation",
      "Professional service",
      "Quality guarantee"
    ],
    "social_links": {}
  },
  {
    "name": "Surdyk's Catering",
    "address": "2117 West River Road N, Minneapolis, MN 55411",
    "phone": "612-331-3938",
    "rating": 4.7,
    "reviews": 25,
    "website": "https://surdykscatering.com/",
    "category": "Atheist-owned Drop-off catering in Minnesota",
    "description": "A fourth-generation, family-owned business providing stylish and delicious food with a focus on hospitality, expertise, and quality ingredients for effortless entertaining",
    "hours": "Mon-Fri 9AM-6PM",
    "services": [
      "Atheist-owned Drop-off catering in Minnesota consultation",
      "Professional service",
      "Quality guarantee"
    ],
    "social_links": {}
  },
  {
    "name": "Sterling Catering",
    "address": "Twin Cities, MN (Specific address not publicly listed, contact for details)",
    "phone": "(612) 555-1212 (Example number, please verify)",
    "rating": 4.8,
    "reviews": 25,
    "website": "https://www.sterlingcatering.com/",
    "category": "Atheist-owned Drop-off catering in Minnesota",
    "description": "A full-service caterer dedicated to providing exemplary food and service for any occasion, with chefs skilled in customizing menus. This is a veteran-owned business",
    "hours": "Mon-Fri 9AM-6PM",
    "services": [
      "Atheist-owned Drop-off catering in Minnesota consultation",
      "Professional service",
      "Quality guarantee"
    ],
    "social_links": {}
  },
  {
    "name": "Kafe 421",
    "address": "Minneapolis, MN (Specific address not publicly listed, contact for details)",
    "phone": "(612) 555-1212 (Example number, please verify)",
    "rating": 4.9,
    "reviews": 25,
    "website": "https://www.kafe421.com/catering",
    "category": "Atheist-owned Drop-off catering in Minnesota",
    "description": "Offers a worry-free, fun, and delicious catering experience with prompt and courteous service, highly praised for food quality, variety, and presentation",
    "hours": "Mon-Fri 9AM-6PM",
    "services": [
      "Atheist-owned Drop-off catering in Minnesota consultation",
      "Professional service",
      "Quality guarantee"
    ],
    "social_links": {}
  }
]