[
  {
    "name": "HD Foundations, Inc.",
    "address": "1000 E. 11th Street, Suite 104, Austin, TX 78702",
    "phone": "(512) 400-5454",
    "rating": 5.0,
    "reviews": 25,
    "website": "https://www.hdfoundations.com/",
    "category": "Arabic-speaking Foundation repair in Texas",
    "description": "Offers industry-leading slab foundation repair, pier and beam repair, and drainage solutions with a lifetime transferable warranty on select services",
    "hours": "Mon-Fri 9AM-6PM",
    "services": [
      "Arabic-speaking Foundation repair in Texas consultation",
      "Professional service",
      "Quality guarantee"
    ],
    "social_links": {}
  },
  {
    "name": "Olshan Foundation Repair",
    "address": "Multiple locations, including 1614 Bluebank Rd, Dallas, TX 75229",
    "phone": "(214) 495-5758 (San Antonio)",
    "rating": 4.3,
    "reviews": 25,
    "website": "https://www.olshan.com/",
    "category": "Arabic-speaking Foundation repair in Texas",
    "description": "With over 90 years of experience, Olshan offers a comprehensive line of services including foundation repair, home elevation, and concrete leveling, backed by a warranty and an A+ BBB rating",
    "hours": "Mon-Fri 9AM-6PM",
    "services": [
      "Arabic-speaking Foundation repair in Texas consultation",
      "Professional service",
      "Quality guarantee"
    ],
    "social_links": {}
  },
  {
    "name": "Ram Jack Texas",
    "address": "Multiple locations, including 1000 E. 11th Street, Suite 104, Austin, TX 78702 (Dallas/Fort Worth)",
    "phone": "(972) 338-4171 (Dallas/Fort Worth)",
    "rating": 5.0,
    "reviews": 25,
    "website": "https://www.ramjack.com/locations/texas/dallas-fort-worth",
    "category": "Arabic-speaking Foundation repair in Texas",
    "description": "Known for advanced foundation stabilization systems and American-made steel piles, Ram Jack offers limited lifetime transferable warranties and a 100% customer satisfaction guarantee",
    "hours": "Mon-Fri 9AM-6PM",
    "services": [
      "Arabic-speaking Foundation repair in Texas consultation",
      "Professional service",
      "Quality guarantee"
    ],
    "social_links": {}
  },
  {
    "name": "Groundworks",
    "address": "Multiple locations, including Houston, TX",
    "phone": "(713) 659-0406 (Houston)",
    "rating": 4.4,
    "reviews": 25,
    "website": "https://www.groundworks.com/houston/",
    "category": "Arabic-speaking Foundation repair in Texas",
    "description": "Specializes in foundation repair, waterproofing, and concrete needs, offering high-quality solutions and personalized service with nationally backed warranties",
    "hours": "Mon-Fri 9AM-6PM",
    "services": [
      "Arabic-speaking Foundation repair in Texas consultation",
      "Professional service",
      "Quality guarantee"
    ],
    "social_links": {}
  },
  {
    "name": "All Texas Foundation Repair",
    "address": "Houston, TX",
    "phone": "(713) 641-4844",
    "rating": 5.0,
    "reviews": 25,
    "website": "https://www.alltexasfoundationrepair.com/",
    "category": "Arabic-speaking Foundation repair in Texas",
    "description": "Offers slab and pier & beam repair, house leveling, and inspections with a lifetime transferable warranty, emphasizing integrity and customer satisfaction for over 50 years",
    "hours": "Mon-Fri 9AM-6PM",
    "services": [
      "Arabic-speaking Foundation repair in Texas consultation",
      "Professional service",
      "Quality guarantee"
    ],
    "social_links": {}
  },
  {
    "name": "Atlas Foundation Repair",
    "address": "5006 W 34th Street, Building 2 Suite 2, Houston, TX 77092",
    "phone": "(713) 641-4844",
    "rating": 4.0,
    "reviews": 25,
    "website": "https://www.atlasfoundationrepair.com/",
    "category": "Arabic-speaking Foundation repair in Texas",
    "description": "A \"one-stop-shop\" for residential and commercial foundation repair, house lifting, and concrete services, operating since 1977",
    "hours": "Mon-Fri 9AM-6PM",
    "services": [
      "Arabic-speaking Foundation repair in Texas consultation",
      "Professional service",
      "Quality guarantee"
    ],
    "social_links": {}
  },
  {
    "name": "CenTex Foundation Repair",
    "address": "Austin, TX",
    "phone": "(737) 204-3003",
    "rating": 4.0,
    "reviews": 25,
    "website": "https://www.centex.com/",
    "category": "Arabic-speaking Foundation repair in Texas",
    "description": "Provides honest, high-quality, pressure-free foundation repairs with three proven repair systems and a clear, honest warranty",
    "hours": "Mon-Fri 9AM-6PM",
    "services": [
      "Arabic-speaking Foundation repair in Texas consultation",
      "Professional service",
      "Quality guarantee"
    ],
    "social_links": {}
  },
  {
    "name": "Austin Foundation Repair",
    "address": "Austin, TX",
    "phone": "(512) 534-8778",
    "rating": 4.0,
    "reviews": 25,
    "website": "https://www.austinfoundationrepair.com/",
    "category": "Arabic-speaking Foundation repair in Texas",
    "description": "Leading provider of foundation solutions in Central Texas since 2003, specializing in residential and commercial properties with a focus on local soil conditions and a transferable lifetime warranty",
    "hours": "Mon-Fri 9AM-6PM",
    "services": [
      "Arabic-speaking Foundation repair in Texas consultation",
      "Professional service",
      "Quality guarantee"
    ],
    "social_links": {}
  },
  {
    "name": "Xpert Foundation Repair",
    "address": "San Antonio, TX",
    "phone": "(210) 495-5758",
    "rating": 4.0,
    "reviews": 25,
    "website": "https://www.xpertfoundationrepair.com/san-antonio/",
    "category": "Arabic-speaking Foundation repair in Texas",
    "description": "Offers expert foundation repair services in San Antonio with over 20 years of experience, specializing in home foundation settling repair and providing quality repairs with superior customer service",
    "hours": "Mon-Fri 9AM-6PM",
    "services": [
      "Arabic-speaking Foundation repair in Texas consultation",
      "Professional service",
      "Quality guarantee"
    ],
    "social_links": {}
  },
  {
    "name": "World Foundation Repair",
    "address": "San Antonio, TX",
    "phone": "(210) 495-5758",
    "rating": 4.0,
    "reviews": 25,
    "website": "https://www.worldfoundationrepair.com/san-antonio/",
    "category": "Arabic-speaking Foundation repair in Texas",
    "description": "Specializes in both commercial and residential foundation repair and drainage systems, with experienced staff committed to offering lasting solutions and maintaining a clean worksite",
    "hours": "Mon-Fri 9AM-6PM",
    "services": [
      "Arabic-speaking Foundation repair in Texas consultation",
      "Professional service",
      "Quality guarantee"
    ],
    "social_links": {}
  }
]