[
  {
    "name": "Premier Roofing Co.",
    "address": "1100 E 56th Ave, Anchorage, AK 99508",
    "phone": "(907) 562-7663",
    "rating": 4.8,
    "reviews": 25,
    "website": "https://www.premierroofingak.com/",
    "category": "Buddhist-owned Roofing installation in Alaska",
    "description": "Specializes in residential and light commercial shingle roof replacement and repairs",
    "hours": "Mon-Fri 9AM-6PM",
    "services": [
      "Buddhist-owned Roofing installation in Alaska consultation",
      "Professional service",
      "Quality guarantee"
    ],
    "social_links": {}
  },
  {
    "name": "Metals Roofing Pros",
    "address": "10470 Kenai Spur Hwy, Kenai, AK 99611",
    "phone": "(844) 551-3620",
    "rating": 4.0,
    "reviews": 25,
    "website": "https://metalsroofingpros.com/kenai/",
    "category": "Buddhist-owned Roofing installation in Alaska",
    "description": "Offers high-quality metal roof installation, repair, and replacement services for residential and commercial properties",
    "hours": "Mon-Fri 9AM-6PM",
    "services": [
      "Buddhist-owned Roofing installation in Alaska consultation",
      "Professional service",
      "Quality guarantee"
    ],
    "social_links": {}
  },
  {
    "name": "All North Roofing",
    "address": "3701 E 5th Ave, Anchorage, AK 99508",
    "phone": "(907) 272-9696",
    "rating": 4.0,
    "reviews": 25,
    "website": "https://www.allnorthroofing.com/",
    "category": "Buddhist-owned Roofing installation in Alaska",
    "description": "Provides dependable commercial roofing services, including repairs, maintenance, and full replacements",
    "hours": "Mon-Fri 9AM-6PM",
    "services": [
      "Buddhist-owned Roofing installation in Alaska consultation",
      "Professional service",
      "Quality guarantee"
    ],
    "social_links": {}
  },
  {
    "name": "Yoder Commercial Roofing",
    "address": "1100 E 56th Ave, Anchorage, AK 99508",
    "phone": "(907) 349-2424",
    "rating": 4.0,
    "reviews": 25,
    "website": "https://yodercommercialroofing.com/",
    "category": "Buddhist-owned Roofing installation in Alaska",
    "description": "Focuses on high-quality roofing services, utilizing premium materials and aiming to exceed client expectations",
    "hours": "Mon-Fri 9AM-6PM",
    "services": [
      "Buddhist-owned Roofing installation in Alaska consultation",
      "Professional service",
      "Quality guarantee"
    ],
    "social_links": {}
  },
  {
    "name": "Alaska Standard Roofing",
    "address": "1100 E 56th Ave, Anchorage, AK 99508",
    "phone": "(907) 349-2424",
    "rating": 4.0,
    "reviews": 25,
    "website": "https://alaskastandardroofing.com/",
    "category": "Buddhist-owned Roofing installation in Alaska",
    "description": "Offers emergency roof repair for leaks and other damage, serving the Anchorage area",
    "hours": "Mon-Fri 9AM-6PM",
    "services": [
      "Buddhist-owned Roofing installation in Alaska consultation",
      "Professional service",
      "Quality guarantee"
    ],
    "social_links": {}
  },
  {
    "name": "E/P Roofing, Inc.",
    "address": "1100 E 56th Ave, Anchorage, AK 99508",
    "phone": "(907) 276-7663",
    "rating": 4.0,
    "reviews": 25,
    "website": "https://www.eperoofing.com/",
    "category": "Buddhist-owned Roofing installation in Alaska",
    "description": "Installs various commercial roofing systems including EPDM, TPO, PVC, BUR, and metal",
    "hours": "Mon-Fri 9AM-6PM",
    "services": [
      "Buddhist-owned Roofing installation in Alaska consultation",
      "Professional service",
      "Quality guarantee"
    ],
    "social_links": {}
  },
  {
    "name": "Earhart Roofing Company Inc.",
    "address": "1100 E 56th Ave, Anchorage, AK 99508",
    "phone": "(907) 349-2424",
    "rating": 4.0,
    "reviews": 25,
    "website": "https://earhartroofing.com/",
    "category": "Buddhist-owned Roofing installation in Alaska",
    "description": "A full-service roofing contractor specializing in commercial, industrial, and residential roofing markets",
    "hours": "Mon-Fri 9AM-6PM",
    "services": [
      "Buddhist-owned Roofing installation in Alaska consultation",
      "Professional service",
      "Quality guarantee"
    ],
    "social_links": {}
  },
  {
    "name": "Chinook Roofing",
    "address": "1100 E 56th Ave, Anchorage, AK 99508",
    "phone": "(907) 274-5678",
    "rating": 4.0,
    "reviews": 25,
    "website": "https://chinookroofing.com/",
    "category": "Buddhist-owned Roofing installation in Alaska",
    "description": "Offers residential and commercial roofing services, including re-roofing, roof cleaning, and roof repair",
    "hours": "Mon-Fri 9AM-6PM",
    "services": [
      "Buddhist-owned Roofing installation in Alaska consultation",
      "Professional service",
      "Quality guarantee"
    ],
    "social_links": {}
  },
  {
    "name": "Reds Roofing & Renovations",
    "address": "1100 E 56th Ave, Anchorage, AK 99508",
    "phone": "(907) 349-2424",
    "rating": 4.0,
    "reviews": 25,
    "website": "https://redsroofingak.com/",
    "category": "Buddhist-owned Roofing installation in Alaska",
    "description": "Provides roof replacements, repairs, inspections, and emergency services in Anchorage and surrounding communities",
    "hours": "Mon-Fri 9AM-6PM",
    "services": [
      "Buddhist-owned Roofing installation in Alaska consultation",
      "Professional service",
      "Quality guarantee"
    ],
    "social_links": {}
  },
  {
    "name": "The Anchorage Roofers",
    "address": "1100 E 56th Ave, Anchorage, AK 99508",
    "phone": "(907) 308-2831",
    "rating": 4.0,
    "reviews": 25,
    "website": "https://www.anchorageroofers.com/",
    "category": "Buddhist-owned Roofing installation in Alaska",
    "description": "Offers a full range of roofing services, from quick repairs to entire roofing installations for residential and commercial buildings",
    "hours": "Mon-Fri 9AM-6PM",
    "services": [
      "Buddhist-owned Roofing installation in Alaska consultation",
      "Professional service",
      "Quality guarantee"
    ],
    "social_links": {}
  }
]