[
  {
    "name": "Sanford Integrative Health & Wellness",
    "address": "Sioux Falls, South Dakota",
    "phone": "(605) 328-7155",
    "rating": 4.0,
    "reviews": 25,
    "website": "https://www.sanfordhealth.org/services/integrative-health-and-wellness",
    "category": "Bengali-speaking Aromatherapy in South-Dakota",
    "description": "Offers a range of holistic care including aromatherapy, craniosacral therapy, guided imagery, and more",
    "hours": "Mon-Fri 9AM-6PM",
    "services": [
      "Bengali-speaking Aromatherapy in South-Dakota consultation",
      "Professional service",
      "Quality guarantee"
    ],
    "social_links": {}
  },
  {
    "name": "Asian Aromatherapy Massage",
    "address": "305 Main Ave S, Brookings, SD 57006, USA",
    "phone": "",
    "rating": 4.0,
    "reviews": 25,
    "website": "https://asian-aromatherapy-massage.wixsite.com/asian-aromatherapy",
    "category": "Bengali-speaking Aromatherapy in South-Dakota",
    "description": "Provides aromatherapy massage services in Brookings, SD, focusing on relaxation and wellness",
    "hours": "Mon-Fri 9AM-6PM",
    "services": [
      "Bengali-speaking Aromatherapy in South-Dakota consultation",
      "Professional service",
      "Quality guarantee"
    ],
    "social_links": {}
  },
  {
    "name": "Renewed Elements Massage Studio, LLC",
    "address": "1200 S Burr Street, Suite 200, Mitchell, South Dakota 57301",
    "phone": "",
    "rating": 4.0,
    "reviews": 25,
    "website": "https://www.renewedelements.com/",
    "category": "Bengali-speaking Aromatherapy in South-Dakota",
    "description": "Offers signature massage therapy with aromatherapy options, promoting mental, emotional, and physical well-being",
    "hours": "Mon-Fri 9AM-6PM",
    "services": [
      "Bengali-speaking Aromatherapy in South-Dakota consultation",
      "Professional service",
      "Quality guarantee"
    ],
    "social_links": {}
  },
  {
    "name": "Organic Balance Massage",
    "address": "1010 9th Street, Rapid City, South Dakota 57701",
    "phone": "(605) 430-6596",
    "rating": 4.0,
    "reviews": 25,
    "website": "https://www.organicbalancemassage.com/",
    "category": "Bengali-speaking Aromatherapy in South-Dakota",
    "description": "Provides aromatherapy massage, Swedish massage, deep tissue massage, and more, focusing on relaxation and wellness",
    "hours": "Mon-Fri 9AM-6PM",
    "services": [
      "Bengali-speaking Aromatherapy in South-Dakota consultation",
      "Professional service",
      "Quality guarantee"
    ],
    "social_links": {}
  },
  {
    "name": "SANE Solutions",
    "address": "809 South Street Suite 203, Rapid City, SD 57701",
    "phone": "",
    "rating": 4.0,
    "reviews": 25,
    "website": "https://www.sanesolutionsmassage.com/",
    "category": "Bengali-speaking Aromatherapy in South-Dakota",
    "description": "Offers a range of massage modalities including aromatherapy, Swedish, deep tissue, and hot stone massage",
    "hours": "Mon-Fri 9AM-6PM",
    "services": [
      "Bengali-speaking Aromatherapy in South-Dakota consultation",
      "Professional service",
      "Quality guarantee"
    ],
    "social_links": {}
  },
  {
    "name": "The Nook",
    "address": "Rapid City, SD",
    "phone": "",
    "rating": 4.0,
    "reviews": 25,
    "website": "https://www.rapidcitymassage.com/",
    "category": "Bengali-speaking Aromatherapy in South-Dakota",
    "description": "Provides high-quality massage, skincare, and waxing services, with massage therapists who tailor services to client goals",
    "hours": "Mon-Fri 9AM-6PM",
    "services": [
      "Bengali-speaking Aromatherapy in South-Dakota consultation",
      "Professional service",
      "Quality guarantee"
    ],
    "social_links": {}
  },
  {
    "name": "Yankton Therapeutic Massage",
    "address": "231 Broadway Ave, Yankton, 57078",
    "phone": "(605) 260-2250",
    "rating": 5.0,
    "reviews": 25,
    "website": "https://www.yanktonmassagetherapy.com/",
    "category": "Bengali-speaking Aromatherapy in South-Dakota",
    "description": "Offers aromatherapy massage, Swedish massage, and other therapeutic massage services",
    "hours": "Mon-Fri 9AM-6PM",
    "services": [
      "Bengali-speaking Aromatherapy in South-Dakota consultation",
      "Professional service",
      "Quality guarantee"
    ],
    "social_links": {}
  },
  {
    "name": "Sioux Falls Therapeutic Massage and Education Center",
    "address": "4305 S Louise #102, Sioux Falls, SD 57106",
    "phone": "605-338-9266",
    "rating": 4.0,
    "reviews": 25,
    "website": "https://www.siouxfallsmassage.net/",
    "category": "Bengali-speaking Aromatherapy in South-Dakota",
    "description": "Provides various massage services including aromatherapy, therapeutic, and deep pressure massage",
    "hours": "Mon-Fri 9AM-6PM",
    "services": [
      "Bengali-speaking Aromatherapy in South-Dakota consultation",
      "Professional service",
      "Quality guarantee"
    ],
    "social_links": {}
  },
  {
    "name": "Solare Wellness Spa",
    "address": "412 West 9th Street, Sioux Falls, SD",
    "phone": "(605) 271-5640",
    "rating": 4.0,
    "reviews": 25,
    "website": "https://www.solarewellness.com/",
    "category": "Bengali-speaking Aromatherapy in South-Dakota",
    "description": "A holistic wellness spa offering massage, facials, therapeutic treatments, and relaxation experiences",
    "hours": "Mon-Fri 9AM-6PM",
    "services": [
      "Bengali-speaking Aromatherapy in South-Dakota consultation",
      "Professional service",
      "Quality guarantee"
    ],
    "social_links": {}
  },
  {
    "name": "The Wellness Collective",
    "address": "2333 W. 57th Street Ste. 103, Sioux Falls, SD 57108",
    "phone": "605-271-5640",
    "rating": 4.0,
    "reviews": 25,
    "website": "https://www.wellnesscollectivesd.com/",
    "category": "Bengali-speaking Aromatherapy in South-Dakota",
    "description": "Offers a whole-person approach to well-being, including massage services, mental health counseling, and functional medicine",
    "hours": "Mon-Fri 9AM-6PM",
    "services": [
      "Bengali-speaking Aromatherapy in South-Dakota consultation",
      "Professional service",
      "Quality guarantee"
    ],
    "social_links": {}
  }
]