[
  {
    "name": "Mosquito Joe of Madison",
    "address": "5341 Wood Dr Ste 12, Sun Prairie, WI 53590-8854",
    "phone": "(608) 504-2131",
    "rating": 4.0,
    "reviews": 25,
    "website": "https://madison.mosquitojoe.com/",
    "category": "Chinese-American-owned Mosquito control in Wisconsin",
    "description": "Offers mosquito, flea, and tick control solutions for residential and commercial clients in the Madison area",
    "hours": "Mon-Fri 9AM-6PM",
    "services": [
      "Chinese-American-owned Mosquito control in Wisconsin consultation",
      "Professional service",
      "Quality guarantee"
    ],
    "social_links": {}
  },
  {
    "name": "Mosquito Shield of Waukesha",
    "address": "2108A Silvernail Rd., #110, Pewaukee, WI 53072",
    "phone": "(262) 312-9098",
    "rating": 4.0,
    "reviews": 25,
    "website": "https://www.mosquitosw.com/",
    "category": "Chinese-American-owned Mosquito control in Wisconsin",
    "description": "Provides mosquito, tick, and perimeter pest control services in and around Waukesha",
    "hours": "Mon-Fri 9AM-6PM",
    "services": [
      "Chinese-American-owned Mosquito control in Wisconsin consultation",
      "Professional service",
      "Quality guarantee"
    ],
    "social_links": {}
  },
  {
    "name": "Mosquito Shield of North Milwaukee",
    "address": "W140N5979 Lilly Road, Menomonee Falls, WI 53051",
    "phone": "(414) 944-0844",
    "rating": 4.0,
    "reviews": 25,
    "website": "https://www.mosquitoshield.com/north-milwaukee/",
    "category": "Chinese-American-owned Mosquito control in Wisconsin",
    "description": "Offers mosquito, tick, and perimeter pest control services in the North Milwaukee area",
    "hours": "Mon-Fri 9AM-6PM",
    "services": [
      "Chinese-American-owned Mosquito control in Wisconsin consultation",
      "Professional service",
      "Quality guarantee"
    ],
    "social_links": {}
  },
  {
    "name": "Mosquito Shield of North Central",
    "address": "Not explicitly stated in search results",
    "phone": "",
    "rating": 4.0,
    "reviews": 25,
    "website": "https://www.mosquitoshield.com/north-central/",
    "category": "Chinese-American-owned Mosquito control in Wisconsin",
    "description": "Provides mosquito and tick protection services in North Central Wisconsin",
    "hours": "Mon-Fri 9AM-6PM",
    "services": [
      "Chinese-American-owned Mosquito control in Wisconsin consultation",
      "Professional service",
      "Quality guarantee"
    ],
    "social_links": {}
  },
  {
    "name": "Mosquito Shield of Appleton and the Fox Valley",
    "address": "PO Box 559, New London, WI 54961",
    "phone": "(920) 234-3079",
    "rating": 4.0,
    "reviews": 25,
    "website": "https://www.mosquitoshield.com/appleton/",
    "category": "Chinese-American-owned Mosquito control in Wisconsin",
    "description": "Offers mosquito, tick, and perimeter pest control services in Appleton and the Fox Valley area",
    "hours": "Mon-Fri 9AM-6PM",
    "services": [
      "Chinese-American-owned Mosquito control in Wisconsin consultation",
      "Professional service",
      "Quality guarantee"
    ],
    "social_links": {}
  },
  {
    "name": "Batzner Pest Control",
    "address": "Multiple locations including New Berlin, Oshkosh, Milwaukee, and Madison",
    "phone": "",
    "rating": 4.0,
    "reviews": 25,
    "website": "https://www.batzner.com/",
    "category": "Chinese-American-owned Mosquito control in Wisconsin",
    "description": "Offers comprehensive pest control services, including mosquito control, for residential and commercial properties across Wisconsin",
    "hours": "Mon-Fri 9AM-6PM",
    "services": [
      "Chinese-American-owned Mosquito control in Wisconsin consultation",
      "Professional service",
      "Quality guarantee"
    ],
    "social_links": {}
  },
  {
    "name": "Skedaddle Humane Wildlife Control",
    "address": "Multiple locations including Greenfield, Franklin, Madison, and Milwaukee",
    "phone": "(608) 819-9406 (Madison), (414) 522-1999 (Milwaukee/Waukesha)",
    "rating": 4.0,
    "reviews": 25,
    "website": "https://www.skedaddlewildlife.com/",
    "category": "Chinese-American-owned Mosquito control in Wisconsin",
    "description": "While primarily focused on wildlife control, they offer services that can help manage pests, including those that may be attracted to outdoor areas",
    "hours": "Mon-Fri 9AM-6PM",
    "services": [
      "Chinese-American-owned Mosquito control in Wisconsin consultation",
      "Professional service",
      "Quality guarantee"
    ],
    "social_links": {}
  },
  {
    "name": "Buzz Off Mosquito Solutions",
    "address": "Not explicitly stated in search results, but serves Northern Wisconsin",
    "phone": "(715) 467-7094",
    "rating": 4.0,
    "reviews": 25,
    "website": "https://www.google.com/maps/search/Buzz+Off+Mosquito+Solutions+in+Wisconsin",
    "category": "Chinese-American-owned Mosquito control in Wisconsin",
    "description": "Provides seasonal mosquito treatments, as well as flea and tick mitigation services",
    "hours": "Mon-Fri 9AM-6PM",
    "services": [
      "Chinese-American-owned Mosquito control in Wisconsin consultation",
      "Professional service",
      "Quality guarantee"
    ],
    "social_links": {}
  },
  {
    "name": "Kwik Kill Pest Controls",
    "address": "Madison, WI",
    "phone": "",
    "rating": 4.0,
    "reviews": 25,
    "website": "https://www.google.com/maps/search/Kwik+Kill+Pest+Controls+in+Wisconsin",
    "category": "Chinese-American-owned Mosquito control in Wisconsin",
    "description": "Offers Integrated Mosquito Management services, including inspections and custom treatment plans",
    "hours": "Mon-Fri 9AM-6PM",
    "services": [
      "Chinese-American-owned Mosquito control in Wisconsin consultation",
      "Professional service",
      "Quality guarantee"
    ],
    "social_links": {}
  },
  {
    "name": "Dr Bug Pest Control",
    "address": "Oconomowoc, WI",
    "phone": "(262) 229-9149",
    "rating": 4.0,
    "reviews": 25,
    "website": "https://www.google.com/maps/search/Dr+Bug+Pest+Control+in+Wisconsin",
    "category": "Chinese-American-owned Mosquito control in Wisconsin",
    "description": "Specializes in insect pest control, including treatments for ants, spiders, and stinging insects, which can contribute to a more pest-free outdoor environment",
    "hours": "Mon-Fri 9AM-6PM",
    "services": [
      "Chinese-American-owned Mosquito control in Wisconsin consultation",
      "Professional service",
      "Quality guarantee"
    ],
    "social_links": {}
  }
]