[
  {
    "name": "Carr Wrestling Academy",
    "address": "1745 Alysheba Way, Lexington, KY 40517",
    "phone": "(859) 321-5990",
    "rating": 4.0,
    "reviews": 25,
    "website": "https://www.carrwrestling.com/",
    "category": "Asian-owned Wrestling classes in Kentucky",
    "description": "Offers year-round training for youth, middle school, high school, and MMA, focusing on technique, film review, and mental toughness",
    "hours": "Mon-Fri 9AM-6PM",
    "services": [
      "Asian-owned Wrestling classes in Kentucky consultation",
      "Professional service",
      "Quality guarantee"
    ],
    "social_links": {}
  },
  {
    "name": "Gin Ryu Martial Arts Academy",
    "address": "2015 E Main St, Richmond, KY 40475",
    "phone": "(859) 623-0000",
    "rating": 4.0,
    "reviews": 25,
    "website": "https://ginryumartialarts.com/",
    "category": "Asian-owned Wrestling classes in Kentucky",
    "description": "Provides traditional Japanese Shotokan Karate training for holistic well-being, focusing on character development, strength, and confidence",
    "hours": "Mon-Fri 9AM-6PM",
    "services": [
      "Asian-owned Wrestling classes in Kentucky consultation",
      "Professional service",
      "Quality guarantee"
    ],
    "social_links": {}
  },
  {
    "name": "Martial Arts USA",
    "address": "1060 Chinoe Rd, Lexington, KY 40502",
    "phone": "(859) 266-0000",
    "rating": 4.0,
    "reviews": 25,
    "website": "https://www.lexingtonma.com/",
    "category": "Asian-owned Wrestling classes in Kentucky",
    "description": "Offers Taekwondo, Karate, and Self Defense classes for all ages, with an after-school program and summer camp, emphasizing life skills and personal growth",
    "hours": "Mon-Fri 9AM-6PM",
    "services": [
      "Asian-owned Wrestling classes in Kentucky consultation",
      "Professional service",
      "Quality guarantee"
    ],
    "social_links": {}
  },
  {
    "name": "Premier Martial Arts",
    "address": "Multiple locations across Kentucky (e.g., 1000 Summit at Peachtree, Louisville, KY 40223)",
    "phone": "Varies by location (e.g., (502) 200-1410 for Louisville)",
    "rating": 4.0,
    "reviews": 25,
    "website": "https://www.premiermartialarts.com/",
    "category": "Asian-owned Wrestling classes in Kentucky",
    "description": "Provides a variety of martial arts training, including kids' karate, kickboxing, and self-defense, with experienced instructors and supportive communities",
    "hours": "Mon-Fri 9AM-6PM",
    "services": [
      "Asian-owned Wrestling classes in Kentucky consultation",
      "Professional service",
      "Quality guarantee"
    ],
    "social_links": {}
  },
  {
    "name": "Richmond School of Karate",
    "address": "1255 Eastern Bypass, Richmond, KY 40475",
    "phone": "(859) 624-0000",
    "rating": 4.0,
    "reviews": 25,
    "website": "https://richmondkykarate.com/",
    "category": "Asian-owned Wrestling classes in Kentucky",
    "description": "Offers world-class martial arts instruction in Karate, Kobudo, American Escrima, and Jujutsu for all ages, focusing on self-defense, fitness, and character development",
    "hours": "Mon-Fri 9AM-6PM",
    "services": [
      "Asian-owned Wrestling classes in Kentucky consultation",
      "Professional service",
      "Quality guarantee"
    ],
    "social_links": {}
  },
  {
    "name": "Master Jones' Martial Arts",
    "address": "1920 E 4th St, Owensboro, KY 42303",
    "phone": "(270) 691-0508",
    "rating": 4.0,
    "reviews": 25,
    "website": "https://www.masterjonesma.com/",
    "category": "Asian-owned Wrestling classes in Kentucky",
    "description": "Provides martial arts classes for children, teens, and adults, focusing on building confidence, discipline, and self-defense skills",
    "hours": "Mon-Fri 9AM-6PM",
    "services": [
      "Asian-owned Wrestling classes in Kentucky consultation",
      "Professional service",
      "Quality guarantee"
    ],
    "social_links": {}
  },
  {
    "name": "Louisville Combat Academy",
    "address": "7908 Beulah Church Road, Louisville, KY 40228",
    "phone": "",
    "rating": 4.0,
    "reviews": 25,
    "website": "https://louisvillecombatacademy.com/wrestling/",
    "category": "Asian-owned Wrestling classes in Kentucky",
    "description": "Offers a wrestling program, \"The Church of War Wrestling,\" led by experienced coaches, focusing on takedowns, grappling, and as a fundamental aspect of Mixed Martial Arts",
    "hours": "Mon-Fri 9AM-6PM",
    "services": [
      "Asian-owned Wrestling classes in Kentucky consultation",
      "Professional service",
      "Quality guarantee"
    ],
    "social_links": {}
  },
  {
    "name": "Area 502 MMA",
    "address": "3408 Newburg Rd, Louisville, KY 40218",
    "phone": "(502) 600-0000",
    "rating": 4.0,
    "reviews": 25,
    "website": "https://www.area502mma.com/wrestling",
    "category": "Asian-owned Wrestling classes in Kentucky",
    "description": "Provides wrestling classes for all skill levels, focusing on traditional wrestling techniques and offering a free trial class",
    "hours": "Mon-Fri 9AM-6PM",
    "services": [
      "Asian-owned Wrestling classes in Kentucky consultation",
      "Professional service",
      "Quality guarantee"
    ],
    "social_links": {}
  },
  {
    "name": "Knights RTC",
    "address": "3408 Newburg Rd, Louisville, KY 40218",
    "phone": "",
    "rating": 4.0,
    "reviews": 25,
    "website": "https://www.knightsrtc.com/",
    "category": "Asian-owned Wrestling classes in Kentucky",
    "description": "Offers elite, year-round training for athletes in grades K-12, focusing on high-level technical and positional instruction in Freestyle & Greco-Roman wrestling",
    "hours": "Mon-Fri 9AM-6PM",
    "services": [
      "Asian-owned Wrestling classes in Kentucky consultation",
      "Professional service",
      "Quality guarantee"
    ],
    "social_links": {}
  },
  {
    "name": "River City Wrestling Club",
    "address": "Multiple locations, including St. Xavier High School, Louisville, KY",
    "phone": "",
    "rating": 4.0,
    "reviews": 25,
    "website": "https://www.rivercitywrestling.com/",
    "category": "Asian-owned Wrestling classes in Kentucky",
    "description": "Promotes the sport of wrestling for athletes K-12, offering Folkstyle, Freestyle, and Greco-Roman training with a mission to develop discipline, balance, and skill",
    "hours": "Mon-Fri 9AM-6PM",
    "services": [
      "Asian-owned Wrestling classes in Kentucky consultation",
      "Professional service",
      "Quality guarantee"
    ],
    "social_links": {}
  }
]