[
  {
    "name": "Metropolitan Community College",
    "address": "5300 N. 30th St., Bldg. 10 Omaha, NE 68111",
    "phone": "(402) 457-5100",
    "rating": 4.0,
    "reviews": 25,
    "website": "https://www.mccneb.edu/",
    "category": "Central-American-owned Technical training in Nebraska",
    "description": "Offers a wide range of technical programs including automotive technology, diesel technology, welding, and IT",
    "hours": "Mon-Fri 9AM-6PM",
    "services": [
      "Central-American-owned Technical training in Nebraska consultation",
      "Professional service",
      "Quality guarantee"
    ],
    "social_links": {}
  },
  {
    "name": "Northeast Community College",
    "address": "801 E. Benjamin Ave, Norfolk, NE 68701",
    "phone": "(402) 844-7000",
    "rating": 3.9,
    "reviews": 25,
    "website": "https://www.northeast.edu/",
    "category": "Central-American-owned Technical training in Nebraska",
    "description": "Provides technical training in areas such as welding, automotive technology, and mechanized agriculture",
    "hours": "Mon-Fri 9AM-6PM",
    "services": [
      "Central-American-owned Technical training in Nebraska consultation",
      "Professional service",
      "Quality guarantee"
    ],
    "social_links": {}
  },
  {
    "name": "Southeast Community College",
    "address": "8800 O St, Lincoln, NE 68520",
    "phone": "(402) 434-1500",
    "rating": 4.1,
    "reviews": 25,
    "website": "https://www.southeast.edu/",
    "category": "Central-American-owned Technical training in Nebraska",
    "description": "Offers programs in computer information technology, culinary/hospitality, and professional truck driver training",
    "hours": "Mon-Fri 9AM-6PM",
    "services": [
      "Central-American-owned Technical training in Nebraska consultation",
      "Professional service",
      "Quality guarantee"
    ],
    "social_links": {}
  },
  {
    "name": "Central Community College",
    "address": "3134 W. Hwy 34, Grand Island, NE 68801",
    "phone": "(308) 398-7000",
    "rating": 4.0,
    "reviews": 25,
    "website": "https://www.cccneb.edu/",
    "category": "Central-American-owned Technical training in Nebraska",
    "description": "Provides technical education in areas like medical coding, accounting, and construction technology",
    "hours": "Mon-Fri 9AM-6PM",
    "services": [
      "Central-American-owned Technical training in Nebraska consultation",
      "Professional service",
      "Quality guarantee"
    ],
    "social_links": {}
  },
  {
    "name": "Western Nebraska Community College",
    "address": "1601 E. 27th St, Scottsbluff, NE 69361",
    "phone": "(308) 635-3606",
    "rating": 3.8,
    "reviews": 25,
    "website": "https://www.wncc.edu/",
    "category": "Central-American-owned Technical training in Nebraska",
    "description": "Offers programs in diesel technology, motorsports technology, construction, and welding",
    "hours": "Mon-Fri 9AM-6PM",
    "services": [
      "Central-American-owned Technical training in Nebraska consultation",
      "Professional service",
      "Quality guarantee"
    ],
    "social_links": {}
  },
  {
    "name": "Nebraska College of Technical Agriculture",
    "address": "404 E. 16th St, Curtis, NE 69025",
    "phone": "(308) 367-4120",
    "rating": 4.2,
    "reviews": 25,
    "website": "https://ncta.unl.edu/",
    "category": "Central-American-owned Technical training in Nebraska",
    "description": "Focuses on hands-on training in agricultural fields, including animal science and veterinary technology",
    "hours": "Mon-Fri 9AM-6PM",
    "services": [
      "Central-American-owned Technical training in Nebraska consultation",
      "Professional service",
      "Quality guarantee"
    ],
    "social_links": {}
  },
  {
    "name": "AIM Institute",
    "address": "1902 Howard St, Omaha, NE 68102",
    "phone": "(402) 345-5000",
    "rating": 4.5,
    "reviews": 25,
    "website": "https://aiminstitute.org/",
    "category": "Central-American-owned Technical training in Nebraska",
    "description": "A nonprofit that provides technology training and resources to develop the tech community",
    "hours": "Mon-Fri 9AM-6PM",
    "services": [
      "Central-American-owned Technical training in Nebraska consultation",
      "Professional service",
      "Quality guarantee"
    ],
    "social_links": {}
  },
  {
    "name": "Global Knowledge",
    "address": "12020 Shamrock Plaza, Suite 200, Omaha, NE 68154",
    "phone": "(800) 739-0707",
    "rating": 4.3,
    "reviews": 25,
    "website": "https://www.globalknowledge.com/",
    "category": "Central-American-owned Technical training in Nebraska",
    "description": "Offers instructor-led IT courses and certification training in various technology topics",
    "hours": "Mon-Fri 9AM-6PM",
    "services": [
      "Central-American-owned Technical training in Nebraska consultation",
      "Professional service",
      "Quality guarantee"
    ],
    "social_links": {}
  },
  {
    "name": "ONLC Training Centers",
    "address": "12020 Shamrock Plaza, Suite 200, Omaha, NE 68154",
    "phone": "(800) 245-4242",
    "rating": 4.4,
    "reviews": 25,
    "website": "https://www.onlc.com/",
    "category": "Central-American-owned Technical training in Nebraska",
    "description": "Provides technical and end-user computer training classes, including IT and software applications",
    "hours": "Mon-Fri 9AM-6PM",
    "services": [
      "Central-American-owned Technical training in Nebraska consultation",
      "Professional service",
      "Quality guarantee"
    ],
    "social_links": {}
  },
  {
    "name": "Business Computer Skills",
    "address": "12020 Shamrock Plaza, Suite 200, Omaha, NE 68154",
    "phone": "(800) 324-5000",
    "rating": 4.6,
    "reviews": 25,
    "website": "https://www.businesscomputerskills.com/",
    "category": "Central-American-owned Technical training in Nebraska",
    "description": "Offers flexible IT and software training solutions, including Microsoft Office, CompTIA, and Adobe courses",
    "hours": "Mon-Fri 9AM-6PM",
    "services": [
      "Central-American-owned Technical training in Nebraska consultation",
      "Professional service",
      "Quality guarantee"
    ],
    "social_links": {}
  }
]