[
  {
    "name": "Aarvin Insurance Services LLC",
    "address": "4625 S Western Ave, Oklahoma City, OK 73109",
    "phone": "(405) 217-0192",
    "rating": 4.0,
    "reviews": 25,
    "website": "https://www.aarvinins.com/",
    "category": "Catholic-owned Insurance brokerage in Oklahoma",
    "description": "Offers specialized insurance for churches and other religious organizations, including general liability, property coverage, and more",
    "hours": "Mon-Fri 9AM-6PM",
    "services": [
      "Catholic-owned Insurance brokerage in Oklahoma consultation",
      "Professional service",
      "Quality guarantee"
    ],
    "social_links": {}
  },
  {
    "name": "Church Insurance Specialists, Inc.",
    "address": "1001 NW 13th St, Oklahoma City, OK 73103",
    "phone": "(405) 236-3434",
    "rating": 4.0,
    "reviews": 25,
    "website": "https://churchinsurancespecialists.com/",
    "category": "Catholic-owned Insurance brokerage in Oklahoma",
    "description": "An independent agency specializing in ministry insurance for Oklahoma churches and related ministries since 1978. They offer personalized insurance plans and risk management strategies",
    "hours": "Mon-Fri 9AM-6PM",
    "services": [
      "Catholic-owned Insurance brokerage in Oklahoma consultation",
      "Professional service",
      "Quality guarantee"
    ],
    "social_links": {}
  },
  {
    "name": "Thompson Agency",
    "address": "100 W Main St, Ada, OK 74820",
    "phone": "(580) 332-3322",
    "rating": 4.0,
    "reviews": 25,
    "website": "https://www.thompsonagency.net/",
    "category": "Catholic-owned Insurance brokerage in Oklahoma",
    "description": "Provides full-service church insurance in Oklahoma, including property and liability coverage, and auto insurance for church vehicles",
    "hours": "Mon-Fri 9AM-6PM",
    "services": [
      "Catholic-owned Insurance brokerage in Oklahoma consultation",
      "Professional service",
      "Quality guarantee"
    ],
    "social_links": {}
  },
  {
    "name": "MemberHaven Insurance",
    "address": "1320 NW 13th St, Oklahoma City, OK 73103",
    "phone": "(405) 602-5000",
    "rating": 4.0,
    "reviews": 25,
    "website": "https://www.memberhaven.com/",
    "category": "Catholic-owned Insurance brokerage in Oklahoma",
    "description": "Offers excellent customer service and can shop quotes from multiple companies. They are an independent agency that can help find competitive pricing",
    "hours": "Mon-Fri 9AM-6PM",
    "services": [
      "Catholic-owned Insurance brokerage in Oklahoma consultation",
      "Professional service",
      "Quality guarantee"
    ],
    "social_links": {}
  },
  {
    "name": "Oklahoma Insurance Professionals LLC",
    "address": "1100 N Classen Blvd #200, Oklahoma City, OK 73103",
    "phone": "(405) 604-0000",
    "rating": 4.0,
    "reviews": 25,
    "website": "https://oip.insure/",
    "category": "Catholic-owned Insurance brokerage in Oklahoma",
    "description": "This agency focuses on finding insurance that best fits family needs, with positive reviews highlighting their helpfulness and ability to find good rates",
    "hours": "Mon-Fri 9AM-6PM",
    "services": [
      "Catholic-owned Insurance brokerage in Oklahoma consultation",
      "Professional service",
      "Quality guarantee"
    ],
    "social_links": {}
  },
  {
    "name": "Bigbie, Hensley, & Janway Insurance Agency",
    "address": "1000 N Broadway Ave, Oklahoma City, OK 73103",
    "phone": "(405) 235-4501",
    "rating": 4.0,
    "reviews": 25,
    "website": "https://www.bhjins.com/",
    "category": "Catholic-owned Insurance brokerage in Oklahoma",
    "description": "They work with businesses and individuals to provide proper insurance coverage, shopping all top carriers for affordability and value. They offer services in employee benefits, health insurance, life insurance, casualty, and more",
    "hours": "Mon-Fri 9AM-6PM",
    "services": [
      "Catholic-owned Insurance brokerage in Oklahoma consultation",
      "Professional service",
      "Quality guarantee"
    ],
    "social_links": {}
  },
  {
    "name": "Gallagher",
    "address": "100 N Broadway Ave #1900, Oklahoma City, OK 73102",
    "phone": "(405) 235-1800",
    "rating": 4.0,
    "reviews": 25,
    "website": "https://www.ajg.com/us/locations/oklahoma-city-ok/",
    "category": "Catholic-owned Insurance brokerage in Oklahoma",
    "description": "A global insurance brokerage, risk management, and consulting firm that serves communities worldwide, helping clients address risk and protect assets",
    "hours": "Mon-Fri 9AM-6PM",
    "services": [
      "Catholic-owned Insurance brokerage in Oklahoma consultation",
      "Professional service",
      "Quality guarantee"
    ],
    "social_links": {}
  },
  {
    "name": "Relation Insurance (formerly Durant Insurance Brokers)",
    "address": "1000 N Broadway Ave #300, Oklahoma City, OK 73103",
    "phone": "(405) 232-0500",
    "rating": 4.0,
    "reviews": 25,
    "website": "https://www.relationinsurance.com/locations/oklahoma-city-ok/",
    "category": "Catholic-owned Insurance brokerage in Oklahoma",
    "description": "Offers employee benefits, risk management, retirement services, and personal wealth management. They emphasize building relationships and providing comprehensive solutions",
    "hours": "Mon-Fri 9AM-6PM",
    "services": [
      "Catholic-owned Insurance brokerage in Oklahoma consultation",
      "Professional service",
      "Quality guarantee"
    ],
    "social_links": {}
  },
  {
    "name": "Catholic Mutual Group",
    "address": "While they do not have a physical office listed in Oklahoma, they are a leading provider of property, liability, and employee benefit coverage for the Catholic Church in North America",
    "phone": "(800) 325-7777",
    "rating": 4.0,
    "reviews": 25,
    "website": "https://www.catholicmutual.com/",
    "category": "Catholic-owned Insurance brokerage in Oklahoma",
    "description": "Specializes in providing insurance solutions tailored to the needs of Catholic dioceses, parishes, schools, and other Catholic entities",
    "hours": "Mon-Fri 9AM-6PM",
    "services": [
      "Catholic-owned Insurance brokerage in Oklahoma consultation",
      "Professional service",
      "Quality guarantee"
    ],
    "social_links": {}
  },
  {
    "name": "Catholic Life Insurance",
    "address": "While they do not have a physical office listed in Oklahoma, they offer services through agents across various states",
    "phone": "(800) 223-4102",
    "rating": 4.0,
    "reviews": 25,
    "website": "https://www.clife.org/",
    "category": "Catholic-owned Insurance brokerage in Oklahoma",
    "description": "A Catholic-based organization offering life insurance, retirement plans, and member benefits. You can find an agent through their website",
    "hours": "Mon-Fri 9AM-6PM",
    "services": [
      "Catholic-owned Insurance brokerage in Oklahoma consultation",
      "Professional service",
      "Quality guarantee"
    ],
    "social_links": {}
  }
]