[
  {
    "name": "Factory Direct Heating and Cooling, LLC",
    "address": "7105 Zionsville Rd, Indianapolis, IN 46268",
    "phone": "(317) 864-0911",
    "rating": 4.0,
    "reviews": 25,
    "website": "https://www.factorydirectheatingandcooling.com/",
    "category": "African-American-owned Air quality systems in Indiana",
    "description": "This is a Black-owned business serving Indianapolis and surrounding areas for over 25 years, offering HVAC services including installations, repairs, and maintenance",
    "hours": "Mon-Fri 9AM-6PM",
    "services": [
      "African-American-owned Air quality systems in Indiana consultation",
      "Professional service",
      "Quality guarantee"
    ],
    "social_links": {}
  },
  {
    "name": "Mitchell & Son HVAC, Inc.",
    "address": "PO Box 20387, Indianapolis, IN 46220 (Physical address not readily available)",
    "phone": "(317) 283-0001",
    "rating": 4.0,
    "reviews": 25,
    "website": "http://www.mitchellandsonshvac.com/",
    "category": "African-American-owned Air quality systems in Indiana",
    "description": "A minority-owned firm in the Indianapolis area since 1978, with extensive experience in refrigeration, heating, and air conditioning installation, repair, and service",
    "hours": "Mon-Fri 9AM-6PM",
    "services": [
      "African-American-owned Air quality systems in Indiana consultation",
      "Professional service",
      "Quality guarantee"
    ],
    "social_links": {}
  },
  {
    "name": "Pure Air Environmental",
    "address": "7135 Zionsville Rd, Indianapolis, IN 46268",
    "phone": "(317) 449-1570",
    "rating": 4.0,
    "reviews": 25,
    "website": "https://pureairenvironmental.com/",
    "category": "African-American-owned Air quality systems in Indiana",
    "description": "Specializes in water restoration, mold removal, radon mitigation, and air purification in Indianapolis, offering services for both homes and businesses. They are a family-owned business",
    "hours": "Mon-Fri 9AM-6PM",
    "services": [
      "African-American-owned Air quality systems in Indiana consultation",
      "Professional service",
      "Quality guarantee"
    ],
    "social_links": {}
  },
  {
    "name": "Williams Comfort Air",
    "address": "7635 Zionsville Rd, Indianapolis, IN 46268",
    "phone": "(317) 597-4500",
    "rating": 4.0,
    "reviews": 25,
    "website": "https://www.williamscmf.com/",
    "category": "African-American-owned Air quality systems in Indiana",
    "description": "Provides professional products and services to address symptoms of poor indoor air quality in Indianapolis homes, including air cleaners, air purifiers, UV germicidal lamps, humidifiers, and dehumidifiers",
    "hours": "Mon-Fri 9AM-6PM",
    "services": [
      "African-American-owned Air quality systems in Indiana consultation",
      "Professional service",
      "Quality guarantee"
    ],
    "social_links": {}
  },
  {
    "name": "SGS North America Inc.",
    "address": "3025 State Rd 46, Columbus, IN 47201",
    "phone": "(812) 372-7016",
    "rating": 4.0,
    "reviews": 25,
    "website": "https://www.sgs.com/",
    "category": "African-American-owned Air quality systems in Indiana",
    "description": "Offers air quality testing services for various industries, including ambient air quality testing, emissions monitoring, and indoor air quality (IAQ) testing and assessment services",
    "hours": "Mon-Fri 9AM-6PM",
    "services": [
      "African-American-owned Air quality systems in Indiana consultation",
      "Professional service",
      "Quality guarantee"
    ],
    "social_links": {}
  },
  {
    "name": "Bodycote Thermal Processing",
    "address": "1400 W. Lusher Ave, Elkhart, IN 46514",
    "phone": "(574) 295-4400",
    "rating": 4.0,
    "reviews": 25,
    "website": "https://www.bodycote.com/",
    "category": "African-American-owned Air quality systems in Indiana",
    "description": "Provides environmental testing services including air quality testing",
    "hours": "Mon-Fri 9AM-6PM",
    "services": [
      "African-American-owned Air quality systems in Indiana consultation",
      "Professional service",
      "Quality guarantee"
    ],
    "social_links": {}
  },
  {
    "name": "B&W Heating, Cooling, Plumbing and Electric",
    "address": "2101 Cunningham Road Suite B, Indianapolis, IN 46224",
    "phone": "(317) 243-3581",
    "rating": 4.0,
    "reviews": 25,
    "website": "https://www.bw-services.com/",
    "category": "African-American-owned Air quality systems in Indiana",
    "description": "A full-service heating, cooling, plumbing, and electrical company serving Greater Indianapolis and Central Indiana. They are a family-owned and operated business",
    "hours": "Mon-Fri 9AM-6PM",
    "services": [
      "African-American-owned Air quality systems in Indiana consultation",
      "Professional service",
      "Quality guarantee"
    ],
    "social_links": {}
  },
  {
    "name": "Capital Environmental Enterprises Inc.",
    "address": "8810 N. Michigan Rd., Indianapolis, IN 46268",
    "phone": "(317) 708-4813",
    "rating": 4.0,
    "reviews": 25,
    "website": "https://www.capital-environmental.com/",
    "category": "African-American-owned Air quality systems in Indiana",
    "description": "Provides indoor air quality testing for LEED certifications, residential, and commercial spaces, testing for various airborne toxins and ensuring optimal humidity and oxygen levels",
    "hours": "Mon-Fri 9AM-6PM",
    "services": [
      "African-American-owned Air quality systems in Indiana consultation",
      "Professional service",
      "Quality guarantee"
    ],
    "social_links": {}
  },
  {
    "name": "Aegis Environmental Inc.",
    "address": "101 W. Ohio St., Suite 200, Indianapolis, IN 46204",
    "phone": "(317) 833-9000",
    "rating": 4.0,
    "reviews": 25,
    "website": "https://www.aegisenv.com/",
    "category": "African-American-owned Air quality systems in Indiana",
    "description": "Offers comprehensive indoor air quality (IAQ) testing, clear reporting, and guidance for commercial and residential clients in Indianapolis to ensure healthier indoor environments",
    "hours": "Mon-Fri 9AM-6PM",
    "services": [
      "African-American-owned Air quality systems in Indiana consultation",
      "Professional service",
      "Quality guarantee"
    ],
    "social_links": {}
  },
  {
    "name": "ACM Engineering & Environmental Services",
    "address": "4705 W. 10th Street, Indianapolis, IN 46222",
    "phone": "(317) 243-7007",
    "rating": 4.0,
    "reviews": 25,
    "website": "https://www.acmeng.com/",
    "category": "African-American-owned Air quality systems in Indiana",
    "description": "Provides a range of environmental services including indoor air quality services, mold inspection, and analysis",
    "hours": "Mon-Fri 9AM-6PM",
    "services": [
      "African-American-owned Air quality systems in Indiana consultation",
      "Professional service",
      "Quality guarantee"
    ],
    "social_links": {}
  }
]