[
  {
    "name": "Elite Sports Performance",
    "address": "801 East 82nd Avenue 3, Anchorage, AK 99518",
    "phone": "(907) 317-3852",
    "rating": 4.5,
    "reviews": 25,
    "website": "https://www.elitesportsperformanceak.com/",
    "category": "Black-owned Sports performance training in Alaska",
    "description": "Offers adult fitness classes, sports team training, and personal training for various sports",
    "hours": "Mon-Fri 9AM-6PM",
    "services": [
      "Black-owned Sports performance training in Alaska consultation",
      "Professional service",
      "Quality guarantee"
    ],
    "social_links": {}
  },
  {
    "name": "Southside Strength & Fitness",
    "address": "1101 E 76th Ave, Anchorage, AK 99518",
    "phone": "(907) 344-7653",
    "rating": 4.7,
    "reviews": 25,
    "website": "https://www.southsidestrength.com/",
    "category": "Black-owned Sports performance training in Alaska",
    "description": "A strength facility offering equipment for bodybuilding, powerlifting, and Olympic lifting, with 24/7 member access",
    "hours": "Mon-Fri 9AM-6PM",
    "services": [
      "Black-owned Sports performance training in Alaska consultation",
      "Professional service",
      "Quality guarantee"
    ],
    "social_links": {}
  },
  {
    "name": "Northside Athletics",
    "address": "1919 Van Horn Rd, Fairbanks, AK 99709",
    "phone": "(907) 458-8000",
    "rating": 4.8,
    "reviews": 25,
    "website": "https://www.northsideathleticsfairbanks.com/",
    "category": "Black-owned Sports performance training in Alaska",
    "description": "Focuses on strength sports and general fitness with science-based programming and a state-of-the-art facility",
    "hours": "Mon-Fri 9AM-6PM",
    "services": [
      "Black-owned Sports performance training in Alaska consultation",
      "Professional service",
      "Quality guarantee"
    ],
    "social_links": {}
  },
  {
    "name": "Northern Edge PT",
    "address": "1700 W. Parks Hwy, Suite 101, Wasilla, AK 99654",
    "phone": "(907) 373-3737",
    "rating": 4.9,
    "reviews": 25,
    "website": "https://www.northernedgept.com/",
    "category": "Black-owned Sports performance training in Alaska",
    "description": "Provides integrated training regimens for elite athletes, focusing on biomechanical flaws and injury prevention",
    "hours": "Mon-Fri 9AM-6PM",
    "services": [
      "Black-owned Sports performance training in Alaska consultation",
      "Professional service",
      "Quality guarantee"
    ],
    "social_links": {}
  },
  {
    "name": "Empower Physical Therapy & Empower Performance",
    "address": "",
    "phone": "",
    "rating": 4.8,
    "reviews": 25,
    "website": "https://www.empoweralaska.com/",
    "category": "Black-owned Sports performance training in Alaska",
    "description": "Offers injury prevention programs and personalized training for all ages and skill levels, with a team of Exercise Physiologists, Physical Therapists, and Personal Trainers",
    "hours": "Mon-Fri 9AM-6PM",
    "services": [
      "Black-owned Sports performance training in Alaska consultation",
      "Professional service",
      "Quality guarantee"
    ],
    "social_links": {}
  },
  {
    "name": "Alaska Fitness",
    "address": "3101 Porcupine Rd, Anchorage, AK 99504",
    "phone": "(907) 337-2582",
    "rating": 4.5,
    "reviews": 25,
    "website": "https://www.alaskafitness.us/",
    "category": "Black-owned Sports performance training in Alaska",
    "description": "A comprehensive fitness facility offering group classes, personal training, and a functional training zone",
    "hours": "Mon-Fri 9AM-6PM",
    "services": [
      "Black-owned Sports performance training in Alaska consultation",
      "Professional service",
      "Quality guarantee"
    ],
    "social_links": {}
  },
  {
    "name": "The Dome",
    "address": "1250 E. 48th Ave, Anchorage, AK 99508",
    "phone": "(907) 770-4636",
    "rating": 4.5,
    "reviews": 25,
    "website": "https://www.thedome.org/",
    "category": "Black-owned Sports performance training in Alaska",
    "description": "A large indoor sports facility hosting various sports leagues, training, and offering memberships and day passes",
    "hours": "Mon-Fri 9AM-6PM",
    "services": [
      "Black-owned Sports performance training in Alaska consultation",
      "Professional service",
      "Quality guarantee"
    ],
    "social_links": {}
  },
  {
    "name": "Fairbanks Barbell Club",
    "address": "1919 Van Horn Rd, Fairbanks, AK 99709",
    "phone": "(907) 374-3000",
    "rating": 5.0,
    "reviews": 25,
    "website": "https://www.fairbanksbarbellclub.com/",
    "category": "Black-owned Sports performance training in Alaska",
    "description": "Offers custom training programs for Olympic lifting, powerlifting, and strength and conditioning",
    "hours": "Mon-Fri 9AM-6PM",
    "services": [
      "Black-owned Sports performance training in Alaska consultation",
      "Professional service",
      "Quality guarantee"
    ],
    "social_links": {}
  },
  {
    "name": "The Alaska Club (Juneau Downtown)",
    "address": "1111 F St, Juneau, AK 99801",
    "phone": "(907) 586-0202",
    "rating": 4.4,
    "reviews": 25,
    "website": "https://www.thealaskaclub.com/locations/juneau-downtown/",
    "category": "Black-owned Sports performance training in Alaska",
    "description": "A fitness club offering group fitness classes, personal training, and various amenities",
    "hours": "Mon-Fri 9AM-6PM",
    "services": [
      "Black-owned Sports performance training in Alaska consultation",
      "Professional service",
      "Quality guarantee"
    ],
    "social_links": {}
  },
  {
    "name": "SEAK Fitness",
    "address": "1007 Tongass Ave, Juneau, AK 99801",
    "phone": "(907) 617-0123",
    "rating": 4.9,
    "reviews": 25,
    "website": "https://www.seakfitness.com/",
    "category": "Black-owned Sports performance training in Alaska",
    "description": "Offers functional fitness classes and memberships in Juneau, Alaska, with a focus on community and personalized coaching",
    "hours": "Mon-Fri 9AM-6PM",
    "services": [
      "Black-owned Sports performance training in Alaska consultation",
      "Professional service",
      "Quality guarantee"
    ],
    "social_links": {}
  }
]