[
  {
    "name": "Yoga Room Hawaii",
    "address": "Multiple locations in Honolulu, HI. (Specific addresses vary by class and event.)",
    "phone": "(808) 721-4444",
    "rating": 4.8,
    "reviews": 25,
    "website": "https://www.yogaroomhawaii.com/",
    "category": "Atheist-owned Yin yoga in Hawaii",
    "description": "Offers a variety of yoga classes including Vinyasa, Yoga Sculpt, Hot 26/2, and Restorative Yin. They have a large teaching team and offer in-person, online, and on-demand classes",
    "hours": "Mon-Fri 9AM-6PM",
    "services": [
      "Atheist-owned Yin yoga in Hawaii consultation",
      "Professional service",
      "Quality guarantee"
    ],
    "social_links": {}
  },
  {
    "name": "Blue Lotus Kailua",
    "address": "315 Uluniu St, Kailua, HI 96734",
    "phone": "(808) 261-1111",
    "rating": 4.7,
    "reviews": 25,
    "website": "https://www.bluelotuskailua.com/",
    "category": "Atheist-owned Yin yoga in Hawaii",
    "description": "Focuses on Yin Yoga, which stimulates energy channels, increases mobility, and promotes relaxation. Classes are held close to the floor with postures held for extended periods",
    "hours": "Mon-Fri 9AM-6PM",
    "services": [
      "Atheist-owned Yin yoga in Hawaii consultation",
      "Professional service",
      "Quality guarantee"
    ],
    "social_links": {}
  },
  {
    "name": "SheBrews Aloha",
    "address": "6600 Kalaniana\u02bbole Hwy, Honolulu, HI 96825",
    "phone": "(808) 395-9642",
    "rating": 4.9,
    "reviews": 25,
    "website": "https://www.shebrewsaloha.com/",
    "category": "Atheist-owned Yin yoga in Hawaii",
    "description": "A yoga and art studio offering various yoga classes for all levels in a serene environment, promoting fitness and wellness",
    "hours": "Mon-Fri 9AM-6PM",
    "services": [
      "Atheist-owned Yin yoga in Hawaii consultation",
      "Professional service",
      "Quality guarantee"
    ],
    "social_links": {}
  },
  {
    "name": "HOTYOGA8",
    "address": "1250 Kapiolani Blvd Suite 101, Honolulu, HI 96814",
    "phone": "(808) 944-4444",
    "rating": 4.6,
    "reviews": 25,
    "website": "https://www.hotyoga8.com/",
    "category": "Atheist-owned Yin yoga in Hawaii",
    "description": "Offers a range of classes including Pilates, Yoga, and more, with a focus on hot yoga styles",
    "hours": "Mon-Fri 9AM-6PM",
    "services": [
      "Atheist-owned Yin yoga in Hawaii consultation",
      "Professional service",
      "Quality guarantee"
    ],
    "social_links": {}
  },
  {
    "name": "Bella Kai Hot Yoga",
    "address": "4211 Waialae Ave, Honolulu, HI 96816",
    "phone": "(808) 735-9642",
    "rating": 4.5,
    "reviews": 25,
    "website": "https://bellakaihotyoga.com/",
    "category": "Atheist-owned Yin yoga in Hawaii",
    "description": "Provides a variety of yoga and barre classes in a hot studio environment",
    "hours": "Mon-Fri 9AM-6PM",
    "services": [
      "Atheist-owned Yin yoga in Hawaii consultation",
      "Professional service",
      "Quality guarantee"
    ],
    "social_links": {}
  },
  {
    "name": "Elevate Oahu",
    "address": "1001 Bishop St, Honolulu, HI 96813",
    "phone": "(808) 591-1111",
    "rating": 4.8,
    "reviews": 25,
    "website": "https://elevateoahu.com/",
    "category": "Atheist-owned Yin yoga in Hawaii",
    "description": "Offers a holistic approach to fitness, mindfulness, and recovery with innovative classes and personalized support",
    "hours": "Mon-Fri 9AM-6PM",
    "services": [
      "Atheist-owned Yin yoga in Hawaii consultation",
      "Professional service",
      "Quality guarantee"
    ],
    "social_links": {}
  },
  {
    "name": "Over the Rainbow Yoga",
    "address": "2161 Kalia Rd, Honolulu, HI 96815 (Overlooking Waikiki beach)",
    "phone": "(808) 220-0050",
    "rating": 4.7,
    "reviews": 25,
    "website": "https://www.overtherainbowyoga.com/",
    "category": "Atheist-owned Yin yoga in Hawaii",
    "description": "An outdoor yoga studio offering classes with ocean views, including options for stretching and strengthening",
    "hours": "Mon-Fri 9AM-6PM",
    "services": [
      "Atheist-owned Yin yoga in Hawaii consultation",
      "Professional service",
      "Quality guarantee"
    ],
    "social_links": {}
  },
  {
    "name": "Yoga Waikiki Studio",
    "address": "421 E. Makai St, Honolulu, HI 96815",
    "phone": "(808) 922-7777",
    "rating": 4.7,
    "reviews": 25,
    "website": "https://www.yogawaikikistudio.com/",
    "category": "Atheist-owned Yin yoga in Hawaii",
    "description": "Offers a range of yoga, dance, and fitness classes, with private lessons available",
    "hours": "Mon-Fri 9AM-6PM",
    "services": [
      "Atheist-owned Yin yoga in Hawaii consultation",
      "Professional service",
      "Quality guarantee"
    ],
    "social_links": {}
  },
  {
    "name": "YIN YOGA- Sun Room",
    "address": "1250 Kapiolani Blvd, Honolulu, HI 96814",
    "phone": "(808) 944-4444",
    "rating": 4.5,
    "reviews": 25,
    "website": "https://www.mindbody.io/fitness/yin-yoga-sun-room/honolulu-hi",
    "category": "Atheist-owned Yin yoga in Hawaii",
    "description": "A slow-paced class focusing on holding poses for longer periods to benefit connective tissues, joints, and flexibility",
    "hours": "Mon-Fri 9AM-6PM",
    "services": [
      "Atheist-owned Yin yoga in Hawaii consultation",
      "Professional service",
      "Quality guarantee"
    ],
    "social_links": {}
  },
  {
    "name": "Bella Retreats",
    "address": "Various locations for retreats in Hawaii. (Specific address depends on the retreat.)",
    "phone": "",
    "rating": 5.0,
    "reviews": 25,
    "website": "https://bellaretreats.com/",
    "category": "Atheist-owned Yin yoga in Hawaii",
    "description": "Offers yoga retreats in stunning locations, pairing instructors with beautiful settings for small group experiences",
    "hours": "Mon-Fri 9AM-6PM",
    "services": [
      "Atheist-owned Yin yoga in Hawaii consultation",
      "Professional service",
      "Quality guarantee"
    ],
    "social_links": {}
  }
]