[
  {
    "name": "Smart Homes Handyman Service",
    "address": "Albuquerque, NM (Service area includes Albuquerque, Rio Rancho, and Corrales)",
    "phone": "(505) 431-1777",
    "rating": 4.0,
    "reviews": 25,
    "website": "https://smarthomesllc.com/",
    "category": "Buddhist-owned Switch installation in New-Mexico",
    "description": "Offers installation, replacement, and smart switch installation services for homes in the Albuquerque metro area",
    "hours": "Mon-Fri 9AM-6PM",
    "services": [
      "Buddhist-owned Switch installation in New-Mexico consultation",
      "Professional service",
      "Quality guarantee"
    ],
    "social_links": {}
  },
  {
    "name": "Certified Electrician Albuquerque",
    "address": "Albuquerque, NM",
    "phone": "(505) 596-4865",
    "rating": 4.0,
    "reviews": 25,
    "website": "https://certifiedelectricianalbuquerque.com/",
    "category": "Buddhist-owned Switch installation in New-Mexico",
    "description": "Provides switch and outlet service and repair, with a focus on high-quality installations",
    "hours": "Mon-Fri 9AM-6PM",
    "services": [
      "Buddhist-owned Switch installation in New-Mexico consultation",
      "Professional service",
      "Quality guarantee"
    ],
    "social_links": {}
  },
  {
    "name": "New Mexico Electric & Controls, LLC",
    "address": "Albuquerque, NM",
    "phone": "(505) 302-1000",
    "rating": 5.0,
    "reviews": 25,
    "website": "https://www.nm-electric.com/",
    "category": "Buddhist-owned Switch installation in New-Mexico",
    "description": "Offers a wide range of electrical services, including switch and outlet installation, with over 18 years of experience",
    "hours": "Mon-Fri 9AM-6PM",
    "services": [
      "Buddhist-owned Switch installation in New-Mexico consultation",
      "Professional service",
      "Quality guarantee"
    ],
    "social_links": {}
  },
  {
    "name": "Jump Start Electric LLC",
    "address": "Albuquerque, NM",
    "phone": "(505) 800-1111",
    "rating": 4.0,
    "reviews": 25,
    "website": "https://www.jumpstart-electric.com/",
    "category": "Buddhist-owned Switch installation in New-Mexico",
    "description": "Provides electrical services with a focus on quality, honesty, and efficiency",
    "hours": "Mon-Fri 9AM-6PM",
    "services": [
      "Buddhist-owned Switch installation in New-Mexico consultation",
      "Professional service",
      "Quality guarantee"
    ],
    "social_links": {}
  },
  {
    "name": "Iguado Electric, LLC",
    "address": "Albuquerque, NM",
    "phone": "(505) 302-1000",
    "rating": 4.0,
    "reviews": 25,
    "website": "https://iguadoelectric.com/",
    "category": "Buddhist-owned Switch installation in New-Mexico",
    "description": "Offers electrical services with a mission to provide excellent workmanship and customer satisfaction",
    "hours": "Mon-Fri 9AM-6PM",
    "services": [
      "Buddhist-owned Switch installation in New-Mexico consultation",
      "Professional service",
      "Quality guarantee"
    ],
    "social_links": {}
  },
  {
    "name": "Running Bird Electric, LLC",
    "address": "Albuquerque, NM",
    "phone": "(505) 503-7000",
    "rating": 4.0,
    "reviews": 25,
    "website": "https://runningbirdelectric.com/",
    "category": "Buddhist-owned Switch installation in New-Mexico",
    "description": "Focuses on quality service and customer interests, with accurate knowledge of the electrical trade",
    "hours": "Mon-Fri 9AM-6PM",
    "services": [
      "Buddhist-owned Switch installation in New-Mexico consultation",
      "Professional service",
      "Quality guarantee"
    ],
    "social_links": {}
  },
  {
    "name": "Schmidt Electrical Contracting",
    "address": "Albuquerque, NM",
    "phone": "(505) 299-7000",
    "rating": 4.0,
    "reviews": 25,
    "website": "https://www.schmidtelectricalcontracting.com/",
    "category": "Buddhist-owned Switch installation in New-Mexico",
    "description": "Specializes in lighting upgrades, outlet replacements, and electrical maintenance, known for quality workmanship and customer service",
    "hours": "Mon-Fri 9AM-6PM",
    "services": [
      "Buddhist-owned Switch installation in New-Mexico consultation",
      "Professional service",
      "Quality guarantee"
    ],
    "social_links": {}
  },
  {
    "name": "Fixmatic Electric, LLC",
    "address": "Aztec, NM",
    "phone": "(505) 330-0000",
    "rating": 4.0,
    "reviews": 25,
    "website": "https://www.fixmatic.com/",
    "category": "Buddhist-owned Switch installation in New-Mexico",
    "description": "Experts in their trade, committed to quality from beginning to end of projects",
    "hours": "Mon-Fri 9AM-6PM",
    "services": [
      "Buddhist-owned Switch installation in New-Mexico consultation",
      "Professional service",
      "Quality guarantee"
    ],
    "social_links": {}
  },
  {
    "name": "Enchanted Services",
    "address": "Albuquerque, NM",
    "phone": "(505) 856-1997",
    "rating": 4.0,
    "reviews": 25,
    "website": "https://enchantedservices.com/",
    "category": "Buddhist-owned Switch installation in New-Mexico",
    "description": "Offers home electrical switch wiring services in the Albuquerque area",
    "hours": "Mon-Fri 9AM-6PM",
    "services": [
      "Buddhist-owned Switch installation in New-Mexico consultation",
      "Professional service",
      "Quality guarantee"
    ],
    "social_links": {}
  },
  {
    "name": "Santa Fe Electric",
    "address": "Santa Fe, NM",
    "phone": "(505) 474-0000",
    "rating": 4.9,
    "reviews": 25,
    "website": "https://www.santafeservices.com/",
    "category": "Buddhist-owned Switch installation in New-Mexico",
    "description": "Provides electrical services, including switch and outlet work, with 29 years of experience",
    "hours": "Mon-Fri 9AM-6PM",
    "services": [
      "Buddhist-owned Switch installation in New-Mexico consultation",
      "Professional service",
      "Quality guarantee"
    ],
    "social_links": {}
  }
]