[
  {
    "name": "Catholic Charities of California",
    "address": "1107 9th Street, Suite 707, Sacramento, CA 95814",
    "phone": "(916) 443-5440",
    "rating": 4.0,
    "reviews": 25,
    "website": "https://www.catholiccharitiesca.org/",
    "category": "Catholic-owned Travel insurance in California",
    "description": "While not a travel insurance provider, Catholic Charities of California offers services such as disaster preparedness and recovery, food assistance, and immigration legal services. They also organize pilgrimages",
    "hours": "Mon-Fri 9AM-6PM",
    "services": [
      "Catholic-owned Travel insurance in California consultation",
      "Professional service",
      "Quality guarantee"
    ],
    "social_links": {}
  },
  {
    "name": "Catholic Charities of Los Angeles",
    "address": "1530 James M. Wood Blvd., Los Angeles, CA 90015",
    "phone": "(213) 251-3411",
    "rating": 4.0,
    "reviews": 25,
    "website": "https://www.catholiccharitiesla.org/",
    "category": "Catholic-owned Travel insurance in California",
    "description": "This organization provides various social services and also organizes pilgrimages. They do not offer travel insurance directly",
    "hours": "Mon-Fri 9AM-6PM",
    "services": [
      "Catholic-owned Travel insurance in California consultation",
      "Professional service",
      "Quality guarantee"
    ],
    "social_links": {}
  },
  {
    "name": "Chaplet Tours & Pilgrimages",
    "address": "6481 Orangethorpe Ave. Suite 4, Buena Park, CA 90620",
    "phone": "(844) 458-0272",
    "rating": 4.0,
    "reviews": 25,
    "website": "https://chaplettours.com/",
    "category": "Catholic-owned Travel insurance in California",
    "description": "Chaplet Tours specializes in Catholic pilgrimages to holy sites worldwide and has over 20 years of experience. They do not directly offer travel insurance but may partner with providers",
    "hours": "Mon-Fri 9AM-6PM",
    "services": [
      "Catholic-owned Travel insurance in California consultation",
      "Professional service",
      "Quality guarantee"
    ],
    "social_links": {}
  },
  {
    "name": "206 Tours",
    "address": "(No specific address listed for California, but they operate nationwide)",
    "phone": "(800) 206-8687",
    "rating": 4.0,
    "reviews": 25,
    "website": "https://www.206tours.com/",
    "category": "Catholic-owned Travel insurance in California",
    "description": "206 Tours is a professional tour operator specializing in faith-based travel, including Catholic pilgrimages. They offer travel protection plans through partners like Travel Insured International",
    "hours": "Mon-Fri 9AM-6PM",
    "services": [
      "Catholic-owned Travel insurance in California consultation",
      "Professional service",
      "Quality guarantee"
    ],
    "social_links": {}
  },
  {
    "name": "Glimmer Tours",
    "address": "(No specific address listed for California)",
    "phone": "(800) 779-0007",
    "rating": 4.0,
    "reviews": 25,
    "website": "https://glimmertours.com/",
    "category": "Catholic-owned Travel insurance in California",
    "description": "Glimmer Tours provides expertly planned, all-inclusive Catholic pilgrimages, handling all travel details. They do not directly offer travel insurance",
    "hours": "Mon-Fri 9AM-6PM",
    "services": [
      "Catholic-owned Travel insurance in California consultation",
      "Professional service",
      "Quality guarantee"
    ],
    "social_links": {}
  },
  {
    "name": "Catholic Travel Centre",
    "address": "Burbank, CA (specific address not provided in search results)",
    "phone": "(800) 553-5233",
    "rating": 4.0,
    "reviews": 25,
    "website": "https://www.gocatholictravel.com/",
    "category": "Catholic-owned Travel insurance in California",
    "description": "Catholic Travel Centre specializes in customized Catholic group pilgrimages and tours. They offer travel insurance through Travel Insured International (TII)",
    "hours": "Mon-Fri 9AM-6PM",
    "services": [
      "Catholic-owned Travel insurance in California consultation",
      "Professional service",
      "Quality guarantee"
    ],
    "social_links": {}
  },
  {
    "name": "CatholicJourneys.com",
    "address": "(No specific address listed for California)",
    "phone": "(800) 322-7849",
    "rating": 4.0,
    "reviews": 25,
    "website": "https://www.catholicjourneys.com/",
    "category": "Catholic-owned Travel insurance in California",
    "description": "This is a Catholic-owned and operated pilgrimage tour company that offers travel insurance protection plans for their tours",
    "hours": "Mon-Fri 9AM-6PM",
    "services": [
      "Catholic-owned Travel insurance in California consultation",
      "Professional service",
      "Quality guarantee"
    ],
    "social_links": {}
  },
  {
    "name": "WorldTrips",
    "address": "(Operates in California as WorldTrips Insurance Services, specific address not provided)",
    "phone": "(800) 647-4996",
    "rating": 4.0,
    "reviews": 25,
    "website": "https://www.worldtrips.com/",
    "category": "Catholic-owned Travel insurance in California",
    "description": "WorldTrips offers travel insurance and travel medical insurance. They have been providing insurance for travelers for over 25 years and have a strong financial rating",
    "hours": "Mon-Fri 9AM-6PM",
    "services": [
      "Catholic-owned Travel insurance in California consultation",
      "Professional service",
      "Quality guarantee"
    ],
    "social_links": {}
  },
  {
    "name": "CSA Travel Protection",
    "address": "San Diego, CA (Administered by Customized Services Administrators, Inc.)",
    "phone": "(800) 348-9505",
    "rating": 4.0,
    "reviews": 25,
    "website": "https://www.travelprotection.com/",
    "category": "Catholic-owned Travel insurance in California",
    "description": "CSA Travel Protection (a Europ Assistance company) provides travel insurance and emergency assistance services. They offer plans designed to protect travel arrangements, including for pilgrimage tours",
    "hours": "Mon-Fri 9AM-6PM",
    "services": [
      "Catholic-owned Travel insurance in California consultation",
      "Professional service",
      "Quality guarantee"
    ],
    "social_links": {}
  },
  {
    "name": "Travel Guard by AIG",
    "address": "(No specific address listed for California, but they operate nationwide)",
    "phone": "(800) 826-5248",
    "rating": 4.6,
    "reviews": 25,
    "website": "https://www.travelguard.com/",
    "category": "Catholic-owned Travel insurance in California",
    "description": "Travel Guard offers travel insurance plans for domestic and international travel, including trip cancellation, interruption, medical expense, and baggage coverage. They have a strong rating and offer 24/7 emergency assistance",
    "hours": "Mon-Fri 9AM-6PM",
    "services": [
      "Catholic-owned Travel insurance in California consultation",
      "Professional service",
      "Quality guarantee"
    ],
    "social_links": {}
  }
]