[
  {
    "name": "Panda Express",
    "address": "6895 Ridge Rd, Parma, OH 44129",
    "phone": "(440) 885-9588",
    "rating": 4.0,
    "reviews": 25,
    "website": "https://www.pandaexpress.com/",
    "category": "Chinese-speaking Fast casual in Ohio",
    "description": "Offers American-Chinese cuisine with popular dishes like Orange Chicken and Honey Walnut Shrimp",
    "hours": "Mon-Fri 9AM-6PM",
    "services": [
      "Chinese-speaking Fast casual in Ohio consultation",
      "Professional service",
      "Quality guarantee"
    ],
    "social_links": {}
  },
  {
    "name": "Panda Express",
    "address": "935 Windham Ct, Youngstown, OH 44511",
    "phone": "(330) 750-0100",
    "rating": 4.0,
    "reviews": 25,
    "website": "https://www.pandaexpress.com/",
    "category": "Chinese-speaking Fast casual in Ohio",
    "description": "Features a diverse menu of American-Chinese favorites, including Orange Chicken and Broccoli Beef",
    "hours": "Mon-Fri 9AM-6PM",
    "services": [
      "Chinese-speaking Fast casual in Ohio consultation",
      "Professional service",
      "Quality guarantee"
    ],
    "social_links": {}
  },
  {
    "name": "Magic Wok",
    "address": "1333 Secor Rd, Toledo, OH 43607",
    "phone": "(419) 472-0088",
    "rating": 4.0,
    "reviews": 25,
    "website": "https://magicwoktoledo.com/",
    "category": "Chinese-speaking Fast casual in Ohio",
    "description": "Serves signature Chinese food dishes cooked to order with fresh ingredients and no MSG or trans fat",
    "hours": "Mon-Fri 9AM-6PM",
    "services": [
      "Chinese-speaking Fast casual in Ohio consultation",
      "Professional service",
      "Quality guarantee"
    ],
    "social_links": {}
  },
  {
    "name": "Panda Express",
    "address": "3244 Steelyard Drive, Cleveland, OH 44109",
    "phone": "(216) 651-0001",
    "rating": 4.0,
    "reviews": 25,
    "website": "https://www.pandaexpress.com/",
    "category": "Chinese-speaking Fast casual in Ohio",
    "description": "Provides American-Chinese dishes with favorites like Orange Chicken and Honey Walnut Shrimp",
    "hours": "Mon-Fri 9AM-6PM",
    "services": [
      "Chinese-speaking Fast casual in Ohio consultation",
      "Professional service",
      "Quality guarantee"
    ],
    "social_links": {}
  },
  {
    "name": "Panda Express",
    "address": "5381 Cornerstone North Blvd, Dayton, OH 45440",
    "phone": "(937) 438-0111",
    "rating": 4.0,
    "reviews": 25,
    "website": "https://www.pandaexpress.com/",
    "category": "Chinese-speaking Fast casual in Ohio",
    "description": "Offers American-Chinese cuisine with popular items such as The Original Orange Chicken and Broccoli Beef",
    "hours": "Mon-Fri 9AM-6PM",
    "services": [
      "Chinese-speaking Fast casual in Ohio consultation",
      "Professional service",
      "Quality guarantee"
    ],
    "social_links": {}
  },
  {
    "name": "Panda Express",
    "address": "6180 Glenway Avenue, Cincinnati, OH 45211",
    "phone": "(513) 662-2000",
    "rating": 4.0,
    "reviews": 25,
    "website": "https://www.pandaexpress.com/",
    "category": "Chinese-speaking Fast casual in Ohio",
    "description": "Serves American-Chinese cuisine, including favorites like Orange Chicken and Honey Walnut Shrimp",
    "hours": "Mon-Fri 9AM-6PM",
    "services": [
      "Chinese-speaking Fast casual in Ohio consultation",
      "Professional service",
      "Quality guarantee"
    ],
    "social_links": {}
  },
  {
    "name": "Panda Express",
    "address": "6496 Harrison Ave, Cincinnati, OH 45247",
    "phone": "(513) 385-3000",
    "rating": 4.0,
    "reviews": 25,
    "website": "https://www.pandaexpress.com/",
    "category": "Chinese-speaking Fast casual in Ohio",
    "description": "Features American-Chinese dishes with crowd-pleasing favorites like The Original Orange Chicken",
    "hours": "Mon-Fri 9AM-6PM",
    "services": [
      "Chinese-speaking Fast casual in Ohio consultation",
      "Professional service",
      "Quality guarantee"
    ],
    "social_links": {}
  },
  {
    "name": "Panda Express",
    "address": "7330 W Central Ave, Toledo, OH 43617",
    "phone": "(419) 841-0000",
    "rating": 4.0,
    "reviews": 25,
    "website": "https://www.pandaexpress.com/",
    "category": "Chinese-speaking Fast casual in Ohio",
    "description": "Offers American-Chinese cuisine with a menu that includes Orange Chicken and Honey Walnut Shrimp",
    "hours": "Mon-Fri 9AM-6PM",
    "services": [
      "Chinese-speaking Fast casual in Ohio consultation",
      "Professional service",
      "Quality guarantee"
    ],
    "social_links": {}
  },
  {
    "name": "Buckeye Wok Express",
    "address": "1610 N High St, Columbus, OH 43201",
    "phone": "(614) 299-9988",
    "rating": 4.0,
    "reviews": 25,
    "website": "https://buckeyewokexpress.com/",
    "category": "Chinese-speaking Fast casual in Ohio",
    "description": "A Chinese takeout restaurant known for quick service and traditional dishes like fried rice and lo mein, using fresh ingredients",
    "hours": "Mon-Fri 9AM-6PM",
    "services": [
      "Chinese-speaking Fast casual in Ohio consultation",
      "Professional service",
      "Quality guarantee"
    ],
    "social_links": {}
  },
  {
    "name": "Panda Express",
    "address": "5299 North Hamilton Road, Columbus, OH 43230",
    "phone": "(614) 476-0000",
    "rating": 4.0,
    "reviews": 25,
    "website": "https://www.pandaexpress.com/",
    "category": "Chinese-speaking Fast casual in Ohio",
    "description": "Serves American-Chinese cuisine with popular dishes such as The Original Orange Chicken and Honey Walnut Shrimp",
    "hours": "Mon-Fri 9AM-6PM",
    "services": [
      "Chinese-speaking Fast casual in Ohio consultation",
      "Professional service",
      "Quality guarantee"
    ],
    "social_links": {}
  }
]