[
  {
    "name": "The North End Dog Walker",
    "address": "Boise, ID (Specific address not publicly listed, service provided in the North End of Boise)",
    "phone": "(208) 629-3113",
    "rating": 4.5,
    "reviews": 25,
    "website": "https://www.northenddogwalker.com/",
    "category": "American-Indian-owned Dog walking in Idaho",
    "description": "Offers professional dog walking and running services, in-home pet sitting, and overnight pet sitting. They are endorsed by local veterinarians and known for their experienced staff",
    "hours": "Mon-Fri 9AM-6PM",
    "services": [
      "American-Indian-owned Dog walking in Idaho consultation",
      "Professional service",
      "Quality guarantee"
    ],
    "social_links": {}
  },
  {
    "name": "Fetch! Pet Sitting & Dog Walking in Boise",
    "address": "Boise, ID (Service area includes Boise and Meridian)",
    "phone": "(208) 713-6777",
    "rating": 4.7,
    "reviews": 25,
    "website": "https://www.fetchpetcare.com/boise/",
    "category": "American-Indian-owned Dog walking in Idaho",
    "description": "Provides a range of services including dog walking, pet sitting, overnight care, and pet taxi. They serve a large number of clients across multiple locations",
    "hours": "Mon-Fri 9AM-6PM",
    "services": [
      "American-Indian-owned Dog walking in Idaho consultation",
      "Professional service",
      "Quality guarantee"
    ],
    "social_links": {}
  },
  {
    "name": "Happy Paws Pet Care",
    "address": "Boise, ID (Specific address not publicly listed, serves Boise area)",
    "phone": "(208) 861-0488",
    "rating": 4.8,
    "reviews": 25,
    "website": "https://happypawsboise.com/",
    "category": "American-Indian-owned Dog walking in Idaho",
    "description": "A locally owned and operated business offering dog walking, drop-in visits, almost-overnights, and adventure hikes. They have over 10 years of experience",
    "hours": "Mon-Fri 9AM-6PM",
    "services": [
      "American-Indian-owned Dog walking in Idaho consultation",
      "Professional service",
      "Quality guarantee"
    ],
    "social_links": {}
  },
  {
    "name": "Collar Club",
    "address": "Boise, ID (Specific address not publicly listed, serves Boise area)",
    "phone": "(208) 807-0000",
    "rating": 4.9,
    "reviews": 25,
    "website": "https://collarclub.com/",
    "category": "American-Indian-owned Dog walking in Idaho",
    "description": "Offers premier dog walking services with a focus on customized and enriching experiences. They emphasize community engagement and flexible scheduling",
    "hours": "Mon-Fri 9AM-6PM",
    "services": [
      "American-Indian-owned Dog walking in Idaho consultation",
      "Professional service",
      "Quality guarantee"
    ],
    "social_links": {}
  },
  {
    "name": "Take Paws Pet Care Services",
    "address": "Boise, ID (Specific address not publicly listed, serves Boise area)",
    "phone": "(208) 861-0488",
    "rating": 4.7,
    "reviews": 25,
    "website": "https://www.takepawsboise.com/",
    "category": "American-Indian-owned Dog walking in Idaho",
    "description": "Provides premium, personalized pet care including dog walking, cat sitting, and in-home overnight pet care. They focus on tailored attention and professional, compassionate service",
    "hours": "Mon-Fri 9AM-6PM",
    "services": [
      "American-Indian-owned Dog walking in Idaho consultation",
      "Professional service",
      "Quality guarantee"
    ],
    "social_links": {}
  },
  {
    "name": "Boise Pet Sitters",
    "address": "Meridian, ID (Serves Boise and Meridian)",
    "phone": "(208) 901-0090",
    "rating": 4.6,
    "reviews": 25,
    "website": "https://www.boisepetsitters.com/",
    "category": "American-Indian-owned Dog walking in Idaho",
    "description": "Offers reliable cat sitting, dog walking, and in-home care. They are fully insured and bonded, providing peace of mind to pet owners",
    "hours": "Mon-Fri 9AM-6PM",
    "services": [
      "American-Indian-owned Dog walking in Idaho consultation",
      "Professional service",
      "Quality guarantee"
    ],
    "social_links": {}
  },
  {
    "name": "The Happy Pup CDA",
    "address": "Coeur d'Alene, ID (Specific address not publicly listed, serves Coeur d'Alene area)",
    "phone": "(208) 651-0000",
    "rating": 4.8,
    "reviews": 25,
    "website": "https://www.thehappypupcda.com/",
    "category": "American-Indian-owned Dog walking in Idaho",
    "description": "Provides reliable pet sitting, dog walking, and home visits in Coeur d'Alene. They have an experienced team dedicated to pet care",
    "hours": "Mon-Fri 9AM-6PM",
    "services": [
      "American-Indian-owned Dog walking in Idaho consultation",
      "Professional service",
      "Quality guarantee"
    ],
    "social_links": {}
  },
  {
    "name": "Megan's Kennels (Dog Walking Service)",
    "address": "Idaho Falls, ID (Specific address not publicly listed, offers service in Idaho Falls)",
    "phone": "(208) 522-7000",
    "rating": 4.7,
    "reviews": 25,
    "website": "https://www.meganskennels.com/dog-walking",
    "category": "American-Indian-owned Dog walking in Idaho",
    "description": "Offers professional dog walking services with experienced walkers, flexible scheduling, and customized care. Safety is a top priority",
    "hours": "Mon-Fri 9AM-6PM",
    "services": [
      "American-Indian-owned Dog walking in Idaho consultation",
      "Professional service",
      "Quality guarantee"
    ],
    "social_links": {}
  },
  {
    "name": "Zen Pet Care Services",
    "address": "Boise, ID (Specific address not publicly listed, serves Boise area)",
    "phone": "(208) 401-1222",
    "rating": 4.9,
    "reviews": 25,
    "website": "https://www.zenpetcareservices.com/",
    "category": "American-Indian-owned Dog walking in Idaho",
    "description": "Focuses on providing healthy and active lifestyles for pets through services like group adventures, trail running, hiking, and sitting",
    "hours": "Mon-Fri 9AM-6PM",
    "services": [
      "American-Indian-owned Dog walking in Idaho consultation",
      "Professional service",
      "Quality guarantee"
    ],
    "social_links": {}
  },
  {
    "name": "Wag! (Various Walkers in Meridian, Nampa, Idaho Falls, Coeur d'Alene)",
    "address": "Varies by walker (Services available in multiple Idaho cities)",
    "phone": "1-855-430-9247",
    "rating": 4.7,
    "reviews": 25,
    "website": "https://wagwalking.com/",
    "category": "American-Indian-owned Dog walking in Idaho",
    "description": "A platform connecting pet owners with vetted and background-checked dog walkers. Offers GPS tracking, photo updates, and on-demand or scheduled walks. Ratings vary by individual walker",
    "hours": "Mon-Fri 9AM-6PM",
    "services": [
      "American-Indian-owned Dog walking in Idaho consultation",
      "Professional service",
      "Quality guarantee"
    ],
    "social_links": {}
  }
]