[
  {
    "name": "Emory Brain Health Center",
    "address": "12 Executive Park Drive Northeast, Atlanta, GA 30329",
    "phone": "404-778-3444",
    "rating": 4.0,
    "reviews": 25,
    "website": "https://neurology.emory.edu/",
    "category": "Buddhist-owned Neurologists in Georgia",
    "description": "Offers comprehensive neurological care and research",
    "hours": "Mon-Fri 9AM-6PM",
    "services": [
      "Buddhist-owned Neurologists in Georgia consultation",
      "Professional service",
      "Quality guarantee"
    ],
    "social_links": {}
  },
  {
    "name": "Laureate Medical Group",
    "address": "6135 Barfield Road, Suite 200, Atlanta, GA 30328",
    "phone": "404-256-8500",
    "rating": 4.0,
    "reviews": 25,
    "website": "https://laureatemed.com/",
    "category": "Buddhist-owned Neurologists in Georgia",
    "description": "Provides a range of medical services, including neurology",
    "hours": "Mon-Fri 9AM-6PM",
    "services": [
      "Buddhist-owned Neurologists in Georgia consultation",
      "Professional service",
      "Quality guarantee"
    ],
    "social_links": {}
  },
  {
    "name": "Midtown Neurology, P.C.",
    "address": "285 Boulevard NE, Suite 610, Atlanta, GA 30312",
    "phone": "404-653-0039",
    "rating": 4.0,
    "reviews": 25,
    "website": "https://www.midtownneurology.com/",
    "category": "Buddhist-owned Neurologists in Georgia",
    "description": "A practice offering specialized care for various neurological conditions",
    "hours": "Mon-Fri 9AM-6PM",
    "services": [
      "Buddhist-owned Neurologists in Georgia consultation",
      "Professional service",
      "Quality guarantee"
    ],
    "social_links": {}
  },
  {
    "name": "Atlanta Neuro Care",
    "address": "Conyers, GA (Specific street address not provided in search results)",
    "phone": "",
    "rating": 4.0,
    "reviews": 25,
    "website": "https://www.atlantaneurocare.com/",
    "category": "Buddhist-owned Neurologists in Georgia",
    "description": "Provides comprehensive treatment for neurological and related conditions",
    "hours": "Mon-Fri 9AM-6PM",
    "services": [
      "Buddhist-owned Neurologists in Georgia consultation",
      "Professional service",
      "Quality guarantee"
    ],
    "social_links": {}
  },
  {
    "name": "Wellstar Neurology",
    "address": "780 Canton Road Northeast, Suite 400, Marietta, GA 30060",
    "phone": "770-422-3602",
    "rating": 4.0,
    "reviews": 25,
    "website": "https://www.wellstar.org/locations/wellstar-neurology-marietta",
    "category": "Buddhist-owned Neurologists in Georgia",
    "description": "Part of the Wellstar Health System, offering neurological services",
    "hours": "Mon-Fri 9AM-6PM",
    "services": [
      "Buddhist-owned Neurologists in Georgia consultation",
      "Professional service",
      "Quality guarantee"
    ],
    "social_links": {}
  },
  {
    "name": "Piedmont Physicians Neurology Snellville",
    "address": "1700 Tree Lane, Suite 470, Snellville, GA 30078",
    "phone": "678-289-7950",
    "rating": 4.0,
    "reviews": 25,
    "website": "https://www.piedmont.org/locations/piedmont-physicians-neurology-snellville",
    "category": "Buddhist-owned Neurologists in Georgia",
    "description": "Neurology practice affiliated with Piedmont Healthcare",
    "hours": "Mon-Fri 9AM-6PM",
    "services": [
      "Buddhist-owned Neurologists in Georgia consultation",
      "Professional service",
      "Quality guarantee"
    ],
    "social_links": {}
  },
  {
    "name": "DeKalb Neurology Group",
    "address": "2665 North Decatur Road, Suite 540, Decatur, GA 30033",
    "phone": "404-508-4008",
    "rating": 4.0,
    "reviews": 25,
    "website": "https://www.dekalbneurology.com/",
    "category": "Buddhist-owned Neurologists in Georgia",
    "description": "Offers a range of neurological services",
    "hours": "Mon-Fri 9AM-6PM",
    "services": [
      "Buddhist-owned Neurologists in Georgia consultation",
      "Professional service",
      "Quality guarantee"
    ],
    "social_links": {}
  },
  {
    "name": "SGMC Neurology and Neurosciences",
    "address": "4274 N. Valdosta Rd., Valdosta, GA",
    "phone": "229-242-1234",
    "rating": 4.0,
    "reviews": 25,
    "website": "https://www.sgmc.org/services/neurology-neurosciences",
    "category": "Buddhist-owned Neurologists in Georgia",
    "description": "Provides specialized care for neurological disorders",
    "hours": "Mon-Fri 9AM-6PM",
    "services": [
      "Buddhist-owned Neurologists in Georgia consultation",
      "Professional service",
      "Quality guarantee"
    ],
    "social_links": {}
  },
  {
    "name": "Kaiser Permanente - Glenlake Comprehensive Specialty Center",
    "address": "20 Glenlake Parkway, Atlanta, GA 30328",
    "phone": "404-365-0966",
    "rating": 4.0,
    "reviews": 25,
    "website": "https://healthy.kaiserpermanente.org/georgia/facilities/glenlake-comprehensive-specialty-center-3003",
    "category": "Buddhist-owned Neurologists in Georgia",
    "description": "Offers various specialty services, including neurology",
    "hours": "Mon-Fri 9AM-6PM",
    "services": [
      "Buddhist-owned Neurologists in Georgia consultation",
      "Professional service",
      "Quality guarantee"
    ],
    "social_links": {}
  },
  {
    "name": "Andrew C. Carlos Multiple Sclerosis Institute at Shepherd Center",
    "address": "2020 Peachtree Road Northwest, Atlanta, GA 30309",
    "phone": "",
    "rating": 4.0,
    "reviews": 25,
    "website": "https://www.shepherd.org/care/neurology/andrew-c-carlos-multiple-sclerosis-institute",
    "category": "Buddhist-owned Neurologists in Georgia",
    "description": "Specializes in the care of individuals with multiple sclerosis",
    "hours": "Mon-Fri 9AM-6PM",
    "services": [
      "Buddhist-owned Neurologists in Georgia consultation",
      "Professional service",
      "Quality guarantee"
    ],
    "social_links": {}
  }
]