[
  {
    "name": "Snapdragon Salon",
    "address": "347 E Camelback Rd, Phoenix, AZ 85012",
    "phone": "(602) 690-2629",
    "rating": 4.8,
    "reviews": 25,
    "website": "https://snapdragonsalon.com/",
    "category": "Croatian-speaking Balayage in Arizona",
    "description": "Known for their expertise in Balayage and hair painting, they offer customized color services in a friendly and professional environment. They are also a Bellami Hair Extension Flagship salon",
    "hours": "Mon-Fri 9AM-6PM",
    "services": [
      "Croatian-speaking Balayage in Arizona consultation",
      "Professional service",
      "Quality guarantee"
    ],
    "social_links": {}
  },
  {
    "name": "Bravo Salon",
    "address": "7171 E Mayo Blvd Suite 105, Scottsdale, AZ 85260",
    "phone": "(480) 595-7440",
    "rating": 4.7,
    "reviews": 25,
    "website": "https://www.bravoaz.com/",
    "category": "Croatian-speaking Balayage in Arizona",
    "description": "Offers Balayage highlights using a French painting technique for a natural, effortless look. They emphasize low damage and high gloss finishes",
    "hours": "Mon-Fri 9AM-6PM",
    "services": [
      "Croatian-speaking Balayage in Arizona consultation",
      "Professional service",
      "Quality guarantee"
    ],
    "social_links": {}
  },
  {
    "name": "Hair by Nassi",
    "address": "8300 N Hayden Rd Suite G104, Scottsdale, AZ 85258 (also has a Mesa location)",
    "phone": "(805) 218-7409",
    "rating": 5.0,
    "reviews": 25,
    "website": "https://hairbynassi.com/",
    "category": "Croatian-speaking Balayage in Arizona",
    "description": "Specializes in Balayage highlights and dimensional hair color, with Nassi Morgan being a master hair colorist and extension specialist since 1993",
    "hours": "Mon-Fri 9AM-6PM",
    "services": [
      "Croatian-speaking Balayage in Arizona consultation",
      "Professional service",
      "Quality guarantee"
    ],
    "social_links": {}
  },
  {
    "name": "La Roc Salon (Inside Sachi Salon Suites)",
    "address": "3240 E Camelback Rd, Ste #4, Phoenix, AZ 85018",
    "phone": "(602) 427-1111",
    "rating": 5.0,
    "reviews": 25,
    "website": "https://www.larocsalon.com/",
    "category": "Croatian-speaking Balayage in Arizona",
    "description": "Offers a range of hair coloring services, including Balayage, with highly positive reviews for their expertise",
    "hours": "Mon-Fri 9AM-6PM",
    "services": [
      "Croatian-speaking Balayage in Arizona consultation",
      "Professional service",
      "Quality guarantee"
    ],
    "social_links": {}
  },
  {
    "name": "Taglio Salon",
    "address": "7137 E Stetson Dr Suite 105, Scottsdale, AZ 85251",
    "phone": "(480) 941-2000",
    "rating": 4.7,
    "reviews": 25,
    "website": "https://tagliosalon.com/",
    "category": "Croatian-speaking Balayage in Arizona",
    "description": "A luxury salon offering a wide array of hair and beauty services, including advanced color techniques",
    "hours": "Mon-Fri 9AM-6PM",
    "services": [
      "Croatian-speaking Balayage in Arizona consultation",
      "Professional service",
      "Quality guarantee"
    ],
    "social_links": {}
  },
  {
    "name": "Mane Attraction Salon",
    "address": "3110 E Camelback Rd, Phoenix, AZ 85016",
    "phone": "(602) 277-7545",
    "rating": 4.7,
    "reviews": 25,
    "website": "https://maneattractionsalon.com/",
    "category": "Croatian-speaking Balayage in Arizona",
    "description": "A premier luxury hair salon in Phoenix since 1977, known for high-end styling and personalized consultations",
    "hours": "Mon-Fri 9AM-6PM",
    "services": [
      "Croatian-speaking Balayage in Arizona consultation",
      "Professional service",
      "Quality guarantee"
    ],
    "social_links": {}
  },
  {
    "name": "Rochelle's Salon & Spa",
    "address": "4806 N 16th St, Phoenix, AZ 85016",
    "phone": "(602) 277-7545",
    "rating": 4.6,
    "reviews": 25,
    "website": "https://rochellesalon.com/",
    "category": "Croatian-speaking Balayage in Arizona",
    "description": "Offers a variety of services including haircuts, color treatments, and more, with a reputation for skilled staff and an inviting atmosphere",
    "hours": "Mon-Fri 9AM-6PM",
    "services": [
      "Croatian-speaking Balayage in Arizona consultation",
      "Professional service",
      "Quality guarantee"
    ],
    "social_links": {}
  },
  {
    "name": "Hair n Dipity Salon and Spa",
    "address": "4111 W Innovative Dr, Phoenix, AZ 85083",
    "phone": "(623) 582-1111",
    "rating": 4.6,
    "reviews": 25,
    "website": "https://hairndipity.com/",
    "category": "Croatian-speaking Balayage in Arizona",
    "description": "Provides a wide range of services including hair coloring, styling, and Balayage, with praise for their friendly staff and skilled stylists",
    "hours": "Mon-Fri 9AM-6PM",
    "services": [
      "Croatian-speaking Balayage in Arizona consultation",
      "Professional service",
      "Quality guarantee"
    ],
    "social_links": {}
  },
  {
    "name": "Timeless Artistry",
    "address": "209 E Baseline Rd E203-3, Tempe, AZ 85283",
    "phone": "(480) 570-1500",
    "rating": 5.0,
    "reviews": 25,
    "website": "https://www.timelessartistryaz.com/",
    "category": "Croatian-speaking Balayage in Arizona",
    "description": "Highly rated for Balayage and other color services, offering a personalized approach to hair transformations",
    "hours": "Mon-Fri 9AM-6PM",
    "services": [
      "Croatian-speaking Balayage in Arizona consultation",
      "Professional service",
      "Quality guarantee"
    ],
    "social_links": {}
  },
  {
    "name": "Outlaw Beauty Bar",
    "address": "6702 E Cave Creek Rd, Cave Creek, AZ 85331",
    "phone": "(480) 624-3111",
    "rating": 5.0,
    "reviews": 25,
    "website": "https://outlawbeautybar.com/",
    "category": "Croatian-speaking Balayage in Arizona",
    "description": "Known for specialized Balayage services and a strong focus on client satisfaction",
    "hours": "Mon-Fri 9AM-6PM",
    "services": [
      "Croatian-speaking Balayage in Arizona consultation",
      "Professional service",
      "Quality guarantee"
    ],
    "social_links": {}
  }
]