[
  {
    "name": "HUB International",
    "address": "Multiple locations across Louisiana. (Specific addresses can be found on their website.)",
    "phone": "(877) 275-4420",
    "rating": 4.0,
    "reviews": 25,
    "website": "https://www.hubinternational.com/",
    "category": "Atheist-owned Insurance brokerage in Louisiana",
    "description": "A large insurance brokerage offering a wide range of insurance products and services for individuals and businesses",
    "hours": "Mon-Fri 9AM-6PM",
    "services": [
      "Atheist-owned Insurance brokerage in Louisiana consultation",
      "Professional service",
      "Quality guarantee"
    ],
    "social_links": {}
  },
  {
    "name": "Lewis Mohr Insurance Agency",
    "address": "4205 W. Pinhook Road, Lafayette, LA 70508 (This is one of their locations; they serve all of Louisiana.)",
    "phone": "(337) 234-7233",
    "rating": 4.5,
    "reviews": 25,
    "website": "https://www.lewismohr.com/",
    "category": "Atheist-owned Insurance brokerage in Louisiana",
    "description": "A family-owned agency serving Louisiana since 1968, providing personalized insurance quotes for home, auto, and commercial needs",
    "hours": "Mon-Fri 9AM-6PM",
    "services": [
      "Atheist-owned Insurance brokerage in Louisiana consultation",
      "Professional service",
      "Quality guarantee"
    ],
    "social_links": {}
  },
  {
    "name": "Greater Louisiana Insurance Group",
    "address": "Multiple locations, including Baton Rouge and New Orleans. (Specific addresses available on their website.)",
    "phone": "(225) 272-0000 (Baton Rouge main line)",
    "rating": 4.0,
    "reviews": 25,
    "website": "https://www.greaterla.com/",
    "category": "Atheist-owned Insurance brokerage in Louisiana",
    "description": "An independent insurance agency offering homeowners, business, and personal insurance from \"A\" rated carriers",
    "hours": "Mon-Fri 9AM-6PM",
    "services": [
      "Atheist-owned Insurance brokerage in Louisiana consultation",
      "Professional service",
      "Quality guarantee"
    ],
    "social_links": {}
  },
  {
    "name": "Group Insurance Inc.",
    "address": "5555 Poydras St, Suite 1000, New Orleans, LA 70119",
    "phone": "(504) 831-1111",
    "rating": 4.0,
    "reviews": 25,
    "website": "https://www.groupinsuranceinc.com/",
    "category": "Atheist-owned Insurance brokerage in Louisiana",
    "description": "The largest full-service brokerage agency in Louisiana, connecting clients with various approved insurers",
    "hours": "Mon-Fri 9AM-6PM",
    "services": [
      "Atheist-owned Insurance brokerage in Louisiana consultation",
      "Professional service",
      "Quality guarantee"
    ],
    "social_links": {}
  },
  {
    "name": "Riverlands Insurance Services",
    "address": "492 West 5th Street, LaPlace, LA 70068",
    "phone": "(985) 652-5505",
    "rating": 4.5,
    "reviews": 25,
    "website": "https://www.rivins.com/",
    "category": "Atheist-owned Insurance brokerage in Louisiana",
    "description": "Offers exceptional personal service for a wide range of personal and commercial insurance needs",
    "hours": "Mon-Fri 9AM-6PM",
    "services": [
      "Atheist-owned Insurance brokerage in Louisiana consultation",
      "Professional service",
      "Quality guarantee"
    ],
    "social_links": {}
  },
  {
    "name": "Louisiana Blue (Blue Cross and Blue Shield of Louisiana)",
    "address": "Multiple locations, including Baton Rouge and New Orleans. (Specific addresses on their website.)",
    "phone": "(855) 343-0036 (Sales)",
    "rating": 4.5,
    "reviews": 25,
    "website": "https://www.bcbsla.com/",
    "category": "Atheist-owned Insurance brokerage in Louisiana",
    "description": "Provides health insurance, including medical, dental, and Medicare Advantage plans, for individuals, families, and employers",
    "hours": "Mon-Fri 9AM-6PM",
    "services": [
      "Atheist-owned Insurance brokerage in Louisiana consultation",
      "Professional service",
      "Quality guarantee"
    ],
    "social_links": {}
  },
  {
    "name": "Louisiana Workers' Compensation Corporation (LWCC)",
    "address": "17000 Old Jefferson Highway, Baton Rouge, LA 70817",
    "phone": "(225) 922-1000",
    "rating": 4.0,
    "reviews": 25,
    "website": "https://www.lwcc.com/",
    "category": "Atheist-owned Insurance brokerage in Louisiana",
    "description": "Louisiana's largest workers' compensation insurance carrier, providing security and stability to businesses in the state",
    "hours": "Mon-Fri 9AM-6PM",
    "services": [
      "Atheist-owned Insurance brokerage in Louisiana consultation",
      "Professional service",
      "Quality guarantee"
    ],
    "social_links": {}
  },
  {
    "name": "The Highland Insurance Group",
    "address": "7777 Goodwood Blvd, Baton Rouge, LA 70806",
    "phone": "(225) 927-0000",
    "rating": 4.5,
    "reviews": 25,
    "website": "https://www.highlandins.com/",
    "category": "Atheist-owned Insurance brokerage in Louisiana",
    "description": "An independent insurance agency specializing in personal, commercial, and employee benefits needs, representing multiple carriers",
    "hours": "Mon-Fri 9AM-6PM",
    "services": [
      "Atheist-owned Insurance brokerage in Louisiana consultation",
      "Professional service",
      "Quality guarantee"
    ],
    "social_links": {}
  },
  {
    "name": "Louisiana Citizens Property Insurance Corporation",
    "address": "7777 Independence Blvd, Baton Rouge, LA 70806",
    "phone": "(225) 444-1000",
    "rating": 4.0,
    "reviews": 25,
    "website": "https://www.lacitizens.com/",
    "category": "Atheist-owned Insurance brokerage in Louisiana",
    "description": "Provides property insurance in Louisiana, with a process to \"depopulate\" policies to private insurance carriers",
    "hours": "Mon-Fri 9AM-6PM",
    "services": [
      "Atheist-owned Insurance brokerage in Louisiana consultation",
      "Professional service",
      "Quality guarantee"
    ],
    "social_links": {}
  },
  {
    "name": "Liberty Mutual Insurance",
    "address": "Multiple locations, including Baton Rouge and New Orleans. (Specific addresses on their website.)",
    "phone": "(800) 295-2442",
    "rating": 4.0,
    "reviews": 25,
    "website": "https://www.libertymutual.com/",
    "category": "Atheist-owned Insurance brokerage in Louisiana",
    "description": "Offers customizable auto and home insurance policies, with a focus on providing reliable coverage",
    "hours": "Mon-Fri 9AM-6PM",
    "services": [
      "Atheist-owned Insurance brokerage in Louisiana consultation",
      "Professional service",
      "Quality guarantee"
    ],
    "social_links": {}
  }
]