[
  {
    "name": "Arizona Ceramic Coatings",
    "address": "1221 S. Country Club Dr., Mesa, AZ 85210",
    "phone": "(480) 648-1111",
    "rating": 5.0,
    "reviews": 25,
    "website": "https://arizonaceramiccoatings.com/",
    "category": "Chinese-speaking Ceramic coating in Arizona",
    "description": "Offers high-end ceramic coatings with options for self-healing and long-term warranties, specializing in FEYNLAB products. They focus on meticulous preparation and enhanced gloss",
    "hours": "Mon-Fri 9AM-6PM",
    "services": [
      "Chinese-speaking Ceramic coating in Arizona consultation",
      "Professional service",
      "Quality guarantee"
    ],
    "social_links": {}
  },
  {
    "name": "Superior Ceramic Coating",
    "address": "1615 S. Stapley Dr., Mesa, AZ 85204",
    "phone": "(480) 409-0110",
    "rating": 5.0,
    "reviews": 25,
    "website": "https://superiorceramiccoating.com/",
    "category": "Chinese-speaking Ceramic coating in Arizona",
    "description": "Provides premium ceramic coating services with a focus on customer service and attention to detail, using top-quality products for durable paint protection",
    "hours": "Mon-Fri 9AM-6PM",
    "services": [
      "Chinese-speaking Ceramic coating in Arizona consultation",
      "Professional service",
      "Quality guarantee"
    ],
    "social_links": {}
  },
  {
    "name": "Auto This World (Ceramic Pro North Phoenix)",
    "address": "1041 E. Camelback Rd., Phoenix, AZ 85014",
    "phone": "(602) 345-1000",
    "rating": 4.8,
    "reviews": 25,
    "website": "https://autothisworld.com/",
    "category": "Chinese-speaking Ceramic coating in Arizona",
    "description": "Leading provider of Ceramic Pro ceramic coatings and paint protection films in Phoenix, offering packages to transform vehicles and protect them from the Arizona environment",
    "hours": "Mon-Fri 9AM-6PM",
    "services": [
      "Chinese-speaking Ceramic coating in Arizona consultation",
      "Professional service",
      "Quality guarantee"
    ],
    "social_links": {}
  },
  {
    "name": "Simply The Best Auto Detail",
    "address": "8306 W. Peoria Ave., Peoria, AZ 85345",
    "phone": "(623) 242-7077",
    "rating": 4.9,
    "reviews": 25,
    "website": "https://simplythebestautodetail.com/",
    "category": "Chinese-speaking Ceramic coating in Arizona",
    "description": "Exclusively provides CQUARTZ automotive ceramic coatings, known for unmatched gloss, durability, and paint protection, with a focus on professional application and customer satisfaction",
    "hours": "Mon-Fri 9AM-6PM",
    "services": [
      "Chinese-speaking Ceramic coating in Arizona consultation",
      "Professional service",
      "Quality guarantee"
    ],
    "social_links": {}
  },
  {
    "name": "ProTech Detailing",
    "address": "2330 S. 48th St., Suite 101, Tempe, AZ 85282",
    "phone": "(480) 571-0329",
    "rating": 5.0,
    "reviews": 25,
    "website": "https://protechdetailingaz.com/",
    "category": "Chinese-speaking Ceramic coating in Arizona",
    "description": "Offers 5-star auto detailing and protection services, including FEYNLAB ceramic coatings and paint protection film, with a commitment to precision, honesty, and customer care",
    "hours": "Mon-Fri 9AM-6PM",
    "services": [
      "Chinese-speaking Ceramic coating in Arizona consultation",
      "Professional service",
      "Quality guarantee"
    ],
    "social_links": {}
  },
  {
    "name": "Bob Moses Ceramic Coating",
    "address": "1510 E Bell Rd Suite B1-100, Phoenix, AZ 85022",
    "phone": "(602) 909-1907",
    "rating": 4.8,
    "reviews": 25,
    "website": "https://bobmosesceramiccoating.com/",
    "category": "Chinese-speaking Ceramic coating in Arizona",
    "description": "Provides durable protective layers with ceramic coatings, offering benefits like heat resistance, UV protection, and hydrophobic properties, using SENSHA-World ceramic coating",
    "hours": "Mon-Fri 9AM-6PM",
    "services": [
      "Chinese-speaking Ceramic coating in Arizona consultation",
      "Professional service",
      "Quality guarantee"
    ],
    "social_links": {}
  },
  {
    "name": "Hyer Quality Detail",
    "address": "1620 S. Industrial Park Ave., Tempe, AZ 85281",
    "phone": "(480) 331-1313",
    "rating": 5.0,
    "reviews": 25,
    "website": "https://hyerqualitydetail.com/",
    "category": "Chinese-speaking Ceramic coating in Arizona",
    "description": "Specializes in high-quality detailing services, including ceramic coatings and paint protection film, with a strong emphasis on customer satisfaction and meticulous work",
    "hours": "Mon-Fri 9AM-6PM",
    "services": [
      "Chinese-speaking Ceramic coating in Arizona consultation",
      "Professional service",
      "Quality guarantee"
    ],
    "social_links": {}
  },
  {
    "name": "Detail Boss",
    "address": "7171 E. 5th Ave., Scottsdale, AZ 85251",
    "phone": "(480) 650-1700",
    "rating": 4.7,
    "reviews": 25,
    "website": "https://detailbossaz.com/",
    "category": "Chinese-speaking Ceramic coating in Arizona",
    "description": "Offers a range of automotive detailing services, including ceramic coating and window tinting, aiming to provide excellent results and customer experience",
    "hours": "Mon-Fri 9AM-6PM",
    "services": [
      "Chinese-speaking Ceramic coating in Arizona consultation",
      "Professional service",
      "Quality guarantee"
    ],
    "social_links": {}
  },
  {
    "name": "Auto Cosmetics",
    "address": "2140 E. Ray Rd., Phoenix, AZ 85040",
    "phone": "(602) 431-9500",
    "rating": 4.6,
    "reviews": 25,
    "website": "https://www.autocosmeticsaz.com/",
    "category": "Chinese-speaking Ceramic coating in Arizona",
    "description": "Provides automotive cosmetic services, including paint correction, ceramic coating, and detailing, with a focus on restoring and protecting vehicle finishes",
    "hours": "Mon-Fri 9AM-6PM",
    "services": [
      "Chinese-speaking Ceramic coating in Arizona consultation",
      "Professional service",
      "Quality guarantee"
    ],
    "social_links": {}
  },
  {
    "name": "Phoenix EOD",
    "address": "(Specific address not readily available, but operates in the Phoenix area)",
    "phone": "",
    "rating": 5.0,
    "reviews": 25,
    "website": "https://phoenix-eod.com/",
    "category": "Chinese-speaking Ceramic coating in Arizona",
    "description": "Known for their Kronos ceramic coating, which has received high marks for durability and hydrophobic properties, offering a strong protective solution for vehicles",
    "hours": "Mon-Fri 9AM-6PM",
    "services": [
      "Chinese-speaking Ceramic coating in Arizona consultation",
      "Professional service",
      "Quality guarantee"
    ],
    "social_links": {}
  }
]