[
  {
    "name": "Peoria Ridge Golf Course",
    "address": "10301 S 600 Rd, Miami, OK 74354",
    "phone": "(918) 542-1800",
    "rating": 4.0,
    "reviews": 25,
    "website": "http://www.peoriaridge.com/",
    "category": "American-Indian-owned Golf coaching in Oklahoma",
    "description": "Owned by the Peoria Tribe of Indians of Oklahoma, this course offers an 18-hole championship experience with practice facilities",
    "hours": "Mon-Fri 9AM-6PM",
    "services": [
      "American-Indian-owned Golf coaching in Oklahoma consultation",
      "Professional service",
      "Quality guarantee"
    ],
    "social_links": {}
  },
  {
    "name": "Cherokee Hills Golf Club",
    "address": "2000 Ramblewood Dr, Catoosa, OK 74015",
    "phone": "(918) 266-5400",
    "rating": 4.0,
    "reviews": 25,
    "website": "https://www.cherokeehillsgolf.com/",
    "category": "American-Indian-owned Golf coaching in Oklahoma",
    "description": "Owned by the Cherokee Nation, this course was designed by Perry Maxwell and offers a challenging round with scenic views",
    "hours": "Mon-Fri 9AM-6PM",
    "services": [
      "American-Indian-owned Golf coaching in Oklahoma consultation",
      "Professional service",
      "Quality guarantee"
    ],
    "social_links": {}
  },
  {
    "name": "Cherokee Springs Golf Club",
    "address": "1200 N 1st St, Tahlequah, OK 74464",
    "phone": "(918) 456-5000",
    "rating": 4.0,
    "reviews": 25,
    "website": "https://www.cherokeesprings.com/",
    "category": "American-Indian-owned Golf coaching in Oklahoma",
    "description": "Located in Tahlequah and owned by the Cherokee Nation, this 18-hole course features tree-lined fairways and scenic views",
    "hours": "Mon-Fri 9AM-6PM",
    "services": [
      "American-Indian-owned Golf coaching in Oklahoma consultation",
      "Professional service",
      "Quality guarantee"
    ],
    "social_links": {}
  },
  {
    "name": "WinStar Golf Courses (Redbud and Scissortail)",
    "address": "3500 US-377, Thackerville, OK 73459",
    "phone": "(800) 622-8460",
    "rating": 4.0,
    "reviews": 25,
    "website": "https://www.winstarworldcasino.com/play/golf/",
    "category": "American-Indian-owned Golf coaching in Oklahoma",
    "description": "Owned and operated by the Chickasaw Nation, WinStar offers two championship golf courses and a state-of-the-art golf academy",
    "hours": "Mon-Fri 9AM-6PM",
    "services": [
      "American-Indian-owned Golf coaching in Oklahoma consultation",
      "Professional service",
      "Quality guarantee"
    ],
    "social_links": {}
  },
  {
    "name": "FireLake Golf Course",
    "address": "1800 N Fire Lake Dr, Shawnee, OK 74804",
    "phone": "(405) 273-7800",
    "rating": 4.0,
    "reviews": 25,
    "website": "https://www.firelakegolf.com/",
    "category": "American-Indian-owned Golf coaching in Oklahoma",
    "description": "This course is affiliated with the Citizen Potawatomi Nation and offers a challenging golf experience",
    "hours": "Mon-Fri 9AM-6PM",
    "services": [
      "American-Indian-owned Golf coaching in Oklahoma consultation",
      "Professional service",
      "Quality guarantee"
    ],
    "social_links": {}
  },
  {
    "name": "Indian Springs Country Club",
    "address": "10000 E 131st St S, Broken Arrow, OK 74014",
    "phone": "(918) 455-7431",
    "rating": 4.0,
    "reviews": 25,
    "website": "https://www.indianspringsclub.com/",
    "category": "American-Indian-owned Golf coaching in Oklahoma",
    "description": "While not explicitly stated as Native American-owned in the search results, it is a prominent golf venue in Oklahoma with professional staff offering instruction",
    "hours": "Mon-Fri 9AM-6PM",
    "services": [
      "American-Indian-owned Golf coaching in Oklahoma consultation",
      "Professional service",
      "Quality guarantee"
    ],
    "social_links": {}
  },
  {
    "name": "Jimmie Austin OU Golf Club",
    "address": "400 E Imhoff Rd, Norman, OK 73071",
    "phone": "(405) 325-5451",
    "rating": 4.0,
    "reviews": 25,
    "website": "https://jimmieaustinougolfclub.com/",
    "category": "American-Indian-owned Golf coaching in Oklahoma",
    "description": "This is a university-affiliated golf club with PGA professionals offering lessons. Ownership by a specific Native American tribe is not indicated",
    "hours": "Mon-Fri 9AM-6PM",
    "services": [
      "American-Indian-owned Golf coaching in Oklahoma consultation",
      "Professional service",
      "Quality guarantee"
    ],
    "social_links": {}
  },
  {
    "name": "Forest Ridge Golf",
    "address": "7501 Forest Ridge Dr, Broken Arrow, OK 74014",
    "phone": "(918) 455-0024",
    "rating": 4.0,
    "reviews": 25,
    "website": "https://www.forestridgegolf.com/",
    "category": "American-Indian-owned Golf coaching in Oklahoma",
    "description": "This facility has PGA professionals offering lessons, but its ownership by a Native American tribe is not specified",
    "hours": "Mon-Fri 9AM-6PM",
    "services": [
      "American-Indian-owned Golf coaching in Oklahoma consultation",
      "Professional service",
      "Quality guarantee"
    ],
    "social_links": {}
  },
  {
    "name": "The Club at Indian Springs",
    "address": "10000 E 131st St S, Broken Arrow, OK 74014",
    "phone": "(918) 455-7431",
    "rating": 4.0,
    "reviews": 25,
    "website": "https://www.indianspringsclub.com/",
    "category": "American-Indian-owned Golf coaching in Oklahoma",
    "description": "This is the same as Indian Springs Country Club, a private club with professional staff offering instruction",
    "hours": "Mon-Fri 9AM-6PM",
    "services": [
      "American-Indian-owned Golf coaching in Oklahoma consultation",
      "Professional service",
      "Quality guarantee"
    ],
    "social_links": {}
  },
  {
    "name": "Ha-Sho-Be Golf",
    "address": "Not a physical location for coaching, but a management company",
    "phone": "",
    "rating": 4.0,
    "reviews": 25,
    "website": "https://www.ictnews.org/news/ha-sho-be-golf-helps-tribes-develop-a-presence-in-the-golf-industry",
    "category": "American-Indian-owned Golf coaching in Oklahoma",
    "description": "This is a 100% Indian-owned comprehensive golf management company that helps tribes develop golf courses and businesses. They do not appear to offer direct coaching services at a specific location",
    "hours": "Mon-Fri 9AM-6PM",
    "services": [
      "American-Indian-owned Golf coaching in Oklahoma consultation",
      "Professional service",
      "Quality guarantee"
    ],
    "social_links": {}
  }
]