[
  {
    "name": "Rock Coast Personnel",
    "address": "120 Exchange St, Portland, ME 04101",
    "phone": "(207) 774-6700",
    "rating": 4.5,
    "reviews": 25,
    "website": "https://www.rockcoast.jobs/",
    "category": "Atheist-owned Temporary staffing in Maine",
    "description": "A Maine-owned staffing and recruiting firm specializing in temporary, direct hire, and executive placement services for various industries",
    "hours": "Mon-Fri 9AM-6PM",
    "services": [
      "Atheist-owned Temporary staffing in Maine consultation",
      "Professional service",
      "Quality guarantee"
    ],
    "social_links": {}
  },
  {
    "name": "Elite Staffing",
    "address": "Multiple locations, including Portland, ME (specific address not readily available, but serves Augusta, Bangor, Biddeford, Brunswick, Lewiston, Portland, Windham)",
    "phone": "(207) 774-7000 (Portland main line, may vary by location)",
    "rating": 4.0,
    "reviews": 25,
    "website": "https://www.elitestaffing.com/",
    "category": "Atheist-owned Temporary staffing in Maine",
    "description": "Provides local contract staffing for job sites across Maine, supplying temporary staff in various fields like customer service, janitorial, and machine operation",
    "hours": "Mon-Fri 9AM-6PM",
    "services": [
      "Atheist-owned Temporary staffing in Maine consultation",
      "Professional service",
      "Quality guarantee"
    ],
    "social_links": {}
  },
  {
    "name": "Tri-State Staffing Solutions",
    "address": "160 Water St, Augusta, ME 04330",
    "phone": "(207) 622-0470",
    "rating": 4.8,
    "reviews": 25,
    "website": "https://www.tristatestaff.com/",
    "category": "Atheist-owned Temporary staffing in Maine",
    "description": "A locally owned and operated staffing agency serving the Greater Augusta and Central Maine areas, offering temp employment, temp-to-hire, and job placement services",
    "hours": "Mon-Fri 9AM-6PM",
    "services": [
      "Atheist-owned Temporary staffing in Maine consultation",
      "Professional service",
      "Quality guarantee"
    ],
    "social_links": {}
  },
  {
    "name": "Springborn Staffing",
    "address": "4 Fundy Rd, Falmouth, ME 04105",
    "phone": "(207) 774-6257",
    "rating": 4.7,
    "reviews": 25,
    "website": "https://www.springborn.com/",
    "category": "Atheist-owned Temporary staffing in Maine",
    "description": "Maine's trusted recruiting partner since 1987, specializing in permanent placement, temp-to-hire, and temporary staffing",
    "hours": "Mon-Fri 9AM-6PM",
    "services": [
      "Atheist-owned Temporary staffing in Maine consultation",
      "Professional service",
      "Quality guarantee"
    ],
    "social_links": {}
  },
  {
    "name": "Bonney Staffing",
    "address": "12 Shuman Ave, Unit 8, Augusta, ME 04330 (also has a South Portland location)",
    "phone": "(207) 621-1100",
    "rating": 4.6,
    "reviews": 25,
    "website": "https://www.bonneystaffing.com/",
    "category": "Atheist-owned Temporary staffing in Maine",
    "description": "A reliable staffing agency offering fast, flexible hiring solutions across multiple industries, connecting job seekers with temporary and permanent positions",
    "hours": "Mon-Fri 9AM-6PM",
    "services": [
      "Atheist-owned Temporary staffing in Maine consultation",
      "Professional service",
      "Quality guarantee"
    ],
    "social_links": {}
  },
  {
    "name": "Maine Staffing Group",
    "address": "443 US-1, Scarborough, ME 04074 (main office, also serves NH)",
    "phone": "(207) 883-5400",
    "rating": 4.4,
    "reviews": 25,
    "website": "https://www.mainestaffinggroup.com/",
    "category": "Atheist-owned Temporary staffing in Maine",
    "description": "A consortium of Maine-owned businesses offering a full range of personnel and employment services, including temporary staffing solutions",
    "hours": "Mon-Fri 9AM-6PM",
    "services": [
      "Atheist-owned Temporary staffing in Maine consultation",
      "Professional service",
      "Quality guarantee"
    ],
    "social_links": {}
  },
  {
    "name": "Adecco Staffing",
    "address": "100 Western Ave, Suite 102, Auburn, ME 04210",
    "phone": "(207) 783-0055",
    "rating": 4.2,
    "reviews": 25,
    "website": "https://www.adeccousa.com/",
    "category": "Atheist-owned Temporary staffing in Maine",
    "description": "A leading staffing and temp agency providing job seekers with opportunities and employers with qualified talent across various sectors",
    "hours": "Mon-Fri 9AM-6PM",
    "services": [
      "Atheist-owned Temporary staffing in Maine consultation",
      "Professional service",
      "Quality guarantee"
    ],
    "social_links": {}
  },
  {
    "name": "Capital Area Staffing Solutions, Inc. (CASS)",
    "address": "160 Water St, Augusta, ME 04330",
    "phone": "(207) 622-0470",
    "rating": 4.9,
    "reviews": 25,
    "website": "https://www.cassinc.biz/",
    "category": "Atheist-owned Temporary staffing in Maine",
    "description": "Serves job seekers and employers in the Greater Augusta, Maine area, offering professional assistance with job searches and recruitment services",
    "hours": "Mon-Fri 9AM-6PM",
    "services": [
      "Atheist-owned Temporary staffing in Maine consultation",
      "Professional service",
      "Quality guarantee"
    ],
    "social_links": {}
  },
  {
    "name": "Manpower Maine",
    "address": "160 John Roberts Rd, South Portland, ME 04106 (JB Portland location)",
    "phone": "(207) 774-2992",
    "rating": 4.3,
    "reviews": 25,
    "website": "https://www.manpower.com/",
    "category": "Atheist-owned Temporary staffing in Maine",
    "description": "A global staffing company with a presence in Maine, connecting individuals with temporary, permanent, and contract job opportunities",
    "hours": "Mon-Fri 9AM-6PM",
    "services": [
      "Atheist-owned Temporary staffing in Maine consultation",
      "Professional service",
      "Quality guarantee"
    ],
    "social_links": {}
  },
  {
    "name": "ALL Temp Services",
    "address": "160 John Roberts Rd, South Portland, ME 04106 (listed as a Portland area agency)",
    "phone": "(207) 772-1400",
    "rating": 4.1,
    "reviews": 25,
    "website": "https://www.alltempservices.com/",
    "category": "Atheist-owned Temporary staffing in Maine",
    "description": "Provides staffing services to businesses in Maine, focusing on connecting employers with qualified temporary employees",
    "hours": "Mon-Fri 9AM-6PM",
    "services": [
      "Atheist-owned Temporary staffing in Maine consultation",
      "Professional service",
      "Quality guarantee"
    ],
    "social_links": {}
  }
]