[
  {
    "name": "Catholic Charities of Louisville",
    "address": "435 E. Broadway, Louisville, KY 40202",
    "phone": "502-637-9786",
    "rating": 4.0,
    "reviews": 25,
    "website": "https://www.cclou.org/",
    "category": "Catholic-owned Trade secrets in Kentucky",
    "description": "Provides a wide range of social services, including migration and refugee services, anti-human trafficking programs, food pantries, and emergency financial aid",
    "hours": "Mon-Fri 9AM-6PM",
    "services": [
      "Catholic-owned Trade secrets in Kentucky consultation",
      "Professional service",
      "Quality guarantee"
    ],
    "social_links": {}
  },
  {
    "name": "Catholic Charities of Lexington",
    "address": "1310 W Main St, Lexington, KY 40508",
    "phone": "859-253-3086",
    "rating": 4.0,
    "reviews": 25,
    "website": "https://www.catholiccharitieslexington.org/",
    "category": "Catholic-owned Trade secrets in Kentucky",
    "description": "The primary social service organization for the Diocese of Lexington, serving people in Central and Eastern Kentucky with services like adoption, basic needs, counseling, and disaster response",
    "hours": "Mon-Fri 9AM-6PM",
    "services": [
      "Catholic-owned Trade secrets in Kentucky consultation",
      "Professional service",
      "Quality guarantee"
    ],
    "social_links": {}
  },
  {
    "name": "Sacred Heart Schools",
    "address": "3177 Lexington Road, Louisville, KY 40206",
    "phone": "502-897-1820",
    "rating": 4.0,
    "reviews": 25,
    "website": "https://www.shslou.org/",
    "category": "Catholic-owned Trade secrets in Kentucky",
    "description": "A Catholic, Ursuline community offering education from early childhood through high school, with a focus on academic excellence, leadership, and service",
    "hours": "Mon-Fri 9AM-6PM",
    "services": [
      "Catholic-owned Trade secrets in Kentucky consultation",
      "Professional service",
      "Quality guarantee"
    ],
    "social_links": {}
  },
  {
    "name": "Saint Xavier High School",
    "address": "1609 Poplar Level Road, Louisville, KY 40217",
    "phone": "502-637-4712",
    "rating": 4.66,
    "reviews": 25,
    "website": "https://www.saintx.com/",
    "category": "Catholic-owned Trade secrets in Kentucky",
    "description": "A Catholic college preparatory high school for young men, known for its academic rigor and strong community",
    "hours": "Mon-Fri 9AM-6PM",
    "services": [
      "Catholic-owned Trade secrets in Kentucky consultation",
      "Professional service",
      "Quality guarantee"
    ],
    "social_links": {}
  },
  {
    "name": "Covington Catholic High School",
    "address": "1600 Dixie Highway, Park Hills, KY 41011",
    "phone": "859-491-2247",
    "rating": 4.69,
    "reviews": 25,
    "website": "https://www.covcath.org/",
    "category": "Catholic-owned Trade secrets in Kentucky",
    "description": "A Catholic high school for young men in Northern Kentucky, offering a strong academic and spiritual education",
    "hours": "Mon-Fri 9AM-6PM",
    "services": [
      "Catholic-owned Trade secrets in Kentucky consultation",
      "Professional service",
      "Quality guarantee"
    ],
    "social_links": {}
  },
  {
    "name": "Lexington Catholic High School",
    "address": "2250 Clays Mill Road, Lexington, KY 40503",
    "phone": "859-277-7183",
    "rating": 4.19,
    "reviews": 25,
    "website": "https://www.lexingtoncatholic.com/",
    "category": "Catholic-owned Trade secrets in Kentucky",
    "description": "A co-educational Catholic high school serving the Lexington area, committed to faith, academics, and community",
    "hours": "Mon-Fri 9AM-6PM",
    "services": [
      "Catholic-owned Trade secrets in Kentucky consultation",
      "Professional service",
      "Quality guarantee"
    ],
    "social_links": {}
  },
  {
    "name": "Saint Joseph Hospital (Lexington)",
    "address": "1 Saint Joseph Drive, Lexington, KY 40504",
    "phone": "859-313-1000",
    "rating": 4.0,
    "reviews": 25,
    "website": "https://www.chisaintjosephhealth.org/saint-joseph-hospital-lexington",
    "category": "Catholic-owned Trade secrets in Kentucky",
    "description": "A 433-bed hospital founded in 1877, serving Central and Eastern Kentucky with a focus on cardiology, orthopedics, and stroke care, guided by Catholic values",
    "hours": "Mon-Fri 9AM-6PM",
    "services": [
      "Catholic-owned Trade secrets in Kentucky consultation",
      "Professional service",
      "Quality guarantee"
    ],
    "social_links": {}
  },
  {
    "name": "St. Elizabeth Healthcare",
    "address": "1 Medical Village Drive, Edgewood, KY 41017",
    "phone": "859-301-2000",
    "rating": 4.0,
    "reviews": 25,
    "website": "https://www.stelizabeth.com/",
    "category": "Catholic-owned Trade secrets in Kentucky",
    "description": "A healthcare system offering personalized care, with Edgewood's #1 hospital, providing a wide range of services including emergency care, women's health, and virtual health",
    "hours": "Mon-Fri 9AM-6PM",
    "services": [
      "Catholic-owned Trade secrets in Kentucky consultation",
      "Professional service",
      "Quality guarantee"
    ],
    "social_links": {}
  },
  {
    "name": "St. Bernard Catholic School",
    "address": "7709 St Bernard Ln, Louisville, KY 40214",
    "phone": "502-363-3012",
    "rating": 4.0,
    "reviews": 25,
    "website": "https://www.stbernardlouisville.org/",
    "category": "Catholic-owned Trade secrets in Kentucky",
    "description": "A Catholic elementary school serving K-8 students, committed to nurturing the whole child through academic excellence and Catholic values",
    "hours": "Mon-Fri 9AM-6PM",
    "services": [
      "Catholic-owned Trade secrets in Kentucky consultation",
      "Professional service",
      "Quality guarantee"
    ],
    "social_links": {}
  },
  {
    "name": "The Marian Center",
    "address": "161 Sears Ave, Louisville, KY 40207",
    "phone": "502-897-3131",
    "rating": 4.0,
    "reviews": 25,
    "website": "https://kentuckycatholics.org/local-businesses/the-marian-center/",
    "category": "Catholic-owned Trade secrets in Kentucky",
    "description": "A Catholic bookstore and gift shop offering religious items, a lending library, and a chapel for prayer",
    "hours": "Mon-Fri 9AM-6PM",
    "services": [
      "Catholic-owned Trade secrets in Kentucky consultation",
      "Professional service",
      "Quality guarantee"
    ],
    "social_links": {}
  }
]