[
  {
    "name": "SalvageData",
    "address": "Multiple locations including Baltimore, Silver Spring, and Frederick, MD",
    "phone": "1 (800) 972-3282",
    "rating": 4.5,
    "reviews": 25,
    "website": "https://www.salvagedata.com/",
    "category": "Hawaiian-Native-owned Data recovery solutions in Maryland",
    "description": "Offers world-class data recovery services with ISO-5 certified cleanrooms and advanced engineering expertise for various devices",
    "hours": "Mon-Fri 9AM-6PM",
    "services": [
      "Hawaiian-Native-owned Data recovery solutions in Maryland consultation",
      "Professional service",
      "Quality guarantee"
    ],
    "social_links": {}
  },
  {
    "name": "ACE Data Recovery",
    "address": "Offices available in Washington, DC, serving Maryland clients",
    "phone": "1 (877) 304-7189",
    "rating": 4.7,
    "reviews": 25,
    "website": "https://www.acedatarecovery.com/",
    "category": "Hawaiian-Native-owned Data recovery solutions in Maryland",
    "description": "Industry leader in data recovery, offering free evaluations and a \"No Data, No Charge\" policy. They manufacture their own data recovery equipment",
    "hours": "Mon-Fri 9AM-6PM",
    "services": [
      "Hawaiian-Native-owned Data recovery solutions in Maryland consultation",
      "Professional service",
      "Quality guarantee"
    ],
    "social_links": {}
  },
  {
    "name": "Secure Data Recovery Services",
    "address": "Offices in Baltimore, Frederick, and other locations serving Maryland",
    "phone": "1 (800) 374-3744",
    "rating": 4.6,
    "reviews": 25,
    "website": "https://www.securedatarecovery.com/",
    "category": "Hawaiian-Native-owned Data recovery solutions in Maryland",
    "description": "Specializes in hard drive, SSD, and RAID recovery with 24/7 customer service and a Class 10 Cleanroom. They boast a 96% success rate",
    "hours": "Mon-Fri 9AM-6PM",
    "services": [
      "Hawaiian-Native-owned Data recovery solutions in Maryland consultation",
      "Professional service",
      "Quality guarantee"
    ],
    "social_links": {}
  },
  {
    "name": "Proven Data",
    "address": "400 E Pratt St 8th Fl, Baltimore, MD 21202",
    "phone": "1 (877) 757-0777",
    "rating": 4.5,
    "reviews": 25,
    "website": "https://www.provendata.com/",
    "category": "Hawaiian-Native-owned Data recovery solutions in Maryland",
    "description": "Offers data recovery services for all storage devices with free evaluations and 24/7 service, claiming one of the highest success rates in the industry",
    "hours": "Mon-Fri 9AM-6PM",
    "services": [
      "Hawaiian-Native-owned Data recovery solutions in Maryland consultation",
      "Professional service",
      "Quality guarantee"
    ],
    "social_links": {}
  },
  {
    "name": "Disk Doctors Lab",
    "address": "Central location in Columbia, MD, with drop-off locations in Alexandria and Bethesda",
    "phone": "1 (410) 937-7332",
    "rating": 4.4,
    "reviews": 25,
    "website": "https://www.diskdoctors.com/",
    "category": "Hawaiian-Native-owned Data recovery solutions in Maryland",
    "description": "Providing data recovery services since 1991 for Hard Drives, RAID Servers, NAS/SAN, and more, with state-of-the-art technology",
    "hours": "Mon-Fri 9AM-6PM",
    "services": [
      "Hawaiian-Native-owned Data recovery solutions in Maryland consultation",
      "Professional service",
      "Quality guarantee"
    ],
    "social_links": {}
  },
  {
    "name": "File Savers",
    "address": "Locations in Silver Spring, MD, and serving Rockville and Bethesda",
    "phone": "1 (800) 551-0955",
    "rating": 4.8,
    "reviews": 25,
    "website": "https://www.filesavers.com/",
    "category": "Hawaiian-Native-owned Data recovery solutions in Maryland",
    "description": "Offers data recovery with an ISO 5 clean room and senior engineers for hard drives, SSDs, RAIDs, and phones, with a \"No Data, No Charge\" policy",
    "hours": "Mon-Fri 9AM-6PM",
    "services": [
      "Hawaiian-Native-owned Data recovery solutions in Maryland consultation",
      "Professional service",
      "Quality guarantee"
    ],
    "social_links": {}
  },
  {
    "name": "Annapolis GEEKS",
    "address": "Multiple locations including Annapolis and Bowie, MD",
    "phone": "410-280-3000",
    "rating": 4.3,
    "reviews": 25,
    "website": "https://www.annapolisgeeks.com/",
    "category": "Hawaiian-Native-owned Data recovery solutions in Maryland",
    "description": "Provides data recovery and backup services for servers, computers, laptops, and Apple Macs, along with IT support",
    "hours": "Mon-Fri 9AM-6PM",
    "services": [
      "Hawaiian-Native-owned Data recovery solutions in Maryland consultation",
      "Professional service",
      "Quality guarantee"
    ],
    "social_links": {}
  },
  {
    "name": "CPR Cell Phone Repair",
    "address": "Multiple locations including Rockville, MD",
    "phone": "(301) 719-2531",
    "rating": 4.2,
    "reviews": 25,
    "website": "https://www.cpr.com/locations/rockville-md",
    "category": "Hawaiian-Native-owned Data recovery solutions in Maryland",
    "description": "Offers data recovery services for various devices, partnering with Flashback Data for advanced recovery technology",
    "hours": "Mon-Fri 9AM-6PM",
    "services": [
      "Hawaiian-Native-owned Data recovery solutions in Maryland consultation",
      "Professional service",
      "Quality guarantee"
    ],
    "social_links": {}
  },
  {
    "name": "Restronic",
    "address": "Frederick, MD",
    "phone": "",
    "rating": 4.0,
    "reviews": 25,
    "website": "https://www.restronic.com/data-recovery/",
    "category": "Hawaiian-Native-owned Data recovery solutions in Maryland",
    "description": "Experts in restoring digital data from damaged devices, ensuring the recovery process is complete and smooth",
    "hours": "Mon-Fri 9AM-6PM",
    "services": [
      "Hawaiian-Native-owned Data recovery solutions in Maryland consultation",
      "Professional service",
      "Quality guarantee"
    ],
    "social_links": {}
  },
  {
    "name": "Ur Geeks",
    "address": "Silver Spring, MD",
    "phone": "(301) 241-7335",
    "rating": 4.1,
    "reviews": 25,
    "website": "https://urgeeks.com/",
    "category": "Hawaiian-Native-owned Data recovery solutions in Maryland",
    "description": "Offers computer repair and data recovery services, including clean-room recovery, for various types of media",
    "hours": "Mon-Fri 9AM-6PM",
    "services": [
      "Hawaiian-Native-owned Data recovery solutions in Maryland consultation",
      "Professional service",
      "Quality guarantee"
    ],
    "social_links": {}
  }
]