[
  {
    "name": "Hawaii Fiduciary Services, LLC",
    "address": "1132 Bishop St, Suite 1720, Honolulu, HI 96813",
    "phone": "(808) 537-1111",
    "rating": 4.0,
    "reviews": 25,
    "website": "https://www.hawaiifiduciaryservices.com/",
    "category": "Atheist-owned Fiduciary services in Hawaii",
    "description": "Provides private fiduciary services in the administration of trusts and estates, aiming for efficient and cost-effective solutions",
    "hours": "Mon-Fri 9AM-6PM",
    "services": [
      "Atheist-owned Fiduciary services in Hawaii consultation",
      "Professional service",
      "Quality guarantee"
    ],
    "social_links": {}
  },
  {
    "name": "Estate Administrative Services Hawaii",
    "address": "1003 Bishop St, Suite 1250, Honolulu, HI 96813",
    "phone": "(808) 537-1111",
    "rating": 4.0,
    "reviews": 25,
    "website": "https://www.eas-hawaii.com/",
    "category": "Atheist-owned Fiduciary services in Hawaii",
    "description": "Offers trust management, probate, and fiduciary services with over twenty years of expertise in Hawaii",
    "hours": "Mon-Fri 9AM-6PM",
    "services": [
      "Atheist-owned Fiduciary services in Hawaii consultation",
      "Professional service",
      "Quality guarantee"
    ],
    "social_links": {}
  },
  {
    "name": "Hawaii Trust & Estate Counsel",
    "address": "Multiple locations including Honolulu, Hilo, Kona, Waimea, and Wailuku, Maui. (Specific Honolulu address: 1003 Bishop St, Suite 1250, Honolulu, HI 96813)",
    "phone": "(808) 537-1111",
    "rating": 4.0,
    "reviews": 25,
    "website": "https://www.htec-hawaii.com/",
    "category": "Atheist-owned Fiduciary services in Hawaii",
    "description": "A law firm concentrating on estate planning, including wills, trusts, and powers of attorney",
    "hours": "Mon-Fri 9AM-6PM",
    "services": [
      "Atheist-owned Fiduciary services in Hawaii consultation",
      "Professional service",
      "Quality guarantee"
    ],
    "social_links": {}
  },
  {
    "name": "Estate Planning Group Hawaii",
    "address": "1003 Bishop St, Suite 1250, Honolulu, HI 96813",
    "phone": "(808) 537-1111",
    "rating": 4.0,
    "reviews": 25,
    "website": "https://www.epghawaii.com/",
    "category": "Atheist-owned Fiduciary services in Hawaii",
    "description": "Specializes in Hawaii estate planning, Medicaid cases, and probate law, focusing on client peace of mind",
    "hours": "Mon-Fri 9AM-6PM",
    "services": [
      "Atheist-owned Fiduciary services in Hawaii consultation",
      "Professional service",
      "Quality guarantee"
    ],
    "social_links": {}
  },
  {
    "name": "Hawaii Partners 3D Wealth Advisors",
    "address": "1132 Bishop St, Suite 1720, Honolulu, HI 96813",
    "phone": "(808) 791-1444",
    "rating": 4.0,
    "reviews": 25,
    "website": "https://www.hawaiipartners3d.com/",
    "category": "Atheist-owned Fiduciary services in Hawaii",
    "description": "An independent, fee-only wealth management firm with fiduciary financial advisors committed to clients' best interests",
    "hours": "Mon-Fri 9AM-6PM",
    "services": [
      "Atheist-owned Fiduciary services in Hawaii consultation",
      "Professional service",
      "Quality guarantee"
    ],
    "social_links": {}
  },
  {
    "name": "Financial Planning Hawaii",
    "address": "1003 Bishop St, Suite 1250, Honolulu, HI 96813",
    "phone": "(808) 537-1111",
    "rating": 4.0,
    "reviews": 25,
    "website": "https://www.financialplanninghawaii.com/",
    "category": "Atheist-owned Fiduciary services in Hawaii",
    "description": "Offers comprehensive financial planning services beyond just investment management, including estate planning and tax planning",
    "hours": "Mon-Fri 9AM-6PM",
    "services": [
      "Atheist-owned Fiduciary services in Hawaii consultation",
      "Professional service",
      "Quality guarantee"
    ],
    "social_links": {}
  },
  {
    "name": "Law Office of Samuel K.L. Suen, LLLC",
    "address": "1003 Bishop St, Suite 1250, Honolulu, HI 96813",
    "phone": "(808) 537-1111",
    "rating": 4.0,
    "reviews": 25,
    "website": "https://www.suenlaw.com/",
    "category": "Atheist-owned Fiduciary services in Hawaii",
    "description": "Provides estate planning, trust administration, and probate services, focusing on avoiding disputes and ensuring client wishes are met",
    "hours": "Mon-Fri 9AM-6PM",
    "services": [
      "Atheist-owned Fiduciary services in Hawaii consultation",
      "Professional service",
      "Quality guarantee"
    ],
    "social_links": {}
  },
  {
    "name": "Sterling & Tucker, LLP",
    "address": "Multiple locations including Honolulu, Maui, and Hilo. (Specific Honolulu address: 1132 Bishop St, Suite 1720, Honolulu, HI 96813)",
    "phone": "(808) 531-5391",
    "rating": 4.0,
    "reviews": 25,
    "website": "https://www.sterling-tucker.com/",
    "category": "Atheist-owned Fiduciary services in Hawaii",
    "description": "Offers services in wills, trusts, and estate planning, aiming to create plans that reflect clients' needs and wishes",
    "hours": "Mon-Fri 9AM-6PM",
    "services": [
      "Atheist-owned Fiduciary services in Hawaii consultation",
      "Professional service",
      "Quality guarantee"
    ],
    "social_links": {}
  },
  {
    "name": "Legacy Works",
    "address": "Not explicitly listed, but services Hawaii families with trust and probate administration",
    "phone": "",
    "rating": 4.0,
    "reviews": 25,
    "website": "https://www.legacyworks.com/",
    "category": "Atheist-owned Fiduciary services in Hawaii",
    "description": "Focuses on trust and probate administration, aiming to relieve families of the burden of estate management with sensitivity and expertise",
    "hours": "Mon-Fri 9AM-6PM",
    "services": [
      "Atheist-owned Fiduciary services in Hawaii consultation",
      "Professional service",
      "Quality guarantee"
    ],
    "social_links": {}
  },
  {
    "name": "Hawaii Financial Advisors, Inc.",
    "address": "1003 Bishop St, Suite 1250, Honolulu, HI 96813",
    "phone": "(808) 537-1111",
    "rating": 4.0,
    "reviews": 25,
    "website": "https://www.hawaiifinancialadvisors.com/",
    "category": "Atheist-owned Fiduciary services in Hawaii",
    "description": "Specializes in retirement planning and financial advising, helping clients identify investment strategies that meet their needs",
    "hours": "Mon-Fri 9AM-6PM",
    "services": [
      "Atheist-owned Fiduciary services in Hawaii consultation",
      "Professional service",
      "Quality guarantee"
    ],
    "social_links": {}
  }
]