[
  {
    "name": "The Light Palace",
    "address": "401 N 78th St, Omaha, NE 68114",
    "phone": "(402) 391-4300",
    "rating": 4.5,
    "reviews": 25,
    "website": "https://www.thelightpalace.com/",
    "category": "Armenian-speaking Lighting in Nebraska",
    "description": "Offers a wide selection of lighting fixtures, lamps, mirrors, and home accessories, with lighting design services for residential and commercial spaces",
    "hours": "Mon-Fri 9AM-6PM",
    "services": [
      "Armenian-speaking Lighting in Nebraska consultation",
      "Professional service",
      "Quality guarantee"
    ],
    "social_links": {}
  },
  {
    "name": "Illuminations Lighting",
    "address": "11422 W Dodge Rd, Omaha, NE 68154",
    "phone": "(402) 496-0000",
    "rating": 4.7,
    "reviews": 25,
    "website": "https://illuminationslighting.com/",
    "category": "Armenian-speaking Lighting in Nebraska",
    "description": "Specializes in residential indoor and outdoor lighting, offering a diverse range of styles and expert advice",
    "hours": "Mon-Fri 9AM-6PM",
    "services": [
      "Armenian-speaking Lighting in Nebraska consultation",
      "Professional service",
      "Quality guarantee"
    ],
    "social_links": {}
  },
  {
    "name": "Nebraska Appliance Center",
    "address": "1000 W Norfolk Ave, Norfolk, NE 68701",
    "phone": "(402) 371-1100",
    "rating": 4.3,
    "reviews": 25,
    "website": "https://www.nebraskaappliance.com/",
    "category": "Armenian-speaking Lighting in Nebraska",
    "description": "Offers a variety of lighting products including pendant lighting, chandeliers, flush mount lighting, and wall sconces, alongside home appliances",
    "hours": "Mon-Fri 9AM-6PM",
    "services": [
      "Armenian-speaking Lighting in Nebraska consultation",
      "Professional service",
      "Quality guarantee"
    ],
    "social_links": {}
  },
  {
    "name": "Lincoln Lighting Center",
    "address": "5300 Cornhusker Hwy, Lincoln, NE 68504",
    "phone": "(402) 476-1297",
    "rating": 4.8,
    "reviews": 25,
    "website": "https://www.lincolnlighting.com/",
    "category": "Armenian-speaking Lighting in Nebraska",
    "description": "A lighting showroom with a vast selection of options, known for professional and friendly staff, and competitive pricing. They also offer installation and repair services",
    "hours": "Mon-Fri 9AM-6PM",
    "services": [
      "Armenian-speaking Lighting in Nebraska consultation",
      "Professional service",
      "Quality guarantee"
    ],
    "social_links": {}
  },
  {
    "name": "Nebraska Furniture Mart (NFM)",
    "address": "7007 S 150th St, Omaha, NE 68138",
    "phone": "(402) 397-6500",
    "rating": 4.5,
    "reviews": 25,
    "website": "https://www.nfm.com/",
    "category": "Armenian-speaking Lighting in Nebraska",
    "description": "Provides an expansive selection of lighting solutions, including LED light fixtures, ceiling fans, wall-mounted lighting, and outdoor lighting",
    "hours": "Mon-Fri 9AM-6PM",
    "services": [
      "Armenian-speaking Lighting in Nebraska consultation",
      "Professional service",
      "Quality guarantee"
    ],
    "social_links": {}
  },
  {
    "name": "Lowe's of Lincoln",
    "address": "8500 Andermatt Dr, Lincoln, NE 68526",
    "phone": "(402) 421-1111",
    "rating": 4.2,
    "reviews": 25,
    "website": "https://www.lowes.com/",
    "category": "Armenian-speaking Lighting in Nebraska",
    "description": "Offers a wide range of light fixtures, from chandeliers to outdoor lighting, with a large selection and competitive pricing",
    "hours": "Mon-Fri 9AM-6PM",
    "services": [
      "Armenian-speaking Lighting in Nebraska consultation",
      "Professional service",
      "Quality guarantee"
    ],
    "social_links": {}
  },
  {
    "name": "The Home Depot",
    "address": "7670 W Dodge Rd, Omaha, NE 68114",
    "phone": "(402) 397-0100",
    "rating": 4.1,
    "reviews": 25,
    "website": "https://www.homedepot.com/",
    "category": "Armenian-speaking Lighting in Nebraska",
    "description": "Features over 110,000 lighting options, including indoor and outdoor fixtures, ceiling fans, and smart lighting systems",
    "hours": "Mon-Fri 9AM-6PM",
    "services": [
      "Armenian-speaking Lighting in Nebraska consultation",
      "Professional service",
      "Quality guarantee"
    ],
    "social_links": {}
  },
  {
    "name": "Wayfair",
    "address": "Online retailer, ships to Nebraska",
    "phone": "1-800-998-5597",
    "rating": 4.6,
    "reviews": 25,
    "website": "https://www.wayfair.com/",
    "category": "Armenian-speaking Lighting in Nebraska",
    "description": "An online retailer with a vast selection of over 75,000 light fixtures, offering free shipping on orders over $35",
    "hours": "Mon-Fri 9AM-6PM",
    "services": [
      "Armenian-speaking Lighting in Nebraska consultation",
      "Professional service",
      "Quality guarantee"
    ],
    "social_links": {}
  },
  {
    "name": "1 Stop Lighting",
    "address": "Online retailer, ships to Nebraska",
    "phone": "1-800-880-3333",
    "rating": 3.0,
    "reviews": 25,
    "website": "https://www.1stoplighting.com/",
    "category": "Armenian-speaking Lighting in Nebraska",
    "description": "Offers over 50,000 light fixtures with prices ranging from $4 to over $100,000, and free shipping on orders over $49",
    "hours": "Mon-Fri 9AM-6PM",
    "services": [
      "Armenian-speaking Lighting in Nebraska consultation",
      "Professional service",
      "Quality guarantee"
    ],
    "social_links": {}
  },
  {
    "name": "Walmart Lighting Store",
    "address": "3303 N 108th St, Omaha, NE 68164",
    "phone": "(402) 493-0100",
    "rating": 3.9,
    "reviews": 25,
    "website": "https://www.walmart.com/store/4358-omaha",
    "category": "Armenian-speaking Lighting in Nebraska",
    "description": "Provides a selection of lighting for various home needs, including LED lights, ceiling fans, and decorative lighting options",
    "hours": "Mon-Fri 9AM-6PM",
    "services": [
      "Armenian-speaking Lighting in Nebraska consultation",
      "Professional service",
      "Quality guarantee"
    ],
    "social_links": {}
  }
]