[
  {
    "name": "Burnside Dental Care",
    "address": "East Hartford, CT",
    "phone": "(860) 568-3366",
    "rating": 4.0,
    "reviews": 25,
    "website": "https://www.google.com/maps/search/Burnside+Dental+Care+in+Connecticut",
    "category": "Bengali-speaking Emergency dental care in Connecticut",
    "description": "Offers emergency dental services and same-day appointments for urgent dental issues",
    "hours": "Mon-Fri 9AM-6PM",
    "services": [
      "Bengali-speaking Emergency dental care in Connecticut consultation",
      "Professional service",
      "Quality guarantee"
    ],
    "social_links": {}
  },
  {
    "name": "Comprehensive Dental Associates of Central Connecticut",
    "address": "East Hartford, CT",
    "phone": "(860) 568-3366",
    "rating": 4.0,
    "reviews": 25,
    "website": "https://www.google.com/maps/search/Comprehensive+Dental+Associates+of+Central+Connecticut+in+Connecticut",
    "category": "Bengali-speaking Emergency dental care in Connecticut",
    "description": "Provides same-day emergency dental care and immediate relief for dental emergencies",
    "hours": "Mon-Fri 9AM-6PM",
    "services": [
      "Bengali-speaking Emergency dental care in Connecticut consultation",
      "Professional service",
      "Quality guarantee"
    ],
    "social_links": {}
  },
  {
    "name": "New Haven Dental Group",
    "address": "New Haven, CT",
    "phone": "(203) 781-8051",
    "rating": 4.0,
    "reviews": 25,
    "website": "https://www.google.com/maps/search/New+Haven+Dental+Group+in+Connecticut",
    "category": "Bengali-speaking Emergency dental care in Connecticut",
    "description": "Offers same-day emergency dental appointments and urgent dental care services",
    "hours": "Mon-Fri 9AM-6PM",
    "services": [
      "Bengali-speaking Emergency dental care in Connecticut consultation",
      "Professional service",
      "Quality guarantee"
    ],
    "social_links": {}
  },
  {
    "name": "Blue Back Dental",
    "address": "West Hartford & Avon, CT",
    "phone": "Avon: (860) 406-5900, West Hartford: (860) 530-4900",
    "rating": 4.0,
    "reviews": 25,
    "website": "https://www.google.com/maps/search/Blue+Back+Dental+in+Connecticut",
    "category": "Bengali-speaking Emergency dental care in Connecticut",
    "description": "Provides prompt, expert emergency dental care with same-day treatment availability",
    "hours": "Mon-Fri 9AM-6PM",
    "services": [
      "Bengali-speaking Emergency dental care in Connecticut consultation",
      "Professional service",
      "Quality guarantee"
    ],
    "social_links": {}
  },
  {
    "name": "Premier Dental of Connecticut",
    "address": "West Hartford, CT",
    "phone": "(860) 265-1411",
    "rating": 4.0,
    "reviews": 25,
    "website": "https://www.google.com/maps/search/Premier+Dental+of+Connecticut+in+Connecticut",
    "category": "Bengali-speaking Emergency dental care in Connecticut",
    "description": "Offers emergency dental services and accepts same-day emergency appointments",
    "hours": "Mon-Fri 9AM-6PM",
    "services": [
      "Bengali-speaking Emergency dental care in Connecticut consultation",
      "Professional service",
      "Quality guarantee"
    ],
    "social_links": {}
  },
  {
    "name": "UConn Health - Dental Care Center",
    "address": "Farmington, CT",
    "phone": "(860) 679-7600 (for regular hours), (860) 679-2626 (for after-hours emergencies)",
    "rating": 4.0,
    "reviews": 25,
    "website": "https://www.google.com/maps/search/UConn+Health+-+Dental+Care+Center+in+Connecticut",
    "category": "Bengali-speaking Emergency dental care in Connecticut",
    "description": "Provides emergency dental care for patients 16 and older during regular clinic hours and has an Emergency Department open 24/7",
    "hours": "Mon-Fri 9AM-6PM",
    "services": [
      "Bengali-speaking Emergency dental care in Connecticut consultation",
      "Professional service",
      "Quality guarantee"
    ],
    "social_links": {}
  },
  {
    "name": "Family Dental Practice of Bloomfield",
    "address": "Bloomfield, CT",
    "phone": "(860) 242-5594",
    "rating": 4.0,
    "reviews": 25,
    "website": "https://www.google.com/maps/search/Family+Dental+Practice+of+Bloomfield+in+Connecticut",
    "category": "Bengali-speaking Emergency dental care in Connecticut",
    "description": "Offers 24/7 emergency dental care for various dental emergencies",
    "hours": "Mon-Fri 9AM-6PM",
    "services": [
      "Bengali-speaking Emergency dental care in Connecticut consultation",
      "Professional service",
      "Quality guarantee"
    ],
    "social_links": {}
  },
  {
    "name": "West Hill Family Dental",
    "address": "Rocky Hill, CT",
    "phone": "(860) 563-3303",
    "rating": 4.0,
    "reviews": 25,
    "website": "https://www.google.com/maps/search/West+Hill+Family+Dental+in+Connecticut",
    "category": "Bengali-speaking Emergency dental care in Connecticut",
    "description": "Provides responsive, same-day emergency dental care and welcomes new patients",
    "hours": "Mon-Fri 9AM-6PM",
    "services": [
      "Bengali-speaking Emergency dental care in Connecticut consultation",
      "Professional service",
      "Quality guarantee"
    ],
    "social_links": {}
  },
  {
    "name": "24/7 Local Dentist of Lebanon, CT",
    "address": "Lebanon, CT",
    "phone": "(860) 845-6263",
    "rating": 4.0,
    "reviews": 25,
    "website": "https://www.google.com/maps/search/24/7+Local+Dentist+of+Lebanon,+CT+in+Connecticut",
    "category": "Bengali-speaking Emergency dental care in Connecticut",
    "description": "Connects patients with local dentists for emergency and non-emergency dental care, available 24 hours",
    "hours": "Mon-Fri 9AM-6PM",
    "services": [
      "Bengali-speaking Emergency dental care in Connecticut consultation",
      "Professional service",
      "Quality guarantee"
    ],
    "social_links": {}
  },
  {
    "name": "North Haven Dentists",
    "address": "North Haven, CT",
    "phone": "(203) 896-4575 or (203) 654-7323",
    "rating": 4.0,
    "reviews": 25,
    "website": "https://www.google.com/maps/search/North+Haven+Dentists+in+Connecticut",
    "category": "Bengali-speaking Emergency dental care in Connecticut",
    "description": "Offers evening hours and 24/7 availability for emergency dental treatment",
    "hours": "Mon-Fri 9AM-6PM",
    "services": [
      "Bengali-speaking Emergency dental care in Connecticut consultation",
      "Professional service",
      "Quality guarantee"
    ],
    "social_links": {}
  }
]