[
  {
    "name": "Catholic Charities of the Archdiocese of Chicago - Senior Services",
    "address": "721 N. LaSalle Street, Chicago, IL 60654",
    "phone": "(312) 655-7700",
    "rating": 4.0,
    "reviews": 25,
    "website": "https://www.catholiccharities.net/",
    "category": "Catholic-owned Delivery assistants in Illinois",
    "description": "Offers a wide range of services for seniors, including home-delivered meals, transportation services, and case management",
    "hours": "Mon-Fri 9AM-6PM",
    "services": [
      "Catholic-owned Delivery assistants in Illinois consultation",
      "Professional service",
      "Quality guarantee"
    ],
    "social_links": {}
  },
  {
    "name": "Catholic Charities Diocese of Joliet",
    "address": "3040 Finley Road, Suite 200, Downers Grove, IL 60515",
    "phone": "(630) 495-8008",
    "rating": 4.0,
    "reviews": 25,
    "website": "https://www.catholiccharitiesjoliet.org/",
    "category": "Catholic-owned Delivery assistants in Illinois",
    "description": "Provides transportation assistance, food, and other resources to individuals and families in need. They also have a Mobile Food Pantry program",
    "hours": "Mon-Fri 9AM-6PM",
    "services": [
      "Catholic-owned Delivery assistants in Illinois consultation",
      "Professional service",
      "Quality guarantee"
    ],
    "social_links": {}
  },
  {
    "name": "Catholic Charities of Southern Illinois",
    "address": "222 South Third Street, Belleville, IL 62220",
    "phone": "(618) 722-5015",
    "rating": 4.0,
    "reviews": 25,
    "website": "https://www.diobelle.org/catholic-charities",
    "category": "Catholic-owned Delivery assistants in Illinois",
    "description": "Offers various programs including Catholic Urban Programs and Daystar Community Programs, which may involve assistance to vulnerable populations",
    "hours": "Mon-Fri 9AM-6PM",
    "services": [
      "Catholic-owned Delivery assistants in Illinois consultation",
      "Professional service",
      "Quality guarantee"
    ],
    "social_links": {}
  },
  {
    "name": "Catholic Charities of the Archdiocese of Chicago - Food Pantries",
    "address": "Various locations across Cook and Lake Counties (e.g., Bernardin Center Food Pantry, 671 S. Lewis Ave., Waukegan, IL 60085)",
    "phone": "(847) 782-4100 (for Bernardin Center)",
    "rating": 4.0,
    "reviews": 25,
    "website": "https://www.catholiccharities.net/GetHelp/Food-and-Basic-Needs/Food-Pantries",
    "category": "Catholic-owned Delivery assistants in Illinois",
    "description": "Operates food pantries and provides home-delivered meals to those in need",
    "hours": "Mon-Fri 9AM-6PM",
    "services": [
      "Catholic-owned Delivery assistants in Illinois consultation",
      "Professional service",
      "Quality guarantee"
    ],
    "social_links": {}
  },
  {
    "name": "Catholic Charities Archdiocese of Chicago - Senior Centers",
    "address": "Various locations across Cook County (e.g., Austin Satellite Senior Center, 5071 W. Congress Parkway, Chicago, IL 60644)",
    "phone": "(312) 743-1538 (for Austin Satellite)",
    "rating": 4.0,
    "reviews": 25,
    "website": "https://www.catholiccharities.net/GetHelp/Seniors/Senior-Centers",
    "category": "Catholic-owned Delivery assistants in Illinois",
    "description": "Offers programs for seniors, which can include nutritional support and social engagement, potentially involving meal delivery components",
    "hours": "Mon-Fri 9AM-6PM",
    "services": [
      "Catholic-owned Delivery assistants in Illinois consultation",
      "Professional service",
      "Quality guarantee"
    ],
    "social_links": {}
  },
  {
    "name": "Catholic Charities Diocese of Springfield",
    "address": "247 West Prairie Avenue, Decatur, IL 62523",
    "phone": "(217) 422-6611",
    "rating": 4.0,
    "reviews": 25,
    "website": "https://cc.dio.org/programs/meals-wheels",
    "category": "Catholic-owned Delivery assistants in Illinois",
    "description": "Provides Meals on Wheels services, delivering hot meals to homebound individuals, including seniors",
    "hours": "Mon-Fri 9AM-6PM",
    "services": [
      "Catholic-owned Delivery assistants in Illinois consultation",
      "Professional service",
      "Quality guarantee"
    ],
    "social_links": {}
  },
  {
    "name": "St. James Catholic Church - Pantry Services",
    "address": "2907 South Wabash Avenue, Chicago, IL 60616",
    "phone": "(312) 842-1919 ext. 210 (for food delivery program)",
    "rating": 4.0,
    "reviews": 25,
    "website": "https://www.stjameschicago.org/pantry-services",
    "category": "Catholic-owned Delivery assistants in Illinois",
    "description": "Offers a food delivery program for homebound seniors and disabled individuals",
    "hours": "Mon-Fri 9AM-6PM",
    "services": [
      "Catholic-owned Delivery assistants in Illinois consultation",
      "Professional service",
      "Quality guarantee"
    ],
    "social_links": {}
  },
  {
    "name": "Catholic Charities NW Senior Services",
    "address": "Arlington Heights, IL, 60005-2410",
    "phone": "(847) 253-5500",
    "rating": 4.0,
    "reviews": 25,
    "website": "http://www.catholiccharities.net/GetHelp/OurRegions/CookNorthwest/NorthwestSeniorServices.aspx",
    "category": "Catholic-owned Delivery assistants in Illinois",
    "description": "Focuses on providing supportive home services for older adults to help them maintain independence, which may include assistance with daily activities",
    "hours": "Mon-Fri 9AM-6PM",
    "services": [
      "Catholic-owned Delivery assistants in Illinois consultation",
      "Professional service",
      "Quality guarantee"
    ],
    "social_links": {}
  },
  {
    "name": "Catholic Charities of the Archdiocese of Chicago - Social Services",
    "address": "(800) 322-3722 (Intake Line)",
    "phone": "(800) 322-3722",
    "rating": 4.0,
    "reviews": 25,
    "website": "https://www.catholiccharities.net/GetHelp/Social-Services",
    "category": "Catholic-owned Delivery assistants in Illinois",
    "description": "Offers various stabilization services, which can include transportation assistance, and connects people to other organizations for emergency assistance",
    "hours": "Mon-Fri 9AM-6PM",
    "services": [
      "Catholic-owned Delivery assistants in Illinois consultation",
      "Professional service",
      "Quality guarantee"
    ],
    "social_links": {}
  },
  {
    "name": "St. Alexius Outreach Ministries",
    "address": "600 Alexian Way, Elk Grove Village, IL 60007",
    "phone": "",
    "rating": 4.0,
    "reviews": 25,
    "website": "https://www.stalexiusoutreach.org/mobile-delivery",
    "category": "Catholic-owned Delivery assistants in Illinois",
    "description": "Partners with religious orders to deliver food supplies directly to seniors and homebound individuals",
    "hours": "Mon-Fri 9AM-6PM",
    "services": [
      "Catholic-owned Delivery assistants in Illinois consultation",
      "Professional service",
      "Quality guarantee"
    ],
    "social_links": {}
  }
]