[
  {
    "name": "Armenia CPA PLLC",
    "address": "350 Alberta Dr #201, Amherst, NY 14226",
    "phone": "(716) 818-1948",
    "rating": 4.0,
    "reviews": 25,
    "website": "https://armeniacpa.com/",
    "category": "Armenian-speaking Tax preparation in New-York",
    "description": "Offers tax preparation and accounting services for individuals and businesses in the greater Buffalo, NY area",
    "hours": "Mon-Fri 9AM-6PM",
    "services": [
      "Armenian-speaking Tax preparation in New-York consultation",
      "Professional service",
      "Quality guarantee"
    ],
    "social_links": {}
  },
  {
    "name": "Pogogeff & Company CPA",
    "address": "165 Main St, Fort Lee, NJ 07024",
    "phone": "(201) 592-0006",
    "rating": 4.0,
    "reviews": 25,
    "website": "https://www.pogogeffcpa.com/",
    "category": "Armenian-speaking Tax preparation in New-York",
    "description": "Provides tax preparation and planning services for individuals and small businesses, with over 38 years of experience",
    "hours": "Mon-Fri 9AM-6PM",
    "services": [
      "Armenian-speaking Tax preparation in New-York consultation",
      "Professional service",
      "Quality guarantee"
    ],
    "social_links": {}
  },
  {
    "name": "SKG Tax",
    "address": "2035 Lemoine Ave, Fort Lee, NJ 07024",
    "phone": "(201) 595-5154",
    "rating": 4.0,
    "reviews": 25,
    "website": "https://skgtax.com/",
    "category": "Armenian-speaking Tax preparation in New-York",
    "description": "Offers comprehensive tax services, bookkeeping, and audit support for individuals, estates, and businesses in Fort Lee and surrounding communities",
    "hours": "Mon-Fri 9AM-6PM",
    "services": [
      "Armenian-speaking Tax preparation in New-York consultation",
      "Professional service",
      "Quality guarantee"
    ],
    "social_links": {}
  },
  {
    "name": "H&R Block",
    "address": "Multiple locations, including 41-18 Crescent St, Long Island City, NY 11101 and Plaza West Shopping Center, Fort Lee, NJ 07024",
    "phone": "(718) 784-0877 (for Urban Upbound, which partners with H&R Block for free tax prep), (201) 969-1514 (Fort Lee, NJ)",
    "rating": 4.0,
    "reviews": 25,
    "website": "https://www.hrblock.com/",
    "category": "Armenian-speaking Tax preparation in New-York",
    "description": "Offers a wide range of tax preparation services, including online filing, in-person assistance, and small business services. They have numerous locations throughout New York and New Jersey",
    "hours": "Mon-Fri 9AM-6PM",
    "services": [
      "Armenian-speaking Tax preparation in New-York consultation",
      "Professional service",
      "Quality guarantee"
    ],
    "social_links": {}
  },
  {
    "name": "Eshel Aminov and Partners LLP",
    "address": "120 W 45th St, New York, NY 10036",
    "phone": "(212) 302-7900",
    "rating": 4.0,
    "reviews": 25,
    "website": "https://eshelcpa.com/",
    "category": "Armenian-speaking Tax preparation in New-York",
    "description": "A boutique accounting firm providing premium financial services, tax preparation, and business consulting with offices in New York, Florida, and Tel Aviv",
    "hours": "Mon-Fri 9AM-6PM",
    "services": [
      "Armenian-speaking Tax preparation in New-York consultation",
      "Professional service",
      "Quality guarantee"
    ],
    "social_links": {}
  },
  {
    "name": "Kassabian CPA",
    "address": "112 W Lexington Dr #200, Glendale, CA 91203 (Note: This is in California, but may serve Armenian clients remotely)",
    "phone": "(818) 547-9000",
    "rating": 4.0,
    "reviews": 25,
    "website": "https://kassabiancpa.com/",
    "category": "Armenian-speaking Tax preparation in New-York",
    "description": "Offers expert tax preparation and accounting services for individuals and small businesses, with a focus on maximizing deductions",
    "hours": "Mon-Fri 9AM-6PM",
    "services": [
      "Armenian-speaking Tax preparation in New-York consultation",
      "Professional service",
      "Quality guarantee"
    ],
    "social_links": {}
  },
  {
    "name": "Armor Tax Services",
    "address": "1010 N Brand Blvd #200, Glendale, CA 91202 (Note: This is in California, but may serve Armenian clients remotely)",
    "phone": "(818) 507-1111",
    "rating": 4.0,
    "reviews": 25,
    "website": "https://armortaxservices.com/",
    "category": "Armenian-speaking Tax preparation in New-York",
    "description": "Provides federal and state tax return preparation, tax planning, payroll, and bookkeeping services, with expertise in tax resolution",
    "hours": "Mon-Fri 9AM-6PM",
    "services": [
      "Armenian-speaking Tax preparation in New-York consultation",
      "Professional service",
      "Quality guarantee"
    ],
    "social_links": {}
  },
  {
    "name": "BayState Accounting & Taxes, Inc.",
    "address": "557 Mt. Auburn St, Watertown, MA 02472 (Note: This is in Massachusetts, but may serve Armenian clients remotely)",
    "phone": "(617) 923-9237",
    "rating": 4.0,
    "reviews": 25,
    "website": "https://bsatinc.com/",
    "category": "Armenian-speaking Tax preparation in New-York",
    "description": "Offers a full range of accounting and tax preparation services for individuals and businesses, including bookkeeping and tax return preparation for federal and state taxes",
    "hours": "Mon-Fri 9AM-6PM",
    "services": [
      "Armenian-speaking Tax preparation in New-York consultation",
      "Professional service",
      "Quality guarantee"
    ],
    "social_links": {}
  },
  {
    "name": "Town CPA (Nune Khachatrian, CPA)",
    "address": "330 Concord Ave, Belmont, MA 02478 (Note: This is in Massachusetts, but may serve Armenian clients remotely)",
    "phone": "(617) 484-1838",
    "rating": 4.0,
    "reviews": 25,
    "website": "https://www.towncpa.com/",
    "category": "Armenian-speaking Tax preparation in New-York",
    "description": "Provides tax, accounting, and bookkeeping services to individuals and businesses, with expertise in tax audits and problem resolution",
    "hours": "Mon-Fri 9AM-6PM",
    "services": [
      "Armenian-speaking Tax preparation in New-York consultation",
      "Professional service",
      "Quality guarantee"
    ],
    "social_links": {}
  },
  {
    "name": "NYC Free Tax Prep",
    "address": "Various locations across NYC",
    "phone": "311 (to book an appointment) or 646-596-1316 (hotline)",
    "rating": 4.0,
    "reviews": 25,
    "website": "https://www.nyc.gov/site/dca/consumers/free-tax-prep.page",
    "category": "Armenian-speaking Tax preparation in New-York",
    "description": "A program offering free tax preparation services to eligible New York City residents with incomes at or below certain thresholds. IRS-certified volunteers assist with tax filing",
    "hours": "Mon-Fri 9AM-6PM",
    "services": [
      "Armenian-speaking Tax preparation in New-York consultation",
      "Professional service",
      "Quality guarantee"
    ],
    "social_links": {}
  }
]