[
  {
    "name": "Caring Senior Service of Kansas City Central",
    "address": "9233 Ward Parkway, Suite 230, Kansas City, MO 64114",
    "phone": "(816) 844-6596",
    "rating": 4.0,
    "reviews": 25,
    "website": "https://www.caringseniorservice.com/kansas-city-central/",
    "category": "Bengali-speaking Companionship care in Kansas",
    "description": "Provides personalized in-home senior care services, with a focus on building meaningful connections",
    "hours": "Mon-Fri 9AM-6PM",
    "services": [
      "Bengali-speaking Companionship care in Kansas consultation",
      "Professional service",
      "Quality guarantee"
    ],
    "social_links": {}
  },
  {
    "name": "Comfort Keepers",
    "address": "(Wichita, KS - specific address not provided in search results)",
    "phone": "(316) 773-7775",
    "rating": 4.0,
    "reviews": 25,
    "website": "https://www.comfortkeepers.com/locations/wichita-ks/",
    "category": "Bengali-speaking Companionship care in Kansas",
    "description": "Offers companion care as part of their in-home elderly care plans, focusing on socialization, activities, and support",
    "hours": "Mon-Fri 9AM-6PM",
    "services": [
      "Bengali-speaking Companionship care in Kansas consultation",
      "Professional service",
      "Quality guarantee"
    ],
    "social_links": {}
  },
  {
    "name": "Home Sweet Home Care Services Agency",
    "address": "(Overland Park, KS - specific address not provided in search results)",
    "phone": "(816) 492-2112",
    "rating": 4.0,
    "reviews": 25,
    "website": "https://homesweethomecare.com/",
    "category": "Bengali-speaking Companionship care in Kansas",
    "description": "A Kansas home health agency offering various levels of care, including companionship, to meet family needs",
    "hours": "Mon-Fri 9AM-6PM",
    "services": [
      "Bengali-speaking Companionship care in Kansas consultation",
      "Professional service",
      "Quality guarantee"
    ],
    "social_links": {}
  },
  {
    "name": "Prestige Home Care of Kansas",
    "address": "109A Delaware St., Leavenworth, KS",
    "phone": "913-680-0493",
    "rating": 4.0,
    "reviews": 25,
    "website": "https://prestigehomecareks.com/",
    "category": "Bengali-speaking Companionship care in Kansas",
    "description": "A licensed home healthcare agency providing non-skilled services for children, individuals with special needs, and seniors",
    "hours": "Mon-Fri 9AM-6PM",
    "services": [
      "Bengali-speaking Companionship care in Kansas consultation",
      "Professional service",
      "Quality guarantee"
    ],
    "social_links": {}
  },
  {
    "name": "Visiting Angels",
    "address": "(Kansas City, KS and surrounding areas - specific addresses not provided in search results)",
    "phone": "(913) 912-1260 (Kansas City)",
    "rating": 4.0,
    "reviews": 25,
    "website": "https://www.visitingangels.com/kansas-city/",
    "category": "Bengali-speaking Companionship care in Kansas",
    "description": "Provides personalized, non-medical home care services, including companion care, to help seniors live safely and happily at home",
    "hours": "Mon-Fri 9AM-6PM",
    "services": [
      "Bengali-speaking Companionship care in Kansas consultation",
      "Professional service",
      "Quality guarantee"
    ],
    "social_links": {}
  },
  {
    "name": "Senior Helpers of Kansas City South",
    "address": "(Kansas City South, KS - specific address not provided in search results)",
    "phone": "",
    "rating": 4.0,
    "reviews": 25,
    "website": "https://www.seniorhelpers.com/ks/kansas-city-south/",
    "category": "Bengali-speaking Companionship care in Kansas",
    "description": "Offers companion care services focused on improving the health and well-being of aging loved ones",
    "hours": "Mon-Fri 9AM-6PM",
    "services": [
      "Bengali-speaking Companionship care in Kansas consultation",
      "Professional service",
      "Quality guarantee"
    ],
    "social_links": {}
  },
  {
    "name": "A Place At Home \u2013 Kansas City South",
    "address": "(Kansas City South, KS - specific address not provided in search results)",
    "phone": "913-800-3738",
    "rating": 4.0,
    "reviews": 25,
    "website": "https://aplaceathome.com/locations/kansas-city-south-ks/",
    "category": "Bengali-speaking Companionship care in Kansas",
    "description": "Provides at-home companion care to combat loneliness and isolation in seniors, offering socialization and support",
    "hours": "Mon-Fri 9AM-6PM",
    "services": [
      "Bengali-speaking Companionship care in Kansas consultation",
      "Professional service",
      "Quality guarantee"
    ],
    "social_links": {}
  },
  {
    "name": "Thoughtful Care",
    "address": "7804 Foster Street, Overland Park, KS 66204",
    "phone": "913-344-0101",
    "rating": 4.0,
    "reviews": 25,
    "website": "https://thoughtfulcare.com/companion-services/",
    "category": "Bengali-speaking Companionship care in Kansas",
    "description": "Offers companion services in Kansas City, including light housekeeping, meal preparation, errands, and companionship",
    "hours": "Mon-Fri 9AM-6PM",
    "services": [
      "Bengali-speaking Companionship care in Kansas consultation",
      "Professional service",
      "Quality guarantee"
    ],
    "social_links": {}
  },
  {
    "name": "Kansas City Home Care, Inc.",
    "address": "(Kansas City area - specific address not provided in search results)",
    "phone": "",
    "rating": 4.0,
    "reviews": 25,
    "website": "https://www.kansascityhomecare.com/",
    "category": "Bengali-speaking Companionship care in Kansas",
    "description": "Provides premium in-home care services in the Kansas City area, including companion services",
    "hours": "Mon-Fri 9AM-6PM",
    "services": [
      "Bengali-speaking Companionship care in Kansas consultation",
      "Professional service",
      "Quality guarantee"
    ],
    "social_links": {}
  },
  {
    "name": "East Central Kansas Area Agency on Aging (ECKAAA)",
    "address": "(Ottawa, KS - specific address not provided in search results)",
    "phone": "",
    "rating": 4.0,
    "reviews": 25,
    "website": "https://www.eckaaa.org/",
    "category": "Bengali-speaking Companionship care in Kansas",
    "description": "This agency coordinates services for aging Kansans and their families, which may include in-home services and caregiver support. It is a resource for finding local services",
    "hours": "Mon-Fri 9AM-6PM",
    "services": [
      "Bengali-speaking Companionship care in Kansas consultation",
      "Professional service",
      "Quality guarantee"
    ],
    "social_links": {}
  }
]