[
  {
    "name": "Skin Renew Day Spa & Laser Center",
    "address": "7550 US-31, Indianapolis, IN 46227",
    "phone": "(317) 600-5820",
    "rating": 4.0,
    "reviews": 25,
    "website": "https://www.skinrenewdayspa.com/",
    "category": "Arabic-speaking Body wraps in Indiana",
    "description": "Offers various body treatments including detox and purify wraps, and soothe and heal wraps",
    "hours": "Mon-Fri 9AM-6PM",
    "services": [
      "Arabic-speaking Body wraps in Indiana consultation",
      "Professional service",
      "Quality guarantee"
    ],
    "social_links": {}
  },
  {
    "name": "Transform Mind and Body Spa LLC",
    "address": "2002 N. Exeter Ave, Indianapolis, IN 46222",
    "phone": "(317) 602-5704",
    "rating": 4.0,
    "reviews": 25,
    "website": "https://www.transformmindbodyspa.com/",
    "category": "Arabic-speaking Body wraps in Indiana",
    "description": "Provides detox body wraps and other spa services",
    "hours": "Mon-Fri 9AM-6PM",
    "services": [
      "Arabic-speaking Body wraps in Indiana consultation",
      "Professional service",
      "Quality guarantee"
    ],
    "social_links": {}
  },
  {
    "name": "F\u00edka Spa",
    "address": "215 Lincolnway, Valparaiso, IN 46383",
    "phone": "(219) 242-1377",
    "rating": 4.0,
    "reviews": 25,
    "website": "https://fikaspa.com/",
    "category": "Arabic-speaking Body wraps in Indiana",
    "description": "Offers body wrapping treatments for hydration, detoxification, and relaxation",
    "hours": "Mon-Fri 9AM-6PM",
    "services": [
      "Arabic-speaking Body wraps in Indiana consultation",
      "Professional service",
      "Quality guarantee"
    ],
    "social_links": {}
  },
  {
    "name": "Spavia Fishers",
    "address": "9780 E. 116th St., Fishers, IN 46038",
    "phone": "(317) 284-7117",
    "rating": 4.0,
    "reviews": 25,
    "website": "https://www.spaviaday \u0627\u0646\u0627.com/fishers",
    "category": "Arabic-speaking Body wraps in Indiana",
    "description": "Offers various body treatments including anti-aging perfecting wraps and nourishing antioxidant wraps",
    "hours": "Mon-Fri 9AM-6PM",
    "services": [
      "Arabic-speaking Body wraps in Indiana consultation",
      "Professional service",
      "Quality guarantee"
    ],
    "social_links": {}
  },
  {
    "name": "Le Spa de Beaut\u00e9",
    "address": "7550 US-31, Indianapolis, IN 46227",
    "phone": "(317) 600-5820",
    "rating": 4.0,
    "reviews": 25,
    "website": "https://lespad Beaute.com/",
    "category": "Arabic-speaking Body wraps in Indiana",
    "description": "Provides body contouring treatments and other spa services",
    "hours": "Mon-Fri 9AM-6PM",
    "services": [
      "Arabic-speaking Body wraps in Indiana consultation",
      "Professional service",
      "Quality guarantee"
    ],
    "social_links": {}
  },
  {
    "name": "The Ark Medspa",
    "address": "400 E. Main St., New Albany, IN 47150",
    "phone": "(812) 590-1010",
    "rating": 4.0,
    "reviews": 25,
    "website": "https://www.thearkmedspa.com/",
    "category": "Arabic-speaking Body wraps in Indiana",
    "description": "A medical spa offering various aesthetic and wellness services",
    "hours": "Mon-Fri 9AM-6PM",
    "services": [
      "Arabic-speaking Body wraps in Indiana consultation",
      "Professional service",
      "Quality guarantee"
    ],
    "social_links": {}
  },
  {
    "name": "Cosmetico MedSpa (N. Hasan, MD)",
    "address": "8400 Calumet Ave, Highland, IN 46322",
    "phone": "(219) 922-1100",
    "rating": 4.0,
    "reviews": 25,
    "website": "https://www.cosmeticomedspa.com/",
    "category": "Arabic-speaking Body wraps in Indiana",
    "description": "Offers various cosmetic treatments and is noted to have a physician fluent in Arabic",
    "hours": "Mon-Fri 9AM-6PM",
    "services": [
      "Arabic-speaking Body wraps in Indiana consultation",
      "Professional service",
      "Quality guarantee"
    ],
    "social_links": {}
  },
  {
    "name": "Fundamentals Med Spa",
    "address": "8425 Keystone Crossing, Suite 100, Indianapolis, IN 46240",
    "phone": "(317) 222-7546",
    "rating": 4.0,
    "reviews": 25,
    "website": "https://fundamentalsmedspa.com/",
    "category": "Arabic-speaking Body wraps in Indiana",
    "description": "A medical spa offering various aesthetic and wellness treatments",
    "hours": "Mon-Fri 9AM-6PM",
    "services": [
      "Arabic-speaking Body wraps in Indiana consultation",
      "Professional service",
      "Quality guarantee"
    ],
    "social_links": {}
  },
  {
    "name": "Embolden MedSpa",
    "address": "8425 Keystone Crossing, Suite 100, Indianapolis, IN 46240",
    "phone": "(317) 600-3400",
    "rating": 4.0,
    "reviews": 25,
    "website": "https://emboldenmedspa.com/",
    "category": "Arabic-speaking Body wraps in Indiana",
    "description": "Offers aesthetic and wellness solutions",
    "hours": "Mon-Fri 9AM-6PM",
    "services": [
      "Arabic-speaking Body wraps in Indiana consultation",
      "Professional service",
      "Quality guarantee"
    ],
    "social_links": {}
  },
  {
    "name": "Crown Med Spa",
    "address": "1500 N. Main St., Crown Point, IN 46307",
    "phone": "(219) 796-0100",
    "rating": 4.0,
    "reviews": 25,
    "website": "https://crownmedspa.com/",
    "category": "Arabic-speaking Body wraps in Indiana",
    "description": "A medical spa offering a variety of aesthetic and wellness services",
    "hours": "Mon-Fri 9AM-6PM",
    "services": [
      "Arabic-speaking Body wraps in Indiana consultation",
      "Professional service",
      "Quality guarantee"
    ],
    "social_links": {}
  }
]