[
  {
    "name": "Bella Medspa",
    "address": "Multiple locations in Pennsylvania, including Philadelphia",
    "phone": "(215) 772-3000 (Philadelphia location)",
    "rating": 4.7,
    "reviews": 25,
    "website": "https://www.bellamedspa.com/",
    "category": "Central-American-owned Chemical peels in Pennsylvania",
    "description": "Bella Medspa is a well-regarded medical aesthetic company known for consistent results, experienced staff, and client satisfaction. They offer a range of services including chemical peels, Botox, and laser treatments",
    "hours": "Mon-Fri 9AM-6PM",
    "services": [
      "Central-American-owned Chemical peels in Pennsylvania consultation",
      "Professional service",
      "Quality guarantee"
    ],
    "social_links": {}
  },
  {
    "name": "Rejuvenation Medical Aesthetics",
    "address": "532 S Main St, Newtown, PA 18940",
    "phone": "(267) 759-8888",
    "rating": 4.0,
    "reviews": 25,
    "website": "https://www.rejuvenationmedicalaesthetics.com/",
    "category": "Central-American-owned Chemical peels in Pennsylvania",
    "description": "This medical spa offers non-surgical aesthetic treatments with master injectors and aestheticians. They provide a welcoming environment and services like chemical peels, Hydrafacials, and dermaplaning",
    "hours": "Mon-Fri 9AM-6PM",
    "services": [
      "Central-American-owned Chemical peels in Pennsylvania consultation",
      "Professional service",
      "Quality guarantee"
    ],
    "social_links": {}
  },
  {
    "name": "Acqua Blu Medical Spa",
    "address": "1700 E. Washington St., Suite 100, Washington, PA 15301",
    "phone": "(724) 220-2250",
    "rating": 4.0,
    "reviews": 25,
    "website": "https://www.acquablumedicalspa.com/",
    "category": "Central-American-owned Chemical peels in Pennsylvania",
    "description": "Acqua Blu Medical Spa is recognized for its superior patient care, professional staff, and clean, relaxing procedures. They offer custom advice and treatments like Botox and fillers",
    "hours": "Mon-Fri 9AM-6PM",
    "services": [
      "Central-American-owned Chemical peels in Pennsylvania consultation",
      "Professional service",
      "Quality guarantee"
    ],
    "social_links": {}
  },
  {
    "name": "SpaGo MedSpa",
    "address": "3015 W 12th St, Erie, PA 16505",
    "phone": "(814) 860-4995",
    "rating": 4.0,
    "reviews": 25,
    "website": "https://spagoerie.com/",
    "category": "Central-American-owned Chemical peels in Pennsylvania",
    "description": "Led by Dr. Kimberly Mascia, SpaGo MedSpa offers services such as Botox, Xeomin, and RF Microneedling. Clients praise the knowledgeable and personable staff, as well as the relaxing environment",
    "hours": "Mon-Fri 9AM-6PM",
    "services": [
      "Central-American-owned Chemical peels in Pennsylvania consultation",
      "Professional service",
      "Quality guarantee"
    ],
    "social_links": {}
  },
  {
    "name": "SkinLaB by Dr. LaBrasca",
    "address": "10055 Perry Hwy, Cranberry Township, PA 16066",
    "phone": "(724) 772-0011",
    "rating": 4.0,
    "reviews": 25,
    "website": "https://www.skinlabmd.com/",
    "category": "Central-American-owned Chemical peels in Pennsylvania",
    "description": "SkinLaB offers various chemical peel options to improve skin texture, pores, hyperpigmentation, and acne. They emphasize attention to detail and client satisfaction",
    "hours": "Mon-Fri 9AM-6PM",
    "services": [
      "Central-American-owned Chemical peels in Pennsylvania consultation",
      "Professional service",
      "Quality guarantee"
    ],
    "social_links": {}
  },
  {
    "name": "Best Impression Med Spa",
    "address": "1000 Dekalb Pike, Blue Bell, PA 19422",
    "phone": "(215) 643-3223",
    "rating": 4.0,
    "reviews": 25,
    "website": "https://www.bestimpressionmedspa.com/",
    "category": "Central-American-owned Chemical peels in Pennsylvania",
    "description": "This med spa offers chemical peels as a safe and effective solution for refreshing and revitalizing skin. They use medical-grade solutions to improve texture, reduce fine lines, and reveal a brighter complexion",
    "hours": "Mon-Fri 9AM-6PM",
    "services": [
      "Central-American-owned Chemical peels in Pennsylvania consultation",
      "Professional service",
      "Quality guarantee"
    ],
    "social_links": {}
  },
  {
    "name": "Cosmetic and Plastic Surgery of Central Pennsylvania, LLC",
    "address": "1000 Camp Hill Bypass, Suite 201, Camp Hill, PA 17011",
    "phone": "(717) 775-1911",
    "rating": 4.0,
    "reviews": 25,
    "website": "https://www.cosmeticandplasticsurgeryofcentralpa.com/",
    "category": "Central-American-owned Chemical peels in Pennsylvania",
    "description": "Dr. Theodore T. Foley offers chemical peel treatments to rejuvenate skin, reduce discoloration, smooth wrinkles, and improve acne. They offer various peel options",
    "hours": "Mon-Fri 9AM-6PM",
    "services": [
      "Central-American-owned Chemical peels in Pennsylvania consultation",
      "Professional service",
      "Quality guarantee"
    ],
    "social_links": {}
  },
  {
    "name": "Nirvana Wellness Med Spa",
    "address": "1001 Penn Ave, Pittsburgh, PA 15221",
    "phone": "(412) 242-7777",
    "rating": 4.0,
    "reviews": 25,
    "website": "https://nirvanawellnessmedspa.com/",
    "category": "Central-American-owned Chemical peels in Pennsylvania",
    "description": "Nirvana Wellness Med Spa specializes in MedSpa services and offers personalized treatments with a focus on health, wellness, and relaxation",
    "hours": "Mon-Fri 9AM-6PM",
    "services": [
      "Central-American-owned Chemical peels in Pennsylvania consultation",
      "Professional service",
      "Quality guarantee"
    ],
    "social_links": {}
  },
  {
    "name": "Avere Beauty",
    "address": "1000 South St, Pittsburgh, PA 15203",
    "phone": "(412) 431-3330",
    "rating": 4.0,
    "reviews": 25,
    "website": "https://averebeauty.com/",
    "category": "Central-American-owned Chemical peels in Pennsylvania",
    "description": "Avere Beauty is a prime MedSpa in Pittsburgh known for its luxurious experience, expert staff, and exceptional customer service, ensuring comfort during and after treatments",
    "hours": "Mon-Fri 9AM-6PM",
    "services": [
      "Central-American-owned Chemical peels in Pennsylvania consultation",
      "Professional service",
      "Quality guarantee"
    ],
    "social_links": {}
  },
  {
    "name": "Epiphany Dermatology",
    "address": "Multiple locations across Pennsylvania",
    "phone": "(877) 255-6900 (General inquiry number)",
    "rating": 4.0,
    "reviews": 25,
    "website": "https://www.epiphanydermatology.com/",
    "category": "Central-American-owned Chemical peels in Pennsylvania",
    "description": "Epiphany Dermatology offers a range of dermatologic care, including treatments for various skin conditions and aesthetic services. They also provide physician-approved skincare products",
    "hours": "Mon-Fri 9AM-6PM",
    "services": [
      "Central-American-owned Chemical peels in Pennsylvania consultation",
      "Professional service",
      "Quality guarantee"
    ],
    "social_links": {}
  }
]