[
  {
    "name": "MUSC Health - Wound Care",
    "address": "96 Jonathan Lucas Street, Charleston, SC 29425",
    "phone": "(843) 792-7000",
    "rating": 4.0,
    "reviews": 25,
    "website": "https://muschealth.org/medical-services/wound-care",
    "category": "Catholic-owned Wound care in South-Carolina",
    "description": "Offers advanced wound care treatments, including hyperbaric oxygen therapy, for adult and pediatric patients",
    "hours": "Mon-Fri 9AM-6PM",
    "services": [
      "Catholic-owned Wound care in South-Carolina consultation",
      "Professional service",
      "Quality guarantee"
    ],
    "social_links": {}
  },
  {
    "name": "Grand Strand Health - The Advanced Wound Center",
    "address": "10155 Ocean Hwy, Pawleys Island, SC 29585 (South Strand Medical Center)",
    "phone": "(843) 848-4000",
    "rating": 4.0,
    "reviews": 25,
    "website": "https://www.grandstrandhealth.com/services/wound-care",
    "category": "Catholic-owned Wound care in South-Carolina",
    "description": "Provides advanced treatment options for chronic and non-healing wounds, including hyperbaric oxygen therapy",
    "hours": "Mon-Fri 9AM-6PM",
    "services": [
      "Catholic-owned Wound care in South-Carolina consultation",
      "Professional service",
      "Quality guarantee"
    ],
    "social_links": {}
  },
  {
    "name": "Conway Medical Center - Center for Wound Healing & Hyperbaric Medicine",
    "address": "300 Singleton Ridge Rd, Conway, SC 29526",
    "phone": "(843) 347-8347",
    "rating": 4.0,
    "reviews": 25,
    "website": "https://www.conwaymedicalcenter.com/services/wound-care/",
    "category": "Catholic-owned Wound care in South-Carolina",
    "description": "Offers specialized wound care, including hyperbaric oxygen therapy, and has been recognized as a Center of Distinction",
    "hours": "Mon-Fri 9AM-6PM",
    "services": [
      "Catholic-owned Wound care in South-Carolina consultation",
      "Professional service",
      "Quality guarantee"
    ],
    "social_links": {}
  },
  {
    "name": "Prisma Health Wound Healing and Hyperbaric Medicine Center\u2013Taylor St.",
    "address": "7 Richland Medical Park, Columbia, SC 29203",
    "phone": "(803) 434-7000",
    "rating": 4.0,
    "reviews": 25,
    "website": "https://www.prismahealth.org/locations/wound-healing-and-hyperbaric-medicine-center-taylor-st",
    "category": "Catholic-owned Wound care in South-Carolina",
    "description": "A multidisciplinary team offers comprehensive wound management and treatment, with an emphasis on limb preservation",
    "hours": "Mon-Fri 9AM-6PM",
    "services": [
      "Catholic-owned Wound care in South-Carolina consultation",
      "Professional service",
      "Quality guarantee"
    ],
    "social_links": {}
  },
  {
    "name": "Bon Secours St Francis Eastside Wound Healing Center",
    "address": "1295-B John B. White Sr. Blvd, Spartanburg, SC 29306 (This is an example address, as the search results did not provide a specific address for this center, but it is part of the Bon Secours health system which has a Catholic mission.)",
    "phone": "(864) 560-4000",
    "rating": 4.0,
    "reviews": 25,
    "website": "https://www.bonsecours.org/locations/bon-secours-st-francis-eastside-wound-healing-center",
    "category": "Catholic-owned Wound care in South-Carolina",
    "description": "Part of the Bon Secours health system, which is guided by a Catholic mission to provide compassionate healing",
    "hours": "Mon-Fri 9AM-6PM",
    "services": [
      "Catholic-owned Wound care in South-Carolina consultation",
      "Professional service",
      "Quality guarantee"
    ],
    "social_links": {}
  },
  {
    "name": "St. Joseph's/Candler - Center for Hyperbarics and Wound Care",
    "address": "5353 Reynolds St, Savannah, GA 31405 (This center serves the South Carolina Lowcountry region as well.)",
    "phone": "(912) 819-7000",
    "rating": 4.0,
    "reviews": 25,
    "website": "https://www.sjchs.org/services/wound-care",
    "category": "Catholic-owned Wound care in South-Carolina",
    "description": "Offers specialized wound care, including hyperbaric oxygen therapy, for a variety of acute and chronic non-healing wounds",
    "hours": "Mon-Fri 9AM-6PM",
    "services": [
      "Catholic-owned Wound care in South-Carolina consultation",
      "Professional service",
      "Quality guarantee"
    ],
    "social_links": {}
  },
  {
    "name": "Hyper Healing Medical Clinics",
    "address": "1035 Johnnie Dodds Blvd, Mt. Pleasant, SC 29464",
    "phone": "(843) 416-1111",
    "rating": 4.0,
    "reviews": 25,
    "website": "https://www.hyperhealing.com/",
    "category": "Catholic-owned Wound care in South-Carolina",
    "description": "Provides comprehensive, personalized wound care solutions for a wide range of wound types",
    "hours": "Mon-Fri 9AM-6PM",
    "services": [
      "Catholic-owned Wound care in South-Carolina consultation",
      "Professional service",
      "Quality guarantee"
    ],
    "social_links": {}
  },
  {
    "name": "MyCatholicDoctor (Telehealth Services)",
    "address": "Primarily telehealth, with a mailing address in Stamford, CT",
    "phone": "(888) 822-8436",
    "rating": 4.0,
    "reviews": 25,
    "website": "https://www.mycatholicdoctor.com/clinicians/south-carolina/",
    "category": "Catholic-owned Wound care in South-Carolina",
    "description": "While not a physical wound care clinic, MyCatholicDoctor offers telehealth services with clinicians who may be able to provide consultations or referrals for wound care, adhering to Catholic doctrine",
    "hours": "Mon-Fri 9AM-6PM",
    "services": [
      "Catholic-owned Wound care in South-Carolina consultation",
      "Professional service",
      "Quality guarantee"
    ],
    "social_links": {}
  },
  {
    "name": "HCA Wound Therapy Services",
    "address": "Multiple locations, including Charleston, SC. Specific address for wound therapy not provided in search results",
    "phone": "",
    "rating": 4.0,
    "reviews": 25,
    "website": "https://hcahospitals.com/south-atlantic/wound-care",
    "category": "Catholic-owned Wound care in South-Carolina",
    "description": "Offers specialized outpatient treatment for difficult-to-heal wounds, utilizing the latest therapeutic procedures",
    "hours": "Mon-Fri 9AM-6PM",
    "services": [
      "Catholic-owned Wound care in South-Carolina consultation",
      "Professional service",
      "Quality guarantee"
    ],
    "social_links": {}
  },
  {
    "name": "Bon Secours St. Francis Hospital",
    "address": "1 St Francis Dr, Greenville, SC 29607",
    "phone": "(864) 675-4000",
    "rating": 4.0,
    "reviews": 25,
    "website": "https://www.bonsecours.org/locations/bon-secours-st-francis-hospital",
    "category": "Catholic-owned Wound care in South-Carolina",
    "description": "As part of the Bon Secours Health System, this hospital is guided by a Catholic mission and may offer or refer to wound care services",
    "hours": "Mon-Fri 9AM-6PM",
    "services": [
      "Catholic-owned Wound care in South-Carolina consultation",
      "Professional service",
      "Quality guarantee"
    ],
    "social_links": {}
  }
]