[
  {
    "name": "Almadina Market",
    "address": "1019 Method Rd, Raleigh, NC 27606",
    "phone": "(919) 755-6220",
    "rating": 4.0,
    "reviews": 25,
    "website": "https://almadinamarket.com/",
    "category": "Arabic-speaking Composition in North-Carolina",
    "description": "A comprehensive Middle Eastern and Mediterranean grocery store offering halal meats, a wide variety of spices, breads, and non-food items like religious clothing and perfumes. They also have an online ordering option",
    "hours": "Mon-Fri 9AM-6PM",
    "services": [
      "Arabic-speaking Composition in North-Carolina consultation",
      "Professional service",
      "Quality guarantee"
    ],
    "social_links": {}
  },
  {
    "name": "Dukkan Mediterranean Market",
    "address": "7810 Target Cir Ste 105 & 107, Raleigh, NC 27616",
    "phone": "(919) 703-0031",
    "rating": 4.0,
    "reviews": 25,
    "website": "https://dukkannc.com/",
    "category": "Arabic-speaking Composition in North-Carolina",
    "description": "This market offers halal meat and grocery products from the Middle East/Mediterranean region, Central Asia, South Asia, and Eastern Europe. They are open daily from 9 AM to 9 PM",
    "hours": "Mon-Fri 9AM-6PM",
    "services": [
      "Arabic-speaking Composition in North-Carolina consultation",
      "Professional service",
      "Quality guarantee"
    ],
    "social_links": {}
  },
  {
    "name": "Arabian Delights Market",
    "address": "Not explicitly listed in search results, but identified as being in Raleigh, NC",
    "phone": "",
    "rating": 4.0,
    "reviews": 25,
    "website": "https://www.google.com/maps/search/Arabian+Delights+Market+North+Carolina",
    "category": "Arabic-speaking Composition in North-Carolina",
    "description": "A Middle Eastern grocery store in Raleigh, NC, offering authentic groceries, fresh halal products, spices, and sweets",
    "hours": "Mon-Fri 9AM-6PM",
    "services": [
      "Arabic-speaking Composition in North-Carolina consultation",
      "Professional service",
      "Quality guarantee"
    ],
    "social_links": {}
  },
  {
    "name": "Al-Basha Mediterranean Grill and Hookah",
    "address": "3145 N Sharon Amity Rd, Charlotte, NC",
    "phone": "(980) 207-4077",
    "rating": 4.0,
    "reviews": 25,
    "website": "https://www.google.com/maps/search/Al-Basha+Mediterranean+Grill+and+Hookah+North+Carolina",
    "category": "Arabic-speaking Composition in North-Carolina",
    "description": "A Mediterranean grill and hookah lounge offering Arabic and oriental cuisine",
    "hours": "Mon-Fri 9AM-6PM",
    "services": [
      "Arabic-speaking Composition in North-Carolina consultation",
      "Professional service",
      "Quality guarantee"
    ],
    "social_links": {}
  },
  {
    "name": "Jasmine Grill",
    "address": "5033 South Blvd, Charlotte, NC",
    "phone": "(980) 207-1859",
    "rating": 4.0,
    "reviews": 25,
    "website": "https://www.google.com/maps/search/Jasmine+Grill+North+Carolina",
    "category": "Arabic-speaking Composition in North-Carolina",
    "description": "A Lebanese restaurant in Charlotte serving traditional oriental and Mediterranean dishes",
    "hours": "Mon-Fri 9AM-6PM",
    "services": [
      "Arabic-speaking Composition in North-Carolina consultation",
      "Professional service",
      "Quality guarantee"
    ],
    "social_links": {}
  },
  {
    "name": "La Shish Kebab Restaurant",
    "address": "3117 N Sharon Amity Rd, Charlotte, NC",
    "phone": "(704) 567-7900",
    "rating": 4.0,
    "reviews": 25,
    "website": "https://www.google.com/maps/search/La+Shish+Kebab+Restaurant+North+Carolina",
    "category": "Arabic-speaking Composition in North-Carolina",
    "description": "A well-known Mediterranean and oriental restaurant in Charlotte",
    "hours": "Mon-Fri 9AM-6PM",
    "services": [
      "Arabic-speaking Composition in North-Carolina consultation",
      "Professional service",
      "Quality guarantee"
    ],
    "social_links": {}
  },
  {
    "name": "King Kebab Restaurant",
    "address": "14027 Conlan Cir Suite A2, Charlotte, NC",
    "phone": "(704) 900-5190",
    "rating": 4.0,
    "reviews": 25,
    "website": "https://www.google.com/maps/search/King+Kebab+Restaurant+North+Carolina",
    "category": "Arabic-speaking Composition in North-Carolina",
    "description": "This restaurant serves a variety of oriental and Mediterranean dishes",
    "hours": "Mon-Fri 9AM-6PM",
    "services": [
      "Arabic-speaking Composition in North-Carolina consultation",
      "Professional service",
      "Quality guarantee"
    ],
    "social_links": {}
  },
  {
    "name": "Aladdin's Shawarma",
    "address": "Not explicitly listed in search results, but identified as being in Greensboro, NC",
    "phone": "(336) 500-8077",
    "rating": 4.0,
    "reviews": 25,
    "website": "https://aladdinsshawarma.com/",
    "category": "Arabic-speaking Composition in North-Carolina",
    "description": "An establishment offering authentic Arabic cuisine in Greensboro, NC, with over 70 varieties of traditional dishes including shawarma, kebabs, and falafel",
    "hours": "Mon-Fri 9AM-6PM",
    "services": [
      "Arabic-speaking Composition in North-Carolina consultation",
      "Professional service",
      "Quality guarantee"
    ],
    "social_links": {}
  },
  {
    "name": "Dijlah Market",
    "address": "3917 Western Blvd, Raleigh, NC 27606",
    "phone": "(919) 758-8003",
    "rating": 4.0,
    "reviews": 25,
    "website": "https://www.google.com/maps/search/Dijlah+Market+North+Carolina",
    "category": "Arabic-speaking Composition in North-Carolina",
    "description": "A market offering Mediterranean items, with a grill also available. They offer online ordering and a 10% discount on online orders",
    "hours": "Mon-Fri 9AM-6PM",
    "services": [
      "Arabic-speaking Composition in North-Carolina consultation",
      "Professional service",
      "Quality guarantee"
    ],
    "social_links": {}
  },
  {
    "name": "Habibi Lebanon Bar & Grill",
    "address": "Town of Davidson, North Carolina (specific street address not provided in search results)",
    "phone": "",
    "rating": 4.5,
    "reviews": 25,
    "website": "https://www.habibilebanon.com/",
    "category": "Arabic-speaking Composition in North-Carolina",
    "description": "An authentic Lebanese restaurant in Davidson, NC, offering a menu inspired by Lebanese cuisine with a modern twist, including kebabs and vegetarian platters. They also have a full bar and offer catering",
    "hours": "Mon-Fri 9AM-6PM",
    "services": [
      "Arabic-speaking Composition in North-Carolina consultation",
      "Professional service",
      "Quality guarantee"
    ],
    "social_links": {}
  }
]