[
  {
    "name": "Pikes Peak Irrigation",
    "address": "Colorado Springs, CO",
    "phone": "(719) 574-5500",
    "rating": 4.8,
    "reviews": 25,
    "website": "https://www.pikespeakirrigation.com/",
    "category": "Catholic-owned Irrigation repair in Colorado",
    "description": "Offers irrigation system installation, maintenance, and repair services in the Colorado Springs area",
    "hours": "Mon-Fri 9AM-6PM",
    "services": [
      "Catholic-owned Irrigation repair in Colorado consultation",
      "Professional service",
      "Quality guarantee"
    ],
    "social_links": {}
  },
  {
    "name": "Colorado Sprinkler Repair",
    "address": "Thornton, CO",
    "phone": "(720) 505-7007",
    "rating": 4.8,
    "reviews": 25,
    "website": "https://www.coloradosprinklerrepair.com/",
    "category": "Catholic-owned Irrigation repair in Colorado",
    "description": "A family-owned company providing sprinkler repair, installation, and lawn care services in Thornton and the North Denver Metro area",
    "hours": "Mon-Fri 9AM-6PM",
    "services": [
      "Catholic-owned Irrigation repair in Colorado consultation",
      "Professional service",
      "Quality guarantee"
    ],
    "social_links": {}
  },
  {
    "name": "Mesa Turf Masters",
    "address": "Grand Junction, CO",
    "phone": "(970) 434-5440",
    "rating": 4.7,
    "reviews": 25,
    "website": "https://www.mesaturfmasters.com/",
    "category": "Catholic-owned Irrigation repair in Colorado",
    "description": "Provides irrigation repair, winterization, and startup services for lawn and drip irrigation systems in Grand Junction, Fruita, and Palisade",
    "hours": "Mon-Fri 9AM-6PM",
    "services": [
      "Catholic-owned Irrigation repair in Colorado consultation",
      "Professional service",
      "Quality guarantee"
    ],
    "social_links": {}
  },
  {
    "name": "Water Solutions Sprinkler Service",
    "address": "Denver, CO",
    "phone": "(303) 777-0300",
    "rating": 4.7,
    "reviews": 25,
    "website": "https://www.watersolutionsdenver.com/",
    "category": "Catholic-owned Irrigation repair in Colorado",
    "description": "Offers sprinkler system installation and repair services in the Denver area, with a commitment to high-quality service",
    "hours": "Mon-Fri 9AM-6PM",
    "services": [
      "Catholic-owned Irrigation repair in Colorado consultation",
      "Professional service",
      "Quality guarantee"
    ],
    "social_links": {}
  },
  {
    "name": "Showcase Landscape & Irrigation",
    "address": "Loveland, CO",
    "phone": "(970) 663-4400",
    "rating": 4.8,
    "reviews": 25,
    "website": "https://www.showcaselandscape.com/",
    "category": "Catholic-owned Irrigation repair in Colorado",
    "description": "Provides landscaping and irrigation services, including sprinkler system repair, installation, and maintenance in Northern Colorado",
    "hours": "Mon-Fri 9AM-6PM",
    "services": [
      "Catholic-owned Irrigation repair in Colorado consultation",
      "Professional service",
      "Quality guarantee"
    ],
    "social_links": {}
  },
  {
    "name": "Always There Irrigation, LLC",
    "address": "Littleton, CO",
    "phone": "(303) 521-5511",
    "rating": 4.8,
    "reviews": 25,
    "website": "https://www.alwaysthereirrigation.com/",
    "category": "Catholic-owned Irrigation repair in Colorado",
    "description": "Offers residential and commercial irrigation repair services with over 14 years of experience",
    "hours": "Mon-Fri 9AM-6PM",
    "services": [
      "Catholic-owned Irrigation repair in Colorado consultation",
      "Professional service",
      "Quality guarantee"
    ],
    "social_links": {}
  },
  {
    "name": "Sprinklers Incorporated",
    "address": "Colorado Springs, CO",
    "phone": "(719) 481-1216",
    "rating": 4.8,
    "reviews": 25,
    "website": "https://www.sprinklersincorporated.com/",
    "category": "Catholic-owned Irrigation repair in Colorado",
    "description": "A local, family-owned company providing sprinkler and landscaping services, including repair and installation, in Colorado Springs and surrounding areas",
    "hours": "Mon-Fri 9AM-6PM",
    "services": [
      "Catholic-owned Irrigation repair in Colorado consultation",
      "Professional service",
      "Quality guarantee"
    ],
    "social_links": {}
  },
  {
    "name": "Peloquin Sprinklers & Landscaping",
    "address": "Colorado Springs, CO",
    "phone": "(719) 330-1451",
    "rating": 4.8,
    "reviews": 25,
    "website": "https://www.peloquinsprinklers.com/",
    "category": "Catholic-owned Irrigation repair in Colorado",
    "description": "A family-owned irrigation company serving Colorado Springs since 1985, specializing in sprinkler repair, installation, and landscaping",
    "hours": "Mon-Fri 9AM-6PM",
    "services": [
      "Catholic-owned Irrigation repair in Colorado consultation",
      "Professional service",
      "Quality guarantee"
    ],
    "social_links": {}
  },
  {
    "name": "Conserva Irrigation of Colorado Springs",
    "address": "Colorado Springs, CO",
    "phone": "(719) 419-8523",
    "rating": 4.7,
    "reviews": 25,
    "website": "https://www.conservairrigation.com/colorado-springs/",
    "category": "Catholic-owned Irrigation repair in Colorado",
    "description": "Offers efficient irrigation systems, sprinkler repair, and installation services in Colorado Springs, focusing on water conservation",
    "hours": "Mon-Fri 9AM-6PM",
    "services": [
      "Catholic-owned Irrigation repair in Colorado consultation",
      "Professional service",
      "Quality guarantee"
    ],
    "social_links": {}
  },
  {
    "name": "Massey Services",
    "address": "Multiple locations in Colorado (e.g., Denver, Colorado Springs)",
    "phone": "1-844-MASSEY (1-844-627-739)",
    "rating": 4.6,
    "reviews": 25,
    "website": "https://www.masseyservices.com/",
    "category": "Catholic-owned Irrigation repair in Colorado",
    "description": "Provides pest control, termite protection, and lawn care and irrigation services with a 100% customer satisfaction guarantee",
    "hours": "Mon-Fri 9AM-6PM",
    "services": [
      "Catholic-owned Irrigation repair in Colorado consultation",
      "Professional service",
      "Quality guarantee"
    ],
    "social_links": {}
  }
]