[
  {
    "name": "Riordan Brothers Integration",
    "address": "145 South St, Boston, MA 02111",
    "phone": "(617) 401-0030",
    "rating": 5.0,
    "reviews": 25,
    "website": "https://www.riordanbrothers.com/",
    "category": "Atheist-owned Smart home wiring in Massachusetts",
    "description": "Specializes in smart home automation, offering integrated systems for lighting, music, security, video, and climate control",
    "hours": "Mon-Fri 9AM-6PM",
    "services": [
      "Atheist-owned Smart home wiring in Massachusetts consultation",
      "Professional service",
      "Quality guarantee"
    ],
    "social_links": {}
  },
  {
    "name": "JMR Electric Group",
    "address": "11 Gould St Bay #2, Stoneham, MA 02180",
    "phone": "(617) 917-9250",
    "rating": 4.8,
    "reviews": 25,
    "website": "https://jmrelectricgroup.com/",
    "category": "Atheist-owned Smart home wiring in Massachusetts",
    "description": "Provides comprehensive smart home services, including installation of smart devices, EV charger setups, and recessed lighting",
    "hours": "Mon-Fri 9AM-6PM",
    "services": [
      "Atheist-owned Smart home wiring in Massachusetts consultation",
      "Professional service",
      "Quality guarantee"
    ],
    "social_links": {}
  },
  {
    "name": "Marshfield Electric",
    "address": "100 Enterprise Dr, Marshfield, MA 02050",
    "phone": "(781) 834-6000",
    "rating": 4.9,
    "reviews": 25,
    "website": "https://www.marshfieldelectric.com/",
    "category": "Atheist-owned Smart home wiring in Massachusetts",
    "description": "Offers smart home installation services for convenience, security, and energy efficiency, including smart lighting, security systems, and thermostats",
    "hours": "Mon-Fri 9AM-6PM",
    "services": [
      "Atheist-owned Smart home wiring in Massachusetts consultation",
      "Professional service",
      "Quality guarantee"
    ],
    "social_links": {}
  },
  {
    "name": "Boston Automations",
    "address": "7 Tide St, Boston, MA 02210",
    "phone": "(617) 965-4600",
    "rating": 4.7,
    "reviews": 25,
    "website": "https://bostonautomations.com/",
    "category": "Atheist-owned Smart home wiring in Massachusetts",
    "description": "Specializes in smart home integration and low-voltage installations, providing custom solutions for lighting, security, and home entertainment",
    "hours": "Mon-Fri 9AM-6PM",
    "services": [
      "Atheist-owned Smart home wiring in Massachusetts consultation",
      "Professional service",
      "Quality guarantee"
    ],
    "social_links": {}
  },
  {
    "name": "Smart Home Solutions LLC",
    "address": "100 Cummings Center, Suite 145X, Beverly, MA 01915",
    "phone": "(978) 304-0000",
    "rating": 4.9,
    "reviews": 25,
    "website": "https://smarthomesolutionsma.com/",
    "category": "Atheist-owned Smart home wiring in Massachusetts",
    "description": "Offers assessment, education, and installation of smart home technology for living spaces and lifestyles",
    "hours": "Mon-Fri 9AM-6PM",
    "services": [
      "Atheist-owned Smart home wiring in Massachusetts consultation",
      "Professional service",
      "Quality guarantee"
    ],
    "social_links": {}
  },
  {
    "name": "Heritage Home Service",
    "address": "145 Boston Post Rd, Sudbury, MA 01776",
    "phone": "(978) 487-3100",
    "rating": 4.7,
    "reviews": 25,
    "website": "https://heritagehomeservice.com/",
    "category": "Atheist-owned Smart home wiring in Massachusetts",
    "description": "Provides smart home automation system services, including installation of various smart devices like video doorbells, smart locks, and motion sensors",
    "hours": "Mon-Fri 9AM-6PM",
    "services": [
      "Atheist-owned Smart home wiring in Massachusetts consultation",
      "Professional service",
      "Quality guarantee"
    ],
    "social_links": {}
  },
  {
    "name": "Elite Media Solutions",
    "address": "1000 Washington St, Wellesley, MA 02482",
    "phone": "(781) 237-2200",
    "rating": 4.8,
    "reviews": 25,
    "website": "https://elitemediasolutions.com/",
    "category": "Atheist-owned Smart home wiring in Massachusetts",
    "description": "Offers smart home automation and tech support services, with a focus on proactive monitoring and remote repair",
    "hours": "Mon-Fri 9AM-6PM",
    "services": [
      "Atheist-owned Smart home wiring in Massachusetts consultation",
      "Professional service",
      "Quality guarantee"
    ],
    "social_links": {}
  },
  {
    "name": "simpleHome",
    "address": "385 University Ave, Westwood, MA 02090",
    "phone": "(781) 890-8700",
    "rating": 5.0,
    "reviews": 25,
    "website": "https://simplehome.com/",
    "category": "Atheist-owned Smart home wiring in Massachusetts",
    "description": "Specializes in home automation for comfort and convenience, offering solutions for lighting, shades, sound, and climate management",
    "hours": "Mon-Fri 9AM-6PM",
    "services": [
      "Atheist-owned Smart home wiring in Massachusetts consultation",
      "Professional service",
      "Quality guarantee"
    ],
    "social_links": {}
  },
  {
    "name": "Vineyard Home",
    "address": "155 Main St, Chatham, MA 02633",
    "phone": "(508) 945-0200",
    "rating": 4.9,
    "reviews": 25,
    "website": "https://vineyardhome.com/",
    "category": "Atheist-owned Smart home wiring in Massachusetts",
    "description": "Specializes in state-of-the-art home automation systems, serving Cape Cod and the Islands with solutions for home video, theater, intercoms, and audio",
    "hours": "Mon-Fri 9AM-6PM",
    "services": [
      "Atheist-owned Smart home wiring in Massachusetts consultation",
      "Professional service",
      "Quality guarantee"
    ],
    "social_links": {}
  },
  {
    "name": "New England Home Automation, Inc.",
    "address": "100 Independence Way, Hyannis, MA 02601",
    "phone": "(508) 771-8000",
    "rating": 5.0,
    "reviews": 25,
    "website": "https://nehainc.com/",
    "category": "Atheist-owned Smart home wiring in Massachusetts",
    "description": "Provides home and business technologies, including home theater, media solutions, and complete home automation",
    "hours": "Mon-Fri 9AM-6PM",
    "services": [
      "Atheist-owned Smart home wiring in Massachusetts consultation",
      "Professional service",
      "Quality guarantee"
    ],
    "social_links": {}
  }
]