[
  {
    "name": "Ben's Transportation Service",
    "address": "Kansas City Metro Area, Missouri, and Kansas (specific address not provided in search results)",
    "phone": "+1 (816) 507 2821",
    "rating": 4.0,
    "reviews": 25,
    "website": "https://www.google.com/maps/search/Ben's+Transportation+Service+in+Kansas",
    "category": "Black-owned Fleet services in Kansas",
    "description": "Provides private, airport, corporate, and point-to-point transfers. They operate in Missouri and Kansas and are US DOT licensed and insured",
    "hours": "Mon-Fri 9AM-6PM",
    "services": [
      "Black-owned Fleet services in Kansas consultation",
      "Professional service",
      "Quality guarantee"
    ],
    "social_links": {}
  },
  {
    "name": "Black Label Transportation",
    "address": "Serving Northeastern Kansas, Central Kansas, Western Missouri, and the Kansas City Metroplex and beyond (specific address not provided)",
    "phone": "785.383.1633",
    "rating": 4.0,
    "reviews": 25,
    "website": "https://www.google.com/maps/search/Black+Label+Transportation+in+Kansas",
    "category": "Black-owned Fleet services in Kansas",
    "description": "Offers executive and corporate transportation services with a focus on high-end service, professional chauffeurs, and well-maintained vehicles",
    "hours": "Mon-Fri 9AM-6PM",
    "services": [
      "Black-owned Fleet services in Kansas consultation",
      "Professional service",
      "Quality guarantee"
    ],
    "social_links": {}
  },
  {
    "name": "B&L Trucking (Boswell & Lee Trucking Co. Inc)",
    "address": "414 N. 80th St. Kansas City, KS 66112",
    "phone": "913-208-2839",
    "rating": 4.0,
    "reviews": 25,
    "website": "https://www.google.com/maps/search/B&L+Trucking+(Boswell+&+Lee+Trucking+Co.+Inc)+in+Kansas",
    "category": "Black-owned Fleet services in Kansas",
    "description": "A minority-owned transportation business",
    "hours": "Mon-Fri 9AM-6PM",
    "services": [
      "Black-owned Fleet services in Kansas consultation",
      "Professional service",
      "Quality guarantee"
    ],
    "social_links": {}
  },
  {
    "name": "Northern Star Transport",
    "address": "5029 Leavenworth Rd. Kansas City, KS 66104",
    "phone": "913-231-3456",
    "rating": 4.0,
    "reviews": 25,
    "website": "https://www.google.com/maps/search/Northern+Star+Transport+in+Kansas",
    "category": "Black-owned Fleet services in Kansas",
    "description": "A minority-owned transportation business",
    "hours": "Mon-Fri 9AM-6PM",
    "services": [
      "Black-owned Fleet services in Kansas consultation",
      "Professional service",
      "Quality guarantee"
    ],
    "social_links": {}
  },
  {
    "name": "Black & Blue Transport LLC",
    "address": "Gardner, KS (specific address not provided)",
    "phone": "",
    "rating": 4.0,
    "reviews": 25,
    "website": "https://www.google.com/maps/search/Black+&+Blue+Transport+LLC+in+Kansas",
    "category": "Black-owned Fleet services in Kansas",
    "description": "A trucking company that also hires drivers and owner-operators, suggesting fleet operations",
    "hours": "Mon-Fri 9AM-6PM",
    "services": [
      "Black-owned Fleet services in Kansas consultation",
      "Professional service",
      "Quality guarantee"
    ],
    "social_links": {}
  },
  {
    "name": "Champion FleetCare of Kansas",
    "address": "Kansas City Metro Area (on-site and in-shop services)",
    "phone": "",
    "rating": 4.0,
    "reviews": 25,
    "website": "https://www.google.com/maps/search/Champion+FleetCare+of+Kansas+in+Kansas",
    "category": "Black-owned Fleet services in Kansas",
    "description": "Provides on-site, mobile, and in-shop fleet maintenance and repair services for trucks, vans, cars, and trailers",
    "hours": "Mon-Fri 9AM-6PM",
    "services": [
      "Black-owned Fleet services in Kansas consultation",
      "Professional service",
      "Quality guarantee"
    ],
    "social_links": {}
  },
  {
    "name": "Fleeting",
    "address": "Not specified in search results",
    "phone": "",
    "rating": 4.0,
    "reviews": 25,
    "website": "https://www.google.com/maps/search/Fleeting+in+Kansas",
    "category": "Black-owned Fleet services in Kansas",
    "description": "A Black-owned trucking and fleet management services company focused on leveraging technology to connect truck owners, drivers, shippers, and brokers",
    "hours": "Mon-Fri 9AM-6PM",
    "services": [
      "Black-owned Fleet services in Kansas consultation",
      "Professional service",
      "Quality guarantee"
    ],
    "social_links": {}
  },
  {
    "name": "TMS Auto Repair",
    "address": "Kansas City, MO (specific address not provided)",
    "phone": "816-787-0537",
    "rating": 4.0,
    "reviews": 25,
    "website": "https://www.google.com/maps/search/TMS+Auto+Repair+in+Kansas",
    "category": "Black-owned Fleet services in Kansas",
    "description": "Offers fleet service, maintenance, and repair for various types of fleet vehicles",
    "hours": "Mon-Fri 9AM-6PM",
    "services": [
      "Black-owned Fleet services in Kansas consultation",
      "Professional service",
      "Quality guarantee"
    ],
    "social_links": {}
  },
  {
    "name": "Midway Ford Truck Center",
    "address": "7601 NE 38th Street, Kansas City, MO",
    "phone": "",
    "rating": 4.0,
    "reviews": 25,
    "website": "https://www.google.com/maps/search/Midway+Ford+Truck+Center+in+Kansas",
    "category": "Black-owned Fleet services in Kansas",
    "description": "A Ford dealership specializing in commercial and fleet vehicles, offering sales and service",
    "hours": "Mon-Fri 9AM-6PM",
    "services": [
      "Black-owned Fleet services in Kansas consultation",
      "Professional service",
      "Quality guarantee"
    ],
    "social_links": {}
  },
  {
    "name": "Fleet Advocate",
    "address": "Lenexa, KS",
    "phone": "855-295-8350",
    "rating": 4.0,
    "reviews": 25,
    "website": "https://www.google.com/maps/search/Fleet+Advocate+in+Kansas",
    "category": "Black-owned Fleet services in Kansas",
    "description": "Specializes in heavy-duty truck repair and fleet maintenance, offering 24/7 support",
    "hours": "Mon-Fri 9AM-6PM",
    "services": [
      "Black-owned Fleet services in Kansas consultation",
      "Professional service",
      "Quality guarantee"
    ],
    "social_links": {}
  }
]