[
  {
    "name": "McBrayer PLLC",
    "address": "Multiple locations including Lexington and Louisville, KY",
    "phone": "(800) 555-1212 (General Inquiries)",
    "rating": 4.0,
    "reviews": 25,
    "website": "https://www.mcbrayer.com/",
    "category": "Chinese-speaking Tax law in Kentucky",
    "description": "Offers comprehensive counsel in tax planning, structuring of transactions, and advocacy for businesses in tax collection, audits, or litigation. They have offices in Lexington and Louisville",
    "hours": "Mon-Fri 9AM-6PM",
    "services": [
      "Chinese-speaking Tax law in Kentucky consultation",
      "Professional service",
      "Quality guarantee"
    ],
    "social_links": {}
  },
  {
    "name": "Mockensturm, Ltd.",
    "address": "Louisville, KY",
    "phone": "419-792-1143",
    "rating": 4.0,
    "reviews": 25,
    "website": "https://www.google.com/maps/search/Mockensturm,+Ltd.+in+Kentucky",
    "category": "Chinese-speaking Tax law in Kentucky",
    "description": "Experienced tax attorneys offering personalized solutions and robust representation for tax-related stress, including tax debt and tax planning",
    "hours": "Mon-Fri 9AM-6PM",
    "services": [
      "Chinese-speaking Tax law in Kentucky consultation",
      "Professional service",
      "Quality guarantee"
    ],
    "social_links": {}
  },
  {
    "name": "Dodd & Dodd Attorneys, PLLC",
    "address": "Louisville, KY",
    "phone": "(502) 584-7200",
    "rating": 4.0,
    "reviews": 25,
    "website": "https://www.google.com/maps/search/Dodd+&+Dodd+Attorneys,+PLLC+in+Kentucky",
    "category": "Chinese-speaking Tax law in Kentucky",
    "description": "Offers skilled legal representation for individuals, families, and businesses, with a focus on complex family law cases involving tax issues",
    "hours": "Mon-Fri 9AM-6PM",
    "services": [
      "Chinese-speaking Tax law in Kentucky consultation",
      "Professional service",
      "Quality guarantee"
    ],
    "social_links": {}
  },
  {
    "name": "Bell, Orr, Ayers & Moore, p.s.c.",
    "address": "1010 College Street, Bowling Green, KY 42102",
    "phone": "(270) 781-8111",
    "rating": 4.0,
    "reviews": 25,
    "website": "https://www.google.com/maps/search/Bell,+Orr,+Ayers+&+Moore,+p.s.c.+in+Kentucky",
    "category": "Chinese-speaking Tax law in Kentucky",
    "description": "Attorneys experienced in counseling clients on various tax issues, including sales and use tax, corporate taxation, and tax consequences of business transactions",
    "hours": "Mon-Fri 9AM-6PM",
    "services": [
      "Chinese-speaking Tax law in Kentucky consultation",
      "Professional service",
      "Quality guarantee"
    ],
    "social_links": {}
  },
  {
    "name": "Sterling CPAs",
    "address": "841 Corporate Drive, Suite 300, Lexington, Kentucky 40503",
    "phone": "(859) 305-1099",
    "rating": 4.0,
    "reviews": 25,
    "website": "https://www.google.com/maps/search/Sterling+CPAs+in+Kentucky",
    "category": "Chinese-speaking Tax law in Kentucky",
    "description": "Provides tax, accounting, and payroll services with a focus on personalized service and practical solutions for businesses",
    "hours": "Mon-Fri 9AM-6PM",
    "services": [
      "Chinese-speaking Tax law in Kentucky consultation",
      "Professional service",
      "Quality guarantee"
    ],
    "social_links": {}
  },
  {
    "name": "Richard F. Jones CPA PLLC",
    "address": "513 Darby Creek Rd, Suite 60, Lexington, KY 40509",
    "phone": "",
    "rating": 4.0,
    "reviews": 25,
    "website": "https://www.google.com/maps/search/Richard+F.+Jones+CPA+PLLC+in+Kentucky",
    "category": "Chinese-speaking Tax law in Kentucky",
    "description": "Offers tax preparation and planning, accounting, bookkeeping, and business consulting services",
    "hours": "Mon-Fri 9AM-6PM",
    "services": [
      "Chinese-speaking Tax law in Kentucky consultation",
      "Professional service",
      "Quality guarantee"
    ],
    "social_links": {}
  },
  {
    "name": "Affordable Accounting & Tax Service LLC",
    "address": "176 Pasadena Drive Building 2, Lexington, KY 40503",
    "phone": "859-948-3917",
    "rating": 4.0,
    "reviews": 25,
    "website": "https://www.google.com/maps/search/Affordable+Accounting+&+Tax+Service+LLC+in+Kentucky",
    "category": "Chinese-speaking Tax law in Kentucky",
    "description": "Focuses on tax planning, compliance, and maximizing tax deductions for individuals and businesses",
    "hours": "Mon-Fri 9AM-6PM",
    "services": [
      "Chinese-speaking Tax law in Kentucky consultation",
      "Professional service",
      "Quality guarantee"
    ],
    "social_links": {}
  },
  {
    "name": "Protax",
    "address": "Florence, KY 41042",
    "phone": "",
    "rating": 4.0,
    "reviews": 25,
    "website": "https://www.google.com/maps/search/Protax+in+Kentucky",
    "category": "Chinese-speaking Tax law in Kentucky",
    "description": "A full-service tax and accounting firm offering tax preparation, accounting, and consulting services",
    "hours": "Mon-Fri 9AM-6PM",
    "services": [
      "Chinese-speaking Tax law in Kentucky consultation",
      "Professional service",
      "Quality guarantee"
    ],
    "social_links": {}
  },
  {
    "name": "Bosch Tax Services",
    "address": "6903 Burlington Pike, Suite B, Florence, KY 41042",
    "phone": "(859) 746-0215",
    "rating": 4.0,
    "reviews": 25,
    "website": "https://www.google.com/maps/search/Bosch+Tax+Services+in+Kentucky",
    "category": "Chinese-speaking Tax law in Kentucky",
    "description": "Provides tax preparation and planning services with over 25 years of experience",
    "hours": "Mon-Fri 9AM-6PM",
    "services": [
      "Chinese-speaking Tax law in Kentucky consultation",
      "Professional service",
      "Quality guarantee"
    ],
    "social_links": {}
  },
  {
    "name": "H&R Block",
    "address": "Multiple locations, including 2130 Lexington Rd, Richmond, KY 40475 and 203 Eastwood Shopping Ctr, Frankfort, KY 40601",
    "phone": "(859) 625-0495 (Richmond), (502) 695-7444 (Frankfort)",
    "rating": 4.0,
    "reviews": 25,
    "website": "https://www.hrblock.com/",
    "category": "Chinese-speaking Tax law in Kentucky",
    "description": "Offers tax preparation services for individuals and businesses. While they do not explicitly state Chinese language services, they are a large national chain that may have multilingual staff",
    "hours": "Mon-Fri 9AM-6PM",
    "services": [
      "Chinese-speaking Tax law in Kentucky consultation",
      "Professional service",
      "Quality guarantee"
    ],
    "social_links": {}
  }
]