[
  {
    "name": "Vermont Framemakers",
    "address": "33 Appletree Ln, Waterbury Center, VT 05677",
    "phone": "(802) 244-6339",
    "rating": 4.0,
    "reviews": 25,
    "website": "https://www.google.com/maps/search/Vermont+Framemakers+in+Vermont",
    "category": "Agnostic-owned Framing in Vermont",
    "description": "Offers custom framing services with a large selection of wood and metal mouldings, specializing in museum-quality conservation framing",
    "hours": "Mon-Fri 9AM-6PM",
    "services": [
      "Agnostic-owned Framing in Vermont consultation",
      "Professional service",
      "Quality guarantee"
    ],
    "social_links": {}
  },
  {
    "name": "Junction Frame Shop",
    "address": "White River Junction, VT",
    "phone": "802-296-2121",
    "rating": 4.0,
    "reviews": 25,
    "website": "https://www.google.com/maps/search/Junction+Frame+Shop+in+Vermont",
    "category": "Agnostic-owned Framing in Vermont",
    "description": "Provides custom picture framing services with a large selection of high-quality picture framing supplies",
    "hours": "Mon-Fri 9AM-6PM",
    "services": [
      "Agnostic-owned Framing in Vermont consultation",
      "Professional service",
      "Quality guarantee"
    ],
    "social_links": {}
  },
  {
    "name": "Jay's Art Shop",
    "address": "Information not available in search results",
    "phone": "802-447-2342",
    "rating": 4.0,
    "reviews": 25,
    "website": "https://www.google.com/maps/search/Jay's+Art+Shop+in+Vermont",
    "category": "Agnostic-owned Framing in Vermont",
    "description": "Offers an award-winning custom framing department with over 50 years of experience, as well as ready-made frames",
    "hours": "Mon-Fri 9AM-6PM",
    "services": [
      "Agnostic-owned Framing in Vermont consultation",
      "Professional service",
      "Quality guarantee"
    ],
    "social_links": {}
  },
  {
    "name": "Art Works Frame Shop & Gallery",
    "address": "150 Dorset St #230, South Burlington, VT 05403",
    "phone": "(802) 660-4999",
    "rating": 4.0,
    "reviews": 25,
    "website": "https://www.google.com/maps/search/Art+Works+Frame+Shop+&+Gallery+in+Vermont",
    "category": "Agnostic-owned Framing in Vermont",
    "description": "Provides top-tier custom picture framing and showcases local Vermont artists in its gallery",
    "hours": "Mon-Fri 9AM-6PM",
    "services": [
      "Agnostic-owned Framing in Vermont consultation",
      "Professional service",
      "Quality guarantee"
    ],
    "social_links": {}
  },
  {
    "name": "Dostie Brothers Frame Shop",
    "address": "308 Pine St, Burlington, VT",
    "phone": "",
    "rating": 4.0,
    "reviews": 25,
    "website": "https://www.google.com/maps/search/Dostie+Brothers+Frame+Shop+in+Vermont",
    "category": "Agnostic-owned Framing in Vermont",
    "description": "A custom picture framing shop also offering contemporary art, vintage frames, and mirrors",
    "hours": "Mon-Fri 9AM-6PM",
    "services": [
      "Agnostic-owned Framing in Vermont consultation",
      "Professional service",
      "Quality guarantee"
    ],
    "social_links": {}
  },
  {
    "name": "Atelier Frame & Design",
    "address": "145 Pine Haven Shores, Shelburne, VT",
    "phone": "",
    "rating": 4.0,
    "reviews": 25,
    "website": "https://www.google.com/maps/search/Atelier+Frame+&+Design+in+Vermont",
    "category": "Agnostic-owned Framing in Vermont",
    "description": "Vermont's premier custom picture framer offering a unique selection of quality frames and materials sourced globally",
    "hours": "Mon-Fri 9AM-6PM",
    "services": [
      "Agnostic-owned Framing in Vermont consultation",
      "Professional service",
      "Quality guarantee"
    ],
    "social_links": {}
  },
  {
    "name": "Middlebury Frame Shop",
    "address": "656 Exchange St, Middlebury, VT 05753",
    "phone": "(802) 388-6000",
    "rating": 4.0,
    "reviews": 25,
    "website": "https://www.google.com/maps/search/Middlebury+Frame+Shop+in+Vermont",
    "category": "Agnostic-owned Framing in Vermont",
    "description": "Offers custom and ready-made frames, and features artwork from local Vermont artists",
    "hours": "Mon-Fri 9AM-6PM",
    "services": [
      "Agnostic-owned Framing in Vermont consultation",
      "Professional service",
      "Quality guarantee"
    ],
    "social_links": {}
  },
  {
    "name": "The Framing Format",
    "address": "Lafayette Street, St. Johnsbury, VT",
    "phone": "802-748-3964",
    "rating": 4.0,
    "reviews": 25,
    "website": "https://www.google.com/maps/search/The+Framing+Format+in+Vermont",
    "category": "Agnostic-owned Framing in Vermont",
    "description": "Provides custom framing services with archival materials, stretching, dry-mounting, matting, and thousands of molding styles",
    "hours": "Mon-Fri 9AM-6PM",
    "services": [
      "Agnostic-owned Framing in Vermont consultation",
      "Professional service",
      "Quality guarantee"
    ],
    "social_links": {}
  },
  {
    "name": "Village Frame Shoppe & Gallery",
    "address": "50 North Main Street, St. Albans, VT 05478",
    "phone": "802-524-3699",
    "rating": 4.0,
    "reviews": 25,
    "website": "https://www.google.com/maps/search/Village+Frame+Shoppe+&+Gallery+in+Vermont",
    "category": "Agnostic-owned Framing in Vermont",
    "description": "Offers custom framing, digital print solutions, photo restoration, and military framing",
    "hours": "Mon-Fri 9AM-6PM",
    "services": [
      "Agnostic-owned Framing in Vermont consultation",
      "Professional service",
      "Quality guarantee"
    ],
    "social_links": {}
  },
  {
    "name": "Furchgott Sourdiffe Gallery",
    "address": "Shelburne, VT",
    "phone": "",
    "rating": 4.0,
    "reviews": 25,
    "website": "https://www.google.com/maps/search/Furchgott+Sourdiffe+Gallery+in+Vermont",
    "category": "Agnostic-owned Framing in Vermont",
    "description": "A fine art gallery offering custom framing, picture framing, and restoration services with museum-quality framing",
    "hours": "Mon-Fri 9AM-6PM",
    "services": [
      "Agnostic-owned Framing in Vermont consultation",
      "Professional service",
      "Quality guarantee"
    ],
    "social_links": {}
  }
]