[
  {
    "name": "MSPC",
    "address": "340 North Ave, 3rd Floor, Cranford, NJ 07016-2496",
    "phone": "908-272-7000",
    "rating": 4.0,
    "reviews": 25,
    "website": "https://www.mspc.cpa/",
    "category": "Asian-owned International tax consulting in New-Jersey",
    "description": "MSPC offers a wide range of international tax consulting services for both private and public companies, with a focus on global access and expertise",
    "hours": "Mon-Fri 9AM-6PM",
    "services": [
      "Asian-owned International tax consulting in New-Jersey consultation",
      "Professional service",
      "Quality guarantee"
    ],
    "social_links": {}
  },
  {
    "name": "Smolin Lupin & Co.",
    "address": "Multiple locations, including 50 Charles Lindbergh Blvd, Suite 101, Uniondale, NY 11553 (serves NJ)",
    "phone": "877-426-1040",
    "rating": 4.0,
    "reviews": 25,
    "website": "https://www.smolin.com/",
    "category": "Asian-owned International tax consulting in New-Jersey",
    "description": "Smolin provides expert guidance for cross-border tax matters, including planning, compliance, and reporting for international business activities",
    "hours": "Mon-Fri 9AM-6PM",
    "services": [
      "Asian-owned International tax consulting in New-Jersey consultation",
      "Professional service",
      "Quality guarantee"
    ],
    "social_links": {}
  },
  {
    "name": "Gamburg CPA",
    "address": "1255 Broad St, Suite 200, Clifton, NJ 07013",
    "phone": "973-272-7070",
    "rating": 4.0,
    "reviews": 25,
    "website": "https://gamburgcpa.com/",
    "category": "Asian-owned International tax consulting in New-Jersey",
    "description": "Gamburg CPA offers international tax services, including compliance, foreign entities operating in the USA, and international tax planning",
    "hours": "Mon-Fri 9AM-6PM",
    "services": [
      "Asian-owned International tax consulting in New-Jersey consultation",
      "Professional service",
      "Quality guarantee"
    ],
    "social_links": {}
  },
  {
    "name": "Dimov Tax & CPA Services",
    "address": "1255 Broad St, Suite 200, Clifton, NJ 07013",
    "phone": "201-500-2350",
    "rating": 4.0,
    "reviews": 25,
    "website": "https://dimovtax.com/",
    "category": "Asian-owned International tax consulting in New-Jersey",
    "description": "Dimov Tax & CPA Services provides expert guidance on international business structures, tax planning, and tax return preparation for cross-border activities",
    "hours": "Mon-Fri 9AM-6PM",
    "services": [
      "Asian-owned International tax consulting in New-Jersey consultation",
      "Professional service",
      "Quality guarantee"
    ],
    "social_links": {}
  },
  {
    "name": "ATA CPA Group, LLC",
    "address": "100 Campus Drive, Suite 102, Florham Park, NJ 07932",
    "phone": "973-701-0000",
    "rating": 4.0,
    "reviews": 25,
    "website": "https://ataccpagroup.com/",
    "category": "Asian-owned International tax consulting in New-Jersey",
    "description": "ATA CPA Group offers comprehensive taxation and finance navigation with a global perspective, serving as an independent member of the BDO Alliance USA",
    "hours": "Mon-Fri 9AM-6PM",
    "services": [
      "Asian-owned International tax consulting in New-Jersey consultation",
      "Professional service",
      "Quality guarantee"
    ],
    "social_links": {}
  },
  {
    "name": "Robert A. Bonavito, CPA \u2013 A Professional Corporation",
    "address": "1371 Hooper Ave, Toms River, NJ 08753",
    "phone": "732-349-5800",
    "rating": 4.0,
    "reviews": 25,
    "website": "https://www.bonavitocpa.com/",
    "category": "Asian-owned International tax consulting in New-Jersey",
    "description": "This firm provides high-quality tax services, including international tax, with a comprehensive understanding of federal, state, and local tax regulations",
    "hours": "Mon-Fri 9AM-6PM",
    "services": [
      "Asian-owned International tax consulting in New-Jersey consultation",
      "Professional service",
      "Quality guarantee"
    ],
    "social_links": {}
  },
  {
    "name": "Global Tax Consulting",
    "address": "100 Broadway, Suite 201, Bayonne, NJ 07002",
    "phone": "201-484-7455",
    "rating": 4.0,
    "reviews": 25,
    "website": "https://www.globaltaxconsultingnj.com/",
    "category": "Asian-owned International tax consulting in New-Jersey",
    "description": "Global Tax Consulting offers personal and professional services with a unique approach to tax advisory and preparation",
    "hours": "Mon-Fri 9AM-6PM",
    "services": [
      "Asian-owned International tax consulting in New-Jersey consultation",
      "Professional service",
      "Quality guarantee"
    ],
    "social_links": {}
  },
  {
    "name": "SHETH TAX INC",
    "address": "100 Town Square Place, Suite 300, Jersey City, NJ 07302",
    "phone": "201-420-1100",
    "rating": 4.0,
    "reviews": 25,
    "website": "https://shethtax.com/",
    "category": "Asian-owned International tax consulting in New-Jersey",
    "description": "SHETH TAX INC specializes in international tax services for businesses and individuals, including tax planning and compliance",
    "hours": "Mon-Fri 9AM-6PM",
    "services": [
      "Asian-owned International tax consulting in New-Jersey consultation",
      "Professional service",
      "Quality guarantee"
    ],
    "social_links": {}
  },
  {
    "name": "Magone & Company, P.C.",
    "address": "100 Passaic Ave, Suite 200, Passaic, NJ 07055",
    "phone": "973-301-2300",
    "rating": 4.0,
    "reviews": 25,
    "website": "https://magonecpa.com/",
    "category": "Asian-owned International tax consulting in New-Jersey",
    "description": "Magone & Company, P.C. provides international tax advisory services to foreign corporations and U.S. citizens working abroad, focusing on compliance and tax savings",
    "hours": "Mon-Fri 9AM-6PM",
    "services": [
      "Asian-owned International tax consulting in New-Jersey consultation",
      "Professional service",
      "Quality guarantee"
    ],
    "social_links": {}
  },
  {
    "name": "Verni Tax Law",
    "address": "1300 Route 70, Suite 10, Cherry Hill, NJ 08034",
    "phone": "856-320-1700",
    "rating": 4.0,
    "reviews": 25,
    "website": "https://www.vernitaxlaw.com/",
    "category": "Asian-owned International tax consulting in New-Jersey",
    "description": "Verni Tax Law offers specialized services as an international tax lawyer and CPA, focusing on FBAR and FATCA compliance, and resolving complex tax matters",
    "hours": "Mon-Fri 9AM-6PM",
    "services": [
      "Asian-owned International tax consulting in New-Jersey consultation",
      "Professional service",
      "Quality guarantee"
    ],
    "social_links": {}
  }
]