[
  {
    "name": "Eco Mama Green Clean",
    "address": "1220 E. Northern Ave, Phoenix, AZ 85020",
    "phone": "(480) 771-1074",
    "rating": 4.8,
    "reviews": 25,
    "website": "https://www.ecomamagreen.com/",
    "category": "Baby-Boomer-owned Move-in cleaning in Arizona",
    "description": "Eco Mama Green Clean offers eco-friendly move-in/move-out cleaning services in Phoenix and surrounding areas, using natural and safe products. They have a 100% satisfaction guarantee",
    "hours": "Mon-Fri 9AM-6PM",
    "services": [
      "Baby-Boomer-owned Move-in cleaning in Arizona consultation",
      "Professional service",
      "Quality guarantee"
    ],
    "social_links": {}
  },
  {
    "name": "Mopstar Cleaners",
    "address": "202 E. McKinley St, Phoenix, AZ 85004",
    "phone": "(602) 888-7977",
    "rating": 4.9,
    "reviews": 25,
    "website": "https://www.mopstarcleaners.com/",
    "category": "Baby-Boomer-owned Move-in cleaning in Arizona",
    "description": "Mopstar Cleaners provides top-rated house cleaning services in Phoenix, specializing in move-in/move-out cleaning. They are known for their attention to detail and customer satisfaction",
    "hours": "Mon-Fri 9AM-6PM",
    "services": [
      "Baby-Boomer-owned Move-in cleaning in Arizona consultation",
      "Professional service",
      "Quality guarantee"
    ],
    "social_links": {}
  },
  {
    "name": "Dirt Busters House Cleaning",
    "address": "6737 W. Peoria Ave, Peoria, AZ 85345",
    "phone": "(623) 977-6725",
    "rating": 4.8,
    "reviews": 25,
    "website": "https://www.dirtbustersaz.com/",
    "category": "Baby-Boomer-owned Move-in cleaning in Arizona",
    "description": "Dirt Busters has been providing award-winning cleaning services in the Phoenix metro area since 2001. They offer move-in/move-out cleaning with a satisfaction guarantee",
    "hours": "Mon-Fri 9AM-6PM",
    "services": [
      "Baby-Boomer-owned Move-in cleaning in Arizona consultation",
      "Professional service",
      "Quality guarantee"
    ],
    "social_links": {}
  },
  {
    "name": "The Perfectionist Cleaning Services",
    "address": "1644 E. Camelback Rd, Phoenix, AZ 85016",
    "phone": "(602) 493-1233",
    "rating": 4.7,
    "reviews": 25,
    "website": "https://www.theperfectionistcleaningservices.com/",
    "category": "Baby-Boomer-owned Move-in cleaning in Arizona",
    "description": "This family-owned business has been serving Phoenix and Scottsdale since 1995, offering move-in/move-out cleaning with a focus on customer service and spotless results",
    "hours": "Mon-Fri 9AM-6PM",
    "services": [
      "Baby-Boomer-owned Move-in cleaning in Arizona consultation",
      "Professional service",
      "Quality guarantee"
    ],
    "social_links": {}
  },
  {
    "name": "Modern Maids",
    "address": "4040 E. Thomas Rd, Phoenix, AZ 85018",
    "phone": "(602) 518-7222",
    "rating": 4.8,
    "reviews": 25,
    "website": "https://www.modernmaids.com/",
    "category": "Baby-Boomer-owned Move-in cleaning in Arizona",
    "description": "Modern Maids provides top-notch house cleaning and maid services in Phoenix and surrounding areas, including specialized move-in/move-out cleaning",
    "hours": "Mon-Fri 9AM-6PM",
    "services": [
      "Baby-Boomer-owned Move-in cleaning in Arizona consultation",
      "Professional service",
      "Quality guarantee"
    ],
    "social_links": {}
  },
  {
    "name": "Special Ops Clean Team",
    "address": "1616 E. Northern Ave, Phoenix, AZ 85020",
    "phone": "(602) 427-5777",
    "rating": 4.9,
    "reviews": 25,
    "website": "https://www.specialopscleanteam.com/",
    "category": "Baby-Boomer-owned Move-in cleaning in Arizona",
    "description": "Special Ops Clean Team offers thorough and experienced move-in/move-out cleaning services in Phoenix, ensuring a sparkling home from floor to ceiling. They are BBB-accredited",
    "hours": "Mon-Fri 9AM-6PM",
    "services": [
      "Baby-Boomer-owned Move-in cleaning in Arizona consultation",
      "Professional service",
      "Quality guarantee"
    ],
    "social_links": {}
  },
  {
    "name": "Arizona CleanPROS",
    "address": "1644 E. Camelback Rd, Phoenix, AZ 85016",
    "phone": "(602) 493-1233",
    "rating": 4.7,
    "reviews": 25,
    "website": "https://www.arizonacleanpros.com/",
    "category": "Baby-Boomer-owned Move-in cleaning in Arizona",
    "description": "Arizona CleanPROS offers a complete line of cleaning services, including move-in/move-out cleaning, using high-quality and environmentally friendly products. They have been serving clients since 2005",
    "hours": "Mon-Fri 9AM-6PM",
    "services": [
      "Baby-Boomer-owned Move-in cleaning in Arizona consultation",
      "Professional service",
      "Quality guarantee"
    ],
    "social_links": {}
  },
  {
    "name": "Carole's House Cleaning",
    "address": "10220 N. 32nd St, Phoenix, AZ 85028",
    "phone": "(602) 795-0022",
    "rating": 4.8,
    "reviews": 25,
    "website": "https://www.caroleshousecleaning.com/",
    "category": "Baby-Boomer-owned Move-in cleaning in Arizona",
    "description": "Carole's House Cleaning provides professional house cleaning services in Arizona, emphasizing a clean, safe, and welcoming home environment. They offer move-in/move-out cleaning services",
    "hours": "Mon-Fri 9AM-6PM",
    "services": [
      "Baby-Boomer-owned Move-in cleaning in Arizona consultation",
      "Professional service",
      "Quality guarantee"
    ],
    "social_links": {}
  },
  {
    "name": "Dust Be Gone",
    "address": "7171 E. Lincoln Dr, Scottsdale, AZ 85253",
    "phone": "(480) 420-0510",
    "rating": 4.9,
    "reviews": 25,
    "website": "https://www.dustbegoneaz.com/",
    "category": "Baby-Boomer-owned Move-in cleaning in Arizona",
    "description": "Dust Be Gone is a woman-owned, family-operated business serving the Phoenix Valley since 2001, offering move-in/move-out cleaning services with a focus on trust and reliability",
    "hours": "Mon-Fri 9AM-6PM",
    "services": [
      "Baby-Boomer-owned Move-in cleaning in Arizona consultation",
      "Professional service",
      "Quality guarantee"
    ],
    "social_links": {}
  },
  {
    "name": "The Cleaning Business, LLC",
    "address": "1010 E. Missouri Ave, Phoenix, AZ 85014",
    "phone": "(602) 373-1000",
    "rating": 4.9,
    "reviews": 25,
    "website": "https://www.thecleaningbusinessaz.com/",
    "category": "Baby-Boomer-owned Move-in cleaning in Arizona",
    "description": "The Cleaning Business, LLC, provides thorough and detailed cleaning services in Phoenix, including move-in cleaning, with a strong emphasis on customer satisfaction and attention to detail",
    "hours": "Mon-Fri 9AM-6PM",
    "services": [
      "Baby-Boomer-owned Move-in cleaning in Arizona consultation",
      "Professional service",
      "Quality guarantee"
    ],
    "social_links": {}
  }
]