[
  {
    "name": "Providence Zen Center",
    "address": "94 Dawes St, Cumberland, RI 02864",
    "phone": "(401) 725-0511",
    "rating": 4.8,
    "reviews": 25,
    "website": "http://www.providencezen.org/",
    "category": "Asian-owned Meditation instruction in Rhode-Island",
    "description": "Offers meditation and mindfulness practices rooted in Korean Soto Zen Buddhism. They provide daily meditation, retreats, and classes for all levels",
    "hours": "Mon-Fri 9AM-6PM",
    "services": [
      "Asian-owned Meditation instruction in Rhode-Island consultation",
      "Professional service",
      "Quality guarantee"
    ],
    "social_links": {}
  },
  {
    "name": "Atisha Kadampa Buddhist Center",
    "address": "339 Ives Street, Providence, RI 02906",
    "phone": "(401) 400-1657",
    "rating": 4.7,
    "reviews": 25,
    "website": "http://www.meditationinrhodeisland.org/",
    "category": "Asian-owned Meditation instruction in Rhode-Island",
    "description": "Provides meditation classes and teachings on modern Buddhism for all experience levels, aiming to foster inner peace and practical skills for a happier life",
    "hours": "Mon-Fri 9AM-6PM",
    "services": [
      "Asian-owned Meditation instruction in Rhode-Island consultation",
      "Professional service",
      "Quality guarantee"
    ],
    "social_links": {}
  },
  {
    "name": "Ananda Rhode Island Meditation and Yoga Center",
    "address": "714 Ten Rod Road, North Kingstown, Rhode Island 02852",
    "phone": "(401) 524-4766",
    "rating": 4.7,
    "reviews": 25,
    "website": "http://www.anandarhodeisland.org/",
    "category": "Asian-owned Meditation instruction in Rhode-Island",
    "description": "A spiritual center offering meditation, yoga, and teachings based on Paramhansa Yogananda, aiming to help individuals live a life of increasing joy",
    "hours": "Mon-Fri 9AM-6PM",
    "services": [
      "Asian-owned Meditation instruction in Rhode-Island consultation",
      "Professional service",
      "Quality guarantee"
    ],
    "social_links": {}
  },
  {
    "name": "Innerlight Center For Yoga & Meditation",
    "address": "850 Aquidneck Avenue, Middletown, RI 02842",
    "phone": "(401) 849-3200",
    "rating": 4.5,
    "reviews": 25,
    "website": "https://www.innerlightri.com/",
    "category": "Asian-owned Meditation instruction in Rhode-Island",
    "description": "Offers a variety of yoga and meditation classes, including Hatha yoga, Vinyasa, and guided meditation sessions, catering to different levels of practice",
    "hours": "Mon-Fri 9AM-6PM",
    "services": [
      "Asian-owned Meditation instruction in Rhode-Island consultation",
      "Professional service",
      "Quality guarantee"
    ],
    "social_links": {}
  },
  {
    "name": "Rhode Island Zen Dojo",
    "address": "Sage Healing Collaborative, 201 Waterman Street, Providence, RI 02906",
    "phone": "",
    "rating": 4.9,
    "reviews": 25,
    "website": "https://www.rhodeislandzendojo.org/",
    "category": "Asian-owned Meditation instruction in Rhode-Island",
    "description": "Focuses on Zen meditation (Zazen) to cultivate spiritual energy and mental clarity, offering a space for laypeople to study and practice Zen Buddhism",
    "hours": "Mon-Fri 9AM-6PM",
    "services": [
      "Asian-owned Meditation instruction in Rhode-Island consultation",
      "Professional service",
      "Quality guarantee"
    ],
    "social_links": {}
  },
  {
    "name": "Waypoint Sanctuary",
    "address": "144 Old North Rd, North Kingstown, RI 02852",
    "phone": "(401) 295-0000",
    "rating": 4.8,
    "reviews": 25,
    "website": "https://www.waypointsanctuary.com/",
    "category": "Asian-owned Meditation instruction in Rhode-Island",
    "description": "Offers Daoist meditation, Tai Chi, Qi Gong, and Wudang Kung Fu, alongside acupuncture and Chinese herbal medicine services, promoting holistic wellness",
    "hours": "Mon-Fri 9AM-6PM",
    "services": [
      "Asian-owned Meditation instruction in Rhode-Island consultation",
      "Professional service",
      "Quality guarantee"
    ],
    "social_links": {}
  },
  {
    "name": "All That Matters yoga + wellness",
    "address": "3158 Post Rd, Warwick, RI 02886",
    "phone": "(401) 921-5400",
    "rating": 4.6,
    "reviews": 25,
    "website": "https://www.allthatmatters.com/",
    "category": "Asian-owned Meditation instruction in Rhode-Island",
    "description": "Provides a range of yoga classes, meditation offerings, and wellness services, including sound healing and Reiki, with a focus on community and holistic well-being",
    "hours": "Mon-Fri 9AM-6PM",
    "services": [
      "Asian-owned Meditation instruction in Rhode-Island consultation",
      "Professional service",
      "Quality guarantee"
    ],
    "social_links": {}
  },
  {
    "name": "hOMetown yoga RI",
    "address": "1440 Mineral Spring Ave, North Providence, RI 02904",
    "phone": "",
    "rating": 4.9,
    "reviews": 25,
    "website": "https://www.hometownyoga.com/",
    "category": "Asian-owned Meditation instruction in Rhode-Island",
    "description": "A community-focused yoga studio offering various yoga classes, including restorative and slow flow, with an emphasis on creating a welcoming and supportive environment",
    "hours": "Mon-Fri 9AM-6PM",
    "services": [
      "Asian-owned Meditation instruction in Rhode-Island consultation",
      "Professional service",
      "Quality guarantee"
    ],
    "social_links": {}
  },
  {
    "name": "Gravity Yoga Center",
    "address": "1775 Plainfield St, Johnston, RI 02919",
    "phone": "(401) 475-1111",
    "rating": 4.9,
    "reviews": 25,
    "website": "https://www.gravityyogacenter.com/",
    "category": "Asian-owned Meditation instruction in Rhode-Island",
    "description": "Offers yoga, Pilates, and Barre classes, with a focus on providing a positive and welcoming experience for practitioners of all levels",
    "hours": "Mon-Fri 9AM-6PM",
    "services": [
      "Asian-owned Meditation instruction in Rhode-Island consultation",
      "Professional service",
      "Quality guarantee"
    ],
    "social_links": {}
  },
  {
    "name": "The Yoga Studio (Lakshyan)",
    "address": "1270 Reservoir Ave, Cranston, RI 02920",
    "phone": "(401) 941-0001",
    "rating": 4.9,
    "reviews": 25,
    "website": "https://www.theyogastudiori.com/",
    "category": "Asian-owned Meditation instruction in Rhode-Island",
    "description": "Provides yoga and meditation training with an emphasis on proper posture and personalized attention, suitable for all levels of practice",
    "hours": "Mon-Fri 9AM-6PM",
    "services": [
      "Asian-owned Meditation instruction in Rhode-Island consultation",
      "Professional service",
      "Quality guarantee"
    ],
    "social_links": {}
  }
]