[
  {
    "name": "Law Office of Lisa S. Tse",
    "address": "40 Lake Bellevue Dr #100, Bellevue, WA 98005",
    "phone": "(425) 559-0636",
    "rating": 4.0,
    "reviews": 25,
    "website": "https://lisatselaw.com/",
    "category": "Asian-owned Bankruptcy law in Washington",
    "description": "Offers legal guidance in Chapter 7, Chapter 11, and Chapter 13 bankruptcy, debt settlement, loan modification, and receivership",
    "hours": "Mon-Fri 9AM-6PM",
    "services": [
      "Asian-owned Bankruptcy law in Washington consultation",
      "Professional service",
      "Quality guarantee"
    ],
    "social_links": {}
  },
  {
    "name": "Law Office of Zeshan Q. Khan, PLLC",
    "address": "Seattle, WA (Specific address not provided in search results)",
    "phone": "(206) 317-4241",
    "rating": 4.0,
    "reviews": 25,
    "website": "https://www.zkhanlaw.com/",
    "category": "Asian-owned Bankruptcy law in Washington",
    "description": "Provides experienced and compassionate legal counsel in family law, bankruptcy, and litigation matters",
    "hours": "Mon-Fri 9AM-6PM",
    "services": [
      "Asian-owned Bankruptcy law in Washington consultation",
      "Professional service",
      "Quality guarantee"
    ],
    "social_links": {}
  },
  {
    "name": "Arrow Law Group PLLC",
    "address": "Bellevue (Main Office): 12020 SE 60th Street, Bellevue, WA 98006; Seattle, Washington Office (address not specified)",
    "phone": "425.531.7946 or 1 (800) 854-6967",
    "rating": 4.0,
    "reviews": 25,
    "website": "https://arrowlawgroup.com/",
    "category": "Asian-owned Bankruptcy law in Washington",
    "description": "Focuses on consumer bankruptcy (Chapters 7 and 13), real estate transactions, landlord/tenant law, and personal injury litigation. Mr. Tran also speaks Vietnamese",
    "hours": "Mon-Fri 9AM-6PM",
    "services": [
      "Asian-owned Bankruptcy law in Washington consultation",
      "Professional service",
      "Quality guarantee"
    ],
    "social_links": {}
  },
  {
    "name": "Washington Law Group, PLLC",
    "address": "Multiple locations including Seattle, WA 98103; Bellevue, WA 98006; Tacoma, WA 98402; Everett, WA 98201; Olympia, WA 98502",
    "phone": "(855) 923-3283",
    "rating": 4.0,
    "reviews": 25,
    "website": "https://www.washingtonlawgroup.com/",
    "category": "Asian-owned Bankruptcy law in Washington",
    "description": "Handles Chapter 7 and Chapter 13 bankruptcy cases, offering low flat fees and affordable payment plans throughout the Greater Puget Sound region",
    "hours": "Mon-Fri 9AM-6PM",
    "services": [
      "Asian-owned Bankruptcy law in Washington consultation",
      "Professional service",
      "Quality guarantee"
    ],
    "social_links": {}
  },
  {
    "name": "Hallaq Law",
    "address": "Offices in Kent, WA, Bellevue, WA, Renton, WA, and the surrounding areas. Specific addresses not provided in search results",
    "phone": "206.423.9592 (Kent, SeaTac, Arlington) and 206.751.6643 (Bellevue)",
    "rating": 4.0,
    "reviews": 25,
    "website": "https://www.hallaw.com/",
    "category": "Asian-owned Bankruptcy law in Washington",
    "description": "Focuses on bankruptcy and estate planning, assisting clients with Chapter 7 or Chapter 13 bankruptcy, foreclosure defense, and debt relief",
    "hours": "Mon-Fri 9AM-6PM",
    "services": [
      "Asian-owned Bankruptcy law in Washington consultation",
      "Professional service",
      "Quality guarantee"
    ],
    "social_links": {}
  },
  {
    "name": "Symmes Law Group",
    "address": "Seattle, WA (Specific address not provided in search results)",
    "phone": "(206) 682-7975",
    "rating": 4.0,
    "reviews": 25,
    "website": "https://www.symmeslaw.com/",
    "category": "Asian-owned Bankruptcy law in Washington",
    "description": "Experienced in assisting with debt settlement, Chapter 7 bankruptcy, and Chapter 13 bankruptcy, with a high Chapter 7 discharge rate",
    "hours": "Mon-Fri 9AM-6PM",
    "services": [
      "Asian-owned Bankruptcy law in Washington consultation",
      "Professional service",
      "Quality guarantee"
    ],
    "social_links": {}
  },
  {
    "name": "Wenokur Riordan PLLC",
    "address": "Seattle, WA (Specific address not provided in search results)",
    "phone": "",
    "rating": 4.0,
    "reviews": 25,
    "website": "https://www.wenokurriordan.com/",
    "category": "Asian-owned Bankruptcy law in Washington",
    "description": "Provides practical solutions for financially distressed individuals and businesses, offering debt settlement, Chapter 7, Chapter 11, and Chapter 13 bankruptcy services",
    "hours": "Mon-Fri 9AM-6PM",
    "services": [
      "Asian-owned Bankruptcy law in Washington consultation",
      "Professional service",
      "Quality guarantee"
    ],
    "social_links": {}
  },
  {
    "name": "Advantage Legal Group",
    "address": "Multiple locations including Bellevue, Redmond, Kirkland, Seattle, Tacoma, Everett, King County, Pierce County, and Snohomish County. Specific addresses not provided in search results",
    "phone": "425 452-9797",
    "rating": 4.0,
    "reviews": 25,
    "website": "https://www.advantagelegalgroup.com/",
    "category": "Asian-owned Bankruptcy law in Washington",
    "description": "Specializes in debt relief, debt elimination, mortgage mediation, foreclosure defense, and bankruptcy services in Western Washington",
    "hours": "Mon-Fri 9AM-6PM",
    "services": [
      "Asian-owned Bankruptcy law in Washington consultation",
      "Professional service",
      "Quality guarantee"
    ],
    "social_links": {}
  },
  {
    "name": "Pacific Cascade Legal",
    "address": "Tacoma, WA (Specific address not provided in search results)",
    "phone": "(253) 300-4521",
    "rating": 4.0,
    "reviews": 25,
    "website": "https://www.pacificcascadelaw.com/",
    "category": "Asian-owned Bankruptcy law in Washington",
    "description": "Guides individuals through the bankruptcy process, offering assistance with debt relief, Chapter 7 and Chapter 13 bankruptcy, and foreclosure defense",
    "hours": "Mon-Fri 9AM-6PM",
    "services": [
      "Asian-owned Bankruptcy law in Washington consultation",
      "Professional service",
      "Quality guarantee"
    ],
    "social_links": {}
  },
  {
    "name": "Southwell & O'Rourke P.S.",
    "address": "Spokane, WA (Specific address not provided in search results)",
    "phone": "509-624-0159",
    "rating": 4.0,
    "reviews": 25,
    "website": "https://www.spokanecounty.org/1177/Southwell-ORourke-PS",
    "category": "Asian-owned Bankruptcy law in Washington",
    "description": "Provides bankruptcy and debt-relief legal services, assisting with Chapter 7, Chapter 11, Chapter 12, and Chapter 13 bankruptcies, and foreclosure prevention",
    "hours": "Mon-Fri 9AM-6PM",
    "services": [
      "Asian-owned Bankruptcy law in Washington consultation",
      "Professional service",
      "Quality guarantee"
    ],
    "social_links": {}
  }
]