[
  {
    "name": "Exceedion, LLC",
    "address": "Noblesville, IN",
    "phone": "(317) 776-1700",
    "rating": 5.0,
    "reviews": 25,
    "website": "https://www.exceedion.com/",
    "category": "Baby-Boomer-owned Design system creation in Indiana",
    "description": "A web design agency specializing in web design, web development, search engine optimization, and digital strategy",
    "hours": "Mon-Fri 9AM-6PM",
    "services": [
      "Baby-Boomer-owned Design system creation in Indiana consultation",
      "Professional service",
      "Quality guarantee"
    ],
    "social_links": {}
  },
  {
    "name": "Ayokay",
    "address": "Indianapolis, IN",
    "phone": "(317) 550-4211",
    "rating": 5.0,
    "reviews": 25,
    "website": "https://ayokay.com/",
    "category": "Baby-Boomer-owned Design system creation in Indiana",
    "description": "A full-service creative agency offering copywriting, event marketing, web development, and graphic design services",
    "hours": "Mon-Fri 9AM-6PM",
    "services": [
      "Baby-Boomer-owned Design system creation in Indiana consultation",
      "Professional service",
      "Quality guarantee"
    ],
    "social_links": {}
  },
  {
    "name": "Kurieta LLC",
    "address": "Indianapolis, IN",
    "phone": "(317) 342-5789",
    "rating": 5.0,
    "reviews": 25,
    "website": "https://kurieta.com/",
    "category": "Baby-Boomer-owned Design system creation in Indiana",
    "description": "A web design agency providing web design, web development, branding, and marketing strategy",
    "hours": "Mon-Fri 9AM-6PM",
    "services": [
      "Baby-Boomer-owned Design system creation in Indiana consultation",
      "Professional service",
      "Quality guarantee"
    ],
    "social_links": {}
  },
  {
    "name": "SmallBox",
    "address": "Indianapolis, IN",
    "phone": "(317) 920-7200",
    "rating": 4.0,
    "reviews": 25,
    "website": "https://smallbox.com/",
    "category": "Baby-Boomer-owned Design system creation in Indiana",
    "description": "A creative agency specializing in branding, web design, and more, primarily serving the non-profit and education industries",
    "hours": "Mon-Fri 9AM-6PM",
    "services": [
      "Baby-Boomer-owned Design system creation in Indiana consultation",
      "Professional service",
      "Quality guarantee"
    ],
    "social_links": {}
  },
  {
    "name": "Sharp Guys Web Design",
    "address": "Indianapolis, IN",
    "phone": "(317) 589-0000",
    "rating": 5.0,
    "reviews": 25,
    "website": "https://www.sharpguyswebdesign.com/",
    "category": "Baby-Boomer-owned Design system creation in Indiana",
    "description": "A family-owned, Hoosier-based web design and digital marketing agency founded in 2011, known for creating high-performing websites",
    "hours": "Mon-Fri 9AM-6PM",
    "services": [
      "Baby-Boomer-owned Design system creation in Indiana consultation",
      "Professional service",
      "Quality guarantee"
    ],
    "social_links": {}
  },
  {
    "name": "NEXTFLY\u00ae",
    "address": "Indianapolis, IN",
    "phone": "(317) 219-3111",
    "rating": 4.0,
    "reviews": 25,
    "website": "https://www.nextfly.com/",
    "category": "Baby-Boomer-owned Design system creation in Indiana",
    "description": "A full-service website design, web development, digital marketing, and SEO company",
    "hours": "Mon-Fri 9AM-6PM",
    "services": [
      "Baby-Boomer-owned Design system creation in Indiana consultation",
      "Professional service",
      "Quality guarantee"
    ],
    "social_links": {}
  },
  {
    "name": "Boldthink\u00ae",
    "address": "Indianapolis, IN",
    "phone": "(317) 850-6500",
    "rating": 4.0,
    "reviews": 25,
    "website": "https://boldthink.com/",
    "category": "Baby-Boomer-owned Design system creation in Indiana",
    "description": "A global branding agency specializing in brand development, marketing, and website design",
    "hours": "Mon-Fri 9AM-6PM",
    "services": [
      "Baby-Boomer-owned Design system creation in Indiana consultation",
      "Professional service",
      "Quality guarantee"
    ],
    "social_links": {}
  },
  {
    "name": "TBH Creative",
    "address": "Indianapolis, IN",
    "phone": "(317) 822-0300",
    "rating": 4.0,
    "reviews": 25,
    "website": "https://tbhcreative.com/",
    "category": "Baby-Boomer-owned Design system creation in Indiana",
    "description": "A web design and digital marketing agency focused on strategic, creative, and reliable solutions for brand growth",
    "hours": "Mon-Fri 9AM-6PM",
    "services": [
      "Baby-Boomer-owned Design system creation in Indiana consultation",
      "Professional service",
      "Quality guarantee"
    ],
    "social_links": {}
  },
  {
    "name": "Crafted",
    "address": "320 Massachusetts Ave, Indianapolis, IN 46204",
    "phone": "(317) 653-1931",
    "rating": 4.0,
    "reviews": 25,
    "website": "https://crafted.io/",
    "category": "Baby-Boomer-owned Design system creation in Indiana",
    "description": "A digital products studio that partners with organizations to design, build, and scale products, including those with new design systems",
    "hours": "Mon-Fri 9AM-6PM",
    "services": [
      "Baby-Boomer-owned Design system creation in Indiana consultation",
      "Professional service",
      "Quality guarantee"
    ],
    "social_links": {}
  },
  {
    "name": "EitBiz (Extrovert Information Technology)",
    "address": "Fort Wayne, IN",
    "phone": "(260) 420-0000",
    "rating": 4.0,
    "reviews": 25,
    "website": "https://eitbiz.com/",
    "category": "Baby-Boomer-owned Design system creation in Indiana",
    "description": "A custom software development company offering full-cycle development services, including web applications and e-commerce solutions",
    "hours": "Mon-Fri 9AM-6PM",
    "services": [
      "Baby-Boomer-owned Design system creation in Indiana consultation",
      "Professional service",
      "Quality guarantee"
    ],
    "social_links": {}
  }
]