[
  {
    "name": "Catholic Charities Indianapolis",
    "address": "Indianapolis, IN",
    "phone": "",
    "rating": 4.0,
    "reviews": 25,
    "website": "https://www.archindy.org/parish/catholic-charities/",
    "category": "Catholic-owned Seeding in Indiana",
    "description": "Provides help and creates hope through various programs and community initiatives rooted in Catholic values",
    "hours": "Mon-Fri 9AM-6PM",
    "services": [
      "Catholic-owned Seeding in Indiana consultation",
      "Professional service",
      "Quality guarantee"
    ],
    "social_links": {}
  },
  {
    "name": "Catholic Charities Terre Haute",
    "address": "Terre Haute, IN",
    "phone": "",
    "rating": 4.0,
    "reviews": 25,
    "website": "https://www.catholiccharitiest Terrehaute.org/",
    "category": "Catholic-owned Seeding in Indiana",
    "description": "Offers emergency shelter, food pantry services, youth programs, and other resources for those in need",
    "hours": "Mon-Fri 9AM-6PM",
    "services": [
      "Catholic-owned Seeding in Indiana consultation",
      "Professional service",
      "Quality guarantee"
    ],
    "social_links": {}
  },
  {
    "name": "Full of Grace Gift Shop",
    "address": "124 N Main Street, Mishawaka, IN 46544",
    "phone": "",
    "rating": 4.0,
    "reviews": 25,
    "website": "https://fullofgra.com/",
    "category": "Catholic-owned Seeding in Indiana",
    "description": "Michiana's Catholic gift shop and bookstore, offering sacramental gifts, jewelry, home decor, books, and apparel",
    "hours": "Mon-Fri 9AM-6PM",
    "services": [
      "Catholic-owned Seeding in Indiana consultation",
      "Professional service",
      "Quality guarantee"
    ],
    "social_links": {}
  },
  {
    "name": "Holy Rosary Catholic Church",
    "address": "520 Stevens St, Indianapolis, IN 46203",
    "phone": "(317) 635-5551",
    "rating": 4.0,
    "reviews": 25,
    "website": "https://www.holyrosaryindy.org/",
    "category": "Catholic-owned Seeding in Indiana",
    "description": "Founded in 1909 to serve the Italian immigrant community, it continues its mission to bring the Good News of Jesus Christ to all",
    "hours": "Mon-Fri 9AM-6PM",
    "services": [
      "Catholic-owned Seeding in Indiana consultation",
      "Professional service",
      "Quality guarantee"
    ],
    "social_links": {}
  },
  {
    "name": "St. Joan of Arc Parish",
    "address": "5001 N Central Ave, Indianapolis, IN 46205",
    "phone": "(317) 253-5256",
    "rating": 4.0,
    "reviews": 25,
    "website": "https://www.stjoan.org/",
    "category": "Catholic-owned Seeding in Indiana",
    "description": "A Catholic church and school in Indianapolis, founded in 1921, welcoming all people to know God and grow in faith",
    "hours": "Mon-Fri 9AM-6PM",
    "services": [
      "Catholic-owned Seeding in Indiana consultation",
      "Professional service",
      "Quality guarantee"
    ],
    "social_links": {}
  },
  {
    "name": "Cathedral High School",
    "address": "5225 E 56th St, Indianapolis, IN 46226",
    "phone": "(317) 542-1400",
    "rating": 4.36,
    "reviews": 25,
    "website": "https://www.gocathedral.com/",
    "category": "Catholic-owned Seeding in Indiana",
    "description": "A Catholic high school in Indianapolis offering a college preparatory education rooted in Catholic values",
    "hours": "Mon-Fri 9AM-6PM",
    "services": [
      "Catholic-owned Seeding in Indiana consultation",
      "Professional service",
      "Quality guarantee"
    ],
    "social_links": {}
  },
  {
    "name": "O'Riley \u2013 Branson Funeral Service & Crematory",
    "address": "6107 S East St, Indianapolis, IN 46227",
    "phone": "(317) 787-8224",
    "rating": 4.0,
    "reviews": 25,
    "website": "https://www.orileybranson.com/",
    "category": "Catholic-owned Seeding in Indiana",
    "description": "Serves the Catholic community with compassionate care and faithful adherence to Church traditions for funerals",
    "hours": "Mon-Fri 9AM-6PM",
    "services": [
      "Catholic-owned Seeding in Indiana consultation",
      "Professional service",
      "Quality guarantee"
    ],
    "social_links": {}
  },
  {
    "name": "St. Michael the Archangel Catholic Church",
    "address": "3354 W 30th St, Indianapolis, IN 46222",
    "phone": "(317) 926-7359",
    "rating": 4.0,
    "reviews": 25,
    "website": "https://www.saintmichaelindy.org/",
    "category": "Catholic-owned Seeding in Indiana",
    "description": "A Catholic church in Indianapolis offering Mass, confession, and various parish activities",
    "hours": "Mon-Fri 9AM-6PM",
    "services": [
      "Catholic-owned Seeding in Indiana consultation",
      "Professional service",
      "Quality guarantee"
    ],
    "social_links": {}
  },
  {
    "name": "Our Lady of Mount Carmel Catholic School",
    "address": "3400 Reed Rd, Carmel, IN 46033",
    "phone": "(317) 846-1194",
    "rating": 4.0,
    "reviews": 25,
    "website": "https://www.olmc.cc/",
    "category": "Catholic-owned Seeding in Indiana",
    "description": "A Kindergarten through 8th-grade elementary and middle school fostering academic achievements within a Christian community",
    "hours": "Mon-Fri 9AM-6PM",
    "services": [
      "Catholic-owned Seeding in Indiana consultation",
      "Professional service",
      "Quality guarantee"
    ],
    "social_links": {}
  },
  {
    "name": "Lumen Christi Catholic School",
    "address": "10450 Vandalia Rd, Indianapolis, IN 46234",
    "phone": "(317) 858-3200",
    "rating": 4.0,
    "reviews": 25,
    "website": "https://lumenchristischool.org/",
    "category": "Catholic-owned Seeding in Indiana",
    "description": "An independent Catholic PreK-12 school in Indianapolis offering a classical education that integrates faith and virtue",
    "hours": "Mon-Fri 9AM-6PM",
    "services": [
      "Catholic-owned Seeding in Indiana consultation",
      "Professional service",
      "Quality guarantee"
    ],
    "social_links": {}
  }
]