[
  {
    "name": "Montana Imaging Center",
    "address": "1510 S. Reserve St, Missoula, MT 59801",
    "phone": "(406) 540-4117",
    "rating": 4.0,
    "reviews": 25,
    "website": "https://www.montanaimaging.com/",
    "category": "Arabic-speaking Ultrasound services in Montana",
    "description": "Offers state-of-the-art diagnostic imaging services, including MRI, CT scans, and ultrasounds",
    "hours": "Mon-Fri 9AM-6PM",
    "services": [
      "Arabic-speaking Ultrasound services in Montana consultation",
      "Professional service",
      "Quality guarantee"
    ],
    "social_links": {}
  },
  {
    "name": "Advanced Imaging of Montana",
    "address": "Multiple locations including Missoula and Stevensville",
    "phone": "(406) 540-4117 (Missoula)",
    "rating": 4.0,
    "reviews": 25,
    "website": "https://www.advancedimagingmt.com/",
    "category": "Arabic-speaking Ultrasound services in Montana",
    "description": "Provides high-quality radiology services with advanced technology for various imaging needs",
    "hours": "Mon-Fri 9AM-6PM",
    "services": [
      "Arabic-speaking Ultrasound services in Montana consultation",
      "Professional service",
      "Quality guarantee"
    ],
    "social_links": {}
  },
  {
    "name": "Sound Diagnostics",
    "address": "Multiple locations including Bozeman and Belgrade",
    "phone": "(406) 587-8631 (Bozeman)",
    "rating": 4.0,
    "reviews": 25,
    "website": "https://www.sounddiagnostics.com/",
    "category": "Arabic-speaking Ultrasound services in Montana",
    "description": "Offers high-quality ultrasound and diagnostic imaging services in the Gallatin Valley",
    "hours": "Mon-Fri 9AM-6PM",
    "services": [
      "Arabic-speaking Ultrasound services in Montana consultation",
      "Professional service",
      "Quality guarantee"
    ],
    "social_links": {}
  },
  {
    "name": "Intercity Radiology",
    "address": "Multiple locations including Bozeman",
    "phone": "(406) 587-8631",
    "rating": 4.0,
    "reviews": 25,
    "website": "https://www.intercityradiology.com/",
    "category": "Arabic-speaking Ultrasound services in Montana",
    "description": "Provides advanced diagnostic and interventional imaging services with expert radiologists",
    "hours": "Mon-Fri 9AM-6PM",
    "services": [
      "Arabic-speaking Ultrasound services in Montana consultation",
      "Professional service",
      "Quality guarantee"
    ],
    "social_links": {}
  },
  {
    "name": "Diagnostic Imaging at St. Peter's Health",
    "address": "1 Medical Park Drive, Helena, MT 59601",
    "phone": "(406) 442-6356",
    "rating": 4.0,
    "reviews": 25,
    "website": "https://www.sphealth.org/services/diagnostic-imaging",
    "category": "Arabic-speaking Ultrasound services in Montana",
    "description": "Offers a full range of imaging services, including ultrasound, with advanced technology for the Helena community",
    "hours": "Mon-Fri 9AM-6PM",
    "services": [
      "Arabic-speaking Ultrasound services in Montana consultation",
      "Professional service",
      "Quality guarantee"
    ],
    "social_links": {}
  },
  {
    "name": "Community Medical Center - Diagnostic Imaging",
    "address": "2827 Fort Missoula Rd, Missoula, MT 59801",
    "phone": "(406) 327-4334",
    "rating": 4.0,
    "reviews": 25,
    "website": "https://www.communitymedcenter.org/services/diagnostic-imaging",
    "category": "Arabic-speaking Ultrasound services in Montana",
    "description": "Provides image-based patient care, including ultrasound, with accredited facilities",
    "hours": "Mon-Fri 9AM-6PM",
    "services": [
      "Arabic-speaking Ultrasound services in Montana consultation",
      "Professional service",
      "Quality guarantee"
    ],
    "social_links": {}
  },
  {
    "name": "Picture Perfect Ultrasound",
    "address": "2409 Arnold LN, Suite 9, Billings, MT 59102",
    "phone": "(855) 249-9729",
    "rating": 4.0,
    "reviews": 25,
    "website": "https://www.pictureperfectultrasound.com/",
    "category": "Arabic-speaking Ultrasound services in Montana",
    "description": "An independent ultrasound imaging center specializing in diagnostic and elective ultrasounds",
    "hours": "Mon-Fri 9AM-6PM",
    "services": [
      "Arabic-speaking Ultrasound services in Montana consultation",
      "Professional service",
      "Quality guarantee"
    ],
    "social_links": {}
  },
  {
    "name": "Big Sky Imaging",
    "address": "Multiple locations across Montana, including Missoula, Kalispell, Helena, Bozeman, Great Falls, and Billings",
    "phone": "(855) 249-9729",
    "rating": 4.0,
    "reviews": 25,
    "website": "https://www.bigskyimaging.com/",
    "category": "Arabic-speaking Ultrasound services in Montana",
    "description": "Offers fast, mobile diagnostic services including X-rays and ultrasounds across Montana",
    "hours": "Mon-Fri 9AM-6PM",
    "services": [
      "Arabic-speaking Ultrasound services in Montana consultation",
      "Professional service",
      "Quality guarantee"
    ],
    "social_links": {}
  },
  {
    "name": "Sound Health Imaging",
    "address": "Multiple locations including Helena and Butte",
    "phone": "(406) 442-6356 (Helena)",
    "rating": 4.0,
    "reviews": 25,
    "website": "https://www.sphealth.org/services/diagnostic-imaging/sound-health-imaging",
    "category": "Arabic-speaking Ultrasound services in Montana",
    "description": "A leader in diagnostic medical ultrasonography, offering high-quality ultrasound services",
    "hours": "Mon-Fri 9AM-6PM",
    "services": [
      "Arabic-speaking Ultrasound services in Montana consultation",
      "Professional service",
      "Quality guarantee"
    ],
    "social_links": {}
  },
  {
    "name": "CSKT Tribal Health",
    "address": "Multiple locations including Polson, Pablo, Ronan, St. Ignatius, and Arlee",
    "phone": "(406) 745-3525 (St. Ignatius)",
    "rating": 4.0,
    "reviews": 25,
    "website": "https://www.cskthealth.org/medical-services/",
    "category": "Arabic-speaking Ultrasound services in Montana",
    "description": "Provides a range of medical services, which may include basic imaging, across various health centers",
    "hours": "Mon-Fri 9AM-6PM",
    "services": [
      "Arabic-speaking Ultrasound services in Montana consultation",
      "Professional service",
      "Quality guarantee"
    ],
    "social_links": {}
  }
]