[
  {
    "name": "Mr. Gutter",
    "address": "Multiple locations, serving Rhode Island and Southeastern Massachusetts",
    "phone": "(401) 441-4070",
    "rating": 4.8,
    "reviews": 25,
    "website": "https://mrgutterri.com/",
    "category": "Arabic-speaking Minor gutter repairs in Rhode-Island",
    "description": "Rhode Island's oldest gutter company with over 35 years of experience, offering installation, cleaning, and repair services",
    "hours": "Mon-Fri 9AM-6PM",
    "services": [
      "Arabic-speaking Minor gutter repairs in Rhode-Island consultation",
      "Professional service",
      "Quality guarantee"
    ],
    "social_links": {}
  },
  {
    "name": "Rosales Gutters LLC",
    "address": "Serving all of Rhode Island",
    "phone": "(401) 441-4070",
    "rating": 4.9,
    "reviews": 25,
    "website": "https://rosalesgutters.com/",
    "category": "Arabic-speaking Minor gutter repairs in Rhode-Island",
    "description": "A trusted, locally owned gutter company providing expert service, installation, and repair with a focus on customer satisfaction",
    "hours": "Mon-Fri 9AM-6PM",
    "services": [
      "Arabic-speaking Minor gutter repairs in Rhode-Island consultation",
      "Professional service",
      "Quality guarantee"
    ],
    "social_links": {}
  },
  {
    "name": "Gutter Masters of New England",
    "address": "Serving Rhode Island",
    "phone": "(401) 441-4070",
    "rating": 4.7,
    "reviews": 25,
    "website": "https://www.guttermastersne.com/",
    "category": "Arabic-speaking Minor gutter repairs in Rhode-Island",
    "description": "Offers custom gutter installation, repair, and cleaning services for residential and commercial properties",
    "hours": "Mon-Fri 9AM-6PM",
    "services": [
      "Arabic-speaking Minor gutter repairs in Rhode-Island consultation",
      "Professional service",
      "Quality guarantee"
    ],
    "social_links": {}
  },
  {
    "name": "Rhode Island Gutter Service",
    "address": "Serving all of Rhode Island",
    "phone": "(401) 441-4070",
    "rating": 4.6,
    "reviews": 25,
    "website": "https://www.rigutterservice.com/",
    "category": "Arabic-speaking Minor gutter repairs in Rhode-Island",
    "description": "Provides professional gutter repair, installation, and maintenance services to protect homes and businesses from water damage",
    "hours": "Mon-Fri 9AM-6PM",
    "services": [
      "Arabic-speaking Minor gutter repairs in Rhode-Island consultation",
      "Professional service",
      "Quality guarantee"
    ],
    "social_links": {}
  },
  {
    "name": "Ned Stevens Gutter Cleaning",
    "address": "Serving Rhode Island",
    "phone": "(401) 561-8011",
    "rating": 4.7,
    "reviews": 25,
    "website": "https://www.nedstevens.com/locations/rhode-island/",
    "category": "Arabic-speaking Minor gutter repairs in Rhode-Island",
    "description": "Offers comprehensive gutter solutions including cleaning, repair, and installation with a focus on expertise and customer satisfaction",
    "hours": "Mon-Fri 9AM-6PM",
    "services": [
      "Arabic-speaking Minor gutter repairs in Rhode-Island consultation",
      "Professional service",
      "Quality guarantee"
    ],
    "social_links": {}
  },
  {
    "name": "Providence Roofing Company",
    "address": "Providence, RI",
    "phone": "(401) 441-4070",
    "rating": 4.7,
    "reviews": 25,
    "website": "https://www.providenceroofingcompany.com/gutter-services/",
    "category": "Arabic-speaking Minor gutter repairs in Rhode-Island",
    "description": "Provides a full range of gutter services, including cleaning, repair, and installation, using top-quality materials",
    "hours": "Mon-Fri 9AM-6PM",
    "services": [
      "Arabic-speaking Minor gutter repairs in Rhode-Island consultation",
      "Professional service",
      "Quality guarantee"
    ],
    "social_links": {}
  },
  {
    "name": "Dimensions Roofing & Gutters",
    "address": "Providence, RI 02905",
    "phone": "(401) 395-6105",
    "rating": 4.8,
    "reviews": 25,
    "website": "https://dimensionsroofingandgutters.com/",
    "category": "Arabic-speaking Minor gutter repairs in Rhode-Island",
    "description": "A reliable gutter company offering an array of services from assessment to precise repairs, focusing on efficient and effective solutions",
    "hours": "Mon-Fri 9AM-6PM",
    "services": [
      "Arabic-speaking Minor gutter repairs in Rhode-Island consultation",
      "Professional service",
      "Quality guarantee"
    ],
    "social_links": {}
  },
  {
    "name": "Eddy's Gutter Cleaning LLC",
    "address": "Pawtucket, Rhode Island and surrounding areas",
    "phone": "(401) 448-1549",
    "rating": 4.7,
    "reviews": 25,
    "website": "https://eddysguttercleaning.com/",
    "category": "Arabic-speaking Minor gutter repairs in Rhode-Island",
    "description": "Offers gutter cleaning, repair, and installation, as well as landscaping and painting services",
    "hours": "Mon-Fri 9AM-6PM",
    "services": [
      "Arabic-speaking Minor gutter repairs in Rhode-Island consultation",
      "Professional service",
      "Quality guarantee"
    ],
    "social_links": {}
  },
  {
    "name": "Newport Gutter Service",
    "address": "Newport, Rhode Island",
    "phone": "(401) 338-6104",
    "rating": 4.7,
    "reviews": 25,
    "website": "https://www.newportgutterservice.com/",
    "category": "Arabic-speaking Minor gutter repairs in Rhode-Island",
    "description": "Provides gutter and downspout cleaning and repair services with nearly 30 years of experience",
    "hours": "Mon-Fri 9AM-6PM",
    "services": [
      "Arabic-speaking Minor gutter repairs in Rhode-Island consultation",
      "Professional service",
      "Quality guarantee"
    ],
    "social_links": {}
  },
  {
    "name": "AmeriGutter",
    "address": "Bristol, RI",
    "phone": "(401) 946-5115",
    "rating": 4.9,
    "reviews": 25,
    "website": "https://www.amerigutter.com/",
    "category": "Arabic-speaking Minor gutter repairs in Rhode-Island",
    "description": "Locally owned and operated, offering seamless gutter installation, gutter guards, and repairs with a focus on exceptional customer service and integrity",
    "hours": "Mon-Fri 9AM-6PM",
    "services": [
      "Arabic-speaking Minor gutter repairs in Rhode-Island consultation",
      "Professional service",
      "Quality guarantee"
    ],
    "social_links": {}
  }
]