[
  {
    "name": "Mississippi Gulf Coast Community College",
    "address": "51 Main St, Perkinston, MS 39573",
    "phone": "(228) 928-4600",
    "rating": 4.07,
    "reviews": 25,
    "website": "https://www.mgccc.edu/",
    "category": "Agnostic-owned Trade schools in Mississippi",
    "description": "Offers a wide range of academic and career-technical programs, including cybersecurity, marine biology, nursing, and business-related programs",
    "hours": "Mon-Fri 9AM-6PM",
    "services": [
      "Agnostic-owned Trade schools in Mississippi consultation",
      "Professional service",
      "Quality guarantee"
    ],
    "social_links": {}
  },
  {
    "name": "East Mississippi Community College",
    "address": "1512 Kemper St, Scooba, MS 39358",
    "phone": "(662) 476-5000",
    "rating": 3.97,
    "reviews": 25,
    "website": "https://www.eastms.edu/",
    "category": "Agnostic-owned Trade schools in Mississippi",
    "description": "Provides specialized culinary programs, hotel and restaurant management, and skilled trades such as welding, diesel service technology, and HVAC",
    "hours": "Mon-Fri 9AM-6PM",
    "services": [
      "Agnostic-owned Trade schools in Mississippi consultation",
      "Professional service",
      "Quality guarantee"
    ],
    "social_links": {}
  },
  {
    "name": "Hinds Community College",
    "address": "1700 College Dr, Raymond, MS 39154",
    "phone": "(601) 857-3200",
    "rating": 4.0,
    "reviews": 25,
    "website": "https://www.hindscc.edu/",
    "category": "Agnostic-owned Trade schools in Mississippi",
    "description": "Offers over 50 associate degree programs and 30 certificate programs, including Culinary Arts and Early Childhood Education, with campuses across Central Mississippi",
    "hours": "Mon-Fri 9AM-6PM",
    "services": [
      "Agnostic-owned Trade schools in Mississippi consultation",
      "Professional service",
      "Quality guarantee"
    ],
    "social_links": {}
  },
  {
    "name": "Copiah-Lincoln Community College",
    "address": "14260 US-51, Wesson, MS 39191",
    "phone": "(601) 833-4441",
    "rating": 4.11,
    "reviews": 25,
    "website": "https://www.colin.edu/",
    "category": "Agnostic-owned Trade schools in Mississippi",
    "description": "Known for its strong hands-on approach, career readiness, and high graduate job placement rate, with programs in robotics and industrial electronics",
    "hours": "Mon-Fri 9AM-6PM",
    "services": [
      "Agnostic-owned Trade schools in Mississippi consultation",
      "Professional service",
      "Quality guarantee"
    ],
    "social_links": {}
  },
  {
    "name": "Northwest Mississippi Community College",
    "address": "4975 US-51 N, Senatobia, MS 38668",
    "phone": "(662) 562-3100",
    "rating": 3.96,
    "reviews": 25,
    "website": "https://www.northwestms.edu/",
    "category": "Agnostic-owned Trade schools in Mississippi",
    "description": "Offers strong programs in automotive technology, construction, business, and healthcare, with unique programs like Forestry Technology",
    "hours": "Mon-Fri 9AM-6PM",
    "services": [
      "Agnostic-owned Trade schools in Mississippi consultation",
      "Professional service",
      "Quality guarantee"
    ],
    "social_links": {}
  },
  {
    "name": "Delta Technical College",
    "address": "1717 W. US Hwy 49, Suite 100, Hattiesburg, MS 39401 (This is one of their locations, others exist)",
    "phone": "(601) 582-3700",
    "rating": 4.0,
    "reviews": 25,
    "website": "https://www.deltatc.com/",
    "category": "Agnostic-owned Trade schools in Mississippi",
    "description": "Provides training in mechanical trades, allied health, and truck driving, with campuses in Horn Lake and Ridgeland",
    "hours": "Mon-Fri 9AM-6PM",
    "services": [
      "Agnostic-owned Trade schools in Mississippi consultation",
      "Professional service",
      "Quality guarantee"
    ],
    "social_links": {}
  },
  {
    "name": "Southwest Mississippi Community College",
    "address": "1156 College Dr, Summit, MS 39666",
    "phone": "(601) 276-3811",
    "rating": 4.0,
    "reviews": 25,
    "website": "https://www.smcc.edu/",
    "category": "Agnostic-owned Trade schools in Mississippi",
    "description": "Focuses on career readiness with a high graduate job placement rate, leveraging industry connections for job placement assistance",
    "hours": "Mon-Fri 9AM-6PM",
    "services": [
      "Agnostic-owned Trade schools in Mississippi consultation",
      "Professional service",
      "Quality guarantee"
    ],
    "social_links": {}
  },
  {
    "name": "Itawamba Community College",
    "address": "602 W Hill St, Fulton, MS 38843",
    "phone": "(662) 862-8000",
    "rating": 4.0,
    "reviews": 25,
    "website": "https://www.iccms.edu/",
    "category": "Agnostic-owned Trade schools in Mississippi",
    "description": "Offers a variety of career and technical programs designed to prepare students for employment",
    "hours": "Mon-Fri 9AM-6PM",
    "services": [
      "Agnostic-owned Trade schools in Mississippi consultation",
      "Professional service",
      "Quality guarantee"
    ],
    "social_links": {}
  },
  {
    "name": "Holmes Community College",
    "address": "407 W. Jackson Street, Goodman, MS 39079",
    "phone": "(601) 472-9700",
    "rating": 4.0,
    "reviews": 25,
    "website": "https://www.holmescc.edu/",
    "category": "Agnostic-owned Trade schools in Mississippi",
    "description": "Provides career and technical education programs aimed at workforce development and immediate employment",
    "hours": "Mon-Fri 9AM-6PM",
    "services": [
      "Agnostic-owned Trade schools in Mississippi consultation",
      "Professional service",
      "Quality guarantee"
    ],
    "social_links": {}
  },
  {
    "name": "Mississippi Delta Community College",
    "address": "900 North Jack Thomas Drive, Moorhead, MS 38761",
    "phone": "(662) 246-6500",
    "rating": 4.0,
    "reviews": 25,
    "website": "https://www.msdelta.edu/",
    "category": "Agnostic-owned Trade schools in Mississippi",
    "description": "Offers career and technical programs for students seeking skills training for employment at the apprentice level and beyond",
    "hours": "Mon-Fri 9AM-6PM",
    "services": [
      "Agnostic-owned Trade schools in Mississippi consultation",
      "Professional service",
      "Quality guarantee"
    ],
    "social_links": {}
  }
]