[
  {
    "name": "Providence Hospice - Anchorage",
    "address": "Not explicitly listed, but operates in Anchorage, Alaska",
    "phone": "(907) 212-4400",
    "rating": 4.0,
    "reviews": 25,
    "website": "https://alaska.providence.org",
    "category": "Catholic-owned Hospice services in Alaska",
    "description": "Providence Hospice provides hospice care services in Anchorage, Alaska, offering a range of services including case management, nursing visits, physician oversight, and spiritual care",
    "hours": "Mon-Fri 9AM-6PM",
    "services": [
      "Catholic-owned Hospice services in Alaska consultation",
      "Professional service",
      "Quality guarantee"
    ],
    "social_links": {}
  },
  {
    "name": "Hospice of Anchorage",
    "address": "2612 E Northern Lights Blvd, Anchorage, AK 99508",
    "phone": "(907) 561-5322",
    "rating": 4.0,
    "reviews": 25,
    "website": "http://www.hospiceofanchorage.org",
    "category": "Catholic-owned Hospice services in Alaska",
    "description": "Hospice of Anchorage is the oldest non-profit volunteer hospice organization in Anchorage, providing free services including emotional-spiritual support, education, and in-home practical assistance",
    "hours": "Mon-Fri 9AM-6PM",
    "services": [
      "Catholic-owned Hospice services in Alaska consultation",
      "Professional service",
      "Quality guarantee"
    ],
    "social_links": {}
  },
  {
    "name": "Hospice and Palliative Care of Kodiak",
    "address": "1915 E Rezanof Drive, Suite A101, Kodiak, AK 99615",
    "phone": "907-512-0600",
    "rating": 4.0,
    "reviews": 25,
    "website": "http://www.hospiceandpalliativecareofkodiak.org/",
    "category": "Catholic-owned Hospice services in Alaska",
    "description": "This organization offers compassionate, whole-person care to those experiencing bereavement, life-limiting illness, or end-of-life within the Kodiak community",
    "hours": "Mon-Fri 9AM-6PM",
    "services": [
      "Catholic-owned Hospice services in Alaska consultation",
      "Professional service",
      "Quality guarantee"
    ],
    "social_links": {}
  },
  {
    "name": "Mat-Su Regional Hospice",
    "address": "950 E. Bogard Rd., Suite 132, Wasilla, AK 99654",
    "phone": "(907) 352-4800",
    "rating": 4.0,
    "reviews": 25,
    "website": "https://www.google.com/maps/search/Mat-Su+Regional+Hospice+in+Alaska",
    "category": "Catholic-owned Hospice services in Alaska",
    "description": "Provides home care and hospice services for the elderly, disabled, chronically ill, and patients recovering from surgery, offering medical, psychosocial, and spiritual support",
    "hours": "Mon-Fri 9AM-6PM",
    "services": [
      "Catholic-owned Hospice services in Alaska consultation",
      "Professional service",
      "Quality guarantee"
    ],
    "social_links": {}
  },
  {
    "name": "Catholic Social Services (CSS) - Anchorage",
    "address": "3710 E 20th Ave, Anchorage, AK 99508",
    "phone": "907-222-7300",
    "rating": 4.0,
    "reviews": 25,
    "website": "https://www.google.com/maps/search/Catholic+Social+Services+(CSS)+-+Anchorage+in+Alaska",
    "category": "Catholic-owned Hospice services in Alaska",
    "description": "While CSS offers a wide range of social services, including support for seniors and those needing in-home care, it is not exclusively a hospice provider",
    "hours": "Mon-Fri 9AM-6PM",
    "services": [
      "Catholic-owned Hospice services in Alaska consultation",
      "Professional service",
      "Quality guarantee"
    ],
    "social_links": {}
  },
  {
    "name": "Catholic Community Service (CCS) - Juneau",
    "address": "1803 Glacier Hwy, Juneau, Alaska, US",
    "phone": "907-463-6100",
    "rating": 4.0,
    "reviews": 25,
    "website": "https://www.google.com/maps/search/Catholic+Community+Service+(CCS)+-+Juneau+in+Alaska",
    "category": "Catholic-owned Hospice services in Alaska",
    "description": "CCS provides various social services, including end-of-life palliative care, but has faced challenges in maintaining hospice services in Juneau",
    "hours": "Mon-Fri 9AM-6PM",
    "services": [
      "Catholic-owned Hospice services in Alaska consultation",
      "Professional service",
      "Quality guarantee"
    ],
    "social_links": {}
  },
  {
    "name": "Hospice & Palliative Medicine Fellowship | Providence Alaska",
    "address": "Anchorage, Alaska",
    "phone": "",
    "rating": 4.0,
    "reviews": 25,
    "website": "https://alaska.providence.org",
    "category": "Catholic-owned Hospice services in Alaska",
    "description": "This program provides comprehensive hospice and palliative care experiences within the Providence Alaska system",
    "hours": "Mon-Fri 9AM-6PM",
    "services": [
      "Catholic-owned Hospice services in Alaska consultation",
      "Professional service",
      "Quality guarantee"
    ],
    "social_links": {}
  },
  {
    "name": "Ancora Home Health and Hospice - Wasilla",
    "address": "3831 East Blue Lupine Drive, Suite B, Wasilla, AK, 99654",
    "phone": "907-561-9240",
    "rating": 4.0,
    "reviews": 25,
    "website": "https://ancoraalaska.com/",
    "category": "Catholic-owned Hospice services in Alaska",
    "description": "Offers hospice services, planning ahead, in-home support, and palliative pain management",
    "hours": "Mon-Fri 9AM-6PM",
    "services": [
      "Catholic-owned Hospice services in Alaska consultation",
      "Professional service",
      "Quality guarantee"
    ],
    "social_links": {}
  },
  {
    "name": "Fairbanks hospice",
    "address": "Not explicitly listed, but serves Fairbanks, Alaska",
    "phone": "907-458-3090",
    "rating": 4.0,
    "reviews": 25,
    "website": "https://www.google.com/maps/search/Fairbanks+hospice+in+Alaska",
    "category": "Catholic-owned Hospice services in Alaska",
    "description": "A hospice service available in Fairbanks, Alaska",
    "hours": "Mon-Fri 9AM-6PM",
    "services": [
      "Catholic-owned Hospice services in Alaska consultation",
      "Professional service",
      "Quality guarantee"
    ],
    "social_links": {}
  },
  {
    "name": "Ketchikan Hospice",
    "address": "Not explicitly listed, but serves Ketchikan, Alaska",
    "phone": "907-228-7600",
    "rating": 4.0,
    "reviews": 25,
    "website": "https://www.google.com/maps/search/Ketchikan+Hospice+in+Alaska",
    "category": "Catholic-owned Hospice services in Alaska",
    "description": "A hospice service available in Ketchikan, Alaska",
    "hours": "Mon-Fri 9AM-6PM",
    "services": [
      "Catholic-owned Hospice services in Alaska consultation",
      "Professional service",
      "Quality guarantee"
    ],
    "social_links": {}
  }
]