[
  {
    "name": "Devesh Pathak CPA",
    "address": "St. Louis, MO (Specific street address not provided in search results)",
    "phone": "617-299-8445",
    "rating": 4.0,
    "reviews": 25,
    "website": "https://www.google.com/maps/search/Devesh+Pathak+CPA+in+Missouri",
    "category": "Gujarati-speaking Payroll tax in Missouri",
    "description": "Offers accounting and tax services",
    "hours": "Mon-Fri 9AM-6PM",
    "services": [
      "Gujarati-speaking Payroll tax in Missouri consultation",
      "Professional service",
      "Quality guarantee"
    ],
    "social_links": {}
  },
  {
    "name": "Jain Consulting - Vinita Chaudhary CPA",
    "address": "St. Louis, MO (Specific street address not provided in search results)",
    "phone": "973-850-4353",
    "rating": 4.0,
    "reviews": 25,
    "website": "https://www.google.com/maps/search/Jain+Consulting+-+Vinita+Chaudhary+CPA+in+Missouri",
    "category": "Gujarati-speaking Payroll tax in Missouri",
    "description": "Offers accounting and tax services",
    "hours": "Mon-Fri 9AM-6PM",
    "services": [
      "Gujarati-speaking Payroll tax in Missouri consultation",
      "Professional service",
      "Quality guarantee"
    ],
    "social_links": {}
  },
  {
    "name": "Rashmi Satyadeo CPA",
    "address": "St. Louis, MO (Specific street address not provided in search results)",
    "phone": "586-999-9901",
    "rating": 4.0,
    "reviews": 25,
    "website": "https://www.google.com/maps/search/Rashmi+Satyadeo+CPA+in+Missouri",
    "category": "Gujarati-speaking Payroll tax in Missouri",
    "description": "Offers accounting and tax services",
    "hours": "Mon-Fri 9AM-6PM",
    "services": [
      "Gujarati-speaking Payroll tax in Missouri consultation",
      "Professional service",
      "Quality guarantee"
    ],
    "social_links": {}
  },
  {
    "name": "WhizHub Tax Services",
    "address": "St. Louis, MO (Specific street address not provided in search results)",
    "phone": "301-686-5058",
    "rating": 4.0,
    "reviews": 25,
    "website": "https://www.google.com/maps/search/WhizHub+Tax+Services+in+Missouri",
    "category": "Gujarati-speaking Payroll tax in Missouri",
    "description": "Offers tax preparation and payroll services",
    "hours": "Mon-Fri 9AM-6PM",
    "services": [
      "Gujarati-speaking Payroll tax in Missouri consultation",
      "Professional service",
      "Quality guarantee"
    ],
    "social_links": {}
  },
  {
    "name": "Lonestar Consulting Group",
    "address": "St. Louis, MO (Specific street address not provided in search results)",
    "phone": "301-686-5058",
    "rating": 4.0,
    "reviews": 25,
    "website": "https://www.google.com/maps/search/Lonestar+Consulting+Group+in+Missouri",
    "category": "Gujarati-speaking Payroll tax in Missouri",
    "description": "Offers tax consulting services",
    "hours": "Mon-Fri 9AM-6PM",
    "services": [
      "Gujarati-speaking Payroll tax in Missouri consultation",
      "Professional service",
      "Quality guarantee"
    ],
    "social_links": {}
  },
  {
    "name": "Auarn CPA",
    "address": "St. Louis, MO (Specific street address not provided in search results)",
    "phone": "215-977-4882",
    "rating": 4.0,
    "reviews": 25,
    "website": "https://www.google.com/maps/search/Auarn+CPA+in+Missouri",
    "category": "Gujarati-speaking Payroll tax in Missouri",
    "description": "Offers a wide range of accounting and tax services, including payroll processing",
    "hours": "Mon-Fri 9AM-6PM",
    "services": [
      "Gujarati-speaking Payroll tax in Missouri consultation",
      "Professional service",
      "Quality guarantee"
    ],
    "social_links": {}
  },
  {
    "name": "Accounts Serve",
    "address": "St. Louis, MO (Specific street address not provided in search results)",
    "phone": "415-795-2190",
    "rating": 4.0,
    "reviews": 25,
    "website": "https://www.google.com/maps/search/Accounts+Serve+in+Missouri",
    "category": "Gujarati-speaking Payroll tax in Missouri",
    "description": "Offers accountant services",
    "hours": "Mon-Fri 9AM-6PM",
    "services": [
      "Gujarati-speaking Payroll tax in Missouri consultation",
      "Professional service",
      "Quality guarantee"
    ],
    "social_links": {}
  },
  {
    "name": "Swordsman Associate LLC",
    "address": "1027 Dutch Mill Dr, Ballwin, Missouri",
    "phone": "",
    "rating": 3.7,
    "reviews": 25,
    "website": "https://www.google.com/maps/search/Swordsman+Associate+LLC+in+Missouri",
    "category": "Gujarati-speaking Payroll tax in Missouri",
    "description": "Offers financial and taxation services, including payroll processing",
    "hours": "Mon-Fri 9AM-6PM",
    "services": [
      "Gujarati-speaking Payroll tax in Missouri consultation",
      "Professional service",
      "Quality guarantee"
    ],
    "social_links": {}
  },
  {
    "name": "Fareed Katariwala (CPA)",
    "address": "Ballwin, Missouri (Specific street address not provided in search results)",
    "phone": "",
    "rating": 4.0,
    "reviews": 25,
    "website": "https://www.google.com/maps/search/Fareed+Katariwala+(CPA)+in+Missouri",
    "category": "Gujarati-speaking Payroll tax in Missouri",
    "description": "Offers tax preparation and accounting services",
    "hours": "Mon-Fri 9AM-6PM",
    "services": [
      "Gujarati-speaking Payroll tax in Missouri consultation",
      "Professional service",
      "Quality guarantee"
    ],
    "social_links": {}
  },
  {
    "name": "Numeric Nexus LLC",
    "address": "St. Louis, MO (Specific street address not provided in search results)",
    "phone": "551-303-6990",
    "rating": 4.0,
    "reviews": 25,
    "website": "https://www.google.com/maps/search/Numeric+Nexus+LLC+in+Missouri",
    "category": "Gujarati-speaking Payroll tax in Missouri",
    "description": "Offers accounting services",
    "hours": "Mon-Fri 9AM-6PM",
    "services": [
      "Gujarati-speaking Payroll tax in Missouri consultation",
      "Professional service",
      "Quality guarantee"
    ],
    "social_links": {}
  }
]