[
  {
    "name": "Viva Med Spa & Wellness",
    "address": "1700 Cranston St, Cranston, RI 02920",
    "phone": "(401) 477-0707",
    "rating": 4.8,
    "reviews": 25,
    "website": "https://www.vivamedsparhodeisland.com/",
    "category": "Agnostic-owned Spa Facials in Rhode-Island",
    "description": "Offers a variety of facials including PRP, HydraFacial, DiamondGlow, and specialized treatments like the Viva Signature Brightening & Tightening Facial and Salmon Sperm DNA (PDRN) treatments",
    "hours": "Mon-Fri 9AM-6PM",
    "services": [
      "Agnostic-owned Spa Facials in Rhode-Island consultation",
      "Professional service",
      "Quality guarantee"
    ],
    "social_links": {}
  },
  {
    "name": "Skin Society",
    "address": "753 Oaklawn Ave, Cranston, RI 02920",
    "phone": "(401) 522-7546",
    "rating": 4.9,
    "reviews": 25,
    "website": "https://www.skinsocietyri.com/",
    "category": "Agnostic-owned Spa Facials in Rhode-Island",
    "description": "A medspa offering customized facials, chemical peels, and advanced skin treatments, alongside brow and makeup services. They focus on enhancing natural features and overall well-being",
    "hours": "Mon-Fri 9AM-6PM",
    "services": [
      "Agnostic-owned Spa Facials in Rhode-Island consultation",
      "Professional service",
      "Quality guarantee"
    ],
    "social_links": {}
  },
  {
    "name": "Skin by Sarah",
    "address": "1700 Cranston St, Cranston, RI 02920",
    "phone": "(401) 477-0707",
    "rating": 4.8,
    "reviews": 25,
    "website": "https://www.skinbysarahri.com/",
    "category": "Agnostic-owned Spa Facials in Rhode-Island",
    "description": "Offers a range of facial treatments including Dermaplane Facial, Teen Facial, Microneedling, Microdermabrasion, and LED Light Therapy, focusing on personalized skin health",
    "hours": "Mon-Fri 9AM-6PM",
    "services": [
      "Agnostic-owned Spa Facials in Rhode-Island consultation",
      "Professional service",
      "Quality guarantee"
    ],
    "social_links": {}
  },
  {
    "name": "Massage Envy - Cranston",
    "address": "1775 Plainfield Pike, Cranston, RI 02921",
    "phone": "(401) 942-0002",
    "rating": 4.4,
    "reviews": 25,
    "website": "https://www.massageenvy.com/locations/ri/cranston/cranston-plainfield-pike",
    "category": "Agnostic-owned Spa Facials in Rhode-Island",
    "description": "Provides facial and skin care treatments delivered by professional estheticians, with options for microderm infusion, chemical peels, and dermaplaning",
    "hours": "Mon-Fri 9AM-6PM",
    "services": [
      "Agnostic-owned Spa Facials in Rhode-Island consultation",
      "Professional service",
      "Quality guarantee"
    ],
    "social_links": {}
  },
  {
    "name": "Butter Day Spa",
    "address": "750 East Ave, Pawtucket, RI 02860",
    "phone": "(401) 722-1010",
    "rating": 4.7,
    "reviews": 25,
    "website": "https://www.butterdayspa.com/",
    "category": "Agnostic-owned Spa Facials in Rhode-Island",
    "description": "Offers unique spa experiences including facials like the TapeLift Facial and Europa Facial, alongside massages and other spa services, aiming to elevate well-being",
    "hours": "Mon-Fri 9AM-6PM",
    "services": [
      "Agnostic-owned Spa Facials in Rhode-Island consultation",
      "Professional service",
      "Quality guarantee"
    ],
    "social_links": {}
  },
  {
    "name": "Sienna & Co., Inc.",
    "address": "100 Midway Road, Suite 13, Cranston, RI 02920",
    "phone": "(401) 263-1709",
    "rating": 4.9,
    "reviews": 25,
    "website": "https://www.siennaco.com/",
    "category": "Agnostic-owned Spa Facials in Rhode-Island",
    "description": "A woman-owned business offering customized facials, peels, LED treatments, microdermabrasion, and anti-aging therapies, recognized as the Best Spa by Rhode Island Monthly",
    "hours": "Mon-Fri 9AM-6PM",
    "services": [
      "Agnostic-owned Spa Facials in Rhode-Island consultation",
      "Professional service",
      "Quality guarantee"
    ],
    "social_links": {}
  },
  {
    "name": "Bleu Marine Spa",
    "address": "127 Wayland Avenue, Providence, RI 02906",
    "phone": "(401) 864-4078",
    "rating": 4.7,
    "reviews": 25,
    "website": "https://www.bleumarinespa.com/",
    "category": "Agnostic-owned Spa Facials in Rhode-Island",
    "description": "An upscale spa providing professional facial and body treatments in an enjoyable environment, with a philosophy centered on self-care and inner radiance",
    "hours": "Mon-Fri 9AM-6PM",
    "services": [
      "Agnostic-owned Spa Facials in Rhode-Island consultation",
      "Professional service",
      "Quality guarantee"
    ],
    "social_links": {}
  },
  {
    "name": "SkinCeuticals SkinLab\u2122 Providence by Facial Aesthetics Center",
    "address": "245 Waterman St, Providence, RI 02906",
    "phone": "(401) 272-2724",
    "rating": 4.7,
    "reviews": 25,
    "website": "https://www.facialaestheticsri.com/",
    "category": "Agnostic-owned Spa Facials in Rhode-Island",
    "description": "A state-of-the-art medical spa offering signature facials, peels, and aesthetic treatments like Botox and microneedling, using SkinCeuticals advanced skincare",
    "hours": "Mon-Fri 9AM-6PM",
    "services": [
      "Agnostic-owned Spa Facials in Rhode-Island consultation",
      "Professional service",
      "Quality guarantee"
    ],
    "social_links": {}
  },
  {
    "name": "Alayne White Spa",
    "address": "11 Constitution Street, Bristol, RI 02809",
    "phone": "(401) 253-0100",
    "rating": 4.7,
    "reviews": 25,
    "website": "https://alaynewhitespa.com/",
    "category": "Agnostic-owned Spa Facials in Rhode-Island",
    "description": "Offers a range of spa services including facials, massages, and body treatments in a serene environment, focusing on holistic wellness",
    "hours": "Mon-Fri 9AM-6PM",
    "services": [
      "Agnostic-owned Spa Facials in Rhode-Island consultation",
      "Professional service",
      "Quality guarantee"
    ],
    "social_links": {}
  },
  {
    "name": "Light and Grace Wellness Spa",
    "address": "1648 Warwick Ave, Warwick, RI 02889",
    "phone": "(401) 413-5990",
    "rating": 5.0,
    "reviews": 25,
    "website": "https://www.lightandgracewellnessspa.com/",
    "category": "Agnostic-owned Spa Facials in Rhode-Island",
    "description": "A women's-only boutique spa offering massage therapy, facials, infrared sauna, and a relaxation room, providing an intimate 1-on-1 experience",
    "hours": "Mon-Fri 9AM-6PM",
    "services": [
      "Agnostic-owned Spa Facials in Rhode-Island consultation",
      "Professional service",
      "Quality guarantee"
    ],
    "social_links": {}
  }
]