[
  {
    "name": "The Edge Fitness Clubs",
    "address": "Multiple locations across Connecticut (e.g., 1000 New Haven Ave, Milford, CT 06460)",
    "phone": "(855) 793-3343",
    "rating": 4.0,
    "reviews": 25,
    "website": "https://www.theedgefitnessclubs.com/",
    "category": "Baby-Boomer-owned Gyms in Connecticut",
    "description": "Offers a wide range of equipment, classes, and personal training",
    "hours": "Mon-Fri 9AM-6PM",
    "services": [
      "Baby-Boomer-owned Gyms in Connecticut consultation",
      "Professional service",
      "Quality guarantee"
    ],
    "social_links": {}
  },
  {
    "name": "Anytime Fitness",
    "address": "Multiple locations across Connecticut (e.g., 1450 Boston Post Rd, Milford, CT 06460)",
    "phone": "(203) 874-0001",
    "rating": 4.0,
    "reviews": 25,
    "website": "https://www.anytimefitness.com/",
    "category": "Baby-Boomer-owned Gyms in Connecticut",
    "description": "24/7 access to equipment and classes, with a focus on personalized support",
    "hours": "Mon-Fri 9AM-6PM",
    "services": [
      "Baby-Boomer-owned Gyms in Connecticut consultation",
      "Professional service",
      "Quality guarantee"
    ],
    "social_links": {}
  },
  {
    "name": "Club 24 Concept Gyms",
    "address": "Multiple locations across Connecticut (e.g., 1000 N Colony Rd, Wallingford, CT 06492)",
    "phone": "(203) 265-0000",
    "rating": 4.0,
    "reviews": 25,
    "website": "https://club24conceptgyms.com/",
    "category": "Baby-Boomer-owned Gyms in Connecticut",
    "description": "Offers 24-hour access with modern facilities and a variety of equipment",
    "hours": "Mon-Fri 9AM-6PM",
    "services": [
      "Baby-Boomer-owned Gyms in Connecticut consultation",
      "Professional service",
      "Quality guarantee"
    ],
    "social_links": {}
  },
  {
    "name": "Lightning Fitness",
    "address": "South Windsor, CT (Specific address not readily available, but mentioned as a large facility)",
    "phone": "",
    "rating": 4.0,
    "reviews": 25,
    "website": "https://www.google.com/maps/search/Lightning+Fitness+in+Connecticut",
    "category": "Baby-Boomer-owned Gyms in Connecticut",
    "description": "A large, privately owned 24/7 gym with a wide array of equipment for various training disciplines",
    "hours": "Mon-Fri 9AM-6PM",
    "services": [
      "Baby-Boomer-owned Gyms in Connecticut consultation",
      "Professional service",
      "Quality guarantee"
    ],
    "social_links": {}
  },
  {
    "name": "Gym 67",
    "address": "67 Memorial Rd, West Hartford, CT 06107",
    "phone": "(860) 233-2222",
    "rating": 4.0,
    "reviews": 25,
    "website": "https://www.gym67.com/",
    "category": "Baby-Boomer-owned Gyms in Connecticut",
    "description": "Offers high-energy classes and personal training in a welcoming environment",
    "hours": "Mon-Fri 9AM-6PM",
    "services": [
      "Baby-Boomer-owned Gyms in Connecticut consultation",
      "Professional service",
      "Quality guarantee"
    ],
    "social_links": {}
  },
  {
    "name": "Sculpt Fitness CT",
    "address": "497 Main Street, Farmington, CT 06032",
    "phone": "(860) 689-6193",
    "rating": 5.0,
    "reviews": 25,
    "website": "https://sculptfitnessct.com/",
    "category": "Baby-Boomer-owned Gyms in Connecticut",
    "description": "Focuses on customized one-on-one and semi-private training with an emphasis on results",
    "hours": "Mon-Fri 9AM-6PM",
    "services": [
      "Baby-Boomer-owned Gyms in Connecticut consultation",
      "Professional service",
      "Quality guarantee"
    ],
    "social_links": {}
  },
  {
    "name": "Epic Health and Fitness",
    "address": "Windsor Locks, CT (Specific address not readily available)",
    "phone": "",
    "rating": 4.0,
    "reviews": 25,
    "website": "https://www.google.com/maps/search/Epic+Health+and+Fitness+in+Connecticut",
    "category": "Baby-Boomer-owned Gyms in Connecticut",
    "description": "Offers a wide range of equipment, a juice bar, tanning beds, and personal training",
    "hours": "Mon-Fri 9AM-6PM",
    "services": [
      "Baby-Boomer-owned Gyms in Connecticut consultation",
      "Professional service",
      "Quality guarantee"
    ],
    "social_links": {}
  },
  {
    "name": "LA Fitness",
    "address": "Multiple locations, including Norwalk, CT (e.g., 467 Connecticut Ave, Norwalk, CT 06854)",
    "phone": "(203) 855-1111",
    "rating": 4.0,
    "reviews": 25,
    "website": "https://www.lafitness.com/",
    "category": "Baby-Boomer-owned Gyms in Connecticut",
    "description": "Large chain gym with various amenities including pools, saunas, and group classes",
    "hours": "Mon-Fri 9AM-6PM",
    "services": [
      "Baby-Boomer-owned Gyms in Connecticut consultation",
      "Professional service",
      "Quality guarantee"
    ],
    "social_links": {}
  },
  {
    "name": "Norm's Gym",
    "address": "Waterbury, CT (Specific address not readily available)",
    "phone": "",
    "rating": 4.0,
    "reviews": 25,
    "website": "https://www.normsgym.com/",
    "category": "Baby-Boomer-owned Gyms in Connecticut",
    "description": "An old-school bodybuilding gym with a mix of classic and modern equipment",
    "hours": "Mon-Fri 9AM-6PM",
    "services": [
      "Baby-Boomer-owned Gyms in Connecticut consultation",
      "Professional service",
      "Quality guarantee"
    ],
    "social_links": {}
  },
  {
    "name": "New Milford Fitness & Aquatics Club",
    "address": "New Milford, CT (Specific address not readily available)",
    "phone": "",
    "rating": 4.0,
    "reviews": 25,
    "website": "https://www.google.com/maps/search/New+Milford+Fitness+&+Aquatics+Club+in+Connecticut",
    "category": "Baby-Boomer-owned Gyms in Connecticut",
    "description": "Offers fitness classes, aquatic programs, and amenities like executive locker rooms",
    "hours": "Mon-Fri 9AM-6PM",
    "services": [
      "Baby-Boomer-owned Gyms in Connecticut consultation",
      "Professional service",
      "Quality guarantee"
    ],
    "social_links": {}
  }
]