[
  {
    "name": "Longwood Dental Group",
    "address": "2400 Beacon St, Brookline, MA 02446",
    "phone": "(617) 566-5445",
    "rating": 4.0,
    "reviews": 25,
    "website": "https://www.longwooddentalgroup.com/",
    "category": "Armenian-speaking Teeth whitening in Massachusetts",
    "description": "This practice offers a wide range of dental services, including cosmetic dentistry, and states that they have staff who speak Armenian",
    "hours": "Mon-Fri 9AM-6PM",
    "services": [
      "Armenian-speaking Teeth whitening in Massachusetts consultation",
      "Professional service",
      "Quality guarantee"
    ],
    "social_links": {}
  },
  {
    "name": "Watertown Cosmetic and Pediatric Dentistry",
    "address": "479 Main St, Watertown, MA 02472",
    "phone": "(617) 744-6681",
    "rating": 4.0,
    "reviews": 25,
    "website": "https://www.watertowncosmeticdentistry.com/",
    "category": "Armenian-speaking Teeth whitening in Massachusetts",
    "description": "Dr. Khatchatour Kazarian, who speaks Armenian, offers cosmetic and pediatric dentistry services",
    "hours": "Mon-Fri 9AM-6PM",
    "services": [
      "Armenian-speaking Teeth whitening in Massachusetts consultation",
      "Professional service",
      "Quality guarantee"
    ],
    "social_links": {}
  },
  {
    "name": "Amirian Dental",
    "address": "11 Lincoln St, Hudson, MA 01749",
    "phone": "(978) 562-2042",
    "rating": 4.0,
    "reviews": 25,
    "website": "https://www.amiriandental.com/",
    "category": "Armenian-speaking Teeth whitening in Massachusetts",
    "description": "Dr. Yana Amirian, who is of Armenian heritage, offers cosmetic dentistry services including teeth whitening",
    "hours": "Mon-Fri 9AM-6PM",
    "services": [
      "Armenian-speaking Teeth whitening in Massachusetts consultation",
      "Professional service",
      "Quality guarantee"
    ],
    "social_links": {}
  },
  {
    "name": "Dr. Samvel Martirosyan",
    "address": "164 Galen St., #2, Watertown, MA 02472",
    "phone": "(617) 923-0669",
    "rating": 4.0,
    "reviews": 25,
    "website": "https://www.drsamvelmartirosyan.com/",
    "category": "Armenian-speaking Teeth whitening in Massachusetts",
    "description": "This dental office welcomes patients in English, Armenian, Russian, and Farsi and offers comprehensive dentistry services",
    "hours": "Mon-Fri 9AM-6PM",
    "services": [
      "Armenian-speaking Teeth whitening in Massachusetts consultation",
      "Professional service",
      "Quality guarantee"
    ],
    "social_links": {}
  },
  {
    "name": "Millenium Dental",
    "address": "Information not available",
    "phone": "",
    "rating": 4.0,
    "reviews": 25,
    "website": "https://www.milleniumdental.com/",
    "category": "Armenian-speaking Teeth whitening in Massachusetts",
    "description": "While not explicitly stating Armenian-speaking staff, this practice offers teeth whitening and has dentists with diverse backgrounds",
    "hours": "Mon-Fri 9AM-6PM",
    "services": [
      "Armenian-speaking Teeth whitening in Massachusetts consultation",
      "Professional service",
      "Quality guarantee"
    ],
    "social_links": {}
  },
  {
    "name": "Advanced Cosmetic & Implant Dentistry",
    "address": "197 Barnstable Road, Hyannis, MA 02601",
    "phone": "(508) 771-4044",
    "rating": 4.0,
    "reviews": 25,
    "website": "https://www.hyanniscosmeticdentist.com/",
    "category": "Armenian-speaking Teeth whitening in Massachusetts",
    "description": "This practice offers teeth whitening and other cosmetic dental procedures",
    "hours": "Mon-Fri 9AM-6PM",
    "services": [
      "Armenian-speaking Teeth whitening in Massachusetts consultation",
      "Professional service",
      "Quality guarantee"
    ],
    "social_links": {}
  },
  {
    "name": "Melanie Rabeni, DDS",
    "address": "Information not available",
    "phone": "",
    "rating": 4.0,
    "reviews": 25,
    "website": "https://www.melanierabenidds.com/",
    "category": "Armenian-speaking Teeth whitening in Massachusetts",
    "description": "This practice in Plymouth, MA offers teeth whitening services",
    "hours": "Mon-Fri 9AM-6PM",
    "services": [
      "Armenian-speaking Teeth whitening in Massachusetts consultation",
      "Professional service",
      "Quality guarantee"
    ],
    "social_links": {}
  },
  {
    "name": "iLOVE DENTAL CARE",
    "address": "541 High Street, LL1, Westwood, MA 02090",
    "phone": "",
    "rating": 4.0,
    "reviews": 25,
    "website": "https://www.ilovedentalcare.com/",
    "category": "Armenian-speaking Teeth whitening in Massachusetts",
    "description": "This practice offers teeth whitening services using Zoom whitening kits",
    "hours": "Mon-Fri 9AM-6PM",
    "services": [
      "Armenian-speaking Teeth whitening in Massachusetts consultation",
      "Professional service",
      "Quality guarantee"
    ],
    "social_links": {}
  },
  {
    "name": "Beacon Place Dental Group",
    "address": "Information not available",
    "phone": "",
    "rating": 4.0,
    "reviews": 25,
    "website": "https://www.beaconplacedental.com/",
    "category": "Armenian-speaking Teeth whitening in Massachusetts",
    "description": "Located in Brookline, MA, this practice offers Zoom in-office and at-home teeth whitening treatments",
    "hours": "Mon-Fri 9AM-6PM",
    "services": [
      "Armenian-speaking Teeth whitening in Massachusetts consultation",
      "Professional service",
      "Quality guarantee"
    ],
    "social_links": {}
  },
  {
    "name": "Dr. Bruce Doyle",
    "address": "Information not available",
    "phone": "",
    "rating": 4.0,
    "reviews": 25,
    "website": "https://www.drbrucedoyle.com/",
    "category": "Armenian-speaking Teeth whitening in Massachusetts",
    "description": "This practice in Stoneham, MA offers Zoom teeth whitening services",
    "hours": "Mon-Fri 9AM-6PM",
    "services": [
      "Armenian-speaking Teeth whitening in Massachusetts consultation",
      "Professional service",
      "Quality guarantee"
    ],
    "social_links": {}
  }
]