[
  {
    "name": "Solcana Fitness",
    "address": "2430 Nicollet Ave, Minneapolis, MN 55404",
    "phone": "(612) 294-0000",
    "rating": 4.9,
    "reviews": 25,
    "website": "https://www.solcananess.com/",
    "category": "Buddhist-owned Athletic conditioning in Minnesota",
    "description": "A queer, woman-owned gym focused on body liberation, offering strength and conditioning classes, personal training, and a supportive community. While not explicitly Buddhist-owned, it emphasizes inclusivity and well-being",
    "hours": "Mon-Fri 9AM-6PM",
    "services": [
      "Buddhist-owned Athletic conditioning in Minnesota consultation",
      "Professional service",
      "Quality guarantee"
    ],
    "social_links": {}
  },
  {
    "name": "Balance for Life Fitness Center",
    "address": "3665 Vicksburg Ln N, Plymouth, MN 55443",
    "phone": "(763) 475-9999",
    "rating": 4.8,
    "reviews": 25,
    "website": "https://balanceforlifemn.com/",
    "category": "Buddhist-owned Athletic conditioning in Minnesota",
    "description": "A privately owned personal training studio offering one-on-one and small group classes for health and wellness. Their staff includes certified trainers and licensed massage therapists",
    "hours": "Mon-Fri 9AM-6PM",
    "services": [
      "Buddhist-owned Athletic conditioning in Minnesota consultation",
      "Professional service",
      "Quality guarantee"
    ],
    "social_links": {}
  },
  {
    "name": "Minnesota Buddhist Vihara",
    "address": "7400 14th Ave S, Richfield, MN 55423",
    "phone": "(612) 869-4242",
    "rating": 4.7,
    "reviews": 25,
    "website": "https://mnbv.org/",
    "category": "Buddhist-owned Athletic conditioning in Minnesota",
    "description": "A Theravada Buddhist temple offering spiritual and religious services, meditation, and community events. While not an athletic conditioning center, it is a Buddhist organization",
    "hours": "Mon-Fri 9AM-6PM",
    "services": [
      "Buddhist-owned Athletic conditioning in Minnesota consultation",
      "Professional service",
      "Quality guarantee"
    ],
    "social_links": {}
  },
  {
    "name": "Diamond Way Buddhist Center Minneapolis",
    "address": "3401 Park Ave, Minneapolis, MN 55407",
    "phone": "(612) 405-9299",
    "rating": 4.6,
    "reviews": 25,
    "website": "https://www.diamondway.org/centers/minneapolis/",
    "category": "Buddhist-owned Athletic conditioning in Minnesota",
    "description": "A Buddhist center offering teachings and guided meditations in the Karma Kagyu lineage of Tibetan Buddhism. They provide a relaxed environment for exploring Buddhist philosophy",
    "hours": "Mon-Fri 9AM-6PM",
    "services": [
      "Buddhist-owned Athletic conditioning in Minnesota consultation",
      "Professional service",
      "Quality guarantee"
    ],
    "social_links": {}
  },
  {
    "name": "Common Ground Meditation Center",
    "address": "3755 Pleasant Ave S, Minneapolis, MN 55409",
    "phone": "(612) 722-8054",
    "rating": 4.5,
    "reviews": 25,
    "website": "https://www.commongroundmeditation.org/",
    "category": "Buddhist-owned Athletic conditioning in Minnesota",
    "description": "A community meditation center dedicated to the practice of mindfulness, founded on the teachings of the Buddha. They offer online and in-person programs",
    "hours": "Mon-Fri 9AM-6PM",
    "services": [
      "Buddhist-owned Athletic conditioning in Minnesota consultation",
      "Professional service",
      "Quality guarantee"
    ],
    "social_links": {}
  },
  {
    "name": "Shambhala Center of Minneapolis",
    "address": "4301 Nicollet Ave, Minneapolis, MN 55409",
    "phone": "(612) 821-0377",
    "rating": 4.5,
    "reviews": 25,
    "website": "https://minneapolis.shambhala.org/",
    "category": "Buddhist-owned Athletic conditioning in Minnesota",
    "description": "Offers public meditation, spiritual teachings in the Shambhala and Buddhist traditions, and a community for meditators",
    "hours": "Mon-Fri 9AM-6PM",
    "services": [
      "Buddhist-owned Athletic conditioning in Minnesota consultation",
      "Professional service",
      "Quality guarantee"
    ],
    "social_links": {}
  },
  {
    "name": "Minnesota Zen Meditation Center",
    "address": "327 Snelling Ave N, St Paul, MN 55104",
    "phone": "(651) 641-7304",
    "rating": 4.4,
    "reviews": 25,
    "website": "https://www.mnzen.org/",
    "category": "Buddhist-owned Athletic conditioning in Minnesota",
    "description": "A Zen Buddhist meditation center offering classes, study, and practice guidance",
    "hours": "Mon-Fri 9AM-6PM",
    "services": [
      "Buddhist-owned Athletic conditioning in Minnesota consultation",
      "Professional service",
      "Quality guarantee"
    ],
    "social_links": {}
  },
  {
    "name": "Dharma Field - Zen Meditation Center",
    "address": "3200 19th Ave S, Minneapolis, MN 55407",
    "phone": "(612) 724-0404",
    "rating": 4.3,
    "reviews": 25,
    "website": "https://www.dharmafield.org/",
    "category": "Buddhist-owned Athletic conditioning in Minnesota",
    "description": "A Zen meditation center offering instruction on mindfulness meditation, talks, and classes on Zen Buddhism",
    "hours": "Mon-Fri 9AM-6PM",
    "services": [
      "Buddhist-owned Athletic conditioning in Minnesota consultation",
      "Professional service",
      "Quality guarantee"
    ],
    "social_links": {}
  },
  {
    "name": "Mia Bolte, Buddhist Meditation, Mindfulness Psychotherapist, Mentor",
    "address": "2801 E 42nd St, Minneapolis, MN 55406",
    "phone": "(612) 200-5302",
    "rating": 4.3,
    "reviews": 25,
    "website": "https://www.miabolte.com/",
    "category": "Buddhist-owned Athletic conditioning in Minnesota",
    "description": "Offers Buddhist-inspired online courses, mentoring, and coaching with a focus on mindfulness and self-awareness",
    "hours": "Mon-Fri 9AM-6PM",
    "services": [
      "Buddhist-owned Athletic conditioning in Minnesota consultation",
      "Professional service",
      "Quality guarantee"
    ],
    "social_links": {}
  },
  {
    "name": "Dr. Roberts (Therapist)",
    "address": "Online in Mantorville, Minnesota (Online Only)",
    "phone": "(507) 635-5000",
    "rating": 4.2,
    "reviews": 25,
    "website": "https://www.therapytribe.com/therapists/mantorville-mn/buddhist",
    "category": "Buddhist-owned Athletic conditioning in Minnesota",
    "description": "A therapist with a Buddhist-informed approach, offering somatic coaching and trauma resiliency life coaching. While not athletic conditioning, it aligns with a holistic well-being focus",
    "hours": "Mon-Fri 9AM-6PM",
    "services": [
      "Buddhist-owned Athletic conditioning in Minnesota consultation",
      "Professional service",
      "Quality guarantee"
    ],
    "social_links": {}
  }
]