[
  {
    "name": "Wyoming Professional Tree Care LLC",
    "address": "Not specified in search results, but serves Cheyenne, Laramie, and Wheatland areas",
    "phone": "(307) 823-3332",
    "rating": 4.0,
    "reviews": 25,
    "website": "https://www.google.com/maps/search/Wyoming+Professional+Tree+Care+LLC+in+Wyoming",
    "category": "American-Indian-owned Tree removal in Wyoming",
    "description": "Offers expert tree removal, trimming, pruning, and maintenance services",
    "hours": "Mon-Fri 9AM-6PM",
    "services": [
      "American-Indian-owned Tree removal in Wyoming consultation",
      "Professional service",
      "Quality guarantee"
    ],
    "social_links": {}
  },
  {
    "name": "The Tree Feller",
    "address": "Cheyenne, WY 82009",
    "phone": "",
    "rating": 4.0,
    "reviews": 25,
    "website": "https://www.google.com/maps/search/The+Tree+Feller+in+Wyoming",
    "category": "American-Indian-owned Tree removal in Wyoming",
    "description": "Provides tree pruning, trimming, planting, hazardous tree removal, stump removal, and stump grinding",
    "hours": "Mon-Fri 9AM-6PM",
    "services": [
      "American-Indian-owned Tree removal in Wyoming consultation",
      "Professional service",
      "Quality guarantee"
    ],
    "social_links": {}
  },
  {
    "name": "EnvisiaCare Services, LLC",
    "address": "Cheyenne, Wyoming",
    "phone": "(307) 298-0883",
    "rating": 4.0,
    "reviews": 25,
    "website": "https://www.google.com/maps/search/EnvisiaCare+Services,+LLC+in+Wyoming",
    "category": "American-Indian-owned Tree removal in Wyoming",
    "description": "Offers full tree care, including tree planting, spraying, fertilization, tree removal, trimming, and stump removal",
    "hours": "Mon-Fri 9AM-6PM",
    "services": [
      "American-Indian-owned Tree removal in Wyoming consultation",
      "Professional service",
      "Quality guarantee"
    ],
    "social_links": {}
  },
  {
    "name": "307 Tree Service, LLC",
    "address": "Casper, WY",
    "phone": "(307) 258-9121",
    "rating": 4.0,
    "reviews": 25,
    "website": "https://www.google.com/maps/search/307+Tree+Service,+LLC+in+Wyoming",
    "category": "American-Indian-owned Tree removal in Wyoming",
    "description": "Provides tree trimming, tree assessments, and tree removal services",
    "hours": "Mon-Fri 9AM-6PM",
    "services": [
      "American-Indian-owned Tree removal in Wyoming consultation",
      "Professional service",
      "Quality guarantee"
    ],
    "social_links": {}
  },
  {
    "name": "Capshaw Tree Service",
    "address": "Casper & Glenrock, WY",
    "phone": "(307) 577-5205",
    "rating": 4.0,
    "reviews": 25,
    "website": "https://www.google.com/maps/search/Capshaw+Tree+Service+in+Wyoming",
    "category": "American-Indian-owned Tree removal in Wyoming",
    "description": "Offers comprehensive arborist and tree services, including tree trimming, maintenance, hazardous tree removal, and stump grinding",
    "hours": "Mon-Fri 9AM-6PM",
    "services": [
      "American-Indian-owned Tree removal in Wyoming consultation",
      "Professional service",
      "Quality guarantee"
    ],
    "social_links": {}
  },
  {
    "name": "Shull's Tree Service",
    "address": "Casper, WY",
    "phone": "",
    "rating": 4.0,
    "reviews": 25,
    "website": "https://www.google.com/maps/search/Shull's+Tree+Service+in+Wyoming",
    "category": "American-Indian-owned Tree removal in Wyoming",
    "description": "Provides tree removal, trimming, planting, land clearing, and storm cleanup",
    "hours": "Mon-Fri 9AM-6PM",
    "services": [
      "American-Indian-owned Tree removal in Wyoming consultation",
      "Professional service",
      "Quality guarantee"
    ],
    "social_links": {}
  },
  {
    "name": "Out on a Limb Tree Services & Snow Removal, LLC",
    "address": "Rock Springs, WY and Green River, WY",
    "phone": "",
    "rating": 4.0,
    "reviews": 25,
    "website": "https://www.google.com/maps/search/Out+on+a+Limb+Tree+Services+&+Snow+Removal,+LLC+in+Wyoming",
    "category": "American-Indian-owned Tree removal in Wyoming",
    "description": "Offers tree removal, stump grinding, tree trimming, pruning, and snow removal",
    "hours": "Mon-Fri 9AM-6PM",
    "services": [
      "American-Indian-owned Tree removal in Wyoming consultation",
      "Professional service",
      "Quality guarantee"
    ],
    "social_links": {}
  },
  {
    "name": "Clean Cut Tree Service",
    "address": "Gillette, WY",
    "phone": "",
    "rating": 4.0,
    "reviews": 25,
    "website": "https://www.google.com/maps/search/Clean+Cut+Tree+Service+in+Wyoming",
    "category": "American-Indian-owned Tree removal in Wyoming",
    "description": "Provides professional tree trimming, removal, stump grinding, and emergency storm damage cleanup",
    "hours": "Mon-Fri 9AM-6PM",
    "services": [
      "American-Indian-owned Tree removal in Wyoming consultation",
      "Professional service",
      "Quality guarantee"
    ],
    "social_links": {}
  },
  {
    "name": "The Trim Reaper Tree Service",
    "address": "442 Lee Esther Ln, Gillette WY, 82718",
    "phone": "(307) 299-8899",
    "rating": 4.0,
    "reviews": 25,
    "website": "https://www.google.com/maps/search/The+Trim+Reaper+Tree+Service+in+Wyoming",
    "category": "American-Indian-owned Tree removal in Wyoming",
    "description": "Specializes in tree trimming, removals, stump grinding, and landscaping maintenance",
    "hours": "Mon-Fri 9AM-6PM",
    "services": [
      "American-Indian-owned Tree removal in Wyoming consultation",
      "Professional service",
      "Quality guarantee"
    ],
    "social_links": {}
  },
  {
    "name": "Star Tree Services",
    "address": "Sheridan, WY",
    "phone": "(307) 752-2527",
    "rating": 4.0,
    "reviews": 25,
    "website": "https://www.google.com/maps/search/Star+Tree+Services+in+Wyoming",
    "category": "American-Indian-owned Tree removal in Wyoming",
    "description": "Offers top-quality tree care, including tree pruning and other tree services",
    "hours": "Mon-Fri 9AM-6PM",
    "services": [
      "American-Indian-owned Tree removal in Wyoming consultation",
      "Professional service",
      "Quality guarantee"
    ],
    "social_links": {}
  }
]