[
  {
    "name": "Hopson Import Repair",
    "address": "3200 Produce Rd, Louisville, KY 40218",
    "phone": "(502) 479-7000",
    "rating": 4.0,
    "reviews": 25,
    "website": "https://www.hopsonimportrepair.com/",
    "category": "Chinese-American-owned Transmission repair in Kentucky",
    "description": "Specializes in import transmission repair for European and Asian vehicles",
    "hours": "Mon-Fri 9AM-6PM",
    "services": [
      "Chinese-American-owned Transmission repair in Kentucky consultation",
      "Professional service",
      "Quality guarantee"
    ],
    "social_links": {}
  },
  {
    "name": "The Shop KY",
    "address": "9700 Taylorsville Rd, Jeffersontown, KY 40299",
    "phone": "(502) 261-0400",
    "rating": 4.0,
    "reviews": 25,
    "website": "https://www.theshopky.com/",
    "category": "Chinese-American-owned Transmission repair in Kentucky",
    "description": "Focuses on servicing and repairing a wide range of vehicles from leading Asian car manufacturers",
    "hours": "Mon-Fri 9AM-6PM",
    "services": [
      "Chinese-American-owned Transmission repair in Kentucky consultation",
      "Professional service",
      "Quality guarantee"
    ],
    "social_links": {}
  },
  {
    "name": "GermanTech MotorWorks, LLC",
    "address": "4005 Bardstown Rd, Louisville, KY 40218",
    "phone": "(502) 459-3400",
    "rating": 4.0,
    "reviews": 25,
    "website": "https://germantechmotorworks.com/",
    "category": "Chinese-American-owned Transmission repair in Kentucky",
    "description": "Specializes in transmission repair and maintenance for German vehicles",
    "hours": "Mon-Fri 9AM-6PM",
    "services": [
      "Chinese-American-owned Transmission repair in Kentucky consultation",
      "Professional service",
      "Quality guarantee"
    ],
    "social_links": {}
  },
  {
    "name": "Cottman of Louisville KY",
    "address": "1000 Dupont Cir, Louisville, KY 40207",
    "phone": "(502) 895-1111",
    "rating": 4.0,
    "reviews": 25,
    "website": "https://www.cottman.com/locations/louisville-ky/",
    "category": "Chinese-American-owned Transmission repair in Kentucky",
    "description": "Offers transmission repair, remanufacturing, rebuilds, and other auto care needs",
    "hours": "Mon-Fri 9AM-6PM",
    "services": [
      "Chinese-American-owned Transmission repair in Kentucky consultation",
      "Professional service",
      "Quality guarantee"
    ],
    "social_links": {}
  },
  {
    "name": "Tex's Transmissions",
    "address": "1145 Alton Rd, Lawrenceburg, KY 40342",
    "phone": "(502) 839-5252",
    "rating": 4.0,
    "reviews": 25,
    "website": "https://www.texstrans.com/",
    "category": "Chinese-American-owned Transmission repair in Kentucky",
    "description": "Provides expert full-service auto repair, specializing in transmissions, brakes, and more for all makes and models",
    "hours": "Mon-Fri 9AM-6PM",
    "services": [
      "Chinese-American-owned Transmission repair in Kentucky consultation",
      "Professional service",
      "Quality guarantee"
    ],
    "social_links": {}
  },
  {
    "name": "Ohio Valley Transmission Service LLC",
    "address": "1802 E 18th St, Owensboro, KY 42303",
    "phone": "(270) 478-5269",
    "rating": 4.0,
    "reviews": 25,
    "website": "https://www.ohiovalleytransmissions.com/",
    "category": "Chinese-American-owned Transmission repair in Kentucky",
    "description": "Offers professional transmission repair services for Asian vehicles, among others",
    "hours": "Mon-Fri 9AM-6PM",
    "services": [
      "Chinese-American-owned Transmission repair in Kentucky consultation",
      "Professional service",
      "Quality guarantee"
    ],
    "social_links": {}
  },
  {
    "name": "Lee Myles AutoCare + Transmissions",
    "address": "1225 Westen St, Bowling Green, KY 42101",
    "phone": "(270) 781-1611",
    "rating": 4.0,
    "reviews": 25,
    "website": "https://www.leemylesbg.com/",
    "category": "Chinese-American-owned Transmission repair in Kentucky",
    "description": "The only AAA-certified transmission repair center in Bowling Green, KY, offering services for most makes and models",
    "hours": "Mon-Fri 9AM-6PM",
    "services": [
      "Chinese-American-owned Transmission repair in Kentucky consultation",
      "Professional service",
      "Quality guarantee"
    ],
    "social_links": {}
  },
  {
    "name": "AAMCO East Lexington",
    "address": "1110 Winchester Rd, Lexington, KY 40505",
    "phone": "(859) 255-2727",
    "rating": 4.0,
    "reviews": 25,
    "website": "https://www.aamco.com/auto-repair-centers/lexington-east-ky-40505/aamco-lexington-east-ky-10109",
    "category": "Chinese-American-owned Transmission repair in Kentucky",
    "description": "Provides transmission services, including repair, rebuilding, and replacement, as well as other auto repair services",
    "hours": "Mon-Fri 9AM-6PM",
    "services": [
      "Chinese-American-owned Transmission repair in Kentucky consultation",
      "Professional service",
      "Quality guarantee"
    ],
    "social_links": {}
  },
  {
    "name": "Lexington Transmission",
    "address": "1040 Industry Rd, Lexington, KY 40511",
    "phone": "(859) 255-3000",
    "rating": 4.0,
    "reviews": 25,
    "website": "https://www.lexingtontransmission.com/",
    "category": "Chinese-American-owned Transmission repair in Kentucky",
    "description": "Offers complete transmission services and auto repairs with ASE-certified mechanics",
    "hours": "Mon-Fri 9AM-6PM",
    "services": [
      "Chinese-American-owned Transmission repair in Kentucky consultation",
      "Professional service",
      "Quality guarantee"
    ],
    "social_links": {}
  }
]