[
  {
    "name": "Aurora Health Care",
    "address": "Multiple locations throughout Eastern Wisconsin",
    "phone": "(888) 433-7287",
    "rating": 4.0,
    "reviews": 25,
    "website": "https://www.aurorahealthcare.org/",
    "category": "Buddhist-owned Postnatal recovery in Wisconsin",
    "description": "Offers comprehensive postpartum care, including breastfeeding support, newborn care, and postpartum depression support. They have lactation consultants available at all birthing centers",
    "hours": "Mon-Fri 9AM-6PM",
    "services": [
      "Buddhist-owned Postnatal recovery in Wisconsin consultation",
      "Professional service",
      "Quality guarantee"
    ],
    "social_links": {}
  },
  {
    "name": "Moms Mental Health Initiative",
    "address": "Southeast Wisconsin (specific location not detailed, likely serves the region)",
    "phone": "(414) 235-7575",
    "rating": 4.0,
    "reviews": 25,
    "website": "https://www.momsmentalhealthinitiative.org/",
    "category": "Buddhist-owned Postnatal recovery in Wisconsin",
    "description": "A nonprofit organization providing peer support, resources for finding therapists and doctors, and information for mothers navigating perinatal mental health conditions",
    "hours": "Mon-Fri 9AM-6PM",
    "services": [
      "Buddhist-owned Postnatal recovery in Wisconsin consultation",
      "Professional service",
      "Quality guarantee"
    ],
    "social_links": {}
  },
  {
    "name": "Comfort Keepers Home Care",
    "address": "Franklin, Wisconsin (serves the surrounding areas)",
    "phone": "(414) 433-8194",
    "rating": 4.0,
    "reviews": 25,
    "website": "https://www.comfortkeepers.com/",
    "category": "Buddhist-owned Postnatal recovery in Wisconsin",
    "description": "Provides in-home care services for postpartum mothers, including personal care, meal preparation, light housekeeping, and emotional support",
    "hours": "Mon-Fri 9AM-6PM",
    "services": [
      "Buddhist-owned Postnatal recovery in Wisconsin consultation",
      "Professional service",
      "Quality guarantee"
    ],
    "social_links": {}
  },
  {
    "name": "Wisco Lactation",
    "address": "Serves Southeast Wisconsin, including Milwaukee, Madison, and Kenosha",
    "phone": "(262) 415-0500",
    "rating": 4.0,
    "reviews": 25,
    "website": "https://www.wiscolactation.com/",
    "category": "Buddhist-owned Postnatal recovery in Wisconsin",
    "description": "Offers comprehensive lactation care with advanced training in oral function, breastfeeding, pumping, and bottle feeding. They accept most insurance",
    "hours": "Mon-Fri 9AM-6PM",
    "services": [
      "Buddhist-owned Postnatal recovery in Wisconsin consultation",
      "Professional service",
      "Quality guarantee"
    ],
    "social_links": {}
  },
  {
    "name": "Success Lactation Specialists, LLC",
    "address": "Serves Southeastern Wisconsin, including Milwaukee, Waukesha, Racine, Kenosha, Ozaukee, and Walworth Counties",
    "phone": "(262) 309-1070",
    "rating": 4.0,
    "reviews": 25,
    "website": "https://www.successlactationspecialists.com/",
    "category": "Buddhist-owned Postnatal recovery in Wisconsin",
    "description": "Provides home visit lactation consultant services, including prenatal and postpartum visits, packages, birth plans, and classes",
    "hours": "Mon-Fri 9AM-6PM",
    "services": [
      "Buddhist-owned Postnatal recovery in Wisconsin consultation",
      "Professional service",
      "Quality guarantee"
    ],
    "social_links": {}
  },
  {
    "name": "Peaceful Babies Newborn Care & Sleep Coaching",
    "address": "Serves the greater Madison and Milwaukee areas of Southern Wisconsin",
    "phone": "(608) 520-0115",
    "rating": 4.0,
    "reviews": 25,
    "website": "https://peacefulbabies.com/",
    "category": "Buddhist-owned Postnatal recovery in Wisconsin",
    "description": "Offers overnight newborn care, twin overnight care, and holistic sleep coaching. They provide gentle and attentive support for newborns and parents",
    "hours": "Mon-Fri 9AM-6PM",
    "services": [
      "Buddhist-owned Postnatal recovery in Wisconsin consultation",
      "Professional service",
      "Quality guarantee"
    ],
    "social_links": {}
  },
  {
    "name": "Empowering Birth Services",
    "address": "Madison, WI",
    "phone": "(608) 338-0320",
    "rating": 4.0,
    "reviews": 25,
    "website": "https://empoweringbirthservices.com/",
    "category": "Buddhist-owned Postnatal recovery in Wisconsin",
    "description": "Provides overnight postpartum doula support and newborn care, along with holistic support for fertility, pregnancy, and postpartum",
    "hours": "Mon-Fri 9AM-6PM",
    "services": [
      "Buddhist-owned Postnatal recovery in Wisconsin consultation",
      "Professional service",
      "Quality guarantee"
    ],
    "social_links": {}
  },
  {
    "name": "Alba Birth Center",
    "address": "1010 N. Westhaven Dr., Oshkosh, WI 54904",
    "phone": "(920) 882-6200",
    "rating": 4.0,
    "reviews": 25,
    "website": "https://www.albabirthcenter.com/",
    "category": "Buddhist-owned Postnatal recovery in Wisconsin",
    "description": "Offers comprehensive postpartum care for mothers and newborns for up to 6 weeks after birth, including physical check-ups, emotional support, newborn education, and breastfeeding guidance",
    "hours": "Mon-Fri 9AM-6PM",
    "services": [
      "Buddhist-owned Postnatal recovery in Wisconsin consultation",
      "Professional service",
      "Quality guarantee"
    ],
    "social_links": {}
  },
  {
    "name": "Millie Birth & Wellness",
    "address": "Waukesha, Wisconsin (serves Southeast Wisconsin)",
    "phone": "(262) 372-0718",
    "rating": 4.0,
    "reviews": 25,
    "website": "https://www.milliebirthandwellness.com/",
    "category": "Buddhist-owned Postnatal recovery in Wisconsin",
    "description": "Offers holistic doula support throughout pregnancy and postpartum, including prenatal support, labor and birth support, and postpartum care such as help with breastfeeding, meal preparation, and light housekeeping",
    "hours": "Mon-Fri 9AM-6PM",
    "services": [
      "Buddhist-owned Postnatal recovery in Wisconsin consultation",
      "Professional service",
      "Quality guarantee"
    ],
    "social_links": {}
  },
  {
    "name": "Ascension Wisconsin",
    "address": "Multiple locations in Appleton and Milwaukee",
    "phone": "(800) 272-3456",
    "rating": 4.0,
    "reviews": 25,
    "website": "https://healthcare.ascension.org/",
    "category": "Buddhist-owned Postnatal recovery in Wisconsin",
    "description": "Provides midwifery care, including prenatal care, labor and delivery support, and postpartum care. They also offer breastfeeding support and classes",
    "hours": "Mon-Fri 9AM-6PM",
    "services": [
      "Buddhist-owned Postnatal recovery in Wisconsin consultation",
      "Professional service",
      "Quality guarantee"
    ],
    "social_links": {}
  }
]