[
  {
    "name": "Premier Security LLC",
    "address": "2535 North Button Bush Circle, Wichita, KS",
    "phone": "316-264-4646",
    "rating": 4.76,
    "reviews": 25,
    "website": "https://www.premiersecurity.com/",
    "category": "African-American-owned 24 7 monitoring in Kansas",
    "description": "Offers home and business security and surveillance systems, with 24/7 monitoring. They are a three-time Best of Wichita winner",
    "hours": "Mon-Fri 9AM-6PM",
    "services": [
      "African-American-owned 24 7 monitoring in Kansas consultation",
      "Professional service",
      "Quality guarantee"
    ],
    "social_links": {}
  },
  {
    "name": "Affordable Monitoring LLC",
    "address": "2518 South Kansas Avenue, Topeka, KS 66603",
    "phone": "785-232-5400",
    "rating": 4.0,
    "reviews": 25,
    "website": "https://affordablemonitoring.com/",
    "category": "African-American-owned 24 7 monitoring in Kansas",
    "description": "Provides various monitoring services including house arrest, GPS, and alcohol monitoring, available 24/7",
    "hours": "Mon-Fri 9AM-6PM",
    "services": [
      "African-American-owned 24 7 monitoring in Kansas consultation",
      "Professional service",
      "Quality guarantee"
    ],
    "social_links": {}
  },
  {
    "name": "Flint Hills Security",
    "address": "P.O. Box 67301, Topeka, KS 66667",
    "phone": "866-858-2566",
    "rating": 4.0,
    "reviews": 25,
    "website": "https://flint-hills-security.com/",
    "category": "African-American-owned 24 7 monitoring in Kansas",
    "description": "A locally owned and operated live-monitoring security company offering home and commercial security systems with 24/7 protection",
    "hours": "Mon-Fri 9AM-6PM",
    "services": [
      "African-American-owned 24 7 monitoring in Kansas consultation",
      "Professional service",
      "Quality guarantee"
    ],
    "social_links": {}
  },
  {
    "name": "VideoKam Security Systems",
    "address": "14020 W. 107th St, Lenexa, KS 66215",
    "phone": "913-438-1100",
    "rating": 5.0,
    "reviews": 25,
    "website": "https://videokamsecurity.com/",
    "category": "African-American-owned 24 7 monitoring in Kansas",
    "description": "Offers intrusion detection, access control, video surveillance, and 24/7 monitoring for residential and commercial clients",
    "hours": "Mon-Fri 9AM-6PM",
    "services": [
      "African-American-owned 24 7 monitoring in Kansas consultation",
      "Professional service",
      "Quality guarantee"
    ],
    "social_links": {}
  },
  {
    "name": "Rueschhoff Security Systems",
    "address": "3727 W 6th St, Suite A, Lawrence, KS 66049",
    "phone": "785-843-2182",
    "rating": 4.0,
    "reviews": 25,
    "website": "https://rueschhoffsecurity.com/",
    "category": "African-American-owned 24 7 monitoring in Kansas",
    "description": "Offers design, installation, and monitoring of security systems for homes and businesses, including 24/7 live monitoring",
    "hours": "Mon-Fri 9AM-6PM",
    "services": [
      "African-American-owned 24 7 monitoring in Kansas consultation",
      "Professional service",
      "Quality guarantee"
    ],
    "social_links": {}
  },
  {
    "name": "Alert 360 Home & Business Security",
    "address": "Specific Wichita storefront address not provided, but serves the Wichita area",
    "phone": "",
    "rating": 4.0,
    "reviews": 25,
    "website": "https://www.alert360.com/locations/wichita-ks/",
    "category": "African-American-owned 24 7 monitoring in Kansas",
    "description": "Provides 24/7 monitoring, smart home automation, and security solutions for homes and businesses in Wichita",
    "hours": "Mon-Fri 9AM-6PM",
    "services": [
      "African-American-owned 24 7 monitoring in Kansas consultation",
      "Professional service",
      "Quality guarantee"
    ],
    "social_links": {}
  },
  {
    "name": "Titan Protection",
    "address": "Headquarters in Overland Park, KS, with branches in Kansas City, MO, and Omaha, NE",
    "phone": "",
    "rating": 4.0,
    "reviews": 25,
    "website": "https://www.titanprotection.com/",
    "category": "African-American-owned 24 7 monitoring in Kansas",
    "description": "Offers 24/7 live video surveillance and virtual security guard systems, as well as on-site security guard services",
    "hours": "Mon-Fri 9AM-6PM",
    "services": [
      "African-American-owned 24 7 monitoring in Kansas consultation",
      "Professional service",
      "Quality guarantee"
    ],
    "social_links": {}
  },
  {
    "name": "Wise Security",
    "address": "Located in Kansas City, MO, services all of Missouri and Kansas",
    "phone": "",
    "rating": 4.0,
    "reviews": 25,
    "website": "https://wisesecurity.com/",
    "category": "African-American-owned 24 7 monitoring in Kansas",
    "description": "Provides residential and commercial security systems, alarm monitoring, and security cameras, with local monitoring through Alarm Central",
    "hours": "Mon-Fri 9AM-6PM",
    "services": [
      "African-American-owned 24 7 monitoring in Kansas consultation",
      "Professional service",
      "Quality guarantee"
    ],
    "social_links": {}
  },
  {
    "name": "A-TEC Security Systems, Inc.",
    "address": "Specific address not provided, but serves the Kansas City area",
    "phone": "913-208-8885",
    "rating": 4.0,
    "reviews": 25,
    "website": "https://www.atecsecurity.com/",
    "category": "African-American-owned 24 7 monitoring in Kansas",
    "description": "Provides Kansas City security systems for businesses and homes, including 24/7 monitoring services, access control, and burglar alarm systems",
    "hours": "Mon-Fri 9AM-6PM",
    "services": [
      "African-American-owned 24 7 monitoring in Kansas consultation",
      "Professional service",
      "Quality guarantee"
    ],
    "social_links": {}
  },
  {
    "name": "ECC (Electronic Controls Company)",
    "address": "9809 E ORME ST SUITE 102, WICHITA, KS 67207",
    "phone": "316-265-7878",
    "rating": 4.0,
    "reviews": 25,
    "website": "https://www.eccoinc.com/",
    "category": "African-American-owned 24 7 monitoring in Kansas",
    "description": "Offers 24/7 Fire Alarm System Monitoring solutions for facilities, ensuring rapid detection and immediate notification",
    "hours": "Mon-Fri 9AM-6PM",
    "services": [
      "African-American-owned 24 7 monitoring in Kansas consultation",
      "Professional service",
      "Quality guarantee"
    ],
    "social_links": {}
  }
]