[
  {
    "name": "Neaman Medi Spa",
    "address": "1550 State St SE, Salem, OR 97302",
    "phone": "(503) 362-8400",
    "rating": 4.5,
    "reviews": 25,
    "website": "https://www.neamanplasticsurgery.com/medispa/",
    "category": "Bengali-speaking Cellulite treatment in Oregon",
    "description": "Offers non-surgical cellulite reduction treatments like Cellutone and SkinMedica Firm & Tone Lotion",
    "hours": "Mon-Fri 9AM-6PM",
    "services": [
      "Bengali-speaking Cellulite treatment in Oregon consultation",
      "Professional service",
      "Quality guarantee"
    ],
    "social_links": {}
  },
  {
    "name": "VIP Medi Spa",
    "address": "1020 NW 23rd Ave, Portland, OR 97210",
    "phone": "(503) 852-5189",
    "rating": 4.8,
    "reviews": 25,
    "website": "https://www.vipmedispa.com/",
    "category": "Bengali-speaking Cellulite treatment in Oregon",
    "description": "Provides a range of cellulite reduction services including Lipodissolve, Velashape, and Mesotherapy",
    "hours": "Mon-Fri 9AM-6PM",
    "services": [
      "Bengali-speaking Cellulite treatment in Oregon consultation",
      "Professional service",
      "Quality guarantee"
    ],
    "social_links": {}
  },
  {
    "name": "Fresh Faces RX",
    "address": "1020 NW 23rd Ave Suite 200, Portland, OR 97210",
    "phone": "(503) 747-3376",
    "rating": 4.9,
    "reviews": 25,
    "website": "https://freshfacesrx.com/",
    "category": "Bengali-speaking Cellulite treatment in Oregon",
    "description": "Offers cellulite treatments like BodyFX and Evolve Trim using radiofrequency energy",
    "hours": "Mon-Fri 9AM-6PM",
    "services": [
      "Bengali-speaking Cellulite treatment in Oregon consultation",
      "Professional service",
      "Quality guarantee"
    ],
    "social_links": {}
  },
  {
    "name": "Celebrity Med Spa",
    "address": "12325 SW Horizon Blvd, Beaverton, OR 97007",
    "phone": "(503) 430-0944",
    "rating": 4.7,
    "reviews": 25,
    "website": "https://celebritymedspa.com/",
    "category": "Bengali-speaking Cellulite treatment in Oregon",
    "description": "Specializes in cellulite reduction treatments using heat-based laser therapy, Exilis Ultra 360, and CoolSculpting Elite",
    "hours": "Mon-Fri 9AM-6PM",
    "services": [
      "Bengali-speaking Cellulite treatment in Oregon consultation",
      "Professional service",
      "Quality guarantee"
    ],
    "social_links": {}
  },
  {
    "name": "Laser Skin Solutions",
    "address": "Multiple locations including Portland and Clackamas. For Portland: 1020 NW 23rd Ave Suite 200, Portland, OR 97210",
    "phone": "(503) 747-3376",
    "rating": 4.9,
    "reviews": 25,
    "website": "https://laserskinsolutions.com/",
    "category": "Bengali-speaking Cellulite treatment in Oregon",
    "description": "Offers body contouring and cellulite treatments such as Cavi-Lipo, CoolPlas, EMS Body Contouring, and Vela Shape",
    "hours": "Mon-Fri 9AM-6PM",
    "services": [
      "Bengali-speaking Cellulite treatment in Oregon consultation",
      "Professional service",
      "Quality guarantee"
    ],
    "social_links": {}
  },
  {
    "name": "Renew Aesthetic & Laser Clinic",
    "address": "9555 SW Barnes Rd Suite 360, Portland, OR 97225",
    "phone": "(503) 208-2999",
    "rating": 4.8,
    "reviews": 25,
    "website": "https://renewaestheticclinic.com/",
    "category": "Bengali-speaking Cellulite treatment in Oregon",
    "description": "Provides FDA-approved cellulite treatment, including Av\u00e9li\u2122, to reduce the appearance of cellulite",
    "hours": "Mon-Fri 9AM-6PM",
    "services": [
      "Bengali-speaking Cellulite treatment in Oregon consultation",
      "Professional service",
      "Quality guarantee"
    ],
    "social_links": {}
  },
  {
    "name": "The Oregon Clinic (Dr. Sean McNally)",
    "address": "1200 NW 23rd Ave Suite 100, Portland, OR 97210",
    "phone": "(503) 935-7000",
    "rating": 4.4,
    "reviews": 25,
    "website": "https://www.theoregonclinic.com/",
    "category": "Bengali-speaking Cellulite treatment in Oregon",
    "description": "Offers innovative cellulite reduction treatments using Aveli technology to release fibrous bands causing cellulite",
    "hours": "Mon-Fri 9AM-6PM",
    "services": [
      "Bengali-speaking Cellulite treatment in Oregon consultation",
      "Professional service",
      "Quality guarantee"
    ],
    "social_links": {}
  },
  {
    "name": "Key Laser Institute",
    "address": "1020 NW 23rd Ave Suite 100, Portland, OR 97210",
    "phone": "(503) 291-1953",
    "rating": 4.7,
    "reviews": 25,
    "website": "https://keylaser.com/",
    "category": "Bengali-speaking Cellulite treatment in Oregon",
    "description": "Provides cellulite removal treatments such as ThermiTight and ThermiSmooth, which use radiofrequency energy",
    "hours": "Mon-Fri 9AM-6PM",
    "services": [
      "Bengali-speaking Cellulite treatment in Oregon consultation",
      "Professional service",
      "Quality guarantee"
    ],
    "social_links": {}
  },
  {
    "name": "The Waldorf Center for Plastic Surgery",
    "address": "9755 SW Barnes Rd Suite 100, Portland, OR 97225",
    "phone": "(503) 646-0101",
    "rating": 4.6,
    "reviews": 25,
    "website": "https://www.waldorfplasticsurgery.com/",
    "category": "Bengali-speaking Cellulite treatment in Oregon",
    "description": "Offers Emtone\u2122 cellulite treatment, which uses two forms of specialized energy to reduce the appearance of dimples",
    "hours": "Mon-Fri 9AM-6PM",
    "services": [
      "Bengali-speaking Cellulite treatment in Oregon consultation",
      "Professional service",
      "Quality guarantee"
    ],
    "social_links": {}
  },
  {
    "name": "Gilson Plastic Surgery",
    "address": "1020 NW 23rd Ave Suite 200, Portland, OR 97210",
    "phone": "(503) 770-5010",
    "rating": 4.9,
    "reviews": 25,
    "website": "https://www.gilsonplasticsurgery.com/",
    "category": "Bengali-speaking Cellulite treatment in Oregon",
    "description": "Provides Av\u00e9li\u2122 cellulite reduction, a minimally invasive solution that precisely targets the underlying causes of cellulite",
    "hours": "Mon-Fri 9AM-6PM",
    "services": [
      "Bengali-speaking Cellulite treatment in Oregon consultation",
      "Professional service",
      "Quality guarantee"
    ],
    "social_links": {}
  }
]