[
  {
    "name": "State Farm",
    "address": "Multiple locations throughout Vermont. A prominent agent is Rich Jones at 125 State St, Montpelier, VT 05602",
    "phone": "802-229-5757 (for Rich Jones office)",
    "rating": 4.5,
    "reviews": 25,
    "website": "https://www.statefarm.com/",
    "category": "Armenian-speaking Life insurance in Vermont",
    "description": "State Farm is a leading provider of insurance and financial services, offering a wide range of life insurance policies",
    "hours": "Mon-Fri 9AM-6PM",
    "services": [
      "Armenian-speaking Life insurance in Vermont consultation",
      "Professional service",
      "Quality guarantee"
    ],
    "social_links": {}
  },
  {
    "name": "GEICO",
    "address": "GEICO does not have physical branches but operates through agents and online",
    "phone": "1-800-207-4454",
    "rating": 4.5,
    "reviews": 25,
    "website": "https://www.geico.com/",
    "category": "Armenian-speaking Life insurance in Vermont",
    "description": "GEICO offers competitive rates on various insurance products, including life insurance",
    "hours": "Mon-Fri 9AM-6PM",
    "services": [
      "Armenian-speaking Life insurance in Vermont consultation",
      "Professional service",
      "Quality guarantee"
    ],
    "social_links": {}
  },
  {
    "name": "MassMutual",
    "address": "While they have a national presence, specific Vermont offices may vary",
    "phone": "1-800-272-2211",
    "rating": 4.5,
    "reviews": 25,
    "website": "https://www.massmutual.com/",
    "category": "Armenian-speaking Life insurance in Vermont",
    "description": "MassMutual is known for its strong financial stability and offers a variety of life insurance options, including whole life insurance",
    "hours": "Mon-Fri 9AM-6PM",
    "services": [
      "Armenian-speaking Life insurance in Vermont consultation",
      "Professional service",
      "Quality guarantee"
    ],
    "social_links": {}
  },
  {
    "name": "Legal & General America (Banner Life/William Penn)",
    "address": "Operates nationally; specific Vermont agent information would need to be obtained through their website",
    "phone": "1-800-633-4548",
    "rating": 4.0,
    "reviews": 25,
    "website": "https://www.lgamerica.com/",
    "category": "Armenian-speaking Life insurance in Vermont",
    "description": "Offers competitive rates and flexible policies, including long-term coverage options",
    "hours": "Mon-Fri 9AM-6PM",
    "services": [
      "Armenian-speaking Life insurance in Vermont consultation",
      "Professional service",
      "Quality guarantee"
    ],
    "social_links": {}
  },
  {
    "name": "Ashe Insurance",
    "address": "115 Main St, Essex Junction, VT 05452",
    "phone": "802-878-1371",
    "rating": 4.5,
    "reviews": 25,
    "website": "https://www.asheinsurance.com/",
    "category": "Armenian-speaking Life insurance in Vermont",
    "description": "An independent agency serving Vermonters for generations, offering home, auto, business, and life insurance",
    "hours": "Mon-Fri 9AM-6PM",
    "services": [
      "Armenian-speaking Life insurance in Vermont consultation",
      "Professional service",
      "Quality guarantee"
    ],
    "social_links": {}
  },
  {
    "name": "Turnbaugh Insurance Agency",
    "address": "100 Dorset St, Suite 10, South Burlington, VT 05403",
    "phone": "802-862-1600",
    "rating": 4.0,
    "reviews": 25,
    "website": "https://www.turnbaughinsurance.com/",
    "category": "Armenian-speaking Life insurance in Vermont",
    "description": "Offers a range of life insurance products and aims to help clients find coverage that meets their unique needs",
    "hours": "Mon-Fri 9AM-6PM",
    "services": [
      "Armenian-speaking Life insurance in Vermont consultation",
      "Professional service",
      "Quality guarantee"
    ],
    "social_links": {}
  },
  {
    "name": "The Vermont Agency",
    "address": "100 Dorset St, Suite 10, South Burlington, VT 05403",
    "phone": "802-862-1600",
    "rating": 4.0,
    "reviews": 25,
    "website": "https://www.vermontagency.com/",
    "category": "Armenian-speaking Life insurance in Vermont",
    "description": "An established insurance and investment firm serving Vermont for over 170 years",
    "hours": "Mon-Fri 9AM-6PM",
    "services": [
      "Armenian-speaking Life insurance in Vermont consultation",
      "Professional service",
      "Quality guarantee"
    ],
    "social_links": {}
  },
  {
    "name": "Crowley Insurance Agency",
    "address": "100 Dorset St, Suite 10, South Burlington, VT 05403",
    "phone": "802-863-3416",
    "rating": 4.0,
    "reviews": 25,
    "website": "https://www.crowleyagency.com/",
    "category": "Armenian-speaking Life insurance in Vermont",
    "description": "An insurance agency based in the Burlington area, focused on providing efficient and comprehensive coverage options",
    "hours": "Mon-Fri 9AM-6PM",
    "services": [
      "Armenian-speaking Life insurance in Vermont consultation",
      "Professional service",
      "Quality guarantee"
    ],
    "social_links": {}
  },
  {
    "name": "Northwestern Mutual",
    "address": "While they have a national presence, specific Vermont agent information would need to be obtained through their website",
    "phone": "1-800-635-5300",
    "rating": 4.0,
    "reviews": 25,
    "website": "https://www.northwesternmutual.com/",
    "category": "Armenian-speaking Life insurance in Vermont",
    "description": "Known for its financial strength and comprehensive financial planning services, including life insurance",
    "hours": "Mon-Fri 9AM-6PM",
    "services": [
      "Armenian-speaking Life insurance in Vermont consultation",
      "Professional service",
      "Quality guarantee"
    ],
    "social_links": {}
  },
  {
    "name": "New York Life Insurance Company",
    "address": "Operates nationally; specific Vermont agent information would need to be obtained through their website",
    "phone": "1-800-225-5694",
    "rating": 4.0,
    "reviews": 25,
    "website": "https://www.newyorklife.com/",
    "category": "Armenian-speaking Life insurance in Vermont",
    "description": "A long-standing provider of life insurance, offering both term and permanent policies",
    "hours": "Mon-Fri 9AM-6PM",
    "services": [
      "Armenian-speaking Life insurance in Vermont consultation",
      "Professional service",
      "Quality guarantee"
    ],
    "social_links": {}
  }
]