[
  {
    "name": "24 Hour Fitness - Tacoma Super-Sport",
    "address": "111 South 38th Street, Tacoma, WA 98405",
    "phone": "(253) 473-3333",
    "rating": 4.0,
    "reviews": 25,
    "website": "https://www.24hourfitness.com/gyms/wa/tacoma/111-s-38th-st",
    "category": "African-American-owned 24-hour fitness centers in Washington",
    "description": "Offers a wide range of fitness equipment, classes, and personal training",
    "hours": "Mon-Fri 9AM-6PM",
    "services": [
      "African-American-owned 24-hour fitness centers in Washington consultation",
      "Professional service",
      "Quality guarantee"
    ],
    "social_links": {}
  },
  {
    "name": "24 Hour Fitness - Vancouver 131st Ave Super-Sport",
    "address": "13100 SE 131st Ave, Vancouver, WA 98683",
    "phone": "(360) 256-0115",
    "rating": 4.0,
    "reviews": 25,
    "website": "https://www.24hourfitness.com/gyms/wa/vancouver/13100-se-131st-ave",
    "category": "African-American-owned 24-hour fitness centers in Washington",
    "description": "Provides premium strength and cardio equipment, turf zones, and studio classes",
    "hours": "Mon-Fri 9AM-6PM",
    "services": [
      "African-American-owned 24-hour fitness centers in Washington consultation",
      "Professional service",
      "Quality guarantee"
    ],
    "social_links": {}
  },
  {
    "name": "Transform 180 Training",
    "address": "Multiple locations in Seattle, WA (South Lake Union and Belltown)",
    "phone": "",
    "rating": 4.0,
    "reviews": 25,
    "website": "https://transform180training.com/",
    "category": "African-American-owned 24-hour fitness centers in Washington",
    "description": "Offers personal training and 24/7 access to fitness equipment",
    "hours": "Mon-Fri 9AM-6PM",
    "services": [
      "African-American-owned 24-hour fitness centers in Washington consultation",
      "Professional service",
      "Quality guarantee"
    ],
    "social_links": {}
  },
  {
    "name": "Anytime Fitness - Vancouver",
    "address": "1111 SE 164th Ave, Vancouver, WA 98683",
    "phone": "(360) 828-1000",
    "rating": 4.0,
    "reviews": 25,
    "website": "https://www.anytimefitness.com/gyms/3630/vancouver-wa-98683/",
    "category": "African-American-owned 24-hour fitness centers in Washington",
    "description": "Locally owned and operated gym offering 24/7 access and personalized coaching",
    "hours": "Mon-Fri 9AM-6PM",
    "services": [
      "African-American-owned 24-hour fitness centers in Washington consultation",
      "Professional service",
      "Quality guarantee"
    ],
    "social_links": {}
  },
  {
    "name": "Anytime Fitness - Spokane",
    "address": "10010 N Division St, Spokane, WA 99218",
    "phone": "(509) 467-1500",
    "rating": 4.0,
    "reviews": 25,
    "website": "https://www.anytimefitness.com/gyms/3575/spokane-wa-99218/",
    "category": "African-American-owned 24-hour fitness centers in Washington",
    "description": "Offers 24/7 access, personalized coaching, and a supportive community",
    "hours": "Mon-Fri 9AM-6PM",
    "services": [
      "African-American-owned 24-hour fitness centers in Washington consultation",
      "Professional service",
      "Quality guarantee"
    ],
    "social_links": {}
  },
  {
    "name": "Snap Fitness",
    "address": "Multiple locations in Washington (specific addresses not provided in search results for 24-hour access)",
    "phone": "",
    "rating": 4.0,
    "reviews": 25,
    "website": "https://www.snapfitness.com/",
    "category": "African-American-owned 24-hour fitness centers in Washington",
    "description": "Provides 24/7 gyms with modern equipment and community fitness",
    "hours": "Mon-Fri 9AM-6PM",
    "services": [
      "African-American-owned 24-hour fitness centers in Washington consultation",
      "Professional service",
      "Quality guarantee"
    ],
    "social_links": {}
  },
  {
    "name": "The Base Fitness",
    "address": "Not specified in search results",
    "phone": "",
    "rating": 4.0,
    "reviews": 25,
    "website": "https://www.thebasefitness.com/",
    "category": "African-American-owned 24-hour fitness centers in Washington",
    "description": "A 24-hour private training center with various gym equipment, sauna, and indoor turf",
    "hours": "Mon-Fri 9AM-6PM",
    "services": [
      "African-American-owned 24-hour fitness centers in Washington consultation",
      "Professional service",
      "Quality guarantee"
    ],
    "social_links": {}
  },
  {
    "name": "Black Goat Fitness",
    "address": "Multiple locations in Liberty Lake, Post Falls, and Spokane, WA",
    "phone": "",
    "rating": 5.0,
    "reviews": 25,
    "website": "https://www.blackgoatfitness.com/",
    "category": "African-American-owned 24-hour fitness centers in Washington",
    "description": "Offers fitness gyms with a focus on building confidence and good habits",
    "hours": "Mon-Fri 9AM-6PM",
    "services": [
      "African-American-owned 24-hour fitness centers in Washington consultation",
      "Professional service",
      "Quality guarantee"
    ],
    "social_links": {}
  },
  {
    "name": "MUV Fitness - North Spokane",
    "address": "10010 N Division St, Spokane, WA 99218",
    "phone": "(509) 467-1500",
    "rating": 4.0,
    "reviews": 25,
    "website": "https://www.muvfitness.com/locations/north-spokane/",
    "category": "African-American-owned 24-hour fitness centers in Washington",
    "description": "Offers state-of-the-art cardio, strength training, personal training, and group fitness",
    "hours": "Mon-Fri 9AM-6PM",
    "services": [
      "African-American-owned 24-hour fitness centers in Washington consultation",
      "Professional service",
      "Quality guarantee"
    ],
    "social_links": {}
  },
  {
    "name": "MUV Fitness - East Spokane",
    "address": "1502 N Argonne Rd, Spokane Valley, WA 99012",
    "phone": "(509) 926-1241",
    "rating": 4.0,
    "reviews": 25,
    "website": "https://www.muvfitness.com/locations/spokane-valley/",
    "category": "African-American-owned 24-hour fitness centers in Washington",
    "description": "Provides comprehensive fitness services including cardio, strength, group classes, and amenities like childcare",
    "hours": "Mon-Fri 9AM-6PM",
    "services": [
      "African-American-owned 24-hour fitness centers in Washington consultation",
      "Professional service",
      "Quality guarantee"
    ],
    "social_links": {}
  }
]