[
  {
    "name": "The Mind Parlor",
    "address": "1400 Preston Rd Suite 400, Dallas, TX 75202",
    "phone": "(469) 450-3400",
    "rating": 4.0,
    "reviews": 25,
    "website": "https://www.themindparlor.com/",
    "category": "African-American-owned Therapists in Texas",
    "description": "Offers culturally affirming therapy for people of color and immigrants in the Dallas-Fort Worth area, with services available both in-person and online across Texas",
    "hours": "Mon-Fri 9AM-6PM",
    "services": [
      "African-American-owned Therapists in Texas consultation",
      "Professional service",
      "Quality guarantee"
    ],
    "social_links": {}
  },
  {
    "name": "Aspen Counseling & Wellness",
    "address": "2000 North Loop West, Suite 100, Houston, TX 77018",
    "phone": "(832) 720-0707",
    "rating": 4.0,
    "reviews": 25,
    "website": "https://www.aspencounselingtx.com/",
    "category": "African-American-owned Therapists in Texas",
    "description": "A Black-owned mental health practice providing culturally affirming therapy across Texas, specializing in trauma-informed care, therapy for Black women and men, and couples counseling",
    "hours": "Mon-Fri 9AM-6PM",
    "services": [
      "African-American-owned Therapists in Texas consultation",
      "Professional service",
      "Quality guarantee"
    ],
    "social_links": {}
  },
  {
    "name": "You & Me + Therapy",
    "address": "1400 Preston Rd Suite 400, Dallas, TX 75202",
    "phone": "(469) 450-3400",
    "rating": 4.0,
    "reviews": 25,
    "website": "https://www.youandmethreapy.com/",
    "category": "African-American-owned Therapists in Texas",
    "description": "Tiana Frazier, LMFT, offers relationship therapy, individual therapy, and couples counseling in Dallas, Texas, focusing on helping individuals and couples establish and maintain healthy relationships",
    "hours": "Mon-Fri 9AM-6PM",
    "services": [
      "African-American-owned Therapists in Texas consultation",
      "Professional service",
      "Quality guarantee"
    ],
    "social_links": {}
  },
  {
    "name": "Deep Centered (Dallas Location)",
    "address": "1400 Preston Rd Suite 400, Dallas, TX 75202",
    "phone": "(512) 956-6463",
    "rating": 4.0,
    "reviews": 25,
    "website": "https://www.deepcentered.com/dallas",
    "category": "African-American-owned Therapists in Texas",
    "description": "Provides culturally responsive care with Black therapists in Dallas, offering a safe space to discuss identity, racial trauma, and discrimination, with both in-person and telehealth options",
    "hours": "Mon-Fri 9AM-6PM",
    "services": [
      "African-American-owned Therapists in Texas consultation",
      "Professional service",
      "Quality guarantee"
    ],
    "social_links": {}
  },
  {
    "name": "Deep Centered (Houston Location)",
    "address": "1400 Preston Rd Suite 400, Houston, TX 77002",
    "phone": "(512) 956-6463",
    "rating": 4.0,
    "reviews": 25,
    "website": "https://www.deepcentered.com/houston",
    "category": "African-American-owned Therapists in Texas",
    "description": "Offers culturally responsive therapy with Black therapists in Houston, focusing on providing a safe and inclusive space for individuals to navigate life's challenges, with in-person and online sessions available",
    "hours": "Mon-Fri 9AM-6PM",
    "services": [
      "African-American-owned Therapists in Texas consultation",
      "Professional service",
      "Quality guarantee"
    ],
    "social_links": {}
  },
  {
    "name": "Deep Centered (Austin Location)",
    "address": "1400 Preston Rd Suite 400, Austin, TX 78701",
    "phone": "(512) 956-6463",
    "rating": 4.0,
    "reviews": 25,
    "website": "https://www.deepcentered.com/austin",
    "category": "African-American-owned Therapists in Texas",
    "description": "Provides culturally responsive care with Black therapists in Austin, aiming to create a safe and inclusive space for clients to discuss identity and personal challenges, with both in-person and telehealth options",
    "hours": "Mon-Fri 9AM-6PM",
    "services": [
      "African-American-owned Therapists in Texas consultation",
      "Professional service",
      "Quality guarantee"
    ],
    "social_links": {}
  },
  {
    "name": "Deep Centered (San Antonio Location)",
    "address": "1400 Preston Rd Suite 400, San Antonio, TX 78205",
    "phone": "(512) 956-6463",
    "rating": 4.0,
    "reviews": 25,
    "website": "https://www.deepcentered.com/san-antonio",
    "category": "African-American-owned Therapists in Texas",
    "description": "Offers culturally responsive therapy with Black therapists in San Antonio, focusing on creating a supportive environment where clients feel understood and empowered to grow, with in-person and online sessions available",
    "hours": "Mon-Fri 9AM-6PM",
    "services": [
      "African-American-owned Therapists in Texas consultation",
      "Professional service",
      "Quality guarantee"
    ],
    "social_links": {}
  },
  {
    "name": "Peace of Mind Mental Health and Wellness",
    "address": "8940 Fourwinds Drive, Suite 143, Windcrest, TX 78239",
    "phone": "(210) 446-7141",
    "rating": 4.0,
    "reviews": 25,
    "website": "https://www.peaceofmindmhw.com/",
    "category": "African-American-owned Therapists in Texas",
    "description": "Provides therapy services to people of color and ethnic groups, specializing in crisis stabilization, life-skills coaching, and working with military families, with a team of clinicians from diverse backgrounds",
    "hours": "Mon-Fri 9AM-6PM",
    "services": [
      "African-American-owned Therapists in Texas consultation",
      "Professional service",
      "Quality guarantee"
    ],
    "social_links": {}
  },
  {
    "name": "Wellness ReDefined",
    "address": "Information not available",
    "phone": "",
    "rating": 4.0,
    "reviews": 25,
    "website": "https://www.wellness-redefined.com/",
    "category": "African-American-owned Therapists in Texas",
    "description": "Dr. Felicia Fisher-Green offers culturally responsive therapy for professionals navigating stress, burnout, anxiety, and work-life balance, with flexible online sessions",
    "hours": "Mon-Fri 9AM-6PM",
    "services": [
      "African-American-owned Therapists in Texas consultation",
      "Professional service",
      "Quality guarantee"
    ],
    "social_links": {}
  },
  {
    "name": "The Paynefully Truthful Therapy Services",
    "address": "601 University Dr Ste. 112, Fort Worth, Texas 76017",
    "phone": "(682) 233-3422 / (817) 841-1933",
    "rating": 4.0,
    "reviews": 25,
    "website": "https://www.thepaynefullytruthfultherapyservices.com/",
    "category": "African-American-owned Therapists in Texas",
    "description": "Offers therapy for anxiety, depression, grief, and loss, creating safe spaces for Black and Latinx communities with culturally aware and informed practitioners",
    "hours": "Mon-Fri 9AM-6PM",
    "services": [
      "African-American-owned Therapists in Texas consultation",
      "Professional service",
      "Quality guarantee"
    ],
    "social_links": {}
  }
]