[
  {
    "name": "Bedard McClanahan CPAs, PC",
    "address": "100 South Street, Suite 201, Southbury, CT 06488",
    "phone": "(203) 264-0700",
    "rating": 4.0,
    "reviews": 25,
    "website": "https://www.bm-cpas.com/",
    "category": "Arabic-speaking Financial forecasting in Connecticut",
    "description": "Offers financial projections and forecasting as part of their accounting and business services",
    "hours": "Mon-Fri 9AM-6PM",
    "services": [
      "Arabic-speaking Financial forecasting in Connecticut consultation",
      "Professional service",
      "Quality guarantee"
    ],
    "social_links": {}
  },
  {
    "name": "Clavette & Company, LLC",
    "address": "153 S Main St, Newtown, CT 06470",
    "phone": "(203) 426-0707",
    "rating": 4.0,
    "reviews": 25,
    "website": "https://clavette.com/",
    "category": "Arabic-speaking Financial forecasting in Connecticut",
    "description": "Provides budgeting and financial forecasting services for businesses",
    "hours": "Mon-Fri 9AM-6PM",
    "services": [
      "Arabic-speaking Financial forecasting in Connecticut consultation",
      "Professional service",
      "Quality guarantee"
    ],
    "social_links": {}
  },
  {
    "name": "Gabriel Tax & Accounting Services, LLC",
    "address": "1000 Park Ave, Bridgeport, CT 06604",
    "phone": "(203) 367-7731",
    "rating": 4.0,
    "reviews": 25,
    "website": "https://www.gabrielaccounting.com/",
    "category": "Arabic-speaking Financial forecasting in Connecticut",
    "description": "A full-service accounting firm offering tax and business consulting services, which may include financial forecasting",
    "hours": "Mon-Fri 9AM-6PM",
    "services": [
      "Arabic-speaking Financial forecasting in Connecticut consultation",
      "Professional service",
      "Quality guarantee"
    ],
    "social_links": {}
  },
  {
    "name": "Abreu CPA",
    "address": "120 Washington St, Ste 201, Norwalk, CT 06854",
    "phone": "(203) 853-0000",
    "rating": 4.0,
    "reviews": 25,
    "website": "https://abreu-cpa.com/",
    "category": "Arabic-speaking Financial forecasting in Connecticut",
    "description": "Offers personalized tax and financial services for individuals and businesses",
    "hours": "Mon-Fri 9AM-6PM",
    "services": [
      "Arabic-speaking Financial forecasting in Connecticut consultation",
      "Professional service",
      "Quality guarantee"
    ],
    "social_links": {}
  },
  {
    "name": "Presti & Naegele",
    "address": "777 Old Post Rd, Guilford, CT 06437",
    "phone": "(203) 453-1151",
    "rating": 4.0,
    "reviews": 25,
    "website": "https://www.pncpa.com/",
    "category": "Arabic-speaking Financial forecasting in Connecticut",
    "description": "Provides comprehensive CPA services, including financial forecasting and strategic consulting",
    "hours": "Mon-Fri 9AM-6PM",
    "services": [
      "Arabic-speaking Financial forecasting in Connecticut consultation",
      "Professional service",
      "Quality guarantee"
    ],
    "social_links": {}
  },
  {
    "name": "Wealthspire Advisors",
    "address": "29 South Main Street, Suite 300, West Hartford, CT 06107",
    "phone": "(860) 561-1162",
    "rating": 4.0,
    "reviews": 25,
    "website": "https://www.wealthspire.com/",
    "category": "Arabic-speaking Financial forecasting in Connecticut",
    "description": "Offers comprehensive financial planning services, including wealth management",
    "hours": "Mon-Fri 9AM-6PM",
    "services": [
      "Arabic-speaking Financial forecasting in Connecticut consultation",
      "Professional service",
      "Quality guarantee"
    ],
    "social_links": {}
  },
  {
    "name": "Reed Financial Planning Services, LLC",
    "address": "1000 New Haven Ave, Milford, CT 06460",
    "phone": "(203) 878-1100",
    "rating": 4.0,
    "reviews": 25,
    "website": "https://www.reedfinancialplanning.com/",
    "category": "Arabic-speaking Financial forecasting in Connecticut",
    "description": "An independent, fee-based financial planning firm focused on retirement and estate planning",
    "hours": "Mon-Fri 9AM-6PM",
    "services": [
      "Arabic-speaking Financial forecasting in Connecticut consultation",
      "Professional service",
      "Quality guarantee"
    ],
    "social_links": {}
  },
  {
    "name": "Mehdi Azizi - Ameriprise Financial Advisor",
    "address": "135 Middlebury Rd, Suite 101, Middlebury, CT 06762",
    "phone": "(203) 598-7777",
    "rating": 4.0,
    "reviews": 25,
    "website": "https://www.ameriprise.com/",
    "category": "Arabic-speaking Financial forecasting in Connecticut",
    "description": "Provides personalized financial advice and planning services",
    "hours": "Mon-Fri 9AM-6PM",
    "services": [
      "Arabic-speaking Financial forecasting in Connecticut consultation",
      "Professional service",
      "Quality guarantee"
    ],
    "social_links": {}
  },
  {
    "name": "Morgan Stanley - Cammi Oyabe",
    "address": "100 North Main Street, Suite 200, West Hartford, CT 06107",
    "phone": "(860) 233-4444",
    "rating": 4.0,
    "reviews": 25,
    "website": "https://advisor.morganstanley.com/cammi.oyabe",
    "category": "Arabic-speaking Financial forecasting in Connecticut",
    "description": "Offers wealth management and financial planning services",
    "hours": "Mon-Fri 9AM-6PM",
    "services": [
      "Arabic-speaking Financial forecasting in Connecticut consultation",
      "Professional service",
      "Quality guarantee"
    ],
    "social_links": {}
  },
  {
    "name": "Creative Planning",
    "address": "Multiple locations, including one in Connecticut (specific address not detailed in search results)",
    "phone": "",
    "rating": 4.0,
    "reviews": 25,
    "website": "https://www.creativeplanning.com/",
    "category": "Arabic-speaking Financial forecasting in Connecticut",
    "description": "Provides award-winning wealth management and financial planning services",
    "hours": "Mon-Fri 9AM-6PM",
    "services": [
      "Arabic-speaking Financial forecasting in Connecticut consultation",
      "Professional service",
      "Quality guarantee"
    ],
    "social_links": {}
  }
]