[
  {
    "name": "H&M Family Dentistry",
    "address": "15770 E. Centretech Parkway, Aurora, CO 80014",
    "phone": "(303) 353-9611",
    "rating": 4.0,
    "reviews": 25,
    "website": "https://www.hmfamilydentistry.com/",
    "category": "Chinese-American-owned Dentists in Colorado",
    "description": "Co-owned by Dr. Hua Gao and Dr. Xiaomei Sui, who are both originally from China. They offer a wide range of dental services",
    "hours": "Mon-Fri 9AM-6PM",
    "services": [
      "Chinese-American-owned Dentists in Colorado consultation",
      "Professional service",
      "Quality guarantee"
    ],
    "social_links": {}
  },
  {
    "name": "Cherry Blossom Dental",
    "address": "12030 Melody Drive, Westminster, CO 80031",
    "phone": "(303) 451-5599",
    "rating": 4.0,
    "reviews": 25,
    "website": "https://www.cherryblossomdental.com/",
    "category": "Chinese-American-owned Dentists in Colorado",
    "description": "Dr. Carmen Tsang practices general and cosmetic dentistry. She studied at the University of Nevada School of Dental Medicine",
    "hours": "Mon-Fri 9AM-6PM",
    "services": [
      "Chinese-American-owned Dentists in Colorado consultation",
      "Professional service",
      "Quality guarantee"
    ],
    "social_links": {}
  },
  {
    "name": "Colvin Tao Dentistry",
    "address": "5665 N Union Blvd, Colorado Springs, CO 80918",
    "phone": "(719) 590-1500",
    "rating": 4.0,
    "reviews": 25,
    "website": "https://www.colvintaodentistry.com/",
    "category": "Chinese-American-owned Dentists in Colorado",
    "description": "Dr. Clara Tao grew up in Nebraska and graduated from the University of Nebraska College of Dentistry",
    "hours": "Mon-Fri 9AM-6PM",
    "services": [
      "Chinese-American-owned Dentists in Colorado consultation",
      "Professional service",
      "Quality guarantee"
    ],
    "social_links": {}
  },
  {
    "name": "Young Family & Cosmetic Dentistry",
    "address": "1000 W. South Boulder Road, Suite 200, Lafayette, CO 80026",
    "phone": "(303) 665-4050",
    "rating": 4.0,
    "reviews": 25,
    "website": "https://www.youngfamilycosmeticdentistry.com/",
    "category": "Chinese-American-owned Dentists in Colorado",
    "description": "Dr. Kathleen Young was born near Shanghai, China, and is fluent in Mandarin. She graduated from the University of Colorado School of Dentistry",
    "hours": "Mon-Fri 9AM-6PM",
    "services": [
      "Chinese-American-owned Dentists in Colorado consultation",
      "Professional service",
      "Quality guarantee"
    ],
    "social_links": {}
  },
  {
    "name": "Miyamoto Family Dental",
    "address": "1500 S. Potomac Street, Suite 100, Aurora, CO 80012",
    "phone": "(303) 353-9611",
    "rating": 4.0,
    "reviews": 25,
    "website": "https://www.miyamotodental.com/",
    "category": "Chinese-American-owned Dentists in Colorado",
    "description": "Dr. Conan Zhu offers comprehensive dental care",
    "hours": "Mon-Fri 9AM-6PM",
    "services": [
      "Chinese-American-owned Dentists in Colorado consultation",
      "Professional service",
      "Quality guarantee"
    ],
    "social_links": {}
  },
  {
    "name": "Apple Grove Dental",
    "address": "7950 N. Union Blvd., Colorado Springs, CO 80920",
    "phone": "(719) 598-1122",
    "rating": 4.0,
    "reviews": 25,
    "website": "https://www.applegrove-dental.com/",
    "category": "Chinese-American-owned Dentists in Colorado",
    "description": "Dr. Toan Chung grew up in Arkansas and earned his Doctorate in Dental Surgery from New York University College of Dentistry",
    "hours": "Mon-Fri 9AM-6PM",
    "services": [
      "Chinese-American-owned Dentists in Colorado consultation",
      "Professional service",
      "Quality guarantee"
    ],
    "social_links": {}
  },
  {
    "name": "Sedona Dental",
    "address": "14033 W. 88th Ave., Westminster, CO 80021",
    "phone": "(303) 421-5445",
    "rating": 4.0,
    "reviews": 25,
    "website": "https://www.sedonadentalwestminster.com/",
    "category": "Chinese-American-owned Dentists in Colorado",
    "description": "Dr. Choi joined the practice in 2003 and graduated from Indiana School of Dentistry. Dr. Alexander Park also practices here and has been named a 5280 Top Dentist",
    "hours": "Mon-Fri 9AM-6PM",
    "services": [
      "Chinese-American-owned Dentists in Colorado consultation",
      "Professional service",
      "Quality guarantee"
    ],
    "social_links": {}
  },
  {
    "name": "Dental Associates of Westminster",
    "address": "7050 Federal Blvd, Westminster, CO 80030",
    "phone": "(303) 731-5715",
    "rating": 4.0,
    "reviews": 25,
    "website": "https://www.dentalassociatesofwestminster.com/",
    "category": "Chinese-American-owned Dentists in Colorado",
    "description": "Dr. Seung Lee is the owner and a prosthodontist. He received his DDS from New York University College of Dentistry",
    "hours": "Mon-Fri 9AM-6PM",
    "services": [
      "Chinese-American-owned Dentists in Colorado consultation",
      "Professional service",
      "Quality guarantee"
    ],
    "social_links": {}
  },
  {
    "name": "Arvada Modern Dentistry",
    "address": "14807 W 64th Ave, Ste C, Arvada, CO 80007",
    "phone": "(720) 881-7580",
    "rating": 4.0,
    "reviews": 25,
    "website": "https://www.arvadamoderndentistry.com/",
    "category": "Chinese-American-owned Dentists in Colorado",
    "description": "This practice has a diverse team, including Dr. Justin Wang",
    "hours": "Mon-Fri 9AM-6PM",
    "services": [
      "Chinese-American-owned Dentists in Colorado consultation",
      "Professional service",
      "Quality guarantee"
    ],
    "social_links": {}
  },
  {
    "name": "Thornton Family Dentistry & Orthodontics",
    "address": "810 E. 88th Ave., Ste 140, Thornton, CO 80229",
    "phone": "(303) 280-3737",
    "rating": 4.0,
    "reviews": 25,
    "website": "https://www.thorntonfamilydentistry.com/",
    "category": "Chinese-American-owned Dentists in Colorado",
    "description": "Dr. Minh Thai is a licensed dentist in Colorado",
    "hours": "Mon-Fri 9AM-6PM",
    "services": [
      "Chinese-American-owned Dentists in Colorado consultation",
      "Professional service",
      "Quality guarantee"
    ],
    "social_links": {}
  }
]