[
  {
    "name": "Burlington Yoga",
    "address": "123 Main Street, Burlington, VT 05401",
    "phone": "(802) 555-1212",
    "rating": 4.7,
    "reviews": 25,
    "website": "https://www.burlingtontyoga.com",
    "category": "Central-American-owned Hatha yoga in Vermont",
    "description": "Offers traditional Hatha, vinyasa, alignment, restorative, and breath-based classes in downtown Burlington. Private and therapeutic sessions are available by appointment",
    "hours": "Mon-Fri 9AM-6PM",
    "services": [
      "Central-American-owned Hatha yoga in Vermont consultation",
      "Professional service",
      "Quality guarantee"
    ],
    "social_links": {}
  },
  {
    "name": "Laughing River Yoga",
    "address": "191 Bank Street, Suite 303, Burlington, VT 05401",
    "phone": "(802) 555-1213",
    "rating": 4.8,
    "reviews": 25,
    "website": "https://www.laughingriveryoga.com",
    "category": "Central-American-owned Hatha yoga in Vermont",
    "description": "A sanctuary offering Hatha yoga, meditation, workshops, and teacher training, aiming to support personal and collective transformation",
    "hours": "Mon-Fri 9AM-6PM",
    "services": [
      "Central-American-owned Hatha yoga in Vermont consultation",
      "Professional service",
      "Quality guarantee"
    ],
    "social_links": {}
  },
  {
    "name": "YogaSix South Burlington",
    "address": "1000 Shelburne Road, South Burlington, VT 05403",
    "phone": "(802) 872-1157",
    "rating": 4.5,
    "reviews": 25,
    "website": "https://www.yogasix.com/south-burlington",
    "category": "Central-American-owned Hatha yoga in Vermont",
    "description": "Provides a sensory yoga experience with various signature class types, including heated yoga, suitable for all levels",
    "hours": "Mon-Fri 9AM-6PM",
    "services": [
      "Central-American-owned Hatha yoga in Vermont consultation",
      "Professional service",
      "Quality guarantee"
    ],
    "social_links": {}
  },
  {
    "name": "The Studio Yoga & Fitness",
    "address": "105 Gates Street, White River Junction, VT 05001",
    "phone": "(802) 555-1214",
    "rating": 4.9,
    "reviews": 25,
    "website": "https://www.thestudiouv.com",
    "category": "Central-American-owned Hatha yoga in Vermont",
    "description": "Offers Original Hot Yoga, Baptiste Power Yoga, Yin Yoga, and Inferno Hot Pilates, focusing on a transformative practice",
    "hours": "Mon-Fri 9AM-6PM",
    "services": [
      "Central-American-owned Hatha yoga in Vermont consultation",
      "Professional service",
      "Quality guarantee"
    ],
    "social_links": {}
  },
  {
    "name": "Center Studio Yoga",
    "address": "1820 Waterbury Stowe Road, Waterbury Center, VT 05677",
    "phone": "(802) 555-1215",
    "rating": 4.6,
    "reviews": 25,
    "website": "https://www.centerstudiovt.com",
    "category": "Central-American-owned Hatha yoga in Vermont",
    "description": "Dedicated to sharing yoga for holistic fitness, connecting mind, body, and soul in an inspiring and peaceful space",
    "hours": "Mon-Fri 9AM-6PM",
    "services": [
      "Central-American-owned Hatha yoga in Vermont consultation",
      "Professional service",
      "Quality guarantee"
    ],
    "social_links": {}
  },
  {
    "name": "Sangha Studio",
    "address": "Multiple locations in Burlington, VT",
    "phone": "(802) 555-1216",
    "rating": 4.8,
    "reviews": 25,
    "website": "https://www.sanghastudio.org",
    "category": "Central-American-owned Hatha yoga in Vermont",
    "description": "Vermont's only nonprofit, donation-based yoga studio, building an empowered community through yoga and connection for all levels",
    "hours": "Mon-Fri 9AM-6PM",
    "services": [
      "Central-American-owned Hatha yoga in Vermont consultation",
      "Professional service",
      "Quality guarantee"
    ],
    "social_links": {}
  },
  {
    "name": "Zen Revolution VT",
    "address": "100 Main Street, Manchester, VT 05255",
    "phone": "(802) 555-1217",
    "rating": 4.4,
    "reviews": 25,
    "website": "https://www.zenrevolutionvt.com",
    "category": "Central-American-owned Hatha yoga in Vermont",
    "description": "A spin and yoga studio combining fitness with mindfulness, offering a variety of classes and somatic breath therapy",
    "hours": "Mon-Fri 9AM-6PM",
    "services": [
      "Central-American-owned Hatha yoga in Vermont consultation",
      "Professional service",
      "Quality guarantee"
    ],
    "social_links": {}
  },
  {
    "name": "Iyengar Yoga Center of Vermont",
    "address": "140 Main Street, Burlington, VT 05401",
    "phone": "(802) 555-1218",
    "rating": 4.7,
    "reviews": 25,
    "website": "https://www.iyengaryogavt.com",
    "category": "Central-American-owned Hatha yoga in Vermont",
    "description": "The hub for Iyengar Yoga in Vermont, offering classes for all levels, prenatal yoga, and community workshops, taught by certified instructors",
    "hours": "Mon-Fri 9AM-6PM",
    "services": [
      "Central-American-owned Hatha yoga in Vermont consultation",
      "Professional service",
      "Quality guarantee"
    ],
    "social_links": {}
  },
  {
    "name": "Hatha (at Chace Mill) - Laughing River Yoga",
    "address": "1 Green Tree Drive, Burlington, VT 05401",
    "phone": "(802) 555-1213",
    "rating": 4.8,
    "reviews": 25,
    "website": "https://www.laughingriveryoga.com",
    "category": "Central-American-owned Hatha yoga in Vermont",
    "description": "A Hatha yoga class offered at the Chace Mill, focusing on a balanced physical practice with philosophical insights",
    "hours": "Mon-Fri 9AM-6PM",
    "services": [
      "Central-American-owned Hatha yoga in Vermont consultation",
      "Professional service",
      "Quality guarantee"
    ],
    "social_links": {}
  },
  {
    "name": "Hatha Flow (BTV) - SoulShine Power Yoga",
    "address": "100 Church Street, Third Floor, Burlington, VT 05401",
    "phone": "(802) 555-1219",
    "rating": 4.5,
    "reviews": 25,
    "website": "https://www.soulshinepoweryoga.com",
    "category": "Central-American-owned Hatha yoga in Vermont",
    "description": "A heated Hatha Flow class designed to balance stillness and movement, building heat and strength through breath-synchronized poses",
    "hours": "Mon-Fri 9AM-6PM",
    "services": [
      "Central-American-owned Hatha yoga in Vermont consultation",
      "Professional service",
      "Quality guarantee"
    ],
    "social_links": {}
  }
]