[
  {
    "name": "Bombay Grill Boise",
    "address": "928 W Main St, Boise, ID 83702",
    "phone": "(208) 345-7888",
    "rating": 4.5,
    "reviews": 25,
    "website": "http://bombaygrillboise.com/",
    "category": "American-Indian-owned Buffet restaurants in Idaho",
    "description": "Offers an Indian lunch buffet and a full-service menu with a variety of vegetarian and non-vegetarian options",
    "hours": "Mon-Fri 9AM-6PM",
    "services": [
      "American-Indian-owned Buffet restaurants in Idaho consultation",
      "Professional service",
      "Quality guarantee"
    ],
    "social_links": {}
  },
  {
    "name": "Chuck-A-Rama Buffet",
    "address": "Multiple locations, including Boise and Idaho Falls. For example, 8460 W Emerald St, Boise, ID 83704",
    "phone": "(208) 321-9888 (Boise location)",
    "rating": 4.0,
    "reviews": 25,
    "website": "https://chuck-a-rama.com/",
    "category": "American-Indian-owned Buffet restaurants in Idaho",
    "description": "Offers a homestyle buffet with a variety of daily specials",
    "hours": "Mon-Fri 9AM-6PM",
    "services": [
      "American-Indian-owned Buffet restaurants in Idaho consultation",
      "Professional service",
      "Quality guarantee"
    ],
    "social_links": {}
  },
  {
    "name": "Tandoori Oven",
    "address": "4050 Lincoln Rd, Idaho Falls, ID 83401",
    "phone": "(208) 524-3000",
    "rating": 4.5,
    "reviews": 25,
    "website": "https://www.tandoorioven.com/",
    "category": "American-Indian-owned Buffet restaurants in Idaho",
    "description": "Serves authentic Indian cuisine with a wide array of chicken, lamb, seafood, vegetarian, and vegan options",
    "hours": "Mon-Fri 9AM-6PM",
    "services": [
      "American-Indian-owned Buffet restaurants in Idaho consultation",
      "Professional service",
      "Quality guarantee"
    ],
    "social_links": {}
  },
  {
    "name": "Himalayan Flavor",
    "address": "501 Park Ave, Idaho Falls, ID 83402",
    "phone": "(208) 552-5555",
    "rating": 4.5,
    "reviews": 25,
    "website": "https://himalayanflavor.com/",
    "category": "American-Indian-owned Buffet restaurants in Idaho",
    "description": "Offers Indian and Nepalese cuisine with a variety of dishes, including vegetarian options and popular appetizers",
    "hours": "Mon-Fri 9AM-6PM",
    "services": [
      "American-Indian-owned Buffet restaurants in Idaho consultation",
      "Professional service",
      "Quality guarantee"
    ],
    "social_links": {}
  },
  {
    "name": "Red Fort Cuisine of India",
    "address": "1510 S Celebration Ave, Meridian, ID 83642",
    "phone": "(208) 888-0001",
    "rating": 4.0,
    "reviews": 25,
    "website": "https://www.redfortindian.com/",
    "category": "American-Indian-owned Buffet restaurants in Idaho",
    "description": "Provides authentic Indian cuisine with multiple locations in Idaho and Utah",
    "hours": "Mon-Fri 9AM-6PM",
    "services": [
      "American-Indian-owned Buffet restaurants in Idaho consultation",
      "Professional service",
      "Quality guarantee"
    ],
    "social_links": {}
  },
  {
    "name": "Golden Corral Buffet Restaurants",
    "address": "8460 W Emerald St, Boise, ID 83704",
    "phone": "(208) 373-7118",
    "rating": 3.5,
    "reviews": 25,
    "website": "https://www.goldencorral.com/locations/boise-id-83704/",
    "category": "American-Indian-owned Buffet restaurants in Idaho",
    "description": "A popular buffet chain offering a wide variety of American comfort food, including steaks, seafood, salads, and desserts",
    "hours": "Mon-Fri 9AM-6PM",
    "services": [
      "American-Indian-owned Buffet restaurants in Idaho consultation",
      "Professional service",
      "Quality guarantee"
    ],
    "social_links": {}
  },
  {
    "name": "China Grand Buffet",
    "address": "10498 W Fairview Ave, Boise, ID 83704",
    "phone": "(208) 321-9888",
    "rating": 4.0,
    "reviews": 25,
    "website": "https://chinagrandboise.com/",
    "category": "American-Indian-owned Buffet restaurants in Idaho",
    "description": "Offers a wide selection of Chinese buffet items, including sushi, fresh grill options, seafood, and dim sum",
    "hours": "Mon-Fri 9AM-6PM",
    "services": [
      "American-Indian-owned Buffet restaurants in Idaho consultation",
      "Professional service",
      "Quality guarantee"
    ],
    "social_links": {}
  },
  {
    "name": "Pow'Waw Food Truck",
    "address": "Silver Lake Mall, Coeur d'Alene, ID (Location may vary)",
    "phone": "",
    "rating": 4.0,
    "reviews": 25,
    "website": "https://www.google.com/maps/search/Pow'Waw+Food+Truck+in+Idaho",
    "category": "American-Indian-owned Buffet restaurants in Idaho",
    "description": "This food truck offers pre-colonial Native American cuisine with a modern twist, focusing on ingredients like bison and salmon",
    "hours": "Mon-Fri 9AM-6PM",
    "services": [
      "American-Indian-owned Buffet restaurants in Idaho consultation",
      "Professional service",
      "Quality guarantee"
    ],
    "social_links": {}
  },
  {
    "name": "Indigenous Eats",
    "address": "Multiple locations in Spokane, WA (close to Idaho border). The closest to Idaho would be their location at River Park Square, Spokane, WA",
    "phone": "(509) 309-2000 (Spokane location)",
    "rating": 4.5,
    "reviews": 25,
    "website": "https://www.indigenouseats.com/",
    "category": "American-Indian-owned Buffet restaurants in Idaho",
    "description": "Serves contemporary Native American comfort food, including fry bread tacos",
    "hours": "Mon-Fri 9AM-6PM",
    "services": [
      "American-Indian-owned Buffet restaurants in Idaho consultation",
      "Professional service",
      "Quality guarantee"
    ],
    "social_links": {}
  },
  {
    "name": "Coeur d'Alene Casino Resort Hotel",
    "address": "37914 S Nukwalqw, Worley, ID 83876",
    "phone": "(800) 523-2464",
    "rating": 4.0,
    "reviews": 25,
    "website": "https://www.cdacasino.com/",
    "category": "American-Indian-owned Buffet restaurants in Idaho",
    "description": "While not exclusively a buffet, this resort offers various dining experiences, including options that highlight Native American culture and cuisine",
    "hours": "Mon-Fri 9AM-6PM",
    "services": [
      "American-Indian-owned Buffet restaurants in Idaho consultation",
      "Professional service",
      "Quality guarantee"
    ],
    "social_links": {}
  }
]