[
  {
    "name": "South Dakota Bureau of Finance & Management",
    "address": "500 E Capitol Ave, Pierre, SD 57501",
    "phone": "(605) 773-3371",
    "rating": 4.0,
    "reviews": 25,
    "website": "https://bfm.sd.gov/",
    "category": "Bengali-speaking Financial dashboards in South-Dakota",
    "description": "State agency responsible for managing South Dakota's finances, including providing financial transparency and dashboard reports",
    "hours": "Mon-Fri 9AM-6PM",
    "services": [
      "Bengali-speaking Financial dashboards in South-Dakota consultation",
      "Professional service",
      "Quality guarantee"
    ],
    "social_links": {}
  },
  {
    "name": "Millennium Financial Services",
    "address": "700 4th St SE, Watertown, SD 57201",
    "phone": "(605) 886-5222",
    "rating": 4.0,
    "reviews": 25,
    "website": "https://www.millenniumfs.com/",
    "category": "Bengali-speaking Financial dashboards in South-Dakota",
    "description": "Offers personalized financial guidance, retirement planning, and asset preservation",
    "hours": "Mon-Fri 9AM-6PM",
    "services": [
      "Bengali-speaking Financial dashboards in South-Dakota consultation",
      "Professional service",
      "Quality guarantee"
    ],
    "social_links": {}
  },
  {
    "name": "Central Bank",
    "address": "Multiple locations in Sioux Falls and Brookings, SD. For Brookings: 1201 Main Ave, Brookings, SD 57006",
    "phone": "(605) 692-7445 (Brookings)",
    "rating": 4.0,
    "reviews": 25,
    "website": "https://www.centralbank.com/",
    "category": "Bengali-speaking Financial dashboards in South-Dakota",
    "description": "A community-focused, family-owned bank offering a range of financial services including loans, checking, and savings accounts",
    "hours": "Mon-Fri 9AM-6PM",
    "services": [
      "Bengali-speaking Financial dashboards in South-Dakota consultation",
      "Professional service",
      "Quality guarantee"
    ],
    "social_links": {}
  },
  {
    "name": "Edward Jones",
    "address": "Multiple locations across South Dakota. For Sioux Falls: 5000 W 41st St, Sioux Falls, SD 57106",
    "phone": "(605) 332-0001 (Sioux Falls)",
    "rating": 4.0,
    "reviews": 25,
    "website": "https://www.edwardjones.com/",
    "category": "Bengali-speaking Financial dashboards in South-Dakota",
    "description": "A financial services firm specializing in individual investors, offering personalized financial advice and investment options",
    "hours": "Mon-Fri 9AM-6PM",
    "services": [
      "Bengali-speaking Financial dashboards in South-Dakota consultation",
      "Professional service",
      "Quality guarantee"
    ],
    "social_links": {}
  },
  {
    "name": "First PREMIER Bank/PREMIER Bankcard",
    "address": "4321 S. Technology Drive, Sioux Falls, SD 57106",
    "phone": "(605) 339-7400",
    "rating": 4.0,
    "reviews": 25,
    "website": "https://www.premierbankcard.com/",
    "category": "Bengali-speaking Financial dashboards in South-Dakota",
    "description": "Headquartered in Sioux Falls, they are a major issuer of MasterCard credit cards and offer various banking services",
    "hours": "Mon-Fri 9AM-6PM",
    "services": [
      "Bengali-speaking Financial dashboards in South-Dakota consultation",
      "Professional service",
      "Quality guarantee"
    ],
    "social_links": {}
  },
  {
    "name": "Avail Wealth Management",
    "address": "875 Dakota Ave S #1, Huron, SD 57350",
    "phone": "(605) 352-3100",
    "rating": 4.0,
    "reviews": 25,
    "website": "https://www.google.com/maps/search/Avail+Wealth+Management+South+Dakota",
    "category": "Bengali-speaking Financial dashboards in South-Dakota",
    "description": "Offers wealth management services",
    "hours": "Mon-Fri 9AM-6PM",
    "services": [
      "Bengali-speaking Financial dashboards in South-Dakota consultation",
      "Professional service",
      "Quality guarantee"
    ],
    "social_links": {}
  },
  {
    "name": "BankWest",
    "address": "Multiple locations across South Dakota. For Mitchell: 1200 E Spruce St, Mitchell, SD 57301",
    "phone": "(605) 996-7571 (Mitchell)",
    "rating": 4.0,
    "reviews": 25,
    "website": "https://www.bankwest.com/",
    "category": "Bengali-speaking Financial dashboards in South-Dakota",
    "description": "A bank with numerous branches throughout South Dakota, offering a variety of personal and business banking services",
    "hours": "Mon-Fri 9AM-6PM",
    "services": [
      "Bengali-speaking Financial dashboards in South-Dakota consultation",
      "Professional service",
      "Quality guarantee"
    ],
    "social_links": {}
  },
  {
    "name": "Capitaline Advisors LLC",
    "address": "Not specified in search results",
    "phone": "",
    "rating": 4.0,
    "reviews": 25,
    "website": "https://www.google.com/maps/search/Capitaline+Advisors+LLC+South+Dakota",
    "category": "Bengali-speaking Financial dashboards in South-Dakota",
    "description": "Appears to be a financial advisory firm",
    "hours": "Mon-Fri 9AM-6PM",
    "services": [
      "Bengali-speaking Financial dashboards in South-Dakota consultation",
      "Professional service",
      "Quality guarantee"
    ],
    "social_links": {}
  },
  {
    "name": "Legacy Financial Partners / Ameriprise Financial",
    "address": "Multiple locations. For Sioux Falls: 2000 S. Western Ave, Suite 100, Sioux Falls, SD 57106",
    "phone": "(605) 334-3555",
    "rating": 4.0,
    "reviews": 25,
    "website": "https://www.ameriprise.com/",
    "category": "Bengali-speaking Financial dashboards in South-Dakota",
    "description": "Offers comprehensive financial advice and solutions",
    "hours": "Mon-Fri 9AM-6PM",
    "services": [
      "Bengali-speaking Financial dashboards in South-Dakota consultation",
      "Professional service",
      "Quality guarantee"
    ],
    "social_links": {}
  },
  {
    "name": "Dakota Business Finance",
    "address": "101 W. 10th St., Suite 102, Sioux Falls, SD 57104",
    "phone": "(605) 334-1500",
    "rating": 4.0,
    "reviews": 25,
    "website": "https://www.dakotabusinessfinance.com/",
    "category": "Bengali-speaking Financial dashboards in South-Dakota",
    "description": "A Certified Development Company (CDC) specializing in SBA 504 loans for businesses in South Dakota",
    "hours": "Mon-Fri 9AM-6PM",
    "services": [
      "Bengali-speaking Financial dashboards in South-Dakota consultation",
      "Professional service",
      "Quality guarantee"
    ],
    "social_links": {}
  }
]