[
  {
    "name": "Sylvan Park Smiles Dentistry",
    "address": "4301 Hillsboro Pike, Ste 315, Nashville, TN 37215",
    "phone": "(615) 383-6066",
    "rating": 4.0,
    "reviews": 25,
    "website": "https://www.sylvanparksmiles.com/",
    "category": "Baby-Boomer-owned Teeth whitening in Tennessee",
    "description": "Offers professional teeth whitening services, including in-office treatments and at-home kits, to lighten teeth and remove stains",
    "hours": "Mon-Fri 9AM-6PM",
    "services": [
      "Baby-Boomer-owned Teeth whitening in Tennessee consultation",
      "Professional service",
      "Quality guarantee"
    ],
    "social_links": {}
  },
  {
    "name": "Gulch Dental Studio",
    "address": "1033 11th Ave S, Nashville, TN 37203",
    "phone": "(615) 256-4410",
    "rating": 4.0,
    "reviews": 25,
    "website": "https://www.gulchdental.com/",
    "category": "Baby-Boomer-owned Teeth whitening in Tennessee",
    "description": "Provides in-office laser whitening for same-day results and Opalescence take-home kits for convenience. They also offer other cosmetic services",
    "hours": "Mon-Fri 9AM-6PM",
    "services": [
      "Baby-Boomer-owned Teeth whitening in Tennessee consultation",
      "Professional service",
      "Quality guarantee"
    ],
    "social_links": {}
  },
  {
    "name": "McOmie Family Dentistry",
    "address": "7441 E Brainerd Rd, Chattanooga, TN 37421",
    "phone": "(423) 899-1112",
    "rating": 4.0,
    "reviews": 25,
    "website": "https://www.mcomiedentistry.com/",
    "category": "Baby-Boomer-owned Teeth whitening in Tennessee",
    "description": "Offers fast, effective, and affordable professional teeth whitening treatments, including in-office procedures and take-home kits",
    "hours": "Mon-Fri 9AM-6PM",
    "services": [
      "Baby-Boomer-owned Teeth whitening in Tennessee consultation",
      "Professional service",
      "Quality guarantee"
    ],
    "social_links": {}
  },
  {
    "name": "Green Hills Family Dentistry",
    "address": "4301 Hillsboro Pike, Ste 315, Nashville, TN 37215",
    "phone": "(615) 383-6066",
    "rating": 4.0,
    "reviews": 25,
    "website": "https://www.greenhillsfamilydentistry.com/",
    "category": "Baby-Boomer-owned Teeth whitening in Tennessee",
    "description": "Provides professional teeth whitening services in Nashville to restore luster to smiles, with options for in-office and at-home treatments",
    "hours": "Mon-Fri 9AM-6PM",
    "services": [
      "Baby-Boomer-owned Teeth whitening in Tennessee consultation",
      "Professional service",
      "Quality guarantee"
    ],
    "social_links": {}
  },
  {
    "name": "Germantown Dental Group",
    "address": "7725 Poplar Ave #101, Germantown, TN 38138",
    "phone": "(901) 755-1000",
    "rating": 4.0,
    "reviews": 25,
    "website": "https://www.germantowndentalgroup.com/",
    "category": "Baby-Boomer-owned Teeth whitening in Tennessee",
    "description": "Offers both in-office Zoom!\u00ae teeth whitening and at-home whitening trays for safe and effective stain removal",
    "hours": "Mon-Fri 9AM-6PM",
    "services": [
      "Baby-Boomer-owned Teeth whitening in Tennessee consultation",
      "Professional service",
      "Quality guarantee"
    ],
    "social_links": {}
  },
  {
    "name": "Nations Dental Studio",
    "address": "1700 Charlotte Ave #100, Nashville, TN 37203",
    "phone": "(615) 933-5800",
    "rating": 4.0,
    "reviews": 25,
    "website": "https://www.nationsdentalstudio.com/",
    "category": "Baby-Boomer-owned Teeth whitening in Tennessee",
    "description": "Specializes in professional teeth whitening treatments, including in-office and customized plans, to enhance smiles by removing stains and discoloration",
    "hours": "Mon-Fri 9AM-6PM",
    "services": [
      "Baby-Boomer-owned Teeth whitening in Tennessee consultation",
      "Professional service",
      "Quality guarantee"
    ],
    "social_links": {}
  },
  {
    "name": "Castle Dental",
    "address": "Multiple locations, including Nashville, TN. (Specific address for teeth whitening not detailed in snippet)",
    "phone": "1-844-400-7645 (General contact number)",
    "rating": 4.0,
    "reviews": 25,
    "website": "https://www.castledental.com/",
    "category": "Baby-Boomer-owned Teeth whitening in Tennessee",
    "description": "Offers various professional teeth whitening options in Nashville, TN, such as laser teeth whitening and Zoom teeth whitening, with financing options available",
    "hours": "Mon-Fri 9AM-6PM",
    "services": [
      "Baby-Boomer-owned Teeth whitening in Tennessee consultation",
      "Professional service",
      "Quality guarantee"
    ],
    "social_links": {}
  },
  {
    "name": "Dental Bliss",
    "address": "1000 Medical Center Dr, Franklin, TN 37064",
    "phone": "(615) 595-5955",
    "rating": 4.0,
    "reviews": 25,
    "website": "https://www.dentalblissfranklin.com/",
    "category": "Baby-Boomer-owned Teeth whitening in Tennessee",
    "description": "Offers cosmetic services including Philips Zoom! Teeth Whitening, aiming to transform smiles in a spa-like environment",
    "hours": "Mon-Fri 9AM-6PM",
    "services": [
      "Baby-Boomer-owned Teeth whitening in Tennessee consultation",
      "Professional service",
      "Quality guarantee"
    ],
    "social_links": {}
  },
  {
    "name": "Barbieri Orthodontics",
    "address": "Multiple locations, including Smyrna and Brentwood, TN. (Specific address for teeth whitening not detailed in snippet)",
    "phone": "(615) 777-7575 (Smyrna) / (615) 309-0500 (Brentwood)",
    "rating": 4.0,
    "reviews": 25,
    "website": "https://www.barbieri-orthodontics.com/",
    "category": "Baby-Boomer-owned Teeth whitening in Tennessee",
    "description": "Provides Opalescence Boost professional teeth whitening in their offices, offering quick and effective results without the need for LED lights",
    "hours": "Mon-Fri 9AM-6PM",
    "services": [
      "Baby-Boomer-owned Teeth whitening in Tennessee consultation",
      "Professional service",
      "Quality guarantee"
    ],
    "social_links": {}
  },
  {
    "name": "Dyersburg Dental Associates",
    "address": "1105 Hwy 51 Bypass W, Dyersburg, TN 38024",
    "phone": "(731) 285-4000",
    "rating": 4.0,
    "reviews": 25,
    "website": "https://dyersburgdentalassociates.com/",
    "category": "Baby-Boomer-owned Teeth whitening in Tennessee",
    "description": "Offers professional teeth whitening services, teeth bleaching, and tooth color restoration to help patients retain their confidence with a brighter smile",
    "hours": "Mon-Fri 9AM-6PM",
    "services": [
      "Baby-Boomer-owned Teeth whitening in Tennessee consultation",
      "Professional service",
      "Quality guarantee"
    ],
    "social_links": {}
  }
]