[
  {
    "name": "Visiting Angels",
    "address": "Multiple locations across North Dakota (specific address varies by branch)",
    "phone": "(800) 310-2040",
    "rating": 4.0,
    "reviews": 25,
    "website": "https://www.visitingangels.com/",
    "category": "Central-American-owned Companionship care in North-Dakota",
    "description": "Provides dedicated and reliable senior home care services, including personalized assistance to enhance quality of life at home",
    "hours": "Mon-Fri 9AM-6PM",
    "services": [
      "Central-American-owned Companionship care in North-Dakota consultation",
      "Professional service",
      "Quality guarantee"
    ],
    "social_links": {}
  },
  {
    "name": "Senior Helpers of Fargo",
    "address": "3101 17th St SW, Fargo, ND 58103",
    "phone": "(701) 551-1212",
    "rating": 4.0,
    "reviews": 25,
    "website": "https://www.seniorhelpers.com/nd/fargo/",
    "category": "Central-American-owned Companionship care in North-Dakota",
    "description": "Offers specialized in-home caring companionship services, including transportation, medication reminders, and assistance with daily tasks",
    "hours": "Mon-Fri 9AM-6PM",
    "services": [
      "Central-American-owned Companionship care in North-Dakota consultation",
      "Professional service",
      "Quality guarantee"
    ],
    "social_links": {}
  },
  {
    "name": "Lutheran Social Service of Minnesota (LSSMN) - Senior Companion Program",
    "address": "Various locations throughout North Dakota. Contact specific coordinators for details",
    "phone": "(701) 263-1719 (Western ND), (701) 595-6118 (Southwestern ND), (701) 230-0759 (Northeastern ND), (701) 205-2690 (Southeastern ND)",
    "rating": 4.0,
    "reviews": 25,
    "website": "https://www.lssmn.org/",
    "category": "Central-American-owned Companionship care in North-Dakota",
    "description": "Provides Senior Companion and Neighbor to Neighbor services, connecting volunteers with older adults for friendship and support",
    "hours": "Mon-Fri 9AM-6PM",
    "services": [
      "Central-American-owned Companionship care in North-Dakota consultation",
      "Professional service",
      "Quality guarantee"
    ],
    "social_links": {}
  },
  {
    "name": "Dakota Home Care",
    "address": "Multiple locations in Bismarck and Fargo, ND",
    "phone": "(877) 691-0015",
    "rating": 4.0,
    "reviews": 25,
    "website": "https://dakotahomecare.com/",
    "category": "Central-American-owned Companionship care in North-Dakota",
    "description": "A licensed home health care agency providing both medical and non-medical in-home assistance, including companionship",
    "hours": "Mon-Fri 9AM-6PM",
    "services": [
      "Central-American-owned Companionship care in North-Dakota consultation",
      "Professional service",
      "Quality guarantee"
    ],
    "social_links": {}
  },
  {
    "name": "Helping Hands Care",
    "address": "Locations in Fargo and Bismarck, ND",
    "phone": "(701) 551-0010 (Fargo), (701) 551-0010 (Bismarck)",
    "rating": 4.0,
    "reviews": 25,
    "website": "https://www.helpinghandscarend.com/",
    "category": "Central-American-owned Companionship care in North-Dakota",
    "description": "Offers exceptional home care for the elderly, ill, and disabled with compassion, integrity, and respect, focusing on a whole-person approach",
    "hours": "Mon-Fri 9AM-6PM",
    "services": [
      "Central-American-owned Companionship care in North-Dakota consultation",
      "Professional service",
      "Quality guarantee"
    ],
    "social_links": {}
  },
  {
    "name": "Active at Home Helpers",
    "address": "Fargo, ND",
    "phone": "(701) 540-3483",
    "rating": 4.0,
    "reviews": 25,
    "website": "https://activeathomehelpers.com/",
    "category": "Central-American-owned Companionship care in North-Dakota",
    "description": "An in-home care agency focused on \"activity focused care\" to enrich lives, assisting with daily tasks and well-being",
    "hours": "Mon-Fri 9AM-6PM",
    "services": [
      "Central-American-owned Companionship care in North-Dakota consultation",
      "Professional service",
      "Quality guarantee"
    ],
    "social_links": {}
  },
  {
    "name": "Spectrum Home Care",
    "address": "Bismarck-Mandan, ND communities",
    "phone": "(701) 223-3000",
    "rating": 4.0,
    "reviews": 25,
    "website": "https://www.spectrumhomecare.com/",
    "category": "Central-American-owned Companionship care in North-Dakota",
    "description": "Provides compassionate and flexible in-home services with care and integrity, focusing on the elderly, ill, and disabled",
    "hours": "Mon-Fri 9AM-6PM",
    "services": [
      "Central-American-owned Companionship care in North-Dakota consultation",
      "Professional service",
      "Quality guarantee"
    ],
    "social_links": {}
  },
  {
    "name": "Healthy Living Solutions",
    "address": "15 21st St. S, Ste. 208, Fargo, ND 58103",
    "phone": "(401) 699-1390",
    "rating": 4.0,
    "reviews": 25,
    "website": "https://healthylivingsolutionsnd.com/",
    "category": "Central-American-owned Companionship care in North-Dakota",
    "description": "Offers companionship services to provide friendly, supportive company, engaging in meaningful conversations and activities to foster social interaction and well-being",
    "hours": "Mon-Fri 9AM-6PM",
    "services": [
      "Central-American-owned Companionship care in North-Dakota consultation",
      "Professional service",
      "Quality guarantee"
    ],
    "social_links": {}
  },
  {
    "name": "Comfort Keepers (Grand Forks, ND)",
    "address": "Grand Forks, ND (specific address not provided in search results)",
    "phone": "(701) 738-0006",
    "rating": 4.0,
    "reviews": 25,
    "website": "https://www.comfortkeepers.com/locations/north-dakota/grand-forks",
    "category": "Central-American-owned Companionship care in North-Dakota",
    "description": "Provides companion care and uplifting support to seniors, focusing on lifting spirits and assisting them in living life to the fullest through personalized care plans",
    "hours": "Mon-Fri 9AM-6PM",
    "services": [
      "Central-American-owned Companionship care in North-Dakota consultation",
      "Professional service",
      "Quality guarantee"
    ],
    "social_links": {}
  },
  {
    "name": "All Embracing Home Care LLC",
    "address": "Serving the Red River Valley, ND",
    "phone": "(701) 330-8373",
    "rating": 4.0,
    "reviews": 25,
    "website": "https://www.allembracinghomecare.com/",
    "category": "Central-American-owned Companionship care in North-Dakota",
    "description": "Offers customized non-medical care for senior citizens and individuals with special needs, including companionship and daily living assistance",
    "hours": "Mon-Fri 9AM-6PM",
    "services": [
      "Central-American-owned Companionship care in North-Dakota consultation",
      "Professional service",
      "Quality guarantee"
    ],
    "social_links": {}
  }
]