[
  {
    "name": "Raymond Fong Eye Care",
    "address": "859 60th Street, Brooklyn, NY 11220",
    "phone": "718-436-8850",
    "rating": 4.0,
    "reviews": 25,
    "website": "https://www.raymondfongeyecare.com/",
    "category": "Chinese-American-owned LASIK surgery in New-York",
    "description": "This practice specializes in LASIK and cataract surgery, with a significant portion of their patient base being of Asian descent, primarily Chinese and Korean. They emphasize culturally relevant and respectful eye care",
    "hours": "Mon-Fri 9AM-6PM",
    "services": [
      "Chinese-American-owned LASIK surgery in New-York consultation",
      "Professional service",
      "Quality guarantee"
    ],
    "social_links": {}
  },
  {
    "name": "Park Avenue LASEK",
    "address": "1025 Park Ave, New York, NY 10028",
    "phone": "212-741-8628",
    "rating": 4.0,
    "reviews": 25,
    "website": "https://www.parkavenuelasek.com/",
    "category": "Chinese-American-owned LASIK surgery in New-York",
    "description": "Dr. Emil Chynn, an Asian himself, specializes in LASEK, a non-cutting alternative to LASIK, particularly for Asian eyes which may have unique characteristics. He has extensive experience with various laser vision correction procedures",
    "hours": "Mon-Fri 9AM-6PM",
    "services": [
      "Chinese-American-owned LASIK surgery in New-York consultation",
      "Professional service",
      "Quality guarantee"
    ],
    "social_links": {}
  },
  {
    "name": "Manhattan LASIK Center",
    "address": "200 W 57th St Suite 1202, New York, NY 10019",
    "phone": "212-759-9617",
    "rating": 4.0,
    "reviews": 25,
    "website": "https://www.manhattanlasikcenter.com/",
    "category": "Chinese-American-owned LASIK surgery in New-York",
    "description": "This center offers LASIK and SMILE procedures, with a focus on advanced technology and patient experience. They have multiple locations, including Manhattan, Roslyn, Paramus, and Westchester",
    "hours": "Mon-Fri 9AM-6PM",
    "services": [
      "Chinese-American-owned LASIK surgery in New-York consultation",
      "Professional service",
      "Quality guarantee"
    ],
    "social_links": {}
  },
  {
    "name": "Dr. John Kung, MD",
    "address": "23 Oceanic Ave, Staten Island, NY 10312",
    "phone": "718-948-8880",
    "rating": 4.0,
    "reviews": 25,
    "website": "https://www.kungeye.com/",
    "category": "Chinese-American-owned LASIK surgery in New-York",
    "description": "Dr. John Kung is an expert in laser eye surgery, including LASIK, and has invented a surgical instrument for vision correction. He has been recognized as a \"SuperDoctor\" and \"Top Doctor.\"",
    "hours": "Mon-Fri 9AM-6PM",
    "services": [
      "Chinese-American-owned LASIK surgery in New-York consultation",
      "Professional service",
      "Quality guarantee"
    ],
    "social_links": {}
  },
  {
    "name": "Kung Eye Center (Dr. Joshua C. Yu)",
    "address": "23 Oceanic Ave, Staten Island, NY 10312",
    "phone": "718-948-8880",
    "rating": 4.0,
    "reviews": 25,
    "website": "https://www.kungeye.com/",
    "category": "Chinese-American-owned LASIK surgery in New-York",
    "description": "Dr. Joshua C. Yu is a Board-Certified Ophthalmologist and Cornea Specialist who offers LASIK and PRK. He is fluent in Cantonese and Mandarin",
    "hours": "Mon-Fri 9AM-6PM",
    "services": [
      "Chinese-American-owned LASIK surgery in New-York consultation",
      "Professional service",
      "Quality guarantee"
    ],
    "social_links": {}
  },
  {
    "name": "SightMD (Dr. Yu Hang Chen)",
    "address": "Multiple locations including Flushing, Bronx, and Manhattan. (Specific addresses vary by location)",
    "phone": "",
    "rating": 4.0,
    "reviews": 25,
    "website": "https://www.sightmd.com/",
    "category": "Chinese-American-owned LASIK surgery in New-York",
    "description": "Dr. Yu Hang Chen specializes in comprehensive ophthalmology and offers LASIK consultations. SightMD has multiple offices across New York",
    "hours": "Mon-Fri 9AM-6PM",
    "services": [
      "Chinese-American-owned LASIK surgery in New-York consultation",
      "Professional service",
      "Quality guarantee"
    ],
    "social_links": {}
  },
  {
    "name": "Clearview Eye Surgery (Now part of SightMD)",
    "address": "Multiple locations including Manhattan, Bronx, and Flushing. (Specific addresses vary by location)",
    "phone": "212-304-2010 (Manhattan)",
    "rating": 4.0,
    "reviews": 25,
    "website": "https://www.clearvieweyesurgery.com/",
    "category": "Chinese-American-owned LASIK surgery in New-York",
    "description": "This practice offers LASIK surgery and has staff fluent in Chinese. They have joined forces with SightMD",
    "hours": "Mon-Fri 9AM-6PM",
    "services": [
      "Chinese-American-owned LASIK surgery in New-York consultation",
      "Professional service",
      "Quality guarantee"
    ],
    "social_links": {}
  },
  {
    "name": "New York Laser Vision",
    "address": "Manhattan and Brooklyn locations. (Specific addresses vary by location)",
    "phone": "855-429-2275",
    "rating": 4.0,
    "reviews": 25,
    "website": "https://www.newyorklaservision.com/",
    "category": "Chinese-American-owned LASIK surgery in New-York",
    "description": "This center specializes in LASIK and cataract surgery, serving patients in Manhattan and Brooklyn with advanced treatments",
    "hours": "Mon-Fri 9AM-6PM",
    "services": [
      "Chinese-American-owned LASIK surgery in New-York consultation",
      "Professional service",
      "Quality guarantee"
    ],
    "social_links": {}
  },
  {
    "name": "Cohen Eye Institute",
    "address": "Ridgewood, Queens, NY",
    "phone": "718-550-3305",
    "rating": 4.0,
    "reviews": 25,
    "website": "https://www.coheneye.com/",
    "category": "Chinese-American-owned LASIK surgery in New-York",
    "description": "Dr. Ilan Cohen is a LASIK specialist in Queens, offering personalized laser vision correction",
    "hours": "Mon-Fri 9AM-6PM",
    "services": [
      "Chinese-American-owned LASIK surgery in New-York consultation",
      "Professional service",
      "Quality guarantee"
    ],
    "social_links": {}
  },
  {
    "name": "Metro Eye MD",
    "address": "Bayside, Queens, NY",
    "phone": "",
    "rating": 4.0,
    "reviews": 25,
    "website": "https://www.metroeyemd.com/",
    "category": "Chinese-American-owned LASIK surgery in New-York",
    "description": "This facility in Bayside, Queens, offers LASIK eye surgery with experienced surgeons and advanced technology",
    "hours": "Mon-Fri 9AM-6PM",
    "services": [
      "Chinese-American-owned LASIK surgery in New-York consultation",
      "Professional service",
      "Quality guarantee"
    ],
    "social_links": {}
  }
]