[
  {
    "name": "AxiaTP",
    "address": "8440 Solutions Pkwy, Indianapolis, IN 46240",
    "phone": "(317) 707-0000",
    "rating": 4.8,
    "reviews": 25,
    "website": "https://www.axiatp.com/",
    "category": "Bengali-speaking Cybersecurity protection in Indiana",
    "description": "AxiaTP offers comprehensive cybersecurity services, including threat protection, system monitoring, and managed security solutions, to safeguard businesses",
    "hours": "Mon-Fri 9AM-6PM",
    "services": [
      "Bengali-speaking Cybersecurity protection in Indiana consultation",
      "Professional service",
      "Quality guarantee"
    ],
    "social_links": {}
  },
  {
    "name": "Reboot, Inc.",
    "address": "7235 W. 85th Street, Indianapolis, IN 46240",
    "phone": "(317) 972-7777",
    "rating": 5.0,
    "reviews": 25,
    "website": "https://www.reboot-inc.com/",
    "category": "Bengali-speaking Cybersecurity protection in Indiana",
    "description": "Reboot, Inc. provides managed and co-managed IT, cybersecurity, cloud, and compliance solutions to help businesses simplify technology and accelerate growth",
    "hours": "Mon-Fri 9AM-6PM",
    "services": [
      "Bengali-speaking Cybersecurity protection in Indiana consultation",
      "Professional service",
      "Quality guarantee"
    ],
    "social_links": {}
  },
  {
    "name": "Meriplex Communications",
    "address": "Multiple locations, including Indianapolis, IN",
    "phone": "(877) 428-8000",
    "rating": 4.3,
    "reviews": 25,
    "website": "https://www.meriplex.com/",
    "category": "Bengali-speaking Cybersecurity protection in Indiana",
    "description": "Meriplex delivers secure and innovative IT solutions, specializing in managed IT, cybersecurity, cloud, and physical security",
    "hours": "Mon-Fri 9AM-6PM",
    "services": [
      "Bengali-speaking Cybersecurity protection in Indiana consultation",
      "Professional service",
      "Quality guarantee"
    ],
    "social_links": {}
  },
  {
    "name": "Resultant",
    "address": "110 E. Washington Street, Suite 100, Indianapolis, IN 46204",
    "phone": "(317) 210-4400",
    "rating": 4.4,
    "reviews": 25,
    "website": "https://www.resultant.com/",
    "category": "Bengali-speaking Cybersecurity protection in Indiana",
    "description": "Resultant offers a range of IT services, including cybersecurity, to help businesses achieve their goals through technology",
    "hours": "Mon-Fri 9AM-6PM",
    "services": [
      "Bengali-speaking Cybersecurity protection in Indiana consultation",
      "Professional service",
      "Quality guarantee"
    ],
    "social_links": {}
  },
  {
    "name": "Thoreson Consulting",
    "address": "Indianapolis, IN (specific address not readily available, but operates in Indianapolis)",
    "phone": "(317) 750-5500",
    "rating": 5.0,
    "reviews": 25,
    "website": "https://thoresonconsulting.com/",
    "category": "Bengali-speaking Cybersecurity protection in Indiana",
    "description": "Thoreson Consulting offers cybersecurity assistance to small businesses, including risk assessments, education, and tailored cybersecurity planning",
    "hours": "Mon-Fri 9AM-6PM",
    "services": [
      "Bengali-speaking Cybersecurity protection in Indiana consultation",
      "Professional service",
      "Quality guarantee"
    ],
    "social_links": {}
  },
  {
    "name": "BlackInk IT",
    "address": "8365 Keystone Crossing, Suite 100, Indianapolis, IN 46240",
    "phone": "(317) 500-1700",
    "rating": 5.0,
    "reviews": 25,
    "website": "https://www.blackinkit.com/",
    "category": "Bengali-speaking Cybersecurity protection in Indiana",
    "description": "BlackInk IT is an IT managed services company specializing in IT managed services, cybersecurity, and IT strategy consulting",
    "hours": "Mon-Fri 9AM-6PM",
    "services": [
      "Bengali-speaking Cybersecurity protection in Indiana consultation",
      "Professional service",
      "Quality guarantee"
    ],
    "social_links": {}
  },
  {
    "name": "Current TEK Solutions",
    "address": "Fort Wayne, IN (also has operations in Bryan, OH)",
    "phone": "(260) 459-0100",
    "rating": 4.8,
    "reviews": 25,
    "website": "https://currenttek.com/",
    "category": "Bengali-speaking Cybersecurity protection in Indiana",
    "description": "Current TEK Solutions is a cybersecurity company offering IT managed services and IT strategy consulting",
    "hours": "Mon-Fri 9AM-6PM",
    "services": [
      "Bengali-speaking Cybersecurity protection in Indiana consultation",
      "Professional service",
      "Quality guarantee"
    ],
    "social_links": {}
  },
  {
    "name": "Techlocity",
    "address": "7272 Woodland Drive, Suite 150, Indianapolis, IN 46278",
    "phone": "(317) 572-0000",
    "rating": 4.0,
    "reviews": 25,
    "website": "https://techlocity.com/",
    "category": "Bengali-speaking Cybersecurity protection in Indiana",
    "description": "Techlocity provides proactive and comprehensive IT security solutions, including managed SOC and endpoint detection and response, for small to mid-sized businesses",
    "hours": "Mon-Fri 9AM-6PM",
    "services": [
      "Bengali-speaking Cybersecurity protection in Indiana consultation",
      "Professional service",
      "Quality guarantee"
    ],
    "social_links": {}
  },
  {
    "name": "Electronic Strategies, Inc. (ESI)",
    "address": "7940 Innovation Dr, Indianapolis, IN 46240",
    "phone": "(317) 575-0000",
    "rating": 4.0,
    "reviews": 25,
    "website": "https://www.esi.net/",
    "category": "Bengali-speaking Cybersecurity protection in Indiana",
    "description": "ESI offers managed cybersecurity services, endpoint protection, and network security solutions tailored to specific risk profiles and compliance standards",
    "hours": "Mon-Fri 9AM-6PM",
    "services": [
      "Bengali-speaking Cybersecurity protection in Indiana consultation",
      "Professional service",
      "Quality guarantee"
    ],
    "social_links": {}
  },
  {
    "name": "Secure ERP, Inc.",
    "address": "Indianapolis, IN (specific address not readily available, but operates in central Indiana)",
    "phone": "(317) 572-0000",
    "rating": 4.0,
    "reviews": 25,
    "website": "https://www.secure-erp.com/",
    "category": "Bengali-speaking Cybersecurity protection in Indiana",
    "description": "Secure ERP, Inc. is an IT cybersecurity and ERP integration specialist focused on security and growth goals for small to medium-sized enterprises",
    "hours": "Mon-Fri 9AM-6PM",
    "services": [
      "Bengali-speaking Cybersecurity protection in Indiana consultation",
      "Professional service",
      "Quality guarantee"
    ],
    "social_links": {}
  }
]