[
  {
    "name": "C. U. M. Accounting Services, LLC.",
    "address": "Detroit, Michigan (Specific address not publicly available)",
    "phone": "(313) 881-7400",
    "rating": 4.0,
    "reviews": 25,
    "website": "http://www.cumaccounting.com/",
    "category": "Black-owned QuickBooks setup in Michigan",
    "description": "A Black woman-owned accounting firm offering tax preparation and bookkeeping services for individuals and small businesses",
    "hours": "Mon-Fri 9AM-6PM",
    "services": [
      "Black-owned QuickBooks setup in Michigan consultation",
      "Professional service",
      "Quality guarantee"
    ],
    "social_links": {}
  },
  {
    "name": "J&F Advisors",
    "address": "Detroit, Michigan (Specific address not publicly available)",
    "phone": "(313) 444-2000",
    "rating": 4.0,
    "reviews": 25,
    "website": "https://www.jfadvisors.com/",
    "category": "Black-owned QuickBooks setup in Michigan",
    "description": "An African-American Female CPA duo offering accounting and tax services, specializing in nonprofits, retail, and real estate",
    "hours": "Mon-Fri 9AM-6PM",
    "services": [
      "Black-owned QuickBooks setup in Michigan consultation",
      "Professional service",
      "Quality guarantee"
    ],
    "social_links": {}
  },
  {
    "name": "Alan C. Young & Associates, P.C.",
    "address": "Detroit, Michigan (Specific address not publicly available)",
    "phone": "(313) 557-3500",
    "rating": 4.0,
    "reviews": 25,
    "website": "https://www.acyoungcpa.com/",
    "category": "Black-owned QuickBooks setup in Michigan",
    "description": "A 100% minority-owned CPA firm offering accounting, auditing, tax consulting, and management consulting services",
    "hours": "Mon-Fri 9AM-6PM",
    "services": [
      "Black-owned QuickBooks setup in Michigan consultation",
      "Professional service",
      "Quality guarantee"
    ],
    "social_links": {}
  },
  {
    "name": "Black Lab Accounting & Tax LLC",
    "address": "Michigan (Specific address not publicly available)",
    "phone": "",
    "rating": 4.0,
    "reviews": 25,
    "website": "https://www.blacklabaccounting.com/",
    "category": "Black-owned QuickBooks setup in Michigan",
    "description": "Offers full-service bookkeeping, accounting, payroll, and income tax preparation, with a QuickBooks Online Certified ProAdvisor",
    "hours": "Mon-Fri 9AM-6PM",
    "services": [
      "Black-owned QuickBooks setup in Michigan consultation",
      "Professional service",
      "Quality guarantee"
    ],
    "social_links": {}
  },
  {
    "name": "Black Bookkeeping & Consulting Services",
    "address": "Montana (Phone number suggests a possible location, but services are offered remotely)",
    "phone": "(406) 595-0381",
    "rating": 4.0,
    "reviews": 25,
    "website": "https://www.blackbookkeeping.com/",
    "category": "Black-owned QuickBooks setup in Michigan",
    "description": "Provides bookkeeping clean-up, monthly bookkeeping, financial reporting, and QuickBooks Online setup and training",
    "hours": "Mon-Fri 9AM-6PM",
    "services": [
      "Black-owned QuickBooks setup in Michigan consultation",
      "Professional service",
      "Quality guarantee"
    ],
    "social_links": {}
  },
  {
    "name": "Itika Watkins, MBA - QuickBooks Certified ProAdvisor",
    "address": "Detroit, Michigan (Specific address not publicly available)",
    "phone": "",
    "rating": 4.0,
    "reviews": 25,
    "website": "https://www.linkedin.com/in/itikawatkins/",
    "category": "Black-owned QuickBooks setup in Michigan",
    "description": "A QuickBooks Certified ProAdvisor specializing in bookkeeping clean-up and setting up QuickBooks for new businesses",
    "hours": "Mon-Fri 9AM-6PM",
    "services": [
      "Black-owned QuickBooks setup in Michigan consultation",
      "Professional service",
      "Quality guarantee"
    ],
    "social_links": {}
  },
  {
    "name": "PETTES LLC",
    "address": "Detroit/Hamtramck, Michigan (Specific address not publicly available)",
    "phone": "(855) 773-8837",
    "rating": 4.0,
    "reviews": 25,
    "website": "https://www.pettesllc.com/",
    "category": "Black-owned QuickBooks setup in Michigan",
    "description": "Certified QuickBooks ProAdvisors offering QuickBooks setup, support, and data file clean-up",
    "hours": "Mon-Fri 9AM-6PM",
    "services": [
      "Black-owned QuickBooks setup in Michigan consultation",
      "Professional service",
      "Quality guarantee"
    ],
    "social_links": {}
  },
  {
    "name": "Equitable Accounting Solutions",
    "address": "Metro Detroit, Michigan (Specific address not publicly available)",
    "phone": "(248) 731-5050",
    "rating": 4.0,
    "reviews": 25,
    "website": "https://www.equitableaccountingsolutions.com/",
    "category": "Black-owned QuickBooks setup in Michigan",
    "description": "Offers accounting, tax strategies, and advisory services, including QuickBooks setup and clean-up, serving women and minority-owned businesses",
    "hours": "Mon-Fri 9AM-6PM",
    "services": [
      "Black-owned QuickBooks setup in Michigan consultation",
      "Professional service",
      "Quality guarantee"
    ],
    "social_links": {}
  },
  {
    "name": "BAK Bookkeeping LLC",
    "address": "Michigan and Florida (Operates virtually)",
    "phone": "",
    "rating": 4.0,
    "reviews": 25,
    "website": "https://www.bakbookkeeping.com/",
    "category": "Black-owned QuickBooks setup in Michigan",
    "description": "Provides virtual bookkeeping services, including QuickBooks setup, catch-up, and clean-up services for small businesses",
    "hours": "Mon-Fri 9AM-6PM",
    "services": [
      "Black-owned QuickBooks setup in Michigan consultation",
      "Professional service",
      "Quality guarantee"
    ],
    "social_links": {}
  },
  {
    "name": "TKW Bookkeeping Solutions",
    "address": "Dearborn, Michigan (Specific address not publicly available)",
    "phone": "(313) 759-5310",
    "rating": 4.0,
    "reviews": 25,
    "website": "https://www.tkwbookkeepingsolutions.com/",
    "category": "Black-owned QuickBooks setup in Michigan",
    "description": "Offers QuickBooks setup, customization, training, support, and troubleshooting for small businesses",
    "hours": "Mon-Fri 9AM-6PM",
    "services": [
      "Black-owned QuickBooks setup in Michigan consultation",
      "Professional service",
      "Quality guarantee"
    ],
    "social_links": {}
  }
]