[
  {
    "name": "Precision Auto Glass",
    "address": "Multiple locations in the Denver metro area",
    "phone": "(303) 777-5555",
    "rating": 4.8,
    "reviews": 25,
    "website": "https://www.precisionautoglass.com/",
    "category": "Agnostic-owned Windshield repair in Colorado",
    "description": "Offers mobile windshield replacement and auto glass repair services for all makes and models",
    "hours": "Mon-Fri 9AM-6PM",
    "services": [
      "Agnostic-owned Windshield repair in Colorado consultation",
      "Professional service",
      "Quality guarantee"
    ],
    "social_links": {}
  },
  {
    "name": "Reliable Auto Glass",
    "address": "Mobile service available in Denver, Fort Collins, Boulder, and Colorado Springs",
    "phone": "(720) 619-1545",
    "rating": 4.8,
    "reviews": 25,
    "website": "https://www.reliableautoglass.com/",
    "category": "Agnostic-owned Windshield repair in Colorado",
    "description": "Provides mobile windshield repair and replacement services with a focus on quality products and customer satisfaction",
    "hours": "Mon-Fri 9AM-6PM",
    "services": [
      "Agnostic-owned Windshield repair in Colorado consultation",
      "Professional service",
      "Quality guarantee"
    ],
    "social_links": {}
  },
  {
    "name": "Safelite AutoGlass",
    "address": "Multiple locations including Longmont, Denver, and Fort Collins",
    "phone": "1-800-GO-SAFELITE (1-800-467-2335)",
    "rating": 4.7,
    "reviews": 25,
    "website": "https://www.safelite.com/",
    "category": "Agnostic-owned Windshield repair in Colorado",
    "description": "Offers windshield repair, replacement, and advanced safety system recalibration with a nationwide lifetime warranty",
    "hours": "Mon-Fri 9AM-6PM",
    "services": [
      "Agnostic-owned Windshield repair in Colorado consultation",
      "Professional service",
      "Quality guarantee"
    ],
    "social_links": {}
  },
  {
    "name": "Windshields Express",
    "address": "685 W Gunnison Ave, Grand Junction, CO 81501",
    "phone": "(970) 243-2201",
    "rating": 4.7,
    "reviews": 25,
    "website": "https://www.windshieldsexpressgj.com/",
    "category": "Agnostic-owned Windshield repair in Colorado",
    "description": "A locally owned and operated company with over 20 years of experience in auto glass repair and replacement, specializing in classic car auto glass",
    "hours": "Mon-Fri 9AM-6PM",
    "services": [
      "Agnostic-owned Windshield repair in Colorado consultation",
      "Professional service",
      "Quality guarantee"
    ],
    "social_links": {}
  },
  {
    "name": "Patriot Auto Glass, LLC",
    "address": "Located in Greeley, CO",
    "phone": "(970) 330-0000",
    "rating": 4.9,
    "reviews": 25,
    "website": "https://patriotautoglassllc.com/",
    "category": "Agnostic-owned Windshield repair in Colorado",
    "description": "Family-owned business specializing in windshield chip repair, replacement, and custom cut flat glass",
    "hours": "Mon-Fri 9AM-6PM",
    "services": [
      "Agnostic-owned Windshield repair in Colorado consultation",
      "Professional service",
      "Quality guarantee"
    ],
    "social_links": {}
  },
  {
    "name": "Ascent Auto Glass",
    "address": "Based in Loveland, CO, with mobile service throughout Northern Colorado",
    "phone": "(970) 617-2000",
    "rating": 4.9,
    "reviews": 25,
    "website": "https://www.ascentautoglass.com/",
    "category": "Agnostic-owned Windshield repair in Colorado",
    "description": "Offers high-quality windshield replacements and rock chip repairs with a focus on safety and quality, providing mobile service",
    "hours": "Mon-Fri 9AM-6PM",
    "services": [
      "Agnostic-owned Windshield repair in Colorado consultation",
      "Professional service",
      "Quality guarantee"
    ],
    "social_links": {}
  },
  {
    "name": "Bob's Comes to You Windshield Repair",
    "address": "Mobile service in Colorado Springs and surrounding areas",
    "phone": "(719) 310-0544",
    "rating": 4.8,
    "reviews": 25,
    "website": "https://bobswindshieldrepair.com/",
    "category": "Agnostic-owned Windshield repair in Colorado",
    "description": "Specializes in mobile windshield repair for chips and cracks up to 14 inches, guaranteed for life",
    "hours": "Mon-Fri 9AM-6PM",
    "services": [
      "Agnostic-owned Windshield repair in Colorado consultation",
      "Professional service",
      "Quality guarantee"
    ],
    "social_links": {}
  },
  {
    "name": "D&S Autoglass",
    "address": "Mobile service in Pueblo and surrounding areas",
    "phone": "(719) 352-9746",
    "rating": 4.9,
    "reviews": 25,
    "website": "https://dsautoglass.com/",
    "category": "Agnostic-owned Windshield repair in Colorado",
    "description": "Offers convenient mobile service for windshield, back glass, and door glass replacement and repair, including for larger vehicles",
    "hours": "Mon-Fri 9AM-6PM",
    "services": [
      "Agnostic-owned Windshield repair in Colorado consultation",
      "Professional service",
      "Quality guarantee"
    ],
    "social_links": {}
  },
  {
    "name": "Springs Auto Glass & Window Tinting",
    "address": "1720 N Murray Blvd, Colorado Springs, CO 80915",
    "phone": "(719) 633-8905",
    "rating": 4.7,
    "reviews": 25,
    "website": "https://springsautoglass.com/",
    "category": "Agnostic-owned Windshield repair in Colorado",
    "description": "Premier windshield repair, replacement, and window tinting specialists serving the Colorado Springs Metro Area",
    "hours": "Mon-Fri 9AM-6PM",
    "services": [
      "Agnostic-owned Windshield repair in Colorado consultation",
      "Professional service",
      "Quality guarantee"
    ],
    "social_links": {}
  },
  {
    "name": "Anchor Auto Glass & Tint",
    "address": "1675 N Lincoln Ave, Loveland, CO 80538",
    "phone": "(970) 667-1000",
    "rating": 4.9,
    "reviews": 25,
    "website": "https://anchorautoglassandtint.com/",
    "category": "Agnostic-owned Windshield repair in Colorado",
    "description": "Specializes in windshield replacement, repair, window tinting, and clear bra installation using OEM-quality materials",
    "hours": "Mon-Fri 9AM-6PM",
    "services": [
      "Agnostic-owned Windshield repair in Colorado consultation",
      "Professional service",
      "Quality guarantee"
    ],
    "social_links": {}
  }
]