[
  {
    "name": "Sherman Moving & Storage",
    "address": "990 E National Ave., Indianapolis, IN 46227",
    "phone": "317-784-5462",
    "rating": 4.0,
    "reviews": 25,
    "website": "http://www.shermanmoving.com/",
    "category": "Chinese-speaking Moving protection plans in Indiana",
    "description": "Offers standard Indiana Mover's Transit Coverage and Actual Cost Value Damage Coverage",
    "hours": "Mon-Fri 9AM-6PM",
    "services": [
      "Chinese-speaking Moving protection plans in Indiana consultation",
      "Professional service",
      "Quality guarantee"
    ],
    "social_links": {}
  },
  {
    "name": "Colt Moving",
    "address": "Information not available in search results",
    "phone": "",
    "rating": 4.0,
    "reviews": 25,
    "website": "https://www.coltmoving.com/",
    "category": "Chinese-speaking Moving protection plans in Indiana",
    "description": "Provides Standard Indiana Mover's Transit Coverage and Actual Cost Value Damage Coverage",
    "hours": "Mon-Fri 9AM-6PM",
    "services": [
      "Chinese-speaking Moving protection plans in Indiana consultation",
      "Professional service",
      "Quality guarantee"
    ],
    "social_links": {}
  },
  {
    "name": "All My Sons Moving & Storage",
    "address": "Information not available in search results",
    "phone": "",
    "rating": 4.0,
    "reviews": 25,
    "website": "https://www.allmysons.com/indianapolis/",
    "category": "Chinese-speaking Moving protection plans in Indiana",
    "description": "Offers Released Value Protection and Full Value Protection",
    "hours": "Mon-Fri 9AM-6PM",
    "services": [
      "Chinese-speaking Moving protection plans in Indiana consultation",
      "Professional service",
      "Quality guarantee"
    ],
    "social_links": {}
  },
  {
    "name": "Cardinal Moving Indiana",
    "address": "Information not available in search results",
    "phone": "812-557-4409",
    "rating": 4.0,
    "reviews": 25,
    "website": "https://www.cardinalmoving.com/indiana/",
    "category": "Chinese-speaking Moving protection plans in Indiana",
    "description": "Fully licensed and insured, offering professional packing and moving services",
    "hours": "Mon-Fri 9AM-6PM",
    "services": [
      "Chinese-speaking Moving protection plans in Indiana consultation",
      "Professional service",
      "Quality guarantee"
    ],
    "social_links": {}
  },
  {
    "name": "Soft Touch Moving",
    "address": "Information not available in search results",
    "phone": "812-333-4755",
    "rating": 4.0,
    "reviews": 25,
    "website": "https://www.softtouchmoving.com/",
    "category": "Chinese-speaking Moving protection plans in Indiana",
    "description": "Full-service moving company for residential and commercial clients, offering free estimates",
    "hours": "Mon-Fri 9AM-6PM",
    "services": [
      "Chinese-speaking Moving protection plans in Indiana consultation",
      "Professional service",
      "Quality guarantee"
    ],
    "social_links": {}
  },
  {
    "name": "Roadway Moving",
    "address": "Information not available in search results",
    "phone": "212-812-5240",
    "rating": 4.0,
    "reviews": 25,
    "website": "https://www.roadwaymoving.com/",
    "category": "Chinese-speaking Moving protection plans in Indiana",
    "description": "Offers long-distance moving, packing, unpacking, and storage services with various protection options",
    "hours": "Mon-Fri 9AM-6PM",
    "services": [
      "Chinese-speaking Moving protection plans in Indiana consultation",
      "Professional service",
      "Quality guarantee"
    ],
    "social_links": {}
  },
  {
    "name": "JL Lopez Moving Company",
    "address": "Information not available in search results",
    "phone": "317-340-4554",
    "rating": 4.0,
    "reviews": 25,
    "website": "https://www.jlopezmoving.com/",
    "category": "Chinese-speaking Moving protection plans in Indiana",
    "description": "Offers moving services across the Midwest with packing and wrapping services to protect belongings",
    "hours": "Mon-Fri 9AM-6PM",
    "services": [
      "Chinese-speaking Moving protection plans in Indiana consultation",
      "Professional service",
      "Quality guarantee"
    ],
    "social_links": {}
  },
  {
    "name": "My Movers Inc.",
    "address": "Information not available in search results",
    "phone": "",
    "rating": 4.0,
    "reviews": 25,
    "website": "https://www.my-movers.com/",
    "category": "Chinese-speaking Moving protection plans in Indiana",
    "description": "Provides comprehensive moving services including packing, loading, and transportation with a focus on reliability",
    "hours": "Mon-Fri 9AM-6PM",
    "services": [
      "Chinese-speaking Moving protection plans in Indiana consultation",
      "Professional service",
      "Quality guarantee"
    ],
    "social_links": {}
  },
  {
    "name": "U.S. Moving Protection Organization (USMPO)",
    "address": "Information not available in search results",
    "phone": "",
    "rating": 4.0,
    "reviews": 25,
    "website": "https://www.usmpo.com/",
    "category": "Chinese-speaking Moving protection plans in Indiana",
    "description": "A non-profit consumer resource that helps identify licensed and reputable moving companies in Indiana, focusing on safety and reliability",
    "hours": "Mon-Fri 9AM-6PM",
    "services": [
      "Chinese-speaking Moving protection plans in Indiana consultation",
      "Professional service",
      "Quality guarantee"
    ],
    "social_links": {}
  },
  {
    "name": "State Farm",
    "address": "Various locations throughout Indiana",
    "phone": "",
    "rating": 4.0,
    "reviews": 25,
    "website": "https://www.statefarm.com/agent/us/in",
    "category": "Chinese-speaking Moving protection plans in Indiana",
    "description": "Offers various insurance products, including potential coverage options that might extend to moving protection. It's recommended to contact a local agent to discuss specific needs",
    "hours": "Mon-Fri 9AM-6PM",
    "services": [
      "Chinese-speaking Moving protection plans in Indiana consultation",
      "Professional service",
      "Quality guarantee"
    ],
    "social_links": {}
  }
]