[
  {
    "name": "McKinsey & Company",
    "address": "3 World Trade Center, New York, NY 10006",
    "phone": "(212) 317-8000",
    "rating": 4.0,
    "reviews": 25,
    "website": "https://www.mckinsey.com/",
    "category": "Arabic-speaking Business transformation in New-York",
    "description": "A global management consulting firm that advises leading organizations on strategy, operations, technology, and organization",
    "hours": "Mon-Fri 9AM-6PM",
    "services": [
      "Arabic-speaking Business transformation in New-York consultation",
      "Professional service",
      "Quality guarantee"
    ],
    "social_links": {}
  },
  {
    "name": "Boston Consulting Group (BCG)",
    "address": "10 Hudson Yards, New York, NY 10001",
    "phone": "(212) 348-3400",
    "rating": 4.0,
    "reviews": 25,
    "website": "https://www.bcg.com/",
    "category": "Arabic-speaking Business transformation in New-York",
    "description": "A global management consulting firm known for its work in strategy, digital transformation, and sustainability",
    "hours": "Mon-Fri 9AM-6PM",
    "services": [
      "Arabic-speaking Business transformation in New-York consultation",
      "Professional service",
      "Quality guarantee"
    ],
    "social_links": {}
  },
  {
    "name": "Deloitte Consulting",
    "address": "30 Rockefeller Plaza, New York, NY 10112",
    "phone": "(212) 489-1600",
    "rating": 4.0,
    "reviews": 25,
    "website": "https://www2.deloitte.com/us/en/services/consulting.html",
    "category": "Arabic-speaking Business transformation in New-York",
    "description": "Offers a wide range of consulting services, including strategy, technology, and human capital, to help businesses transform",
    "hours": "Mon-Fri 9AM-6PM",
    "services": [
      "Arabic-speaking Business transformation in New-York consultation",
      "Professional service",
      "Quality guarantee"
    ],
    "social_links": {}
  },
  {
    "name": "Ernst & Young (EY)",
    "address": "1 Battery Park Plaza, New York, NY 10004",
    "phone": "(212) 773-3000",
    "rating": 4.0,
    "reviews": 25,
    "website": "https://www.ey.com/en_us/consulting",
    "category": "Arabic-speaking Business transformation in New-York",
    "description": "Provides consulting services focused on digital transformation, financial services, and strategy",
    "hours": "Mon-Fri 9AM-6PM",
    "services": [
      "Arabic-speaking Business transformation in New-York consultation",
      "Professional service",
      "Quality guarantee"
    ],
    "social_links": {}
  },
  {
    "name": "Accenture",
    "address": "155 Avenue of the Americas, New York, NY 10013",
    "phone": "(212) 301-1000",
    "rating": 4.0,
    "reviews": 25,
    "website": "https://www.accenture.com/us-en/services/consulting",
    "category": "Arabic-speaking Business transformation in New-York",
    "description": "A global professional services company that provides a broad range of services in strategy, consulting, digital, technology, and operations",
    "hours": "Mon-Fri 9AM-6PM",
    "services": [
      "Arabic-speaking Business transformation in New-York consultation",
      "Professional service",
      "Quality guarantee"
    ],
    "social_links": {}
  },
  {
    "name": "PricewaterhouseCoopers (PwC)",
    "address": "300 Madison Avenue, New York, NY 10017",
    "phone": "(212) 499-4000",
    "rating": 4.0,
    "reviews": 25,
    "website": "https://www.pwc.com/us/en/services/consulting.html",
    "category": "Arabic-speaking Business transformation in New-York",
    "description": "Offers a variety of consulting services, including strategy, digital transformation, and operational improvement",
    "hours": "Mon-Fri 9AM-6PM",
    "services": [
      "Arabic-speaking Business transformation in New-York consultation",
      "Professional service",
      "Quality guarantee"
    ],
    "social_links": {}
  },
  {
    "name": "Agility Growth Partners",
    "address": "(Specific address not readily available, but operates in NYC)",
    "phone": "",
    "rating": 4.0,
    "reviews": 25,
    "website": "https://www.agilitygrowthpartners.com/",
    "category": "Arabic-speaking Business transformation in New-York",
    "description": "A business strategy consulting firm focused on driving sustainable growth and transformation",
    "hours": "Mon-Fri 9AM-6PM",
    "services": [
      "Arabic-speaking Business transformation in New-York consultation",
      "Professional service",
      "Quality guarantee"
    ],
    "social_links": {}
  },
  {
    "name": "Munro Business Consulting",
    "address": "New York, NY (Specific address not readily available)",
    "phone": "",
    "rating": 4.0,
    "reviews": 25,
    "website": "https://munrobusinessconsulting.com/",
    "category": "Arabic-speaking Business transformation in New-York",
    "description": "Offers business transformation consulting with tailored solutions for strategy development and implementation",
    "hours": "Mon-Fri 9AM-6PM",
    "services": [
      "Arabic-speaking Business transformation in New-York consultation",
      "Professional service",
      "Quality guarantee"
    ],
    "social_links": {}
  },
  {
    "name": "Forcery",
    "address": "(Operates in NYC, specific address not readily available)",
    "phone": "",
    "rating": 4.0,
    "reviews": 25,
    "website": "https://forcery.com/",
    "category": "Arabic-speaking Business transformation in New-York",
    "description": "A digital transformation strategy partner with expertise in CRM and marketing automation",
    "hours": "Mon-Fri 9AM-6PM",
    "services": [
      "Arabic-speaking Business transformation in New-York consultation",
      "Professional service",
      "Quality guarantee"
    ],
    "social_links": {}
  },
  {
    "name": "CultureStrategy",
    "address": "(Operates in NYC, specific address not readily available)",
    "phone": "",
    "rating": 4.0,
    "reviews": 25,
    "website": "https://culturestrategy.com/",
    "category": "Arabic-speaking Business transformation in New-York",
    "description": "A boutique organizational consultancy focused on culture and organizational change",
    "hours": "Mon-Fri 9AM-6PM",
    "services": [
      "Arabic-speaking Business transformation in New-York consultation",
      "Professional service",
      "Quality guarantee"
    ],
    "social_links": {}
  }
]