[
  {
    "name": "Stark Exterminators",
    "address": "Multiple locations across Alabama (specific address varies by branch)",
    "phone": "1-800-330-5525",
    "rating": 4.5,
    "reviews": 25,
    "website": "https://www.starkexterminators.com/",
    "category": "Arabic-speaking Ant control in Alabama",
    "description": "Stark Exterminators offers professional pest control services, specializing in fire ant control and the removal of various other pests from homes and businesses",
    "hours": "Mon-Fri 9AM-6PM",
    "services": [
      "Arabic-speaking Ant control in Alabama consultation",
      "Professional service",
      "Quality guarantee"
    ],
    "social_links": {}
  },
  {
    "name": "Arrow Exterminators",
    "address": "Multiple locations across Alabama (specific address varies by branch)",
    "phone": "1-800-417-0715",
    "rating": 4.6,
    "reviews": 25,
    "website": "https://www.arrowexterminators.com/",
    "category": "Arabic-speaking Ant control in Alabama",
    "description": "Arrow Exterminators provides comprehensive pest control solutions, including effective fire ant removal and protection for homes and businesses throughout Alabama",
    "hours": "Mon-Fri 9AM-6PM",
    "services": [
      "Arabic-speaking Ant control in Alabama consultation",
      "Professional service",
      "Quality guarantee"
    ],
    "social_links": {}
  },
  {
    "name": "Waynes Pest Control",
    "address": "Multiple locations, including Birmingham and Huntsville",
    "phone": "1-866-597-3920",
    "rating": 4.7,
    "reviews": 25,
    "website": "https://www.waynespestcontrol.com/",
    "category": "Arabic-speaking Ant control in Alabama",
    "description": "Waynes Pest Control offers expert ant pest control, focusing on both extermination and prevention to eliminate ant problems and protect homes",
    "hours": "Mon-Fri 9AM-6PM",
    "services": [
      "Arabic-speaking Ant control in Alabama consultation",
      "Professional service",
      "Quality guarantee"
    ],
    "social_links": {}
  },
  {
    "name": "Greenway Pest Solutions",
    "address": "Serves Birmingham and surrounding areas",
    "phone": "1-855-449-0440",
    "rating": 4.8,
    "reviews": 25,
    "website": "https://www.greenwaypestsolutions.com/",
    "category": "Arabic-speaking Ant control in Alabama",
    "description": "Greenway Pest Solutions provides residential and commercial pest control services in Alabama, effectively handling ant infestations and other common pests",
    "hours": "Mon-Fri 9AM-6PM",
    "services": [
      "Arabic-speaking Ant control in Alabama consultation",
      "Professional service",
      "Quality guarantee"
    ],
    "social_links": {}
  },
  {
    "name": "Mr. Buggs Pest Patrol",
    "address": "Serves Arab, Bessemer, and Decatur areas",
    "phone": "205-941-6546",
    "rating": 4.5,
    "reviews": 25,
    "website": "https://www.mrbuggspestpatrol.com/",
    "category": "Arabic-speaking Ant control in Alabama",
    "description": "Mr. Buggs Pest Patrol offers efficient and fast pest control services for homes and businesses, including solutions for ants and other common pests in Alabama",
    "hours": "Mon-Fri 9AM-6PM",
    "services": [
      "Arabic-speaking Ant control in Alabama consultation",
      "Professional service",
      "Quality guarantee"
    ],
    "social_links": {}
  },
  {
    "name": "Orkin",
    "address": "Multiple branches, including one serving Arab, AL",
    "phone": "1-877-868-5438",
    "rating": 4.4,
    "reviews": 25,
    "website": "https://www.orkin.com/",
    "category": "Arabic-speaking Ant control in Alabama",
    "description": "Orkin provides comprehensive pest control services, including ant control, using a proven A.I.M. solution to assess, implement, and monitor pest management plans",
    "hours": "Mon-Fri 9AM-6PM",
    "services": [
      "Arabic-speaking Ant control in Alabama consultation",
      "Professional service",
      "Quality guarantee"
    ],
    "social_links": {}
  },
  {
    "name": "Custom Pest Control",
    "address": "Serves Arab, AL and surrounding areas",
    "phone": "1-800-811-7042",
    "rating": 4.7,
    "reviews": 25,
    "website": "https://www.custompestcontrol.com/",
    "category": "Arabic-speaking Ant control in Alabama",
    "description": "Custom Pest Control offers professional pest management services in Arab, AL, with over 29 years of experience in providing customized solutions for ant problems and other pests",
    "hours": "Mon-Fri 9AM-6PM",
    "services": [
      "Arabic-speaking Ant control in Alabama consultation",
      "Professional service",
      "Quality guarantee"
    ],
    "social_links": {}
  },
  {
    "name": "Safeway Pest Control",
    "address": "Serves North Alabama",
    "phone": "1-800-723-9294",
    "rating": 4.9,
    "reviews": 25,
    "website": "https://www.safewaypestcontrol.com/",
    "category": "Arabic-speaking Ant control in Alabama",
    "description": "Safeway Pest Control is a family-owned business serving North Alabama for 24 years, offering top-notch pest management services for homes and businesses, including insect control",
    "hours": "Mon-Fri 9AM-6PM",
    "services": [
      "Arabic-speaking Ant control in Alabama consultation",
      "Professional service",
      "Quality guarantee"
    ],
    "social_links": {}
  },
  {
    "name": "Cook's Pest Control",
    "address": "Branch office in Arab, AL: 175 AL Highway 75N, Arab, AL 35951",
    "phone": "256-878-5541",
    "rating": 4.8,
    "reviews": 25,
    "website": "https://www.cookspestcontrol.com/",
    "category": "Arabic-speaking Ant control in Alabama",
    "description": "Cook's Pest Control offers residential pest control and termite protection services, known for their professional and ethical business practices",
    "hours": "Mon-Fri 9AM-6PM",
    "services": [
      "Arabic-speaking Ant control in Alabama consultation",
      "Professional service",
      "Quality guarantee"
    ],
    "social_links": {}
  },
  {
    "name": "Arab Termite and Pest Control",
    "address": "Serves Arab, AL",
    "phone": "1-800-322-0094",
    "rating": 4.6,
    "reviews": 25,
    "website": "https://www.arabpestcontrol.com/",
    "category": "Arabic-speaking Ant control in Alabama",
    "description": "Arab Termite and Pest Control provides integrated pest management solutions for crawling insects like ants, spiders, and cockroaches, serving both residential and commercial clients",
    "hours": "Mon-Fri 9AM-6PM",
    "services": [
      "Arabic-speaking Ant control in Alabama consultation",
      "Professional service",
      "Quality guarantee"
    ],
    "social_links": {}
  }
]