[
  {
    "name": "Estabrook's",
    "address": "1015 US-1, Yarmouth, ME 04096",
    "phone": "(207) 846-4500",
    "rating": 4.5,
    "reviews": 25,
    "website": "https://www.estabrooks.com/",
    "category": "Baby-Boomer-owned Vegetable garden planning in Maine",
    "description": "A full-service, family-owned garden center offering a diverse selection of plants, gardening supplies, and in-store garden consultations. They also have a mobile app for rewards and plant information",
    "hours": "Mon-Fri 9AM-6PM",
    "services": [
      "Baby-Boomer-owned Vegetable garden planning in Maine consultation",
      "Professional service",
      "Quality guarantee"
    ],
    "social_links": {}
  },
  {
    "name": "Skillins Greenhouses",
    "address": "87 Cool St, Brunswick, ME 04011 (also locations in Falmouth and Cumberland)",
    "phone": "(207) 725-8200",
    "rating": 4.5,
    "reviews": 25,
    "website": "https://www.skillins.com/",
    "category": "Baby-Boomer-owned Vegetable garden planning in Maine",
    "description": "A long-standing family business with multiple locations, offering a wide range of plants, gardening supplies, and knowledgeable staff. They have been serving Maine gardens since 1885",
    "hours": "Mon-Fri 9AM-6PM",
    "services": [
      "Baby-Boomer-owned Vegetable garden planning in Maine consultation",
      "Professional service",
      "Quality guarantee"
    ],
    "social_links": {}
  },
  {
    "name": "Longfellow's Greenhouses",
    "address": "878 Old Topsham Rd, Manchester, ME 04351",
    "phone": "(207) 622-5404",
    "rating": 4.6,
    "reviews": 25,
    "website": "https://www.longfellowsgreenhouses.com/",
    "category": "Baby-Boomer-owned Vegetable garden planning in Maine",
    "description": "This greenhouse grows thousands of plants, including a vast selection of perennials and herbs. They also host community events and offer gardening demonstrations and classes",
    "hours": "Mon-Fri 9AM-6PM",
    "services": [
      "Baby-Boomer-owned Vegetable garden planning in Maine consultation",
      "Professional service",
      "Quality guarantee"
    ],
    "social_links": {}
  },
  {
    "name": "Mainescape Nursery and Garden Shop",
    "address": "414 South Blue Hill Rd, Blue Hill, ME 04614",
    "phone": "(207) 374-5000",
    "rating": 4.7,
    "reviews": 25,
    "website": "https://www.mainescape.com/",
    "category": "Baby-Boomer-owned Vegetable garden planning in Maine",
    "description": "Originally a landscape company, Mainescape now offers a full-service garden center with a wide assortment of home goods, produce, and gardening supplies. They also host community events",
    "hours": "Mon-Fri 9AM-6PM",
    "services": [
      "Baby-Boomer-owned Vegetable garden planning in Maine consultation",
      "Professional service",
      "Quality guarantee"
    ],
    "social_links": {}
  },
  {
    "name": "Fieldstone Gardens Inc.",
    "address": "747 North Rd, Vassalboro, ME 04989",
    "phone": "(207) 993-3717",
    "rating": 4.8,
    "reviews": 25,
    "website": "https://www.fieldstonegardens.com/",
    "category": "Baby-Boomer-owned Vegetable garden planning in Maine",
    "description": "A family-owned and operated business since 1984, specializing in hardy northern-grown perennials. They offer over 1,000 varieties and have extensive display gardens",
    "hours": "Mon-Fri 9AM-6PM",
    "services": [
      "Baby-Boomer-owned Vegetable garden planning in Maine consultation",
      "Professional service",
      "Quality guarantee"
    ],
    "social_links": {}
  },
  {
    "name": "Moody's Nursery and Garden Center",
    "address": "149 Saco St, Saco, ME 04072",
    "phone": "(207) 282-7700",
    "rating": 4.4,
    "reviews": 25,
    "website": "https://moodysnursery.com/",
    "category": "Baby-Boomer-owned Vegetable garden planning in Maine",
    "description": "A favorite since 1935, Moody's offers a wide variety of plants, shrubs, and necessities for bird lovers, with many greenhouses to explore",
    "hours": "Mon-Fri 9AM-6PM",
    "services": [
      "Baby-Boomer-owned Vegetable garden planning in Maine consultation",
      "Professional service",
      "Quality guarantee"
    ],
    "social_links": {}
  },
  {
    "name": "Snug Harbor Farm",
    "address": "377 Clambake Rd, Kennebunk, ME 04043",
    "phone": "(207) 967-9388",
    "rating": 4.6,
    "reviews": 25,
    "website": "https://www.snugharborfarm.com/",
    "category": "Baby-Boomer-owned Vegetable garden planning in Maine",
    "description": "Described as a hidden gem, this farm offers a peaceful enclave of plants and flowers, including rare finds, with five greenhouses and a nursery",
    "hours": "Mon-Fri 9AM-6PM",
    "services": [
      "Baby-Boomer-owned Vegetable garden planning in Maine consultation",
      "Professional service",
      "Quality guarantee"
    ],
    "social_links": {}
  },
  {
    "name": "Surry Gardens",
    "address": "147 Surry Rd, Surry, ME 04684",
    "phone": "(207) 667-4493",
    "rating": 4.7,
    "reviews": 25,
    "website": "https://www.surrygardens.com/",
    "category": "Baby-Boomer-owned Vegetable garden planning in Maine",
    "description": "The premier full-service greenhouse and nursery in the Downeast Maine region, offering a large selection of trees, perennials, fruit trees, shrubs, and vegetable starts",
    "hours": "Mon-Fri 9AM-6PM",
    "services": [
      "Baby-Boomer-owned Vegetable garden planning in Maine consultation",
      "Professional service",
      "Quality guarantee"
    ],
    "social_links": {}
  },
  {
    "name": "Davis Landscape Company, Inc.",
    "address": "174 Gray Rd, Falmouth, ME 04105",
    "phone": "(207) 781-3811",
    "rating": 4.5,
    "reviews": 25,
    "website": "https://www.davislandscape.com/",
    "category": "Baby-Boomer-owned Vegetable garden planning in Maine",
    "description": "A second-generation, full-service landscape company serving central and southern Maine since 1976, offering landscape design, build, and maintenance services",
    "hours": "Mon-Fri 9AM-6PM",
    "services": [
      "Baby-Boomer-owned Vegetable garden planning in Maine consultation",
      "Professional service",
      "Quality guarantee"
    ],
    "social_links": {}
  },
  {
    "name": "LST Landscaping Inc.",
    "address": "100 John Roberts Rd, South Portland, ME 04106",
    "phone": "(207) 878-1578",
    "rating": 4.6,
    "reviews": 25,
    "website": "https://www.lstlandscaping.com/",
    "category": "Baby-Boomer-owned Vegetable garden planning in Maine",
    "description": "A family-owned and operated company since 1969, providing comprehensive landscape design, installation, and maintenance services for residential and commercial properties",
    "hours": "Mon-Fri 9AM-6PM",
    "services": [
      "Baby-Boomer-owned Vegetable garden planning in Maine consultation",
      "Professional service",
      "Quality guarantee"
    ],
    "social_links": {}
  }
]