[
  {
    "name": "QSJ Health Spa",
    "address": "19121 Telegraph Rd, Detroit, Michigan 48219",
    "phone": "313-533-7710",
    "rating": 4.0,
    "reviews": 25,
    "website": "https://www.google.com/maps/search/QSJ+Health+Spa+in+Michigan",
    "category": "Chinese-speaking Sauna in Michigan",
    "description": "Offers sauna services",
    "hours": "Mon-Fri 9AM-6PM",
    "services": [
      "Chinese-speaking Sauna in Michigan consultation",
      "Professional service",
      "Quality guarantee"
    ],
    "social_links": {}
  },
  {
    "name": "SelfeSteam",
    "address": "2220 N Telegraph Rd, Dearborn, MI 48128",
    "phone": "",
    "rating": 4.0,
    "reviews": 25,
    "website": "https://www.google.com/maps/search/SelfeSteam+in+Michigan",
    "category": "Chinese-speaking Sauna in Michigan",
    "description": "Offers infrared sauna and general sauna services",
    "hours": "Mon-Fri 9AM-6PM",
    "services": [
      "Chinese-speaking Sauna in Michigan consultation",
      "Professional service",
      "Quality guarantee"
    ],
    "social_links": {}
  },
  {
    "name": "Bloom Wellness Spa",
    "address": "Ann Arbor, MI (Specific address not provided in search results, but listed as an Ann Arbor destination)",
    "phone": "",
    "rating": 4.0,
    "reviews": 25,
    "website": "https://www.google.com/maps/search/Bloom+Wellness+Spa+in+Michigan",
    "category": "Chinese-speaking Sauna in Michigan",
    "description": "Offers massage, sauna, and float therapy packages",
    "hours": "Mon-Fri 9AM-6PM",
    "services": [
      "Chinese-speaking Sauna in Michigan consultation",
      "Professional service",
      "Quality guarantee"
    ],
    "social_links": {}
  },
  {
    "name": "BASK Detroit",
    "address": "Detroit, MI (Specific address not provided in search results)",
    "phone": "",
    "rating": 4.0,
    "reviews": 25,
    "website": "https://www.google.com/maps/search/BASK+Detroit+in+Michigan",
    "category": "Chinese-speaking Sauna in Michigan",
    "description": "A cold plunge and sauna wellness club",
    "hours": "Mon-Fri 9AM-6PM",
    "services": [
      "Chinese-speaking Sauna in Michigan consultation",
      "Professional service",
      "Quality guarantee"
    ],
    "social_links": {}
  },
  {
    "name": "Corcova Salt Spa",
    "address": "1159 W. Hill Rd., Flint, MI 48507",
    "phone": "810.407.7140",
    "rating": 4.0,
    "reviews": 25,
    "website": "https://www.google.com/maps/search/Corcova+Salt+Spa+in+Michigan",
    "category": "Chinese-speaking Sauna in Michigan",
    "description": "Offers Himalayan Salt Infused FAR Infrared Sauna and Contrast Therapy (Steam Sauna & Cold Plunge)",
    "hours": "Mon-Fri 9AM-6PM",
    "services": [
      "Chinese-speaking Sauna in Michigan consultation",
      "Professional service",
      "Quality guarantee"
    ],
    "social_links": {}
  },
  {
    "name": "Takka Portage",
    "address": "2003 Burton St SE, Grand Rapids, MI 49506 (This address appears to be for Lotus Flower Asian Massage, Takka Portage is in Hancock, MI)",
    "phone": "616-264-8999 (This is for Lotus Flower Asian Massage)",
    "rating": 4.0,
    "reviews": 25,
    "website": "https://www.google.com/maps/search/Takka+Portage+in+Michigan",
    "category": "Chinese-speaking Sauna in Michigan",
    "description": "Offers social and private sauna experiences. (Note: The address provided in the search result seems to be for a different business. Takka Portage is located in Hancock, MI.)",
    "hours": "Mon-Fri 9AM-6PM",
    "services": [
      "Chinese-speaking Sauna in Michigan consultation",
      "Professional service",
      "Quality guarantee"
    ],
    "social_links": {}
  },
  {
    "name": "Takka Saunas",
    "address": "Hancock, Michigan (Specific address not provided in search results)",
    "phone": "",
    "rating": 4.0,
    "reviews": 25,
    "website": "https://www.google.com/maps/search/Takka+Saunas+in+Michigan",
    "category": "Chinese-speaking Sauna in Michigan",
    "description": "Offers social and private sauna experiences",
    "hours": "Mon-Fri 9AM-6PM",
    "services": [
      "Chinese-speaking Sauna in Michigan consultation",
      "Professional service",
      "Quality guarantee"
    ],
    "social_links": {}
  },
  {
    "name": "MichiganSaunas",
    "address": "1132 US-31 N., Traverse City, MI, USA",
    "phone": "231 620 1326",
    "rating": 4.0,
    "reviews": 25,
    "website": "https://www.google.com/maps/search/MichiganSaunas+in+Michigan",
    "category": "Chinese-speaking Sauna in Michigan",
    "description": "Offers mobile sauna experiences",
    "hours": "Mon-Fri 9AM-6PM",
    "services": [
      "Chinese-speaking Sauna in Michigan consultation",
      "Professional service",
      "Quality guarantee"
    ],
    "social_links": {}
  },
  {
    "name": "Howl at the Moon Sauna Co.",
    "address": "Rockford, Michigan (serving West Michigan)",
    "phone": "",
    "rating": 4.0,
    "reviews": 25,
    "website": "https://www.google.com/maps/search/Howl+at+the+Moon+Sauna+Co.+in+Michigan",
    "category": "Chinese-speaking Sauna in Michigan",
    "description": "Mobile sauna experiences delivered",
    "hours": "Mon-Fri 9AM-6PM",
    "services": [
      "Chinese-speaking Sauna in Michigan consultation",
      "Professional service",
      "Quality guarantee"
    ],
    "social_links": {}
  },
  {
    "name": "BANYA",
    "address": "Not specified in search results",
    "phone": "",
    "rating": 4.0,
    "reviews": 25,
    "website": "https://www.google.com/maps/search/BANYA+in+Michigan",
    "category": "Chinese-speaking Sauna in Michigan",
    "description": "Offers infrared saunas, red light therapy, and cold plunges",
    "hours": "Mon-Fri 9AM-6PM",
    "services": [
      "Chinese-speaking Sauna in Michigan consultation",
      "Professional service",
      "Quality guarantee"
    ],
    "social_links": {}
  }
]