[
  {
    "name": "Benchmark Transmission & Auto Care",
    "address": "128 Patriot Drive, Middletown, DE 19709",
    "phone": "(302) 376-9111",
    "rating": 4.0,
    "reviews": 25,
    "website": "https://benchmarktransmission.com/",
    "category": "African-American-owned ABS repair in Delaware",
    "description": "Offers a comprehensive range of auto repair services, including ABS diagnostic and repair",
    "hours": "Mon-Fri 9AM-6PM",
    "services": [
      "African-American-owned ABS repair in Delaware consultation",
      "Professional service",
      "Quality guarantee"
    ],
    "social_links": {}
  },
  {
    "name": "Malik's Auto Repair",
    "address": "New Castle, DE (Specific address not provided in search results, but serves New Castle, DE)",
    "phone": "302-325-2555",
    "rating": 4.0,
    "reviews": 25,
    "website": "https://maliksautorepair.com/",
    "category": "African-American-owned ABS repair in Delaware",
    "description": "A locally owned and operated auto repair shop offering services including brake repair and check engine light diagnostics",
    "hours": "Mon-Fri 9AM-6PM",
    "services": [
      "African-American-owned ABS repair in Delaware consultation",
      "Professional service",
      "Quality guarantee"
    ],
    "social_links": {}
  },
  {
    "name": "Milenio Auto Group",
    "address": "303 7th Ave, Wilmington, DE 19805",
    "phone": "(302) 429-0100",
    "rating": 4.0,
    "reviews": 25,
    "website": "https://milenioauto.com/",
    "category": "African-American-owned ABS repair in Delaware",
    "description": "Offers auto repair, brake services, and oil changes with a 24-month/24k mile warranty on parts and labor",
    "hours": "Mon-Fri 9AM-6PM",
    "services": [
      "African-American-owned ABS repair in Delaware consultation",
      "Professional service",
      "Quality guarantee"
    ],
    "social_links": {}
  },
  {
    "name": "Billions Auto Body Shop",
    "address": "(Specific address not provided in search results, but described as a Black-owned auto body shop)",
    "phone": "",
    "rating": 4.0,
    "reviews": 25,
    "website": "https://www.google.com/maps/search/Billions+Auto+Body+Shop+in+Delaware",
    "category": "African-American-owned ABS repair in Delaware",
    "description": "A Black-owned auto body shop offering a comprehensive range of services including collision repair, mechanical repairs, and more",
    "hours": "Mon-Fri 9AM-6PM",
    "services": [
      "African-American-owned ABS repair in Delaware consultation",
      "Professional service",
      "Quality guarantee"
    ],
    "social_links": {}
  },
  {
    "name": "Mr. Tire Auto Service and Tire Centers",
    "address": "Seaford, DE (Specific address not provided in search results, but has a location in Seaford, DE)",
    "phone": "(302) 558-1021",
    "rating": 4.0,
    "reviews": 25,
    "website": "https://www.mrtire.com/locations/seaford-de",
    "category": "African-American-owned ABS repair in Delaware",
    "description": "Offers services including ABS repair, brake repair, and general vehicle maintenance",
    "hours": "Mon-Fri 9AM-6PM",
    "services": [
      "African-American-owned ABS repair in Delaware consultation",
      "Professional service",
      "Quality guarantee"
    ],
    "social_links": {}
  },
  {
    "name": "Meineke (New Castle & Wilmington locations)",
    "address": "",
    "phone": "New Castle: (302) 328-7111, Wilmington: (302) 655-1100",
    "rating": 4.0,
    "reviews": 25,
    "website": "https://www.meineke.com/locations/",
    "category": "African-American-owned ABS repair in Delaware",
    "description": "Offers ABS brake service and repair",
    "hours": "Mon-Fri 9AM-6PM",
    "services": [
      "African-American-owned ABS repair in Delaware consultation",
      "Professional service",
      "Quality guarantee"
    ],
    "social_links": {}
  },
  {
    "name": "Mavis Discount Tire (Newark locations)",
    "address": "",
    "phone": "302-223-4843 (for Newark location)",
    "rating": 4.0,
    "reviews": 25,
    "website": "https://www.mavis.com/locations/newark-de-60-chestnut-hill-plaza",
    "category": "African-American-owned ABS repair in Delaware",
    "description": "Provides brake repair services, including ABS brake issues",
    "hours": "Mon-Fri 9AM-6PM",
    "services": [
      "African-American-owned ABS repair in Delaware consultation",
      "Professional service",
      "Quality guarantee"
    ],
    "social_links": {}
  }
]