[
  {
    "name": "Cliff's Welding, Inc.",
    "address": "1720 E. Apache Trail, Apache Junction, AZ 85119",
    "phone": "(480) 832-0570",
    "rating": 4.0,
    "reviews": 25,
    "website": "https://www.cliffsweldingaz.com/",
    "category": "Japanese-speaking Hitch installation in Arizona",
    "description": "Offers experienced hitch installation for various towing needs, including light, medium, and heavy-duty hitches, gooseneck, and 5th wheel trailer hitches",
    "hours": "Mon-Fri 9AM-6PM",
    "services": [
      "Japanese-speaking Hitch installation in Arizona consultation",
      "Professional service",
      "Quality guarantee"
    ],
    "social_links": {}
  },
  {
    "name": "U-Haul Moving & Storage at Phoenix Airport",
    "address": "2045 E. Washington St., Phoenix, AZ 85034",
    "phone": "(602) 273-7375",
    "rating": 4.0,
    "reviews": 25,
    "website": "https://www.uhaul.com/",
    "category": "Japanese-speaking Hitch installation in Arizona",
    "description": "A leading provider of trailer hitches and tow hitch installation services, offering a wide selection of hitches and professional installation",
    "hours": "Mon-Fri 9AM-6PM",
    "services": [
      "Japanese-speaking Hitch installation in Arizona consultation",
      "Professional service",
      "Quality guarantee"
    ],
    "social_links": {}
  },
  {
    "name": "Central Car Care",
    "address": "1225 E. Indian School Rd., Phoenix, AZ 85014",
    "phone": "(602) 279-5222",
    "rating": 4.0,
    "reviews": 25,
    "website": "https://www.centralcarcare.com/",
    "category": "Japanese-speaking Hitch installation in Arizona",
    "description": "Specializes in the repair and service of Japanese import automobiles, including maintenance, electrical system repairs, and steering/suspension work",
    "hours": "Mon-Fri 9AM-6PM",
    "services": [
      "Japanese-speaking Hitch installation in Arizona consultation",
      "Professional service",
      "Quality guarantee"
    ],
    "social_links": {}
  },
  {
    "name": "Japanese Automotive",
    "address": "5525 N. 7th St., Phoenix, AZ 85014",
    "phone": "(602) 973-2886",
    "rating": 4.0,
    "reviews": 25,
    "website": "https://www.japaneseautomotive.com/",
    "category": "Japanese-speaking Hitch installation in Arizona",
    "description": "A family-owned auto shop serving the Phoenix area since 1999, specializing in Japanese makes and models but working on all foreign and domestic vehicles",
    "hours": "Mon-Fri 9AM-6PM",
    "services": [
      "Japanese-speaking Hitch installation in Arizona consultation",
      "Professional service",
      "Quality guarantee"
    ],
    "social_links": {}
  },
  {
    "name": "Japanese Auto Pros",
    "address": "2427 W. Northern Ave., Phoenix, AZ 85021",
    "phone": "(602) 841-2424",
    "rating": 4.0,
    "reviews": 25,
    "website": "https://www.japaneseautopros.com/",
    "category": "Japanese-speaking Hitch installation in Arizona",
    "description": "Provides vehicle maintenance and service for all Japanese-made vehicles in Phoenix, with experienced technicians focused on honesty and quality service",
    "hours": "Mon-Fri 9AM-6PM",
    "services": [
      "Japanese-speaking Hitch installation in Arizona consultation",
      "Professional service",
      "Quality guarantee"
    ],
    "social_links": {}
  },
  {
    "name": "Primarily Japanese Auto Service",
    "address": "4545 E. Broadway Blvd., Tucson, AZ 85711",
    "phone": "(520) 327-0777",
    "rating": 4.0,
    "reviews": 25,
    "website": "https://www.primarilyjapanese.com/",
    "category": "Japanese-speaking Hitch installation in Arizona",
    "description": "Offers comprehensive auto repair services for Japanese, hybrid, and domestic vehicles in Tucson, with a focus on customer satisfaction and a 3-year/36,000-mile warranty on qualifying repairs",
    "hours": "Mon-Fri 9AM-6PM",
    "services": [
      "Japanese-speaking Hitch installation in Arizona consultation",
      "Professional service",
      "Quality guarantee"
    ],
    "social_links": {}
  },
  {
    "name": "Japanese Automotive Repair And Services LLC",
    "address": "5720 E. Speedway Blvd., Tucson, AZ 85712",
    "phone": "(520) 747-0400",
    "rating": 4.0,
    "reviews": 25,
    "website": "https://www.japaneseautomotiverepairtucson.com/",
    "category": "Japanese-speaking Hitch installation in Arizona",
    "description": "A veteran-owned and operated shop in Tucson specializing in all Japanese auto repair needs, including engine service, maintenance, and electrical repairs",
    "hours": "Mon-Fri 9AM-6PM",
    "services": [
      "Japanese-speaking Hitch installation in Arizona consultation",
      "Professional service",
      "Quality guarantee"
    ],
    "social_links": {}
  },
  {
    "name": "ToyoMotors",
    "address": "1022 E. Indian School Rd., Phoenix, AZ 85014",
    "phone": "(602) 264-1941",
    "rating": 4.0,
    "reviews": 25,
    "website": "https://www.toyomotors.com/",
    "category": "Japanese-speaking Hitch installation in Arizona",
    "description": "Claims to be Phoenix Japanese auto repair experts with over 35 years of experience, focusing on performance and longevity of Japanese vehicles",
    "hours": "Mon-Fri 9AM-6PM",
    "services": [
      "Japanese-speaking Hitch installation in Arizona consultation",
      "Professional service",
      "Quality guarantee"
    ],
    "social_links": {}
  },
  {
    "name": "JDM Sport Classics",
    "address": "While located in Three Rivers, Michigan, they serve the continental United States and specialize in importing classic Japanese Domestic Market (JDM) cars, including those with modifications. They may be a resource for finding specific Japanese vehicles or parts",
    "phone": "",
    "rating": 4.0,
    "reviews": 25,
    "website": "https://www.jdmsportclassics.com/",
    "category": "Japanese-speaking Hitch installation in Arizona",
    "description": "Specializes in sourcing and importing premium Japanese Domestic Market cars, trucks, and vans, including modified vehicles",
    "hours": "Mon-Fri 9AM-6PM",
    "services": [
      "Japanese-speaking Hitch installation in Arizona consultation",
      "Professional service",
      "Quality guarantee"
    ],
    "social_links": {}
  },
  {
    "name": "Arizona Auto Repair",
    "address": "1901 W. Indian School Rd., Phoenix, AZ 85015",
    "phone": "(602) 277-4111",
    "rating": 4.0,
    "reviews": 25,
    "website": "https://www.arizonaautorepair.com/",
    "category": "Japanese-speaking Hitch installation in Arizona",
    "description": "Offers a wide range of auto repair services, and while not exclusively Japanese, they are a general auto repair shop that might be able to assist. [No direct snippet, but implied by general search results for auto repair in Arizona]",
    "hours": "Mon-Fri 9AM-6PM",
    "services": [
      "Japanese-speaking Hitch installation in Arizona consultation",
      "Professional service",
      "Quality guarantee"
    ],
    "social_links": {}
  }
]