[
  {
    "name": "Claymore Senior Center",
    "address": "2000 Kynlyn Drive, Wilmington, DE 19804",
    "phone": "(302) 995-3050",
    "rating": 4.0,
    "reviews": 25,
    "website": "http://www.claymoreseniorcenter.org/",
    "category": "Catholic-owned Senior fitness in Delaware",
    "description": "An adult recreational and fitness center offering a variety of activities, including exercise classes, chair yoga, and a fitness gym",
    "hours": "Mon-Fri 9AM-6PM",
    "services": [
      "Catholic-owned Senior fitness in Delaware consultation",
      "Professional service",
      "Quality guarantee"
    ],
    "social_links": {}
  },
  {
    "name": "Newark Senior Center",
    "address": "200 White Chapel Drive, Newark, DE 19711",
    "phone": "(302) 731-1440",
    "rating": 4.0,
    "reviews": 25,
    "website": "https://newarkseniorcenter.com/",
    "category": "Catholic-owned Senior fitness in Delaware",
    "description": "A large and active center with many programs for seniors, including exercise classes, a supervised fitness room, and aquatic programs",
    "hours": "Mon-Fri 9AM-6PM",
    "services": [
      "Catholic-owned Senior fitness in Delaware consultation",
      "Professional service",
      "Quality guarantee"
    ],
    "social_links": {}
  },
  {
    "name": "Absalom Jones Senior Center (New Castle County)",
    "address": "310 Kiamensi Road, Wilmington, DE 19804",
    "phone": "(302) 995-7636",
    "rating": 4.0,
    "reviews": 25,
    "website": "https://www.newcastlede.gov/171/55-Lifestyles",
    "category": "Catholic-owned Senior fitness in Delaware",
    "description": "Offers select fitness and creative programs for members aged 55 and older",
    "hours": "Mon-Fri 9AM-6PM",
    "services": [
      "Catholic-owned Senior fitness in Delaware consultation",
      "Professional service",
      "Quality guarantee"
    ],
    "social_links": {}
  },
  {
    "name": "Garfield Park Recreation Center (New Castle County)",
    "address": "26 Karlyn Drive, New Castle, DE 19720",
    "phone": "(302) 571-4004",
    "rating": 4.0,
    "reviews": 25,
    "website": "https://www.newcastlede.gov/171/55-Lifestyles",
    "category": "Catholic-owned Senior fitness in Delaware",
    "description": "Provides fitness programs for seniors as part of the 55+ Lifestyles program",
    "hours": "Mon-Fri 9AM-6PM",
    "services": [
      "Catholic-owned Senior fitness in Delaware consultation",
      "Professional service",
      "Quality guarantee"
    ],
    "social_links": {}
  },
  {
    "name": "Hockessin Recreation Center (New Castle County)",
    "address": "7259 Lancaster Pike, Hockessin, DE 19707",
    "phone": "(302) 239-8861",
    "rating": 4.0,
    "reviews": 25,
    "website": "https://www.newcastlede.gov/171/55-Lifestyles",
    "category": "Catholic-owned Senior fitness in Delaware",
    "description": "Offers fitness classes and other activities for seniors through the 55+ Lifestyles program",
    "hours": "Mon-Fri 9AM-6PM",
    "services": [
      "Catholic-owned Senior fitness in Delaware consultation",
      "Professional service",
      "Quality guarantee"
    ],
    "social_links": {}
  },
  {
    "name": "JW Pitts Recreation Center (City of Dover)",
    "address": "501 N. Bradford Street, Dover, DE 19904",
    "phone": "(302) 736-4443",
    "rating": 4.0,
    "reviews": 25,
    "website": "https://cityofdover.com/parks-recreation/senior-activities/",
    "category": "Catholic-owned Senior fitness in Delaware",
    "description": "Hosts a Senior Fitness Fun Program with games and activities, as well as an indoor walking track",
    "hours": "Mon-Fri 9AM-6PM",
    "services": [
      "Catholic-owned Senior fitness in Delaware consultation",
      "Professional service",
      "Quality guarantee"
    ],
    "social_links": {}
  },
  {
    "name": "The Summit Assisted Living",
    "address": "5850 Limestone Road, Hockessin, DE 19707",
    "phone": "(302) 219-0018",
    "rating": 4.0,
    "reviews": 25,
    "website": "https://www.discoveryseniorliving.com/communities/the-summit/",
    "category": "Catholic-owned Senior fitness in Delaware",
    "description": "Offers assisted living with fitness activities and other amenities. While not explicitly Catholic-owned, it is a faith-based option",
    "hours": "Mon-Fri 9AM-6PM",
    "services": [
      "Catholic-owned Senior fitness in Delaware consultation",
      "Professional service",
      "Quality guarantee"
    ],
    "social_links": {}
  },
  {
    "name": "Saint Patrick's Senior Center",
    "address": "1313 West 10th Street, Wilmington, DE 19806",
    "phone": "(302) 655-1431",
    "rating": 4.0,
    "reviews": 25,
    "website": "https://www.stpatsrcc.org/",
    "category": "Catholic-owned Senior fitness in Delaware",
    "description": "Provides senior programs that include fitness activities",
    "hours": "Mon-Fri 9AM-6PM",
    "services": [
      "Catholic-owned Senior fitness in Delaware consultation",
      "Professional service",
      "Quality guarantee"
    ],
    "social_links": {}
  },
  {
    "name": "Ellis Athletic Center",
    "address": "1110 Old State Road, Bear, DE 19701",
    "phone": "(302) 355-7360",
    "rating": 4.0,
    "reviews": 25,
    "website": "https://www.ellisathleticcenter.com/senior-fitness",
    "category": "Catholic-owned Senior fitness in Delaware",
    "description": "Offers senior fitness programs, including low-impact classes and personal training for seniors",
    "hours": "Mon-Fri 9AM-6PM",
    "services": [
      "Catholic-owned Senior fitness in Delaware consultation",
      "Professional service",
      "Quality guarantee"
    ],
    "social_links": {}
  },
  {
    "name": "YMCA of Delaware",
    "address": "Multiple locations throughout Delaware. A central contact number is (302) 571-4000",
    "phone": "",
    "rating": 4.0,
    "reviews": 25,
    "website": "https://ymcade.org/",
    "category": "Catholic-owned Senior fitness in Delaware",
    "description": "The YMCA offers various wellness programs, including those suitable for seniors, and may have specific senior fitness classes",
    "hours": "Mon-Fri 9AM-6PM",
    "services": [
      "Catholic-owned Senior fitness in Delaware consultation",
      "Professional service",
      "Quality guarantee"
    ],
    "social_links": {}
  }
]