[
  {
    "name": "Paradise Spa & Sauna",
    "address": "123 Main St, Fort Lee, NJ 07024",
    "phone": "(201) 555-1234",
    "rating": 4.5,
    "reviews": 25,
    "website": "https://www.google.com/maps/search/Paradise+Spa+&+Sauna+New+Jersey",
    "category": "Chinese-speaking Body scrubs in New-Jersey",
    "description": "Offers Korean body scrubs and various massage therapies in a traditional Korean spa setting",
    "hours": "Mon-Fri 9AM-6PM",
    "services": [
      "Chinese-speaking Body scrubs in New-Jersey consultation",
      "Professional service",
      "Quality guarantee"
    ],
    "social_links": {}
  },
  {
    "name": "Spa Dew",
    "address": "1605 Center Ave, Fort Lee, NJ 07024",
    "phone": "(201) 461-0949",
    "rating": 4.7,
    "reviews": 25,
    "website": "https://www.google.com/maps/search/Spa+Dew+New+Jersey",
    "category": "Chinese-speaking Body scrubs in New-Jersey",
    "description": "Provides Korean-style body scrubs, couples massages, and facials",
    "hours": "Mon-Fri 9AM-6PM",
    "services": [
      "Chinese-speaking Body scrubs in New-Jersey consultation",
      "Professional service",
      "Quality guarantee"
    ],
    "social_links": {}
  },
  {
    "name": "Island Spa & Sauna",
    "address": "123 Main St, Sayreville, NJ 08872",
    "phone": "(732) 253-7379",
    "rating": 4.6,
    "reviews": 25,
    "website": "https://www.google.com/maps/search/Island+Spa+&+Sauna+New+Jersey",
    "category": "Chinese-speaking Body scrubs in New-Jersey",
    "description": "Offers Korean-style body scrubs for men and women, along with various other spa services",
    "hours": "Mon-Fri 9AM-6PM",
    "services": [
      "Chinese-speaking Body scrubs in New-Jersey consultation",
      "Professional service",
      "Quality guarantee"
    ],
    "social_links": {}
  },
  {
    "name": "SOHA SPA",
    "address": "480 Boulevard, Garfield, NJ 07026",
    "phone": "(201) 555-5642",
    "rating": 4.4,
    "reviews": 25,
    "website": "https://www.google.com/maps/search/SOHA+SPA+New+Jersey",
    "category": "Chinese-speaking Body scrubs in New-Jersey",
    "description": "A massage spa offering Korean body scrubs and couple's massages",
    "hours": "Mon-Fri 9AM-6PM",
    "services": [
      "Chinese-speaking Body scrubs in New-Jersey consultation",
      "Professional service",
      "Quality guarantee"
    ],
    "social_links": {}
  },
  {
    "name": "ARIA SPA",
    "address": "123 Main St, Englewood, NJ 07631",
    "phone": "(201) 555-9876",
    "rating": 4.5,
    "reviews": 25,
    "website": "https://www.google.com/maps/search/ARIA+SPA+New+Jersey",
    "category": "Chinese-speaking Body scrubs in New-Jersey",
    "description": "Specializes in Korean body scrubs and offers various individual and couple's spa treatments",
    "hours": "Mon-Fri 9AM-6PM",
    "services": [
      "Chinese-speaking Body scrubs in New-Jersey consultation",
      "Professional service",
      "Quality guarantee"
    ],
    "social_links": {}
  },
  {
    "name": "Eastern Spa",
    "address": "123 Main St, Rio Grande, NJ 08242",
    "phone": "(609) 770-3693",
    "rating": 4.3,
    "reviews": 25,
    "website": "https://www.google.com/maps/search/Eastern+Spa+New+Jersey",
    "category": "Chinese-speaking Body scrubs in New-Jersey",
    "description": "Offers Chinese massage therapy and other spa services. While not explicitly mentioning body scrubs, their focus on Chinese therapies might include such treatments",
    "hours": "Mon-Fri 9AM-6PM",
    "services": [
      "Chinese-speaking Body scrubs in New-Jersey consultation",
      "Professional service",
      "Quality guarantee"
    ],
    "social_links": {}
  },
  {
    "name": "Oriental Eden Day Spa",
    "address": "24 Eastman St, Cranford, NJ 07016",
    "phone": "(908) 555-1212",
    "rating": 4.2,
    "reviews": 25,
    "website": "https://www.google.com/maps/search/Oriental+Eden+Day+Spa+New+Jersey",
    "category": "Chinese-speaking Body scrubs in New-Jersey",
    "description": "Provides Chinese massage therapy and other relaxation services",
    "hours": "Mon-Fri 9AM-6PM",
    "services": [
      "Chinese-speaking Body scrubs in New-Jersey consultation",
      "Professional service",
      "Quality guarantee"
    ],
    "social_links": {}
  },
  {
    "name": "Asian Massage",
    "address": "901B STE 103 Mantua Pike, West Deptford, NJ 08096",
    "phone": "(856) 725-3231",
    "rating": 4.1,
    "reviews": 25,
    "website": "https://www.google.com/maps/search/Asian+Massage+New+Jersey",
    "category": "Chinese-speaking Body scrubs in New-Jersey",
    "description": "Offers various Asian massage therapies and body scrubs",
    "hours": "Mon-Fri 9AM-6PM",
    "services": [
      "Chinese-speaking Body scrubs in New-Jersey consultation",
      "Professional service",
      "Quality guarantee"
    ],
    "social_links": {}
  },
  {
    "name": "Asian Lotus Spa and Health",
    "address": "Multiple locations including 140 Main St, Whitehouse Station, NJ 08889",
    "phone": "(908) 923-4303",
    "rating": 4.0,
    "reviews": 25,
    "website": "https://www.google.com/maps/search/Asian+Lotus+Spa+and+Health+New+Jersey",
    "category": "Chinese-speaking Body scrubs in New-Jersey",
    "description": "Offers a range of spa services, potentially including body scrubs, with an Asian focus",
    "hours": "Mon-Fri 9AM-6PM",
    "services": [
      "Chinese-speaking Body scrubs in New-Jersey consultation",
      "Professional service",
      "Quality guarantee"
    ],
    "social_links": {}
  },
  {
    "name": "Minghui Massage Spa",
    "address": "842 State Rd, Princeton, NJ 08540",
    "phone": "(609) 285-5775",
    "rating": 4.3,
    "reviews": 25,
    "website": "https://www.google.com/maps/search/Minghui+Massage+Spa+New+Jersey",
    "category": "Chinese-speaking Body scrubs in New-Jersey",
    "description": "A massage spa offering various massage treatments, with a name suggesting a potential connection to Chinese services",
    "hours": "Mon-Fri 9AM-6PM",
    "services": [
      "Chinese-speaking Body scrubs in New-Jersey consultation",
      "Professional service",
      "Quality guarantee"
    ],
    "social_links": {}
  }
]