[
  {
    "name": "Sage and Oats Trading Post",
    "address": "43 N Last Chance Gulch, Helena, MT 59601",
    "phone": "(406) 443-0200",
    "rating": 4.0,
    "reviews": 25,
    "website": "https://www.sageandoats.com/",
    "category": "American-Indian-owned Shopping ads in Montana",
    "description": "This shop offers an intercultural shopping experience with handmade products from various cultures, including Indigenous-made items like candles, clothing, and jewelry",
    "hours": "Mon-Fri 9AM-6PM",
    "services": [
      "American-Indian-owned Shopping ads in Montana consultation",
      "Professional service",
      "Quality guarantee"
    ],
    "social_links": {}
  },
  {
    "name": "Four Winds Indian Trading Post",
    "address": "3 miles north of St. Ignatius on Hwy 93 at mile marker #36, St. Ignatius, MT 59865",
    "phone": "(406) 745-4336",
    "rating": 4.0,
    "reviews": 25,
    "website": "http://www.fourwindsindiantradingpost.com/",
    "category": "American-Indian-owned Shopping ads in Montana",
    "description": "The oldest continuously operated trading post in Montana, offering authentic goods such as beads, hides, dance bells, and books on local Indian history",
    "hours": "Mon-Fri 9AM-6PM",
    "services": [
      "American-Indian-owned Shopping ads in Montana consultation",
      "Professional service",
      "Quality guarantee"
    ],
    "social_links": {}
  },
  {
    "name": "Native Life Store",
    "address": "414 W Central Ave, Browning, MT 59417",
    "phone": "(406) 338-7888",
    "rating": 4.0,
    "reviews": 25,
    "website": "https://visitmt.com/listings/shopping-leisure/native-life-store",
    "category": "American-Indian-owned Shopping ads in Montana",
    "description": "Offers a wide selection of locally made gifts, including beadwork, Montana-made jellies and jams, candles, and artwork",
    "hours": "Mon-Fri 9AM-6PM",
    "services": [
      "American-Indian-owned Shopping ads in Montana consultation",
      "Professional service",
      "Quality guarantee"
    ],
    "social_links": {}
  },
  {
    "name": "Electric Buffalo Gallery",
    "address": "225 Main St, Polson, MT 59860",
    "phone": "(406) 883-5353",
    "rating": 4.0,
    "reviews": 25,
    "website": "https://www.electricbuffalogallery.com/",
    "category": "American-Indian-owned Shopping ads in Montana",
    "description": "Features a curated selection of Native American-made jewelry, Montana and Native art, minerals, and crystal specimens",
    "hours": "Mon-Fri 9AM-6PM",
    "services": [
      "American-Indian-owned Shopping ads in Montana consultation",
      "Professional service",
      "Quality guarantee"
    ],
    "social_links": {}
  },
  {
    "name": "Three Chiefs Culture Center Museum & Gift Shop",
    "address": "36042 Major Houle Rd, Pablo, MT 59855",
    "phone": "(406) 675-0160",
    "rating": 4.0,
    "reviews": 25,
    "website": "https://www.threechiefsculturalcenter.org/",
    "category": "American-Indian-owned Shopping ads in Montana",
    "description": "Offers locally Native American-made crafts, including beadwork and moccasins, as well as beads and beading supplies",
    "hours": "Mon-Fri 9AM-6PM",
    "services": [
      "American-Indian-owned Shopping ads in Montana consultation",
      "Professional service",
      "Quality guarantee"
    ],
    "social_links": {}
  },
  {
    "name": "River Crow Trading Post",
    "address": "703 US-2, Crow Agency, MT 59022",
    "phone": "(406) 638-2211",
    "rating": 4.0,
    "reviews": 25,
    "website": "https://www.google.com/maps/search/River+Crow+Trading+Post+in+Montana",
    "category": "American-Indian-owned Shopping ads in Montana",
    "description": "An Apsaalooke-owned and operated business offering Native-made items, craft supplies, beads, and Pendleton blankets",
    "hours": "Mon-Fri 9AM-6PM",
    "services": [
      "American-Indian-owned Shopping ads in Montana consultation",
      "Professional service",
      "Quality guarantee"
    ],
    "social_links": {}
  },
  {
    "name": "406 Native Roots LLC",
    "address": "2211 Grand Ave, Billings, MT 59102",
    "phone": "(406) 697-6717",
    "rating": 4.0,
    "reviews": 25,
    "website": "https://www.406nativeroots.com/",
    "category": "American-Indian-owned Shopping ads in Montana",
    "description": "Offers a selection of beads, crafting supplies, handcrafted artisan jewelry, and gifts, with a mission to support the local community through cultural preservation",
    "hours": "Mon-Fri 9AM-6PM",
    "services": [
      "American-Indian-owned Shopping ads in Montana consultation",
      "Professional service",
      "Quality guarantee"
    ],
    "social_links": {}
  },
  {
    "name": "FarWest Gallery",
    "address": "2610 Montana Ave, Billings, MT 59101",
    "phone": "(406) 252-0099",
    "rating": 4.0,
    "reviews": 25,
    "website": "https://www.farwestgallery.com/",
    "category": "American-Indian-owned Shopping ads in Montana",
    "description": "This gallery and trading post offers authentic beadwork, Western memorabilia, art, artifacts, and Native American apparel",
    "hours": "Mon-Fri 9AM-6PM",
    "services": [
      "American-Indian-owned Shopping ads in Montana consultation",
      "Professional service",
      "Quality guarantee"
    ],
    "social_links": {}
  },
  {
    "name": "The NTVS",
    "address": "",
    "phone": "",
    "rating": 4.0,
    "reviews": 25,
    "website": "https://www.thenyts.com/",
    "category": "American-Indian-owned Shopping ads in Montana",
    "description": "A Native American clothing company specializing in tees, hats, and more, collaborating with Native artists for limited edition designs",
    "hours": "Mon-Fri 9AM-6PM",
    "services": [
      "American-Indian-owned Shopping ads in Montana consultation",
      "Professional service",
      "Quality guarantee"
    ],
    "social_links": {}
  },
  {
    "name": "b.Yellowtail",
    "address": "",
    "phone": "",
    "rating": 4.0,
    "reviews": 25,
    "website": "https://byellowtail.com/",
    "category": "American-Indian-owned Shopping ads in Montana",
    "description": "A Native American woman-owned brand offering fashion, accessories, and jewelry designed by Indigenous creators",
    "hours": "Mon-Fri 9AM-6PM",
    "services": [
      "American-Indian-owned Shopping ads in Montana consultation",
      "Professional service",
      "Quality guarantee"
    ],
    "social_links": {}
  }
]