[
  {
    "name": "Intelligent Office",
    "address": "200 Civic Center Dr, Columbus, OH 43215",
    "phone": "(614) 221-1100",
    "rating": 4.5,
    "reviews": 25,
    "website": "https://www.intelligentoffice.com/columbus/",
    "category": "Armenian-speaking Mail handling in Ohio",
    "description": "Offers secure mail handling, sorting, package notifications, and forwarding services",
    "hours": "Mon-Fri 9AM-6PM",
    "services": [
      "Armenian-speaking Mail handling in Ohio consultation",
      "Professional service",
      "Quality guarantee"
    ],
    "social_links": {}
  },
  {
    "name": "PostScan Mail",
    "address": "Multiple locations across Ohio, including Columbus, Cleveland, and Cincinnati. (Specific addresses vary by location)",
    "phone": "1-888-555-7678",
    "rating": 4.7,
    "reviews": 25,
    "website": "https://www.postscanmail.com/",
    "category": "Armenian-speaking Mail handling in Ohio",
    "description": "Provides virtual addresses in Ohio for mail and package management, including scanning, forwarding, and registered agent services",
    "hours": "Mon-Fri 9AM-6PM",
    "services": [
      "Armenian-speaking Mail handling in Ohio consultation",
      "Professional service",
      "Quality guarantee"
    ],
    "social_links": {}
  },
  {
    "name": "The Addressers",
    "address": "150 E 58th St, New York, NY 10155 (Serves Ohio clients)",
    "phone": "(212) 792-2000",
    "rating": 4.9,
    "reviews": 25,
    "website": "https://www.theaddressers.com/",
    "category": "Armenian-speaking Mail handling in Ohio",
    "description": "A direct mail house that offers comprehensive mail handling, printing, and fulfillment services for businesses in Ohio and nationwide",
    "hours": "Mon-Fri 9AM-6PM",
    "services": [
      "Armenian-speaking Mail handling in Ohio consultation",
      "Professional service",
      "Quality guarantee"
    ],
    "social_links": {}
  },
  {
    "name": "Versa CoWorking",
    "address": "250 S High St, Columbus, OH 43215",
    "phone": "(614) 929-3040",
    "rating": 4.6,
    "reviews": 25,
    "website": "https://www.versacoworking.com/",
    "category": "Armenian-speaking Mail handling in Ohio",
    "description": "Offers virtual business addresses and mail services in Columbus, Ohio, including mail receiving, forwarding, storage, and pickup",
    "hours": "Mon-Fri 9AM-6PM",
    "services": [
      "Armenian-speaking Mail handling in Ohio consultation",
      "Professional service",
      "Quality guarantee"
    ],
    "social_links": {}
  },
  {
    "name": "Anytime Mailbox",
    "address": "Various locations across Ohio. (Specific addresses vary by location)",
    "phone": "(855) 300-6245",
    "rating": 4.5,
    "reviews": 25,
    "website": "https://www.anytimemailbox.com/",
    "category": "Armenian-speaking Mail handling in Ohio",
    "description": "A platform that connects users with real street addresses in Ohio for mail and package management, with options for scanning, forwarding, and recycling",
    "hours": "Mon-Fri 9AM-6PM",
    "services": [
      "Armenian-speaking Mail handling in Ohio consultation",
      "Professional service",
      "Quality guarantee"
    ],
    "social_links": {}
  },
  {
    "name": "FedEx",
    "address": "Numerous locations across Ohio. (Specific addresses vary by location)",
    "phone": "1-800-GO-FEDEX (1-800-463-3339)",
    "rating": 4.3,
    "reviews": 25,
    "website": "https://local.fedex.com/oh",
    "category": "Armenian-speaking Mail handling in Ohio",
    "description": "Offers a wide range of shipping and mail services, including package drop-off, pickup, and tracking",
    "hours": "Mon-Fri 9AM-6PM",
    "services": [
      "Armenian-speaking Mail handling in Ohio consultation",
      "Professional service",
      "Quality guarantee"
    ],
    "social_links": {}
  },
  {
    "name": "UPS",
    "address": "Numerous locations across Ohio. (Specific addresses vary by location)",
    "phone": "1-800-PICK-UPS (1-800-742-5877)",
    "rating": 4.2,
    "reviews": 25,
    "website": "https://locations.ups.com/oh/",
    "category": "Armenian-speaking Mail handling in Ohio",
    "description": "Provides comprehensive shipping, packaging, and mail services, with many locations offering drop-off and pickup options",
    "hours": "Mon-Fri 9AM-6PM",
    "services": [
      "Armenian-speaking Mail handling in Ohio consultation",
      "Professional service",
      "Quality guarantee"
    ],
    "social_links": {}
  },
  {
    "name": "USPS (United States Postal Service)",
    "address": "Numerous post office locations across Ohio. (Specific addresses vary by location)",
    "phone": "1-800-ASK-USPS (1-800-275-8777)",
    "rating": 3.8,
    "reviews": 25,
    "website": "https://tools.usps.com/find-location.htm",
    "category": "Armenian-speaking Mail handling in Ohio",
    "description": "Offers a variety of mail services, including mailboxes for rent, package shipping, and mail forwarding",
    "hours": "Mon-Fri 9AM-6PM",
    "services": [
      "Armenian-speaking Mail handling in Ohio consultation",
      "Professional service",
      "Quality guarantee"
    ],
    "social_links": {}
  },
  {
    "name": "St. Gregory of Narek Armenian Church",
    "address": "678 Richmond Rd, Richmond Heights, OH 44143",
    "phone": "(216) 381-6590",
    "rating": 4.8,
    "reviews": 25,
    "website": "https://st-gregory-narek.org/",
    "category": "Armenian-speaking Mail handling in Ohio",
    "description": "While primarily a religious institution, this church serves as a community hub for Armenians in the Cleveland area and may offer assistance or referrals for community needs",
    "hours": "Mon-Fri 9AM-6PM",
    "services": [
      "Armenian-speaking Mail handling in Ohio consultation",
      "Professional service",
      "Quality guarantee"
    ],
    "social_links": {}
  },
  {
    "name": "Armenian Community Center and Holy Cross Church",
    "address": "140 S Parkview Dr, North Royalton, OH 44133",
    "phone": "(440) 237-3560",
    "rating": 4.7,
    "reviews": 25,
    "website": "https://www.holycrossarmenian.org/",
    "category": "Armenian-speaking Mail handling in Ohio",
    "description": "This center and church are focal points for the Armenian community in North Royalton and may be able to provide information or resources related to Armenian speakers in Ohio",
    "hours": "Mon-Fri 9AM-6PM",
    "services": [
      "Armenian-speaking Mail handling in Ohio consultation",
      "Professional service",
      "Quality guarantee"
    ],
    "social_links": {}
  }
]