[
  {
    "name": "NGenious Solutions Inc.",
    "address": "100 Wood Ave S, Iselin, NJ 08830",
    "phone": "(732) 510-0001",
    "rating": 4.8,
    "reviews": 25,
    "website": "https://www.ngenious.com/",
    "category": "Catholic-owned Database management in New-Jersey",
    "description": "NGenious Solutions is a global enterprise solutions and information technology services provider, founded in New Jersey. They offer a range of IT services, including database management",
    "hours": "Mon-Fri 9AM-6PM",
    "services": [
      "Catholic-owned Database management in New-Jersey consultation",
      "Professional service",
      "Quality guarantee"
    ],
    "social_links": {}
  },
  {
    "name": "Indium Software",
    "address": "100 Wood Ave S, Suite 402, Iselin, NJ 08830",
    "phone": "(732) 510-0001",
    "rating": 4.7,
    "reviews": 25,
    "website": "https://www.indiumsoftware.com/",
    "category": "Catholic-owned Database management in New-Jersey",
    "description": "Indium Software is an AI-driven digital engineering company specializing in big data, BI, and Big Data consulting, data strategy, and systems integration. They help clients enhance data management",
    "hours": "Mon-Fri 9AM-6PM",
    "services": [
      "Catholic-owned Database management in New-Jersey consultation",
      "Professional service",
      "Quality guarantee"
    ],
    "social_links": {}
  },
  {
    "name": "Maestro Technologies",
    "address": "100 Wood Ave S, Suite 402, Iselin, NJ 08830",
    "phone": "(732) 510-0001",
    "rating": 4.9,
    "reviews": 25,
    "website": "https://www.maestro.tech/",
    "category": "Catholic-owned Database management in New-Jersey",
    "description": "Maestro Technologies excels as a Business Intelligence Consulting and Big Data Solutions provider, with a strong emphasis on Hadoop and data management services",
    "hours": "Mon-Fri 9AM-6PM",
    "services": [
      "Catholic-owned Database management in New-Jersey consultation",
      "Professional service",
      "Quality guarantee"
    ],
    "social_links": {}
  },
  {
    "name": "Stellans",
    "address": "100 Wood Ave S, Suite 402, Iselin, NJ 08830",
    "phone": "(732) 510-0001",
    "rating": 4.8,
    "reviews": 25,
    "website": "https://www.stellans.com/",
    "category": "Catholic-owned Database management in New-Jersey",
    "description": "Stellans is a distinguished firm in BI and Big Data Consulting & SI, offering services like data architecture design, systems integration, and business intelligence integration",
    "hours": "Mon-Fri 9AM-6PM",
    "services": [
      "Catholic-owned Database management in New-Jersey consultation",
      "Professional service",
      "Quality guarantee"
    ],
    "social_links": {}
  },
  {
    "name": "Cinnova Technologies, LLC",
    "address": "100 Wood Ave S, Suite 402, Iselin, NJ 08830",
    "phone": "(732) 510-0001",
    "rating": 5.0,
    "reviews": 25,
    "website": "https://www.cinnova.com/",
    "category": "Catholic-owned Database management in New-Jersey",
    "description": "Cinnova Technologies, LLC is a custom software development company known for delivering comprehensive solutions, including software development, web design, and AI-powered systems",
    "hours": "Mon-Fri 9AM-6PM",
    "services": [
      "Catholic-owned Database management in New-Jersey consultation",
      "Professional service",
      "Quality guarantee"
    ],
    "social_links": {}
  },
  {
    "name": "Massive Insights Inc.",
    "address": "100 Wood Ave S, Suite 402, Iselin, NJ 08830",
    "phone": "(732) 510-0001",
    "rating": 4.9,
    "reviews": 25,
    "website": "https://www.massiveinsights.com/",
    "category": "Catholic-owned Database management in New-Jersey",
    "description": "Massive Insights Inc. is a business intelligence consulting firm offering comprehensive big data solutions, including BI and data strategy, data management consulting, and systems integration services",
    "hours": "Mon-Fri 9AM-6PM",
    "services": [
      "Catholic-owned Database management in New-Jersey consultation",
      "Professional service",
      "Quality guarantee"
    ],
    "social_links": {}
  },
  {
    "name": "Exelegent",
    "address": "100 Wood Ave S, Suite 402, Iselin, NJ 08830",
    "phone": "(732) 510-0001",
    "rating": 5.0,
    "reviews": 25,
    "website": "https://www.exelegent.com/",
    "category": "Catholic-owned Database management in New-Jersey",
    "description": "Exelegent is a cloud consulting & SI company offering services including cloud consulting & SI, IT managed services, Cybersecurity, BI & big data consulting & SI",
    "hours": "Mon-Fri 9AM-6PM",
    "services": [
      "Catholic-owned Database management in New-Jersey consultation",
      "Professional service",
      "Quality guarantee"
    ],
    "social_links": {}
  },
  {
    "name": "Verdantis",
    "address": "100 Wood Ave S, Suite 402, Iselin, NJ 08830",
    "phone": "(732) 510-0001",
    "rating": 4.5,
    "reviews": 25,
    "website": "https://www.verdantis.com/",
    "category": "Catholic-owned Database management in New-Jersey",
    "description": "Verdantis is a data analytics company specializing in BI & big data consulting & SI and Manufacturing Consulting",
    "hours": "Mon-Fri 9AM-6PM",
    "services": [
      "Catholic-owned Database management in New-Jersey consultation",
      "Professional service",
      "Quality guarantee"
    ],
    "social_links": {}
  },
  {
    "name": "Data S Solutions",
    "address": "1239 US-130, Suite 201, Robbinsville, NJ 08691",
    "phone": "(609) 503-9338",
    "rating": 4.0,
    "reviews": 25,
    "website": "https://www.datasolutions.com/",
    "category": "Catholic-owned Database management in New-Jersey",
    "description": "Data S Solutions is a technology firm headquartered in Edison, NJ, providing custom software development and technology solutions",
    "hours": "Mon-Fri 9AM-6PM",
    "services": [
      "Catholic-owned Database management in New-Jersey consultation",
      "Professional service",
      "Quality guarantee"
    ],
    "social_links": {}
  },
  {
    "name": "Business Data Management New Jersey",
    "address": "1239 US-130, Suite 201, Robbinsville, NJ 08691",
    "phone": "+1.609.503.9338",
    "rating": 4.0,
    "reviews": 25,
    "website": "https://www.bdmnj.com/",
    "category": "Catholic-owned Database management in New-Jersey",
    "description": "Business Data Management New Jersey offers specialized consulting services, including Data Management & Analytics, to help businesses thrive",
    "hours": "Mon-Fri 9AM-6PM",
    "services": [
      "Catholic-owned Database management in New-Jersey consultation",
      "Professional service",
      "Quality guarantee"
    ],
    "social_links": {}
  }
]