[
  {
    "name": "RedPoint LLC",
    "address": "Bozeman, MT (Specific address not publicly listed, contact for details)",
    "phone": "(406) 585-0000",
    "rating": 4.0,
    "reviews": 25,
    "website": "https://www.redpointmt.com/",
    "category": "Alaska-Native-owned Roof inspection in Montana",
    "description": "Offers trusted, high-quality roof inspections in Bozeman and the surrounding Gallatin Valley, utilizing drone technology for detailed assessments",
    "hours": "Mon-Fri 9AM-6PM",
    "services": [
      "Alaska-Native-owned Roof inspection in Montana consultation",
      "Professional service",
      "Quality guarantee"
    ],
    "social_links": {}
  },
  {
    "name": "Roof Tec Exterior Solutions Montana",
    "address": "(406) 593-8088 (Contact for specific location)",
    "phone": "(406) 593-8088",
    "rating": 4.0,
    "reviews": 25,
    "website": "https://rooftec.us/",
    "category": "Alaska-Native-owned Roof inspection in Montana",
    "description": "Provides free roof inspections and tune-up services to prevent costly problems and extend roof lifespan. They are licensed and insured",
    "hours": "Mon-Fri 9AM-6PM",
    "services": [
      "Alaska-Native-owned Roof inspection in Montana consultation",
      "Professional service",
      "Quality guarantee"
    ],
    "social_links": {}
  },
  {
    "name": "MK Roofing",
    "address": "Montana (Service areas include Great Falls & Lewistown, MT, contact for specific location)",
    "phone": "(406) 868-5000",
    "rating": 4.0,
    "reviews": 25,
    "website": "https://mkroofingmt.com/",
    "category": "Alaska-Native-owned Roof inspection in Montana",
    "description": "Offers comprehensive roof inspection services across Montana, providing detailed reports and recommendations. They are GAF & Owens Corning Certified",
    "hours": "Mon-Fri 9AM-6PM",
    "services": [
      "Alaska-Native-owned Roof inspection in Montana consultation",
      "Professional service",
      "Quality guarantee"
    ],
    "social_links": {}
  },
  {
    "name": "Blue Moose Roofing",
    "address": "Montana (Contact for specific location)",
    "phone": "(406) 860-2000",
    "rating": 4.0,
    "reviews": 25,
    "website": "https://bluemoofroofing.com/",
    "category": "Alaska-Native-owned Roof inspection in Montana",
    "description": "Provides professional roof inspections to identify potential problems early, safeguarding property from weather conditions. They utilize the latest tools and techniques for detailed assessments",
    "hours": "Mon-Fri 9AM-6PM",
    "services": [
      "Alaska-Native-owned Roof inspection in Montana consultation",
      "Professional service",
      "Quality guarantee"
    ],
    "social_links": {}
  },
  {
    "name": "Mighty Dog Roofing of Western Montana",
    "address": "Missoula, MT (Contact for specific location)",
    "phone": "(406) 647-0564",
    "rating": 4.0,
    "reviews": 25,
    "website": "https://www.mightydogroofing.com/locations/western-montana/missoula/",
    "category": "Alaska-Native-owned Roof inspection in Montana",
    "description": "Offers professional roof inspections to ensure safety and longevity, providing a roadmap for future maintenance. They use AI Drone Scans and a 25-point inspection",
    "hours": "Mon-Fri 9AM-6PM",
    "services": [
      "Alaska-Native-owned Roof inspection in Montana consultation",
      "Professional service",
      "Quality guarantee"
    ],
    "social_links": {}
  },
  {
    "name": "Rhino Roofing",
    "address": "Serving Missoula and Ravalli Counties, MT (Contact for specific location)",
    "phone": "(406) 544-6110",
    "rating": 4.0,
    "reviews": 25,
    "website": "https://rhinoroofingmt.com/",
    "category": "Alaska-Native-owned Roof inspection in Montana",
    "description": "A family-owned roofing company with over 30 years of experience providing roof inspections, repairs, and replacements using materials designed for Montana's weather",
    "hours": "Mon-Fri 9AM-6PM",
    "services": [
      "Alaska-Native-owned Roof inspection in Montana consultation",
      "Professional service",
      "Quality guarantee"
    ],
    "social_links": {}
  },
  {
    "name": "Headwaters Roofing",
    "address": "Serving North Idaho and Northwest Montana (Contact for specific location)",
    "phone": "(208) 610-4400",
    "rating": 4.0,
    "reviews": 25,
    "website": "https://headwatersroofing.com/",
    "category": "Alaska-Native-owned Roof inspection in Montana",
    "description": "A veteran and locally owned roofing company offering roof restoration, replacement, and inspections with a focus on quality and integrity",
    "hours": "Mon-Fri 9AM-6PM",
    "services": [
      "Alaska-Native-owned Roof inspection in Montana consultation",
      "Professional service",
      "Quality guarantee"
    ],
    "social_links": {}
  },
  {
    "name": "Mighty Dog Roofing (Kalispell)",
    "address": "Kalispell, MT (Contact for specific location)",
    "phone": "(406) 647-0564",
    "rating": 4.0,
    "reviews": 25,
    "website": "https://www.mightydogroofing.com/locations/western-montana/kalispell/",
    "category": "Alaska-Native-owned Roof inspection in Montana",
    "description": "Provides roofing solutions for Kalispell homes, including inspections, repairs, and replacements, with a focus on quality products and experienced service",
    "hours": "Mon-Fri 9AM-6PM",
    "services": [
      "Alaska-Native-owned Roof inspection in Montana consultation",
      "Professional service",
      "Quality guarantee"
    ],
    "social_links": {}
  },
  {
    "name": "Mighty Dog Roofing (Stevensville)",
    "address": "Stevensville, MT (Contact for specific location)",
    "phone": "(406) 647-0564",
    "rating": 4.0,
    "reviews": 25,
    "website": "https://www.mightydogroofing.com/locations/western-montana/stevensville/",
    "category": "Alaska-Native-owned Roof inspection in Montana",
    "description": "Offers roofing expertise for Stevensville homes, including inspections, repairs, and replacements, with a commitment to quality craftsmanship and customer peace of mind",
    "hours": "Mon-Fri 9AM-6PM",
    "services": [
      "Alaska-Native-owned Roof inspection in Montana consultation",
      "Professional service",
      "Quality guarantee"
    ],
    "social_links": {}
  },
  {
    "name": "American Indigenous Business Leaders (AIBL)",
    "address": "Gallagher Business Building, Ste 250, Missoula, MT 59812",
    "phone": "",
    "rating": 4.0,
    "reviews": 25,
    "website": "https://www.aibl.org/",
    "category": "Alaska-Native-owned Roof inspection in Montana",
    "description": "While not a direct roof inspection service, AIBL is an organization dedicated to supporting American Indian and Alaska Native businesses. They may be able to provide resources or referrals to businesses in Montana",
    "hours": "Mon-Fri 9AM-6PM",
    "services": [
      "Alaska-Native-owned Roof inspection in Montana consultation",
      "Professional service",
      "Quality guarantee"
    ],
    "social_links": {}
  }
]