[
  {
    "name": "New England Closets",
    "address": "100 Cummings Center, Suite 157G, Beverly, MA 01915",
    "phone": "(978) 524-0007",
    "rating": 4.8,
    "reviews": 25,
    "website": "https://www.newenglandclosets.com/",
    "category": "Arabic-speaking Closet organization in Massachusetts",
    "description": "Offers custom closet and storage solutions with a focus on personalized design and quality craftsmanship",
    "hours": "Mon-Fri 9AM-6PM",
    "services": [
      "Arabic-speaking Closet organization in Massachusetts consultation",
      "Professional service",
      "Quality guarantee"
    ],
    "social_links": {}
  },
  {
    "name": "Organizing Boston",
    "address": "100 Summer St, Boston, MA 02110",
    "phone": "(617) 870-0001",
    "rating": 5.0,
    "reviews": 25,
    "website": "https://www.organizingboston.com/",
    "category": "Arabic-speaking Closet organization in Massachusetts",
    "description": "Provides professional home organization services, including decluttering, closet organization, and move management, with a team approach for efficiency",
    "hours": "Mon-Fri 9AM-6PM",
    "services": [
      "Arabic-speaking Closet organization in Massachusetts consultation",
      "Professional service",
      "Quality guarantee"
    ],
    "social_links": {}
  },
  {
    "name": "Closet Factory Boston",
    "address": "1330 Beacon St, Brookline, MA 02446",
    "phone": "(617) 902-5500",
    "rating": 4.7,
    "reviews": 25,
    "website": "https://www.closetfactory.com/boston/",
    "category": "Arabic-speaking Closet organization in Massachusetts",
    "description": "Designs and installs custom closet systems tailored to individual needs, style, and budget, using high-quality materials",
    "hours": "Mon-Fri 9AM-6PM",
    "services": [
      "Arabic-speaking Closet organization in Massachusetts consultation",
      "Professional service",
      "Quality guarantee"
    ],
    "social_links": {}
  },
  {
    "name": "Boston Closet",
    "address": "1330 Beacon St, Brookline, MA 02446",
    "phone": "(617) 902-5500",
    "rating": 4.7,
    "reviews": 25,
    "website": "https://www.bostoncloset.com/",
    "category": "Arabic-speaking Closet organization in Massachusetts",
    "description": "Offers custom interior residential design services for closets and storage solutions, with extensive experience in the industry",
    "hours": "Mon-Fri 9AM-6PM",
    "services": [
      "Arabic-speaking Closet organization in Massachusetts consultation",
      "Professional service",
      "Quality guarantee"
    ],
    "social_links": {}
  },
  {
    "name": "ShipShape Organize",
    "address": "1400 Providence Hwy, Norwood, MA 02062",
    "phone": "(978) 314-6410",
    "rating": 5.0,
    "reviews": 25,
    "website": "https://shipshapeorganize.com/",
    "category": "Arabic-speaking Closet organization in Massachusetts",
    "description": "Provides comprehensive organizing, downsizing, and moving services in the Greater Boston area, recognized as \"Best Home Organizers in Boston\" for multiple years",
    "hours": "Mon-Fri 9AM-6PM",
    "services": [
      "Arabic-speaking Closet organization in Massachusetts consultation",
      "Professional service",
      "Quality guarantee"
    ],
    "social_links": {}
  },
  {
    "name": "NEAT Method Boston",
    "address": "100 Summer St, Boston, MA 02110",
    "phone": "(617) 870-0001",
    "rating": 4.9,
    "reviews": 25,
    "website": "https://www.neatmethod.com/locations/boston/",
    "category": "Arabic-speaking Closet organization in Massachusetts",
    "description": "Specializes in home organization, unpacking, and decluttering, creating functional and beautiful spaces tailored to individual lifestyles",
    "hours": "Mon-Fri 9AM-6PM",
    "services": [
      "Arabic-speaking Closet organization in Massachusetts consultation",
      "Professional service",
      "Quality guarantee"
    ],
    "social_links": {}
  },
  {
    "name": "The Thoughtful Home",
    "address": "100 Summer St, Boston, MA 02110",
    "phone": "(617) 870-0001",
    "rating": 5.0,
    "reviews": 25,
    "website": "https://www.thethoughtfulhome.com/",
    "category": "Arabic-speaking Closet organization in Massachusetts",
    "description": "A luxury organizing company focused on designing functional and beautiful organizing solutions throughout the entire home, serving Boston suburbs",
    "hours": "Mon-Fri 9AM-6PM",
    "services": [
      "Arabic-speaking Closet organization in Massachusetts consultation",
      "Professional service",
      "Quality guarantee"
    ],
    "social_links": {}
  },
  {
    "name": "Custom Closet Geeks",
    "address": "100 Summer St, Boston, MA 02110",
    "phone": "(508) 858-5282",
    "rating": 4.8,
    "reviews": 25,
    "website": "https://www.customclosetgeeks.com/",
    "category": "Arabic-speaking Closet organization in Massachusetts",
    "description": "Offers custom closet designs, construction, and organizational storage services, specializing in maximizing space and creating personalized solutions",
    "hours": "Mon-Fri 9AM-6PM",
    "services": [
      "Arabic-speaking Closet organization in Massachusetts consultation",
      "Professional service",
      "Quality guarantee"
    ],
    "social_links": {}
  },
  {
    "name": "Closet & Storage Concepts of New England",
    "address": "100 Summer St, Boston, MA 02110",
    "phone": "(508) 455-1700",
    "rating": 4.9,
    "reviews": 25,
    "website": "https://www.closetandstorageconcepts.com/",
    "category": "Arabic-speaking Closet organization in Massachusetts",
    "description": "A family-owned business specializing in custom home organization solutions, including closet design, manufacturing, and installation",
    "hours": "Mon-Fri 9AM-6PM",
    "services": [
      "Arabic-speaking Closet organization in Massachusetts consultation",
      "Professional service",
      "Quality guarantee"
    ],
    "social_links": {}
  },
  {
    "name": "ClearSpace Garage & Closet Storage Solutions",
    "address": "100 Summer St, Boston, MA 02110",
    "phone": "(508) 778-6656",
    "rating": 4.7,
    "reviews": 25,
    "website": "https://www.clearspaceorganizers.com/",
    "category": "Arabic-speaking Closet organization in Massachusetts",
    "description": "Provides custom-designed closet organizers and storage solutions, utilizing every inch of space to maximize organization in closets and other areas of the home",
    "hours": "Mon-Fri 9AM-6PM",
    "services": [
      "Arabic-speaking Closet organization in Massachusetts consultation",
      "Professional service",
      "Quality guarantee"
    ],
    "social_links": {}
  }
]