[
  {
    "name": "Jamison Professional Services",
    "address": "Headquarters in Atlanta, Georgia (serves nationwide, including Louisiana)",
    "phone": "(404) 551-0400",
    "rating": 4.0,
    "reviews": 25,
    "website": "https://www.jamison-services.com/",
    "category": "Armenian-speaking Data entry in Louisiana",
    "description": "A Service-Disabled, Veteran-Owned Small Business (SDVOSB) and certified Minority Business Enterprise (MBE) that provides staff augmentation services",
    "hours": "Mon-Fri 9AM-6PM",
    "services": [
      "Armenian-speaking Data entry in Louisiana consultation",
      "Professional service",
      "Quality guarantee"
    ],
    "social_links": {}
  },
  {
    "name": "Singnala",
    "address": "Not specified, but hiring remotely in Louisiana",
    "phone": "",
    "rating": 4.0,
    "reviews": 25,
    "website": "https://www.google.com/maps/search/Singnala+in+Louisiana",
    "category": "Armenian-speaking Data entry in Louisiana",
    "description": "Urgently hiring meticulous Data Entry Clerks to maintain accurate records and ensure data integrity",
    "hours": "Mon-Fri 9AM-6PM",
    "services": [
      "Armenian-speaking Data entry in Louisiana consultation",
      "Professional service",
      "Quality guarantee"
    ],
    "social_links": {}
  },
  {
    "name": "Hello Remote - Start Today 100% All Remote",
    "address": "Not specified, but connects job seekers to remote work",
    "phone": "",
    "rating": 4.0,
    "reviews": 25,
    "website": "https://www.google.com/maps/search/Hello+Remote+-+Start+Today+100%+All+Remote+in+Louisiana",
    "category": "Armenian-speaking Data entry in Louisiana",
    "description": "A job aid that connects individuals to legitimate, current part-time remote work-from-home jobs",
    "hours": "Mon-Fri 9AM-6PM",
    "services": [
      "Armenian-speaking Data entry in Louisiana consultation",
      "Professional service",
      "Quality guarantee"
    ],
    "social_links": {}
  },
  {
    "name": "geauxBIZ (Louisiana Secretary of State)",
    "address": "Not a direct service provider, but a resource for starting businesses in Louisiana",
    "phone": "(225) 578-3000 (General Information)",
    "rating": 4.0,
    "reviews": 25,
    "website": "https://www.sos.la.gov/BusinessServices/GeauxBIZ/",
    "category": "Armenian-speaking Data entry in Louisiana",
    "description": "A one-stop online portal for launching and managing businesses in Louisiana, offering resources for registration, licensing, and filings",
    "hours": "Mon-Fri 9AM-6PM",
    "services": [
      "Armenian-speaking Data entry in Louisiana consultation",
      "Professional service",
      "Quality guarantee"
    ],
    "social_links": {}
  },
  {
    "name": "Louisiana Economic Development (FastStart Program)",
    "address": "Not a direct service provider, but a workforce training program",
    "phone": "(225) 342-5400",
    "rating": 4.0,
    "reviews": 25,
    "website": "https://www.opportunitylouisiana.gov/",
    "category": "Armenian-speaking Data entry in Louisiana",
    "description": "Provides customized employee recruitment, screening, training development, and delivery for eligible companies at no cost",
    "hours": "Mon-Fri 9AM-6PM",
    "services": [
      "Armenian-speaking Data entry in Louisiana consultation",
      "Professional service",
      "Quality guarantee"
    ],
    "social_links": {}
  },
  {
    "name": "Percy and Company Research",
    "address": "7384 Highland Road, Suite G, Baton Rouge, LA 70808",
    "phone": "(225) 346-0115",
    "rating": 4.0,
    "reviews": 25,
    "website": "https://www.google.com/maps/search/Percy+and+Company+Research+in+Louisiana",
    "category": "Armenian-speaking Data entry in Louisiana",
    "description": "Offers business and professional services, including market research",
    "hours": "Mon-Fri 9AM-6PM",
    "services": [
      "Armenian-speaking Data entry in Louisiana consultation",
      "Professional service",
      "Quality guarantee"
    ],
    "social_links": {}
  },
  {
    "name": "ACECO LLC",
    "address": "7550 Highway 421, Saint Francisville, LA 70775",
    "phone": "(225) 572-9494",
    "rating": 4.0,
    "reviews": 25,
    "website": "https://www.google.com/maps/search/ACECO+LLC+in+Louisiana",
    "category": "Armenian-speaking Data entry in Louisiana",
    "description": "Provides business and professional services",
    "hours": "Mon-Fri 9AM-6PM",
    "services": [
      "Armenian-speaking Data entry in Louisiana consultation",
      "Professional service",
      "Quality guarantee"
    ],
    "social_links": {}
  },
  {
    "name": "Business Boutique",
    "address": "9530 Riviera Court, Denham Springs, LA 70726",
    "phone": "(225) 394-9945",
    "rating": 4.0,
    "reviews": 25,
    "website": "https://www.google.com/maps/search/Business+Boutique+in+Louisiana",
    "category": "Armenian-speaking Data entry in Louisiana",
    "description": "Offers business services",
    "hours": "Mon-Fri 9AM-6PM",
    "services": [
      "Armenian-speaking Data entry in Louisiana consultation",
      "Professional service",
      "Quality guarantee"
    ],
    "social_links": {}
  },
  {
    "name": "Snelling Staffing (Baton Rouge)",
    "address": "Baton Rouge, LA (specific address not provided in search)",
    "phone": "",
    "rating": 4.0,
    "reviews": 25,
    "website": "https://www.google.com/maps/search/Snelling+Staffing+(Baton+Rouge)+in+Louisiana",
    "category": "Armenian-speaking Data entry in Louisiana",
    "description": "Seeking Medical Data Entry Specialists for a specialty medical clinic",
    "hours": "Mon-Fri 9AM-6PM",
    "services": [
      "Armenian-speaking Data entry in Louisiana consultation",
      "Professional service",
      "Quality guarantee"
    ],
    "social_links": {}
  },
  {
    "name": "Tradebe",
    "address": "Various locations, including in Louisiana (specific data entry office not detailed)",
    "phone": "",
    "rating": 4.0,
    "reviews": 25,
    "website": "https://www.tradebe.com/",
    "category": "Armenian-speaking Data entry in Louisiana",
    "description": "A company that hires Data Entry Clerks, for example, to maintain records of hazardous waste shipments",
    "hours": "Mon-Fri 9AM-6PM",
    "services": [
      "Armenian-speaking Data entry in Louisiana consultation",
      "Professional service",
      "Quality guarantee"
    ],
    "social_links": {}
  }
]