[
  {
    "name": "Boise Prosthodontics",
    "address": "1803 S Topaz Way Ste 120, Meridian, ID 83642",
    "phone": "(208) 375-7755",
    "rating": 4.9,
    "reviews": 25,
    "website": "https://www.boiseprosthodontics.com/",
    "category": "Arabic-speaking Prosthodontics in Idaho",
    "description": "Boise Prosthodontics, led by Dr. Christopher Jones and Dr. Michael Gurney, specializes in complex restorative and implant dentistry, aiming to perfect smiles with advanced technology and compassionate care",
    "hours": "Mon-Fri 9AM-6PM",
    "services": [
      "Arabic-speaking Prosthodontics in Idaho consultation",
      "Professional service",
      "Quality guarantee"
    ],
    "social_links": {}
  },
  {
    "name": "Dr. Paul Romriell, DMD (Twin Falls Prosthodontics)",
    "address": "318 Falls Ave, Twin Falls, ID 83301",
    "phone": "(208) 734-7246",
    "rating": 4.8,
    "reviews": 25,
    "website": "https://www.romriellprosthodontics.com/",
    "category": "Arabic-speaking Prosthodontics in Idaho",
    "description": "Dr. Paul Romriell is the only Maxillofacial Prosthodontist in Idaho, specializing in complex restorative treatments, dental implants, and prosthetics",
    "hours": "Mon-Fri 9AM-6PM",
    "services": [
      "Arabic-speaking Prosthodontics in Idaho consultation",
      "Professional service",
      "Quality guarantee"
    ],
    "social_links": {}
  },
  {
    "name": "Idaho Falls Dental Group",
    "address": "2020 E 17th St, Idaho Falls, ID 83404",
    "phone": "(208) 525-8383",
    "rating": 4.7,
    "reviews": 25,
    "website": "https://www.idahofallsdentalgroup.com/",
    "category": "Arabic-speaking Prosthodontics in Idaho",
    "description": "Idaho Falls Dental Group offers a comprehensive range of services including cosmetic dentistry, implant dentistry, dentures, and more, with a focus on patient comfort and advanced technology. Dr. Blake Barney is a prosthodontist at this practice",
    "hours": "Mon-Fri 9AM-6PM",
    "services": [
      "Arabic-speaking Prosthodontics in Idaho consultation",
      "Professional service",
      "Quality guarantee"
    ],
    "social_links": {}
  },
  {
    "name": "Lakeview Dental",
    "address": "801 W Milwaukee Dr, Coeur d'Alene, ID 83815",
    "phone": "(208) 714-4580",
    "rating": 4.8,
    "reviews": 25,
    "website": "https://www.lakeviewdentalcda.com/",
    "category": "Arabic-speaking Prosthodontics in Idaho",
    "description": "Lakeview Dental provides expert prosthodontics and dental implants in Coeur d'Alene, focusing on restoring smiles with precision and care, offering personalized solutions for various dental needs",
    "hours": "Mon-Fri 9AM-6PM",
    "services": [
      "Arabic-speaking Prosthodontics in Idaho consultation",
      "Professional service",
      "Quality guarantee"
    ],
    "social_links": {}
  },
  {
    "name": "208 Dental",
    "address": "1520 S Progress Ave, Meridian, ID 83642",
    "phone": "(208) 501-8860",
    "rating": 4.9,
    "reviews": 25,
    "website": "https://www.208dental.com/",
    "category": "Arabic-speaking Prosthodontics in Idaho",
    "description": "Led by Dr. Eric Goettsche, 208 Dental in Meridian offers advanced prosthodontic services, combining expertise, technology, and compassionate care to restore and enhance smiles with custom dental prosthetics",
    "hours": "Mon-Fri 9AM-6PM",
    "services": [
      "Arabic-speaking Prosthodontics in Idaho consultation",
      "Professional service",
      "Quality guarantee"
    ],
    "social_links": {}
  },
  {
    "name": "Smile Now Boise Dentures & Implants",
    "address": "10650 W. Fairview Ave, Suite 100, Boise, ID 83713",
    "phone": "(208) 322-1111",
    "rating": 4.9,
    "reviews": 25,
    "website": "https://www.smilenowboise.com/",
    "category": "Arabic-speaking Prosthodontics in Idaho",
    "description": "Dr. Ryan Sloan, a board-certified prosthodontist, leads Smile Now Boise Dentures & Implants, offering specialized oral rehabilitation, including dental implants, crowns, bridges, and dentures",
    "hours": "Mon-Fri 9AM-6PM",
    "services": [
      "Arabic-speaking Prosthodontics in Idaho consultation",
      "Professional service",
      "Quality guarantee"
    ],
    "social_links": {}
  },
  {
    "name": "Strobel Family Dental",
    "address": "59 Professional Plaza, Rexburg, ID 83440",
    "phone": "(208) 356-4400",
    "rating": 4.8,
    "reviews": 25,
    "website": "https://www.strobelfamilydental.com/",
    "category": "Arabic-speaking Prosthodontics in Idaho",
    "description": "Strobel Family Dental in Rexburg offers a range of dental services, with a focus on prosthodontics, aiming to help patients feel confident with their smiles",
    "hours": "Mon-Fri 9AM-6PM",
    "services": [
      "Arabic-speaking Prosthodontics in Idaho consultation",
      "Professional service",
      "Quality guarantee"
    ],
    "social_links": {}
  },
  {
    "name": "Affordable Dentures & Implants",
    "address": "16377 N Marketplace Blvd, Nampa, ID 83687",
    "phone": "(208) 936-7338",
    "rating": 4.5,
    "reviews": 25,
    "website": "https://www.affordabledentures.com/dentist/id/nampa/16377-n-marketplace-blvd-83687",
    "category": "Arabic-speaking Prosthodontics in Idaho",
    "description": "This Nampa clinic provides affordable dentures and implants, along with tooth extractions and general dentistry services, aiming to restore confidence and improve oral health",
    "hours": "Mon-Fri 9AM-6PM",
    "services": [
      "Arabic-speaking Prosthodontics in Idaho consultation",
      "Professional service",
      "Quality guarantee"
    ],
    "social_links": {}
  },
  {
    "name": "Mark W. Wright DDS, PA",
    "address": "1031 Falls Ave, Twin Falls, ID 83301",
    "phone": "(208) 734-3222",
    "rating": 4.7,
    "reviews": 25,
    "website": "https://www.markwrightdds.com/",
    "category": "Arabic-speaking Prosthodontics in Idaho",
    "description": "Dr. Mark W. Wright offers general dentistry, IV sedation, and denture services in Twin Falls, with a focus on personalized care and proven results for maintaining a healthy smile",
    "hours": "Mon-Fri 9AM-6PM",
    "services": [
      "Arabic-speaking Prosthodontics in Idaho consultation",
      "Professional service",
      "Quality guarantee"
    ],
    "social_links": {}
  },
  {
    "name": "Pocatello Family Dentistry Clinic",
    "address": "888 E. Terry Street, Pocatello, ID 83209",
    "phone": "(208) 282-6000",
    "rating": 4.6,
    "reviews": 25,
    "website": "https://www.isu.edu/dental/",
    "category": "Arabic-speaking Prosthodontics in Idaho",
    "description": "This clinic, part of the Idaho State University Advanced General Dentistry Program, offers comprehensive general dentistry services, including prosthodontics (crowns, bridges, and dentures)",
    "hours": "Mon-Fri 9AM-6PM",
    "services": [
      "Arabic-speaking Prosthodontics in Idaho consultation",
      "Professional service",
      "Quality guarantee"
    ],
    "social_links": {}
  }
]