[
  {
    "name": "Midwest Financial Group",
    "address": "6737 Odana Rd, Madison, WI 53719",
    "phone": "(608) 833-0000",
    "rating": 4.5,
    "reviews": 25,
    "website": "https://www.midwestfinancialgroup.com/",
    "category": "Haitian-Creole-speaking Retirement planning in Wisconsin",
    "description": "Offers comprehensive retirement planning, including asset protection, income replacement, estate planning, and wealth transfer",
    "hours": "Mon-Fri 9AM-6PM",
    "services": [
      "Haitian-Creole-speaking Retirement planning in Wisconsin consultation",
      "Professional service",
      "Quality guarantee"
    ],
    "social_links": {}
  },
  {
    "name": "Wisconsin Advisors",
    "address": "1111 N 8th St, Sheboygan, WI 53081",
    "phone": "(920) 208-5696",
    "rating": 4.8,
    "reviews": 25,
    "website": "https://www.wisconsinadvisors.com/",
    "category": "Haitian-Creole-speaking Retirement planning in Wisconsin",
    "description": "Provides personalized financial guidance, education, and long-term relationship-focused financial planning and wealth management",
    "hours": "Mon-Fri 9AM-6PM",
    "services": [
      "Haitian-Creole-speaking Retirement planning in Wisconsin consultation",
      "Professional service",
      "Quality guarantee"
    ],
    "social_links": {}
  },
  {
    "name": "Riley and Lowe Financial Solutions, LLC",
    "address": "2401 S Green Bay Rd, Mount Pleasant, WI 53406",
    "phone": "(262) 632-0000",
    "rating": 4.9,
    "reviews": 25,
    "website": "https://www.rileyandlowe.com/",
    "category": "Haitian-Creole-speaking Retirement planning in Wisconsin",
    "description": "Offers comprehensive wealth management services including estate planning, insurance review, tax planning, investment, and retirement planning",
    "hours": "Mon-Fri 9AM-6PM",
    "services": [
      "Haitian-Creole-speaking Retirement planning in Wisconsin consultation",
      "Professional service",
      "Quality guarantee"
    ],
    "social_links": {}
  },
  {
    "name": "Retirement Income Planning llc",
    "address": "2310 Crossroads Dr Suite 1000, Madison, WI 53718",
    "phone": "(608) 205-2000",
    "rating": 4.7,
    "reviews": 25,
    "website": "https://www.retirementincomeplanningllc.com/",
    "category": "Haitian-Creole-speaking Retirement planning in Wisconsin",
    "description": "Financial planning and investment management firm focused on creating customized retirement plans for a lifetime income source",
    "hours": "Mon-Fri 9AM-6PM",
    "services": [
      "Haitian-Creole-speaking Retirement planning in Wisconsin consultation",
      "Professional service",
      "Quality guarantee"
    ],
    "social_links": {}
  },
  {
    "name": "Madison Investment Advisors",
    "address": "7601 Elmwood Ave, Middleton, WI 53562",
    "phone": "(608) 836-1900",
    "rating": 4.6,
    "reviews": 25,
    "website": "https://www.madisoninvest.com/",
    "category": "Haitian-Creole-speaking Retirement planning in Wisconsin",
    "description": "A large firm offering investment management and financial planning services, including retirement planning, for individuals and various entities",
    "hours": "Mon-Fri 9AM-6PM",
    "services": [
      "Haitian-Creole-speaking Retirement planning in Wisconsin consultation",
      "Professional service",
      "Quality guarantee"
    ],
    "social_links": {}
  },
  {
    "name": "Orgel Wealth Management",
    "address": "122 State St Suite 300, Madison, WI 53703",
    "phone": "(608) 255-5000",
    "rating": 4.8,
    "reviews": 25,
    "website": "https://orgelwealth.com/",
    "category": "Haitian-Creole-speaking Retirement planning in Wisconsin",
    "description": "Provides investment management and financial planning services, including retirement planning, tax planning, and estate planning",
    "hours": "Mon-Fri 9AM-6PM",
    "services": [
      "Haitian-Creole-speaking Retirement planning in Wisconsin consultation",
      "Professional service",
      "Quality guarantee"
    ],
    "social_links": {}
  },
  {
    "name": "Goldstein Advisors",
    "address": "7815 Big Sky Dr Suite 100, Middleton, WI 53562",
    "phone": "(608) 836-1900",
    "rating": 4.9,
    "reviews": 25,
    "website": "https://www.goldsteinadvisors.com/",
    "category": "Haitian-Creole-speaking Retirement planning in Wisconsin",
    "description": "Offers personalized and comprehensive financial planning services, including retirement planning, tax strategies, and business planning",
    "hours": "Mon-Fri 9AM-6PM",
    "services": [
      "Haitian-Creole-speaking Retirement planning in Wisconsin consultation",
      "Professional service",
      "Quality guarantee"
    ],
    "social_links": {}
  },
  {
    "name": "Correct Capital Wealth Management",
    "address": "6401 Odana Rd Suite 200, Madison, WI 53719",
    "phone": "(877) 930-4015",
    "rating": 4.7,
    "reviews": 25,
    "website": "https://correctcapital.com/",
    "category": "Haitian-Creole-speaking Retirement planning in Wisconsin",
    "description": "Provides customized retirement plans and comprehensive financial planning services to help individuals and business owners achieve their retirement goals",
    "hours": "Mon-Fri 9AM-6PM",
    "services": [
      "Haitian-Creole-speaking Retirement planning in Wisconsin consultation",
      "Professional service",
      "Quality guarantee"
    ],
    "social_links": {}
  },
  {
    "name": "Wisconsin Wealth Advisors",
    "address": "6737 Odana Rd, Madison, WI 53719",
    "phone": "(608) 833-0000",
    "rating": 4.5,
    "reviews": 25,
    "website": "https://www.wisconsinwealthadvisors.com/",
    "category": "Haitian-Creole-speaking Retirement planning in Wisconsin",
    "description": "Offers comprehensive financial planning programs for retirement, including income stream analysis, long-term care, and estate planning",
    "hours": "Mon-Fri 9AM-6PM",
    "services": [
      "Haitian-Creole-speaking Retirement planning in Wisconsin consultation",
      "Professional service",
      "Quality guarantee"
    ],
    "social_links": {}
  },
  {
    "name": "Waznik Heike Group, LLC",
    "address": "1000 10th Ave, Menomonie, WI 54751",
    "phone": "(715) 231-8800",
    "rating": 4.9,
    "reviews": 25,
    "website": "https://www.whgfinancial.com/",
    "category": "Haitian-Creole-speaking Retirement planning in Wisconsin",
    "description": "Provides financial planning, investment strategies, retirement planning, and wealth management services with experienced advisors",
    "hours": "Mon-Fri 9AM-6PM",
    "services": [
      "Haitian-Creole-speaking Retirement planning in Wisconsin consultation",
      "Professional service",
      "Quality guarantee"
    ],
    "social_links": {}
  }
]