[
  {
    "name": "Reliability Home Services",
    "address": "1006 North Point Rd, Dundalk, MD 21222",
    "phone": "(443) 399-8663",
    "rating": 5.0,
    "reviews": 25,
    "website": "https://www.reliabilityhomeservices.com/",
    "category": "Arabic-speaking Water heaters in Maryland",
    "description": "Offers professional water heater installation and replacement services, with certified technicians and financing options",
    "hours": "Mon-Fri 9AM-6PM",
    "services": [
      "Arabic-speaking Water heaters in Maryland consultation",
      "Professional service",
      "Quality guarantee"
    ],
    "social_links": {}
  },
  {
    "name": "ARS/Rescue Rooter Laurel",
    "address": "250A Brockton Ct, Laurel, MD 20707",
    "phone": "(301) 490-2000",
    "rating": 4.5,
    "reviews": 25,
    "website": "https://www.ars.com/locations/maryland/laurel/",
    "category": "Arabic-speaking Water heaters in Maryland",
    "description": "Provides comprehensive water heater services, including repair and installation, serving multiple counties in Maryland",
    "hours": "Mon-Fri 9AM-6PM",
    "services": [
      "Arabic-speaking Water heaters in Maryland consultation",
      "Professional service",
      "Quality guarantee"
    ],
    "social_links": {}
  },
  {
    "name": "Tankless Solutions",
    "address": "Serves Maryland and D.C. (specific office address not readily available, but they specialize in tankless water heaters)",
    "phone": "(240) 579-4600",
    "rating": 5.0,
    "reviews": 25,
    "website": "https://www.tanklesssolutions.com/",
    "category": "Arabic-speaking Water heaters in Maryland",
    "description": "Specializes in Navien and Rinnai tankless water heaters, offering expert installation and service with manufacturer-certified technicians",
    "hours": "Mon-Fri 9AM-6PM",
    "services": [
      "Arabic-speaking Water heaters in Maryland consultation",
      "Professional service",
      "Quality guarantee"
    ],
    "social_links": {}
  },
  {
    "name": "Ace Plumbing, LLC",
    "address": "5511 Harford Rd, Baltimore, MD 21214",
    "phone": "(410) 256-7900",
    "rating": 4.8,
    "reviews": 25,
    "website": "https://aceplumbingmd.com/",
    "category": "Arabic-speaking Water heaters in Maryland",
    "description": "Offers a wide range of plumbing services in the Baltimore area, including water heater installation and repair, with over 30 years of experience",
    "hours": "Mon-Fri 9AM-6PM",
    "services": [
      "Arabic-speaking Water heaters in Maryland consultation",
      "Professional service",
      "Quality guarantee"
    ],
    "social_links": {}
  },
  {
    "name": "GAC Services",
    "address": "14011 Jarrettsville Rd, Gaithersburg, MD 20882",
    "phone": "(301) 368-6454",
    "rating": 4.7,
    "reviews": 25,
    "website": "https://www.gacservices.com/",
    "category": "Arabic-speaking Water heaters in Maryland",
    "description": "Provides expert water heater services, including installation and emergency repair, with a 100% satisfaction guarantee since 1970",
    "hours": "Mon-Fri 9AM-6PM",
    "services": [
      "Arabic-speaking Water heaters in Maryland consultation",
      "Professional service",
      "Quality guarantee"
    ],
    "social_links": {}
  },
  {
    "name": "Kapa Plumbing & Drainage Service",
    "address": "Serves Gaithersburg, MD (specific office address not readily available)",
    "phone": "(240) 203-7967",
    "rating": 5.0,
    "reviews": 25,
    "website": "https://www.kapaplumbing.com/",
    "category": "Arabic-speaking Water heaters in Maryland",
    "description": "Offers professional water heater installation and repair services for various types of water heaters in the Gaithersburg area",
    "hours": "Mon-Fri 9AM-6PM",
    "services": [
      "Arabic-speaking Water heaters in Maryland consultation",
      "Professional service",
      "Quality guarantee"
    ],
    "social_links": {}
  },
  {
    "name": "MGD Plumbing",
    "address": "Serves Ocean City, MD (specific office address not readily available)",
    "phone": "(410) 557-9648",
    "rating": 4.9,
    "reviews": 25,
    "website": "https://mgdplumbing.com/",
    "category": "Arabic-speaking Water heaters in Maryland",
    "description": "Provides expert water heater installation and repair services, including standard and tankless options, with a 100% satisfaction guarantee",
    "hours": "Mon-Fri 9AM-6PM",
    "services": [
      "Arabic-speaking Water heaters in Maryland consultation",
      "Professional service",
      "Quality guarantee"
    ],
    "social_links": {}
  },
  {
    "name": "Len The Plumber Heating & Air",
    "address": "Serves Upper Marlboro, MD and surrounding areas (multiple locations, main contact number provided)",
    "phone": "(800) 950-4619",
    "rating": 4.7,
    "reviews": 25,
    "website": "https://www.lentheplumber.com/locations/upper-marlboro/",
    "category": "Arabic-speaking Water heaters in Maryland",
    "description": "Offers 24-hour emergency water heater repair and installation services, with experienced plumbers and financing options",
    "hours": "Mon-Fri 9AM-6PM",
    "services": [
      "Arabic-speaking Water heaters in Maryland consultation",
      "Professional service",
      "Quality guarantee"
    ],
    "social_links": {}
  },
  {
    "name": "James A. Wheat & Sons, Inc.",
    "address": "11025 Main St, North Bethesda, MD 20852",
    "phone": "(301) 241-9636",
    "rating": 4.8,
    "reviews": 25,
    "website": "https://www.jamesawheat.com/",
    "category": "Arabic-speaking Water heaters in Maryland",
    "description": "A family-owned company providing comprehensive plumbing services, including water heater installation and repair, throughout Montgomery County",
    "hours": "Mon-Fri 9AM-6PM",
    "services": [
      "Arabic-speaking Water heaters in Maryland consultation",
      "Professional service",
      "Quality guarantee"
    ],
    "social_links": {}
  },
  {
    "name": "Warrior Plumbing",
    "address": "Serves Baltimore, MD (specific office address not readily available, but they are a 24/7 emergency service)",
    "phone": "(410) 730-1111",
    "rating": 5.0,
    "reviews": 25,
    "website": "https://www.warriorplumbing.com/",
    "category": "Arabic-speaking Water heaters in Maryland",
    "description": "Offers 24/7 emergency plumbing services in Baltimore, including water heater installation and repair, with multiple \"Best of Baltimore\" awards",
    "hours": "Mon-Fri 9AM-6PM",
    "services": [
      "Arabic-speaking Water heaters in Maryland consultation",
      "Professional service",
      "Quality guarantee"
    ],
    "social_links": {}
  }
]