[
  {
    "name": "U-Haul Moving & Storage of Southern Plaza",
    "address": "7130 Shelby St, Indianapolis, IN 46227",
    "phone": "(317) 888-0100",
    "rating": 4.0,
    "reviews": 25,
    "website": "https://www.uhaul.com/",
    "category": "Catholic-owned Moving supply sales in Indiana",
    "description": "Offers a variety of moving supplies including boxes, tape, bubble wrap, and more",
    "hours": "Mon-Fri 9AM-6PM",
    "services": [
      "Catholic-owned Moving supply sales in Indiana consultation",
      "Professional service",
      "Quality guarantee"
    ],
    "social_links": {}
  },
  {
    "name": "The Mailing Station",
    "address": "5868 E. 71st Street Suite E, Indianapolis, IN 46220",
    "phone": "(317) 841-7506",
    "rating": 4.0,
    "reviews": 25,
    "website": "https://www.mailingstation.net/",
    "category": "Catholic-owned Moving supply sales in Indiana",
    "description": "Provides a wide selection of boxes, packing peanuts, bubble wrap, tape, and offers packing services",
    "hours": "Mon-Fri 9AM-6PM",
    "services": [
      "Catholic-owned Moving supply sales in Indiana consultation",
      "Professional service",
      "Quality guarantee"
    ],
    "social_links": {}
  },
  {
    "name": "Store It Indy LLC (U-Haul Neighborhood Dealer)",
    "address": "5440 W. Minnesota St., Indianapolis, IN 46205",
    "phone": "(317) 241-6200",
    "rating": 4.0,
    "reviews": 25,
    "website": "https://www.uhaul.com/",
    "category": "Catholic-owned Moving supply sales in Indiana",
    "description": "A U-Haul dealer offering moving boxes and supplies",
    "hours": "Mon-Fri 9AM-6PM",
    "services": [
      "Catholic-owned Moving supply sales in Indiana consultation",
      "Professional service",
      "Quality guarantee"
    ],
    "social_links": {}
  },
  {
    "name": "TWO MEN AND A TRUCK",
    "address": "8345 Woodland Dr, Indianapolis, IN 46278 (Indianapolis North location)",
    "phone": "(317) 731-2900",
    "rating": 4.0,
    "reviews": 25,
    "website": "https://twomenandatruck.com/",
    "category": "Catholic-owned Moving supply sales in Indiana",
    "description": "Offers a variety of moving boxes and supplies, including specialty boxes for dishes and wardrobes",
    "hours": "Mon-Fri 9AM-6PM",
    "services": [
      "Catholic-owned Moving supply sales in Indiana consultation",
      "Professional service",
      "Quality guarantee"
    ],
    "social_links": {}
  },
  {
    "name": "The UPS Store Jeffersonville",
    "address": "3310-4 E 10th St, Jeffersonville, IN 47130",
    "phone": "(812) 284-1111",
    "rating": 4.0,
    "reviews": 25,
    "website": "https://locations.theupsstore.com/in/jeffersonville/3310-e-10th-st",
    "category": "Catholic-owned Moving supply sales in Indiana",
    "description": "A one-stop shop for moving boxes, bubble cushioning, packing tape, and other moving supplies",
    "hours": "Mon-Fri 9AM-6PM",
    "services": [
      "Catholic-owned Moving supply sales in Indiana consultation",
      "Professional service",
      "Quality guarantee"
    ],
    "social_links": {}
  },
  {
    "name": "Catholic Charities Diocese of Evansville",
    "address": "1201 W Virginia St, Evansville, IN 47710",
    "phone": "(812) 423-5456",
    "rating": 4.0,
    "reviews": 25,
    "website": "https://www.ccevv.org/",
    "category": "Catholic-owned Moving supply sales in Indiana",
    "description": "While not a direct seller of moving supplies, Catholic Charities offers financial assistance for rent and utilities to help families maintain stable housing",
    "hours": "Mon-Fri 9AM-6PM",
    "services": [
      "Catholic-owned Moving supply sales in Indiana consultation",
      "Professional service",
      "Quality guarantee"
    ],
    "social_links": {}
  },
  {
    "name": "Catholic Charities Indianapolis",
    "address": "1400 N. Meridian St., Indianapolis, IN 46202-2367",
    "phone": "(317) 236-1500",
    "rating": 4.0,
    "reviews": 25,
    "website": "https://www.archindy.org/catholic-charities/",
    "category": "Catholic-owned Moving supply sales in Indiana",
    "description": "Provides various services including crisis assistance for food, clothing, and limited transportation, as well as programs for homeless families. They do not directly sell moving supplies",
    "hours": "Mon-Fri 9AM-6PM",
    "services": [
      "Catholic-owned Moving supply sales in Indiana consultation",
      "Professional service",
      "Quality guarantee"
    ],
    "social_links": {}
  },
  {
    "name": "Catholic Charities Diocese of Gary",
    "address": "3901 W. 25th Ave., Gary, IN 46406",
    "phone": "(219) 886-3549",
    "rating": 4.0,
    "reviews": 25,
    "website": "https://catholic-charities.org/",
    "category": "Catholic-owned Moving supply sales in Indiana",
    "description": "Offers community outreach programs providing financial assistance for rent, utilities, and other necessities to prevent homelessness. They do not sell moving supplies",
    "hours": "Mon-Fri 9AM-6PM",
    "services": [
      "Catholic-owned Moving supply sales in Indiana consultation",
      "Professional service",
      "Quality guarantee"
    ],
    "social_links": {}
  },
  {
    "name": "Catholic Charities (South Bend)",
    "address": "1817 Miami Street, South Bend, IN 46613",
    "phone": "(574) 234-9121",
    "rating": 4.0,
    "reviews": 25,
    "website": "https://www.ccfwsb.org/",
    "category": "Catholic-owned Moving supply sales in Indiana",
    "description": "Provides financial assistance for housing, utilities, and other needs. They operate a food pantry but do not sell moving supplies",
    "hours": "Mon-Fri 9AM-6PM",
    "services": [
      "Catholic-owned Moving supply sales in Indiana consultation",
      "Professional service",
      "Quality guarantee"
    ],
    "social_links": {}
  },
  {
    "name": "Krieg Brothers Religious Supply",
    "address": "536 E. Market St., Indianapolis, IN 46202",
    "phone": "(317) 634-4477",
    "rating": 4.0,
    "reviews": 25,
    "website": "https://www.kriegbrothers.com/",
    "category": "Catholic-owned Moving supply sales in Indiana",
    "description": "A long-standing Catholic supply and retail store that sells religious items. While it is a Catholic-owned business, it does not specialize in moving supplies",
    "hours": "Mon-Fri 9AM-6PM",
    "services": [
      "Catholic-owned Moving supply sales in Indiana consultation",
      "Professional service",
      "Quality guarantee"
    ],
    "social_links": {}
  }
]