[
  {
    "name": "Lone Wolf Roofing",
    "address": "3434 N Causeway Blvd, Metairie, LA 70002",
    "phone": "(504) 708-4140",
    "rating": 5.0,
    "reviews": 25,
    "website": "https://www.lonewolfroofing.com/",
    "category": "Buddhist-owned Tile roofing in Louisiana",
    "description": "Specializes in residential and commercial roofing, offering storm damage restoration and full roof replacements with durable materials suited for Louisiana's weather",
    "hours": "Mon-Fri 9AM-6PM",
    "services": [
      "Buddhist-owned Tile roofing in Louisiana consultation",
      "Professional service",
      "Quality guarantee"
    ],
    "social_links": {}
  },
  {
    "name": "Allied Roofing LLC",
    "address": "10009 LA-1248, Lillie, LA 71256",
    "phone": "(318) 272-0000",
    "rating": 4.8,
    "reviews": 25,
    "website": "https://www.alliedroofingla.com/",
    "category": "Buddhist-owned Tile roofing in Louisiana",
    "description": "Offers quality roofing products and services, including tile roof installations and repairs, with a focus on customer satisfaction and integrity",
    "hours": "Mon-Fri 9AM-6PM",
    "services": [
      "Buddhist-owned Tile roofing in Louisiana consultation",
      "Professional service",
      "Quality guarantee"
    ],
    "social_links": {}
  },
  {
    "name": "Cypress Solar & Roofing",
    "address": "3011 Old Minden Rd, Bossier City, LA 71111",
    "phone": "(318) 584-0000",
    "rating": 4.7,
    "reviews": 25,
    "website": "https://cypresssolarandroofing.com/",
    "category": "Buddhist-owned Tile roofing in Louisiana",
    "description": "Specializes in tile roof replacement and repairs, as well as other roofing types, providing durable and stylish solutions for homeowners",
    "hours": "Mon-Fri 9AM-6PM",
    "services": [
      "Buddhist-owned Tile roofing in Louisiana consultation",
      "Professional service",
      "Quality guarantee"
    ],
    "social_links": {}
  },
  {
    "name": "Lifetime Roofing",
    "address": "10445 Coursey Blvd, Baton Rouge, LA 70816",
    "phone": "(225) 612-5555",
    "rating": 4.6,
    "reviews": 25,
    "website": "https://lifetimeroofingla.com/",
    "category": "Buddhist-owned Tile roofing in Louisiana",
    "description": "A locally owned and operated contractor specializing in residential and commercial roof replacement and repairs, known for quality craftsmanship and customer service",
    "hours": "Mon-Fri 9AM-6PM",
    "services": [
      "Buddhist-owned Tile roofing in Louisiana consultation",
      "Professional service",
      "Quality guarantee"
    ],
    "social_links": {}
  },
  {
    "name": "Storm Guard Roofing",
    "address": "3000 N Causeway Blvd, Metairie, LA 70002",
    "phone": "(504) 207-4000",
    "rating": 4.5,
    "reviews": 25,
    "website": "https://www.stormguardroofing.com/",
    "category": "Buddhist-owned Tile roofing in Louisiana",
    "description": "Provides residential and commercial roofing services, including tile replacement, maintenance, and storm damage restoration",
    "hours": "Mon-Fri 9AM-6PM",
    "services": [
      "Buddhist-owned Tile roofing in Louisiana consultation",
      "Professional service",
      "Quality guarantee"
    ],
    "social_links": {}
  },
  {
    "name": "Dynamic Restoration Louisiana",
    "address": "1000 Veterans Memorial Blvd, Metairie, LA 70005",
    "phone": "(504) 400-0000",
    "rating": 4.5,
    "reviews": 25,
    "website": "https://dynamicrestorationla.com/",
    "category": "Buddhist-owned Tile roofing in Louisiana",
    "description": "Offers roofing installation, repair, and replacement services, along with siding and other exterior projects, with a focus on quality workmanship and customer satisfaction",
    "hours": "Mon-Fri 9AM-6PM",
    "services": [
      "Buddhist-owned Tile roofing in Louisiana consultation",
      "Professional service",
      "Quality guarantee"
    ],
    "social_links": {}
  },
  {
    "name": "Blanco Roofing",
    "address": "1000 S Cesar Chavez Blvd, New Orleans, LA 70125",
    "phone": "(504) 300-0000",
    "rating": 4.4,
    "reviews": 25,
    "website": "https://blancoroofing.com/",
    "category": "Buddhist-owned Tile roofing in Louisiana",
    "description": "Provides roofing services, including tile roof replacement, known for reasonable pricing and quality work, even on challenging projects",
    "hours": "Mon-Fri 9AM-6PM",
    "services": [
      "Buddhist-owned Tile roofing in Louisiana consultation",
      "Professional service",
      "Quality guarantee"
    ],
    "social_links": {}
  },
  {
    "name": "Blue Green Industries, Inc.",
    "address": "1000 S Range Ave, Denham Springs, LA 70726",
    "phone": "(225) 664-0000",
    "rating": 4.3,
    "reviews": 25,
    "website": "https://www.bluegreenindustries.com/",
    "category": "Buddhist-owned Tile roofing in Louisiana",
    "description": "Offers roofing repairs and replacements with in-house crews and manufacturer-backed warranties, serving various needs including ranching and real estate",
    "hours": "Mon-Fri 9AM-6PM",
    "services": [
      "Buddhist-owned Tile roofing in Louisiana consultation",
      "Professional service",
      "Quality guarantee"
    ],
    "social_links": {}
  },
  {
    "name": "Nelson Roofing Crew",
    "address": "1000 E Washington St, Opelousas, LA 70570",
    "phone": "(337) 942-0000",
    "rating": 4.2,
    "reviews": 25,
    "website": "https://www.nelsonroofingcrew.com/",
    "category": "Buddhist-owned Tile roofing in Louisiana",
    "description": "Provides asphalt shingle and metal roofing services for new construction and replacements, also offering roof repairs and inspections",
    "hours": "Mon-Fri 9AM-6PM",
    "services": [
      "Buddhist-owned Tile roofing in Louisiana consultation",
      "Professional service",
      "Quality guarantee"
    ],
    "social_links": {}
  },
  {
    "name": "Anthony's Roofing and Construction",
    "address": "1000 S Broad St, New Orleans, LA 70125",
    "phone": "(504) 400-0000",
    "rating": 4.0,
    "reviews": 25,
    "website": "https://anthonysroofingandconstruction.com/",
    "category": "Buddhist-owned Tile roofing in Louisiana",
    "description": "Known for professional and efficient roof repair services, aiming to set a high standard for quality and competitive pricing",
    "hours": "Mon-Fri 9AM-6PM",
    "services": [
      "Buddhist-owned Tile roofing in Louisiana consultation",
      "Professional service",
      "Quality guarantee"
    ],
    "social_links": {}
  }
]