[
  {
    "name": "Pak Mail Ridgeland",
    "address": "1067 Highland Colony Pkwy, Ridgeland, MS 39157",
    "phone": "(601) 853-0002",
    "rating": 4.0,
    "reviews": 25,
    "website": "https://www.pakmail.com/locations/ridgeland-ms-39157/",
    "category": "Atheist-owned Art moving in Mississippi",
    "description": "Pak Mail specializes in crating and shipping fine art, offering on-site pick-up and packing services for domestic and international shipments",
    "hours": "Mon-Fri 9AM-6PM",
    "services": [
      "Atheist-owned Art moving in Mississippi consultation",
      "Professional service",
      "Quality guarantee"
    ],
    "social_links": {}
  },
  {
    "name": "The Caron Gallery",
    "address": "101 N. Washington St., Tupelo, MS 38804 (also has a location in Laurel)",
    "phone": "(662) 844-0548",
    "rating": 4.0,
    "reviews": 25,
    "website": "https://thecarongallery.com/",
    "category": "Atheist-owned Art moving in Mississippi",
    "description": "The Caron Gallery offers art consultation and installation services, in addition to custom framing",
    "hours": "Mon-Fri 9AM-6PM",
    "services": [
      "Atheist-owned Art moving in Mississippi consultation",
      "Professional service",
      "Quality guarantee"
    ],
    "social_links": {}
  },
  {
    "name": "Macks Fine Art Movers",
    "address": "Service area includes Mississippi (specific address not provided, operates as a connector to professionals)",
    "phone": "",
    "rating": 4.0,
    "reviews": 25,
    "website": "https://www.macksfineartmovers.com/mississippi",
    "category": "Atheist-owned Art moving in Mississippi",
    "description": "Macks Fine Art Movers connects individuals with professionals who provide fine art moving and packing services in Mississippi",
    "hours": "Mon-Fri 9AM-6PM",
    "services": [
      "Atheist-owned Art moving in Mississippi consultation",
      "Professional service",
      "Quality guarantee"
    ],
    "social_links": {}
  },
  {
    "name": "Spyder Moving and Storage",
    "address": "Multiple locations, including 1300 N. State St., Jackson, MS 39202 (example location)",
    "phone": "(855) 793-3776",
    "rating": 4.38,
    "reviews": 25,
    "website": "https://spydermoving.com/mississippi/",
    "category": "Atheist-owned Art moving in Mississippi",
    "description": "Spyder Moving and Storage offers full-service moves, including specialty care for fragile items and art",
    "hours": "Mon-Fri 9AM-6PM",
    "services": [
      "Atheist-owned Art moving in Mississippi consultation",
      "Professional service",
      "Quality guarantee"
    ],
    "social_links": {}
  },
  {
    "name": "First Class Moving Systems, Inc.",
    "address": "Service area includes Mississippi (specific address not provided)",
    "phone": "(866) 994-0500",
    "rating": 4.66,
    "reviews": 25,
    "website": "https://firstclassmovingsystems.com/",
    "category": "Atheist-owned Art moving in Mississippi",
    "description": "This company is well-versed in the secure transportation of unique items such as artwork and antiques, offering packing, unpacking, and crating services",
    "hours": "Mon-Fri 9AM-6PM",
    "services": [
      "Atheist-owned Art moving in Mississippi consultation",
      "Professional service",
      "Quality guarantee"
    ],
    "social_links": {}
  },
  {
    "name": "The Armstrong Company",
    "address": "Service area includes Mississippi (specific address not provided)",
    "phone": "(800) 248-6683",
    "rating": 4.38,
    "reviews": 25,
    "website": "https://www.thearmstrongco.com/",
    "category": "Atheist-owned Art moving in Mississippi",
    "description": "Offers comprehensive moving services, including specialized packing for fragile items and antiques",
    "hours": "Mon-Fri 9AM-6PM",
    "services": [
      "Atheist-owned Art moving in Mississippi consultation",
      "Professional service",
      "Quality guarantee"
    ],
    "social_links": {}
  },
  {
    "name": "John Fayard Moving & Warehousing, LLC",
    "address": "101 Industrial Park Rd, Meridian, MS 39301",
    "phone": "(601) 483-4281",
    "rating": 4.42,
    "reviews": 25,
    "website": "https://www.johnfayardmoving.com/",
    "category": "Atheist-owned Art moving in Mississippi",
    "description": "Provides full-service moving, climate-controlled storage, and crating services, accommodating specialized items like pianos",
    "hours": "Mon-Fri 9AM-6PM",
    "services": [
      "Atheist-owned Art moving in Mississippi consultation",
      "Professional service",
      "Quality guarantee"
    ],
    "social_links": {}
  },
  {
    "name": "Central Mississippi Movers",
    "address": "Serves the Jackson, MS area and surrounding regions",
    "phone": "(601) 500-4344",
    "rating": 4.0,
    "reviews": 25,
    "website": "https://www.centralmississippimovers.com/",
    "category": "Atheist-owned Art moving in Mississippi",
    "description": "A full-service moving company offering local and long-distance moves, as well as commercial installation services",
    "hours": "Mon-Fri 9AM-6PM",
    "services": [
      "Atheist-owned Art moving in Mississippi consultation",
      "Professional service",
      "Quality guarantee"
    ],
    "social_links": {}
  },
  {
    "name": "Pickers Pack N Shipp",
    "address": "1000 Washington St, Vicksburg, MS 39180",
    "phone": "(601) 952-3009",
    "rating": 4.0,
    "reviews": 25,
    "website": "https://www.pickerspacknshipp.com/artwork-shipping",
    "category": "Atheist-owned Art moving in Mississippi",
    "description": "Specializes in the packing and shipping of artwork, emphasizing the need for special handling and packaging",
    "hours": "Mon-Fri 9AM-6PM",
    "services": [
      "Atheist-owned Art moving in Mississippi consultation",
      "Professional service",
      "Quality guarantee"
    ],
    "social_links": {}
  },
  {
    "name": "Frame Corner Memphis",
    "address": "Serves the Memphis/Mid-South area, including parts of Mississippi. (Specific Mississippi address not provided, but they deliver into MS)",
    "phone": "(901) 725-0000",
    "rating": 4.0,
    "reviews": 25,
    "website": "https://www.framecornermemphis.com/",
    "category": "Atheist-owned Art moving in Mississippi",
    "description": "Offers installation and delivery services for fine art and memorabilia within the Mid-South area, including Mississippi, specializing in complex installations",
    "hours": "Mon-Fri 9AM-6PM",
    "services": [
      "Atheist-owned Art moving in Mississippi consultation",
      "Professional service",
      "Quality guarantee"
    ],
    "social_links": {}
  }
]