[
  {
    "name": "Armstrong Teasdale LLP",
    "address": "Multiple locations, including St. Louis, MO",
    "phone": "(314) 621-5070",
    "rating": 4.0,
    "reviews": 25,
    "website": "https://www.armstrongteasdale.com/",
    "category": "Armenian-speaking Intellectual property protection in Missouri",
    "description": "A highly respected firm with a strong intellectual property practice, including patent prosecution, copyright, and trademark",
    "hours": "Mon-Fri 9AM-6PM",
    "services": [
      "Armenian-speaking Intellectual property protection in Missouri consultation",
      "Professional service",
      "Quality guarantee"
    ],
    "social_links": {}
  },
  {
    "name": "Polsinelli PC",
    "address": "Multiple locations, including St. Louis, MO",
    "phone": "(314) 875-8700",
    "rating": 4.0,
    "reviews": 25,
    "website": "https://www.polsinelli.com/",
    "category": "Armenian-speaking Intellectual property protection in Missouri",
    "description": "Favored by clients in healthcare, chemical, and life sciences for complex patent and trademark cases, with expertise in licensing and IP commercialization",
    "hours": "Mon-Fri 9AM-6PM",
    "services": [
      "Armenian-speaking Intellectual property protection in Missouri consultation",
      "Professional service",
      "Quality guarantee"
    ],
    "social_links": {}
  },
  {
    "name": "Shook, Hardy & Bacon LLP",
    "address": "Multiple locations, including Kansas City and St. Louis, MO",
    "phone": "(816) 474-6400 (Kansas City) / (314) 345-9000 (St. Louis)",
    "rating": 4.0,
    "reviews": 25,
    "website": "https://www.shb.com/",
    "category": "Armenian-speaking Intellectual property protection in Missouri",
    "description": "Known for its intellectual property litigation practice, including patent, trademark, copyright, unfair competition, and trade secret matters",
    "hours": "Mon-Fri 9AM-6PM",
    "services": [
      "Armenian-speaking Intellectual property protection in Missouri consultation",
      "Professional service",
      "Quality guarantee"
    ],
    "social_links": {}
  },
  {
    "name": "Husch Blackwell LLP",
    "address": "Multiple locations, including Kansas City and St. Louis, MO",
    "phone": "(816) 474-0400 (Kansas City) / (314) 436-7000 (St. Louis)",
    "rating": 4.0,
    "reviews": 25,
    "website": "https://www.huschblackwell.com/",
    "category": "Armenian-speaking Intellectual property protection in Missouri",
    "description": "Offers advice on copyright, trademarks, and licensing, with expertise in trade secrets and data, contract, and security matters",
    "hours": "Mon-Fri 9AM-6PM",
    "services": [
      "Armenian-speaking Intellectual property protection in Missouri consultation",
      "Professional service",
      "Quality guarantee"
    ],
    "social_links": {}
  },
  {
    "name": "Lewis Rice LLC",
    "address": "Multiple locations, including St. Louis, MO",
    "phone": "(314) 444-7700",
    "rating": 4.0,
    "reviews": 25,
    "website": "https://www.lewisrice.com/",
    "category": "Armenian-speaking Intellectual property protection in Missouri",
    "description": "Has a prominent bench of patent litigators with notable courtroom and PTAB experience",
    "hours": "Mon-Fri 9AM-6PM",
    "services": [
      "Armenian-speaking Intellectual property protection in Missouri consultation",
      "Professional service",
      "Quality guarantee"
    ],
    "social_links": {}
  },
  {
    "name": "Thompson Coburn LLP",
    "address": "Multiple locations, including St. Louis, MO",
    "phone": "(314) 552-6000",
    "rating": 4.0,
    "reviews": 25,
    "website": "https://www.thompsoncoburn.com/",
    "category": "Armenian-speaking Intellectual property protection in Missouri",
    "description": "A well-regarded firm with a strong intellectual property litigation practice",
    "hours": "Mon-Fri 9AM-6PM",
    "services": [
      "Armenian-speaking Intellectual property protection in Missouri consultation",
      "Professional service",
      "Quality guarantee"
    ],
    "social_links": {}
  },
  {
    "name": "Bryan Cave Leighton Paisner LLP",
    "address": "Multiple locations, including St. Louis, MO",
    "phone": "(314) 259-2000",
    "rating": 4.0,
    "reviews": 25,
    "website": "https://www.bclplaw.com/",
    "category": "Armenian-speaking Intellectual property protection in Missouri",
    "description": "A well-regarded firm that garners respect for the strength of its litigation practice",
    "hours": "Mon-Fri 9AM-6PM",
    "services": [
      "Armenian-speaking Intellectual property protection in Missouri consultation",
      "Professional service",
      "Quality guarantee"
    ],
    "social_links": {}
  },
  {
    "name": "Tucker Ellis LLP",
    "address": "Multiple locations, including St. Louis, MO",
    "phone": "(314) 719-1100",
    "rating": 4.0,
    "reviews": 25,
    "website": "https://www.tuckerellis.com/",
    "category": "Armenian-speaking Intellectual property protection in Missouri",
    "description": "A well-reputed firm with significant experience in IP litigation, including patent and copyright infringement cases",
    "hours": "Mon-Fri 9AM-6PM",
    "services": [
      "Armenian-speaking Intellectual property protection in Missouri consultation",
      "Professional service",
      "Quality guarantee"
    ],
    "social_links": {}
  },
  {
    "name": "Stinson LLP",
    "address": "Multiple locations, including Kansas City and St. Louis, MO",
    "phone": "(816) 842-8600 (Kansas City) / (314) 259-4000 (St. Louis)",
    "rating": 4.0,
    "reviews": 25,
    "website": "https://www.stinson.com/",
    "category": "Armenian-speaking Intellectual property protection in Missouri",
    "description": "Offers practical legal guidance to clients ranging from individuals to international corporations",
    "hours": "Mon-Fri 9AM-6PM",
    "services": [
      "Armenian-speaking Intellectual property protection in Missouri consultation",
      "Professional service",
      "Quality guarantee"
    ],
    "social_links": {}
  },
  {
    "name": "Blair B. Matyszczyk (Attorney)",
    "address": "1100 Main St #2550, Kansas City, MO 64105",
    "phone": "(816) 542-3503",
    "rating": 4.0,
    "reviews": 25,
    "website": "http://dickersonoxton.com/",
    "category": "Armenian-speaking Intellectual property protection in Missouri",
    "description": "Blair B. Matyszczyk is an attorney who lists Armenian as a spoken language. While his specific practice areas are not detailed in the search results, he is listed in a directory of Armenian lawyers",
    "hours": "Mon-Fri 9AM-6PM",
    "services": [
      "Armenian-speaking Intellectual property protection in Missouri consultation",
      "Professional service",
      "Quality guarantee"
    ],
    "social_links": {}
  }
]