[
  {
    "name": "Natural Wellness Birmingham",
    "address": "Not specified in search results",
    "phone": "205-516-6298",
    "rating": 4.0,
    "reviews": 25,
    "website": "https://www.google.com/maps/search/Natural+Wellness+Birmingham+in+Alabama",
    "category": "Asian-owned Hydrotherapy in Alabama",
    "description": "Offers colon hydrotherapy and other wellness services",
    "hours": "Mon-Fri 9AM-6PM",
    "services": [
      "Asian-owned Hydrotherapy in Alabama consultation",
      "Professional service",
      "Quality guarantee"
    ],
    "social_links": {}
  },
  {
    "name": "TheraSport Physical & Aquatic Therapy",
    "address": "Locations in Rainsville and Fort Payne, Alabama. Specific street addresses not provided",
    "phone": "",
    "rating": 4.0,
    "reviews": 25,
    "website": "https://www.google.com/maps/search/TheraSport+Physical+&+Aquatic+Therapy+in+Alabama",
    "category": "Asian-owned Hydrotherapy in Alabama",
    "description": "Provides physical therapy, sports rehabilitation, and aquatic therapy services",
    "hours": "Mon-Fri 9AM-6PM",
    "services": [
      "Asian-owned Hydrotherapy in Alabama consultation",
      "Professional service",
      "Quality guarantee"
    ],
    "social_links": {}
  },
  {
    "name": "Wilhoite Physical Therapy",
    "address": "Oxford Clinic: 651 Snow Street, Oxford, Alabama 36203. Anniston office for billing purposes only",
    "phone": "256-241-7500",
    "rating": 4.0,
    "reviews": 25,
    "website": "https://www.google.com/maps/search/Wilhoite+Physical+Therapy+in+Alabama",
    "category": "Asian-owned Hydrotherapy in Alabama",
    "description": "Offers aquatic therapy with a heated pool",
    "hours": "Mon-Fri 9AM-6PM",
    "services": [
      "Asian-owned Hydrotherapy in Alabama consultation",
      "Professional service",
      "Quality guarantee"
    ],
    "social_links": {}
  },
  {
    "name": "Healing Waters Wellness Center & Spa",
    "address": "720 23rd Street South, Birmingham, Alabama, 35233, USA",
    "phone": "",
    "rating": 4.9,
    "reviews": 25,
    "website": "https://morethancolonics.com/",
    "category": "Asian-owned Hydrotherapy in Alabama",
    "description": "Specializes in colon hydrotherapy, Korean hip baths, Bio cleanse footbaths, and Biofeedback",
    "hours": "Mon-Fri 9AM-6PM",
    "services": [
      "Asian-owned Hydrotherapy in Alabama consultation",
      "Professional service",
      "Quality guarantee"
    ],
    "social_links": {}
  },
  {
    "name": "Marshall Therapy & Sports Rehab",
    "address": "Locations in Guntersville and Albertville, Alabama. Specific street addresses not provided",
    "phone": "Guntersville: 256.571.8000 (Marshall Medical North)",
    "rating": 4.0,
    "reviews": 25,
    "website": "https://www.google.com/maps/search/Marshall+Therapy+&+Sports+Rehab+in+Alabama",
    "category": "Asian-owned Hydrotherapy in Alabama",
    "description": "Offers aquatic therapy with Olympic-size pools and smaller therapy pools",
    "hours": "Mon-Fri 9AM-6PM",
    "services": [
      "Asian-owned Hydrotherapy in Alabama consultation",
      "Professional service",
      "Quality guarantee"
    ],
    "social_links": {}
  }
]