[
  {
    "name": "Campbell's Nursery",
    "address": "5625 Pine Lake Rd, Lincoln, NE 68516",
    "phone": "(402) 420-2425",
    "rating": 4.0,
    "reviews": 25,
    "website": "https://www.campbellsnurseries.com/",
    "category": "Chinese-speaking Garden planting in Nebraska",
    "description": "Offers a nursery of flowers, trees, shrubs, and houseplants, along with garden supplies and landscaping ideas",
    "hours": "Mon-Fri 9AM-6PM",
    "services": [
      "Chinese-speaking Garden planting in Nebraska consultation",
      "Professional service",
      "Quality guarantee"
    ],
    "social_links": {}
  },
  {
    "name": "Heritage West Nursery Lincoln",
    "address": "10777 S 14th St, Lincoln, NE 68512",
    "phone": "(402) 794-4000",
    "rating": 4.0,
    "reviews": 25,
    "website": "https://heritagenursery.com/",
    "category": "Chinese-speaking Garden planting in Nebraska",
    "description": "A wholesale landscape supplier offering a wide range of trees, shrubs, plants, and flowers",
    "hours": "Mon-Fri 9AM-6PM",
    "services": [
      "Chinese-speaking Garden planting in Nebraska consultation",
      "Professional service",
      "Quality guarantee"
    ],
    "social_links": {}
  },
  {
    "name": "Moku Lawn and Landscaping",
    "address": "Lincoln, Nebraska (Specific address not provided in search results)",
    "phone": "",
    "rating": 4.0,
    "reviews": 25,
    "website": "https://mokulandscaping.com/",
    "category": "Chinese-speaking Garden planting in Nebraska",
    "description": "Offers expert lawn care, landscaping, waste removal, and yard cleanup services for residential and commercial clients",
    "hours": "Mon-Fri 9AM-6PM",
    "services": [
      "Chinese-speaking Garden planting in Nebraska consultation",
      "Professional service",
      "Quality guarantee"
    ],
    "social_links": {}
  },
  {
    "name": "Nebraska Nursery & Color Gardens",
    "address": "4240 S. Coddington Avenue, Lincoln, NE (Farm location)",
    "phone": "(402) 489-6543",
    "rating": 4.0,
    "reviews": 25,
    "website": "https://www.colorgardens.com/",
    "category": "Chinese-speaking Garden planting in Nebraska",
    "description": "Provides landscaping design & construction, tree & shrub planting, and offers landscape consultations",
    "hours": "Mon-Fri 9AM-6PM",
    "services": [
      "Chinese-speaking Garden planting in Nebraska consultation",
      "Professional service",
      "Quality guarantee"
    ],
    "social_links": {}
  },
  {
    "name": "Steinbrink Landscaping & Greenhouses",
    "address": "Central Nebraska (Specific address not provided in search results)",
    "phone": "",
    "rating": 4.0,
    "reviews": 25,
    "website": "https://steinbrinklandscaping.com/",
    "category": "Chinese-speaking Garden planting in Nebraska",
    "description": "Offers landscaping services, a garden center with a large variety of plants and supplies, and educational workshops",
    "hours": "Mon-Fri 9AM-6PM",
    "services": [
      "Chinese-speaking Garden planting in Nebraska consultation",
      "Professional service",
      "Quality guarantee"
    ],
    "social_links": {}
  },
  {
    "name": "Tailored Landscapes",
    "address": "Lincoln, NE (Specific address not provided in search results)",
    "phone": "",
    "rating": 4.0,
    "reviews": 25,
    "website": "https://www.tailoredlandscapesne.com/",
    "category": "Chinese-speaking Garden planting in Nebraska",
    "description": "A landscaping contractor specializing in tailored commercial and residential landscapes, including hardscapes and tree services",
    "hours": "Mon-Fri 9AM-6PM",
    "services": [
      "Chinese-speaking Garden planting in Nebraska consultation",
      "Professional service",
      "Quality guarantee"
    ],
    "social_links": {}
  },
  {
    "name": "Yano's Nursery",
    "address": "PO Box 45259, Omaha, NE 68145",
    "phone": "(402) 895-1535",
    "rating": 4.0,
    "reviews": 25,
    "website": "https://yanosnursery.com/",
    "category": "Chinese-speaking Garden planting in Nebraska",
    "description": "Offers residential and commercial landscaping and design services, focusing on creating beautiful, functional, and sustainable environments",
    "hours": "Mon-Fri 9AM-6PM",
    "services": [
      "Chinese-speaking Garden planting in Nebraska consultation",
      "Professional service",
      "Quality guarantee"
    ],
    "social_links": {}
  },
  {
    "name": "Oriental Garden Supply",
    "address": "Information not available",
    "phone": "",
    "rating": 4.0,
    "reviews": 25,
    "website": "https://orientalgardensnursery.com/",
    "category": "Chinese-speaking Garden planting in Nebraska",
    "description": "A wholesale/retail nursery with a large selection of plants and authentic garden materials",
    "hours": "Mon-Fri 9AM-6PM",
    "services": [
      "Chinese-speaking Garden planting in Nebraska consultation",
      "Professional service",
      "Quality guarantee"
    ],
    "social_links": {}
  },
  {
    "name": "JPW Gardens",
    "address": "Holdrege, Nebraska (Specific address not provided in search results)",
    "phone": "888-861-0478",
    "rating": 4.0,
    "reviews": 25,
    "website": "https://jpwgardens.com/",
    "category": "Chinese-speaking Garden planting in Nebraska",
    "description": "Offers Japanese Garden services and general garden services",
    "hours": "Mon-Fri 9AM-6PM",
    "services": [
      "Chinese-speaking Garden planting in Nebraska consultation",
      "Professional service",
      "Quality guarantee"
    ],
    "social_links": {}
  },
  {
    "name": "Polite Gardens",
    "address": "Omaha, NE (Specific address not provided in search results)",
    "phone": "",
    "rating": 4.0,
    "reviews": 25,
    "website": "https://politegardens.com/",
    "category": "Chinese-speaking Garden planting in Nebraska",
    "description": "Specializes in garden maintenance, assisting older and busy gardeners",
    "hours": "Mon-Fri 9AM-6PM",
    "services": [
      "Chinese-speaking Garden planting in Nebraska consultation",
      "Professional service",
      "Quality guarantee"
    ],
    "social_links": {}
  }
]