[
  {
    "name": "1 on 1 Technical and Theological College",
    "address": "Phenix City, AL",
    "phone": "(334) 310-4000",
    "rating": 4.0,
    "reviews": 25,
    "website": "https://www.1on1ttcollege.org/",
    "category": "Black-owned Trade schools in Alabama",
    "description": "This institution, founded by Shakea Miller, is the first Black woman-owned degree-granting technical college in Alabama, offering certificate programs across various fields with a focus on biblical and comprehensive education",
    "hours": "Mon-Fri 9AM-6PM",
    "services": [
      "Black-owned Trade schools in Alabama consultation",
      "Professional service",
      "Quality guarantee"
    ],
    "social_links": {}
  },
  {
    "name": "Drake State Community and Technical College",
    "address": "1028 Blackmon St SW, Huntsville, AL 35801",
    "phone": "(256) 539-8161",
    "rating": 4.0,
    "reviews": 25,
    "website": "https://www.drakestate.edu/",
    "category": "Black-owned Trade schools in Alabama",
    "description": "Drake State offers associate degrees and certificates in Business & Engineering Technologies, Health Sciences, and Applied Services Technology, including programs in Culinary Arts and Hospitality Management",
    "hours": "Mon-Fri 9AM-6PM",
    "services": [
      "Black-owned Trade schools in Alabama consultation",
      "Professional service",
      "Quality guarantee"
    ],
    "social_links": {}
  },
  {
    "name": "Gadsden State Community College",
    "address": "600 Valley St, Gadsden, AL 35903",
    "phone": "(256) 549-0300",
    "rating": 4.0,
    "reviews": 25,
    "website": "https://www.gadsdenstate.edu/",
    "category": "Black-owned Trade schools in Alabama",
    "description": "Gadsden State offers a variety of technical programs, including Air Conditioning and Refrigeration, Auto Body Collision Repair, Diesel Technology, Electrical Technology, and Welding Technology",
    "hours": "Mon-Fri 9AM-6PM",
    "services": [
      "Black-owned Trade schools in Alabama consultation",
      "Professional service",
      "Quality guarantee"
    ],
    "social_links": {}
  },
  {
    "name": "Wallace State Community College",
    "address": "801 Main St NW, Hanceville, AL 35078",
    "phone": "(256) 352-8100",
    "rating": 4.0,
    "reviews": 25,
    "website": "https://www.wallacestate.edu/",
    "category": "Black-owned Trade schools in Alabama",
    "description": "Wallace State offers numerous career and technical fields, including Advanced Automotive Technology, Diesel Technology, Electrical Technology, Salon and Spa Management, and Welding",
    "hours": "Mon-Fri 9AM-6PM",
    "services": [
      "Black-owned Trade schools in Alabama consultation",
      "Professional service",
      "Quality guarantee"
    ],
    "social_links": {}
  },
  {
    "name": "Calhoun Community College",
    "address": "102 Floyd A. Snider Rd, Tanner, AL 35671",
    "phone": "(256) 306-2500",
    "rating": 4.0,
    "reviews": 25,
    "website": "https://www.calhoun.edu/",
    "category": "Black-owned Trade schools in Alabama",
    "description": "Calhoun Community College provides certificates and associate degrees in trades such as Automotive Mechanics, Carpentry, Manufacturing Engineering Technician, and Welding",
    "hours": "Mon-Fri 9AM-6PM",
    "services": [
      "Black-owned Trade schools in Alabama consultation",
      "Professional service",
      "Quality guarantee"
    ],
    "social_links": {}
  },
  {
    "name": "Jefferson State Community College",
    "address": "2601 Carson Rd, Birmingham, AL 35215",
    "phone": "(205) 853-7171",
    "rating": 4.0,
    "reviews": 25,
    "website": "https://www.jeffersonstate.edu/",
    "category": "Black-owned Trade schools in Alabama",
    "description": "Jefferson State offers fast-track skills training in healthcare, IT, manufacturing, and craft trades, including programs in Mechatronics, Welding Technology, and Electrical Technology",
    "hours": "Mon-Fri 9AM-6PM",
    "services": [
      "Black-owned Trade schools in Alabama consultation",
      "Professional service",
      "Quality guarantee"
    ],
    "social_links": {}
  },
  {
    "name": "Alabama A&M University",
    "address": "4900 Meridian St N, Huntsville, AL 35811",
    "phone": "(256) 372-5000",
    "rating": 4.0,
    "reviews": 25,
    "website": "https://www.aamu.edu/",
    "category": "Black-owned Trade schools in Alabama",
    "description": "Alabama A&M University offers a range of undergraduate and graduate programs, including engineering, technology, and construction management, which can lead to skilled trade careers",
    "hours": "Mon-Fri 9AM-6PM",
    "services": [
      "Black-owned Trade schools in Alabama consultation",
      "Professional service",
      "Quality guarantee"
    ],
    "social_links": {}
  },
  {
    "name": "Tuskegee University",
    "address": "1200 W Montgomery Rd, Tuskegee, AL 36088",
    "phone": "(334) 727-8011",
    "rating": 4.0,
    "reviews": 25,
    "website": "https://www.tuskegee.edu/",
    "category": "Black-owned Trade schools in Alabama",
    "description": "Tuskegee University provides degrees in engineering, construction science and management, and aviation science, which are foundational for many technical and trade professions",
    "hours": "Mon-Fri 9AM-6PM",
    "services": [
      "Black-owned Trade schools in Alabama consultation",
      "Professional service",
      "Quality guarantee"
    ],
    "social_links": {}
  },
  {
    "name": "Lawson State Community College",
    "address": "3060 Wilson Rd SW, Birmingham, AL 35221",
    "phone": "(205) 925-2511",
    "rating": 4.0,
    "reviews": 25,
    "website": "https://www.lawsonstate.edu/",
    "category": "Black-owned Trade schools in Alabama",
    "description": "Lawson State Community College offers programs in areas such as Automotive Technology, HVAC, and Welding, preparing students for careers in skilled trades",
    "hours": "Mon-Fri 9AM-6PM",
    "services": [
      "Black-owned Trade schools in Alabama consultation",
      "Professional service",
      "Quality guarantee"
    ],
    "social_links": {}
  },
  {
    "name": "Southern Union State Community College",
    "address": "101 Spirit Lake Rd, Wadley, AL 36276",
    "phone": "(256) 395-2211",
    "rating": 4.0,
    "reviews": 25,
    "website": "https://www.suscc.edu/",
    "category": "Black-owned Trade schools in Alabama",
    "description": "Southern Union State Community College offers technical programs including HVAC, welding, and automotive technology, providing pathways to skilled trades",
    "hours": "Mon-Fri 9AM-6PM",
    "services": [
      "Black-owned Trade schools in Alabama consultation",
      "Professional service",
      "Quality guarantee"
    ],
    "social_links": {}
  }
]