[
  {
    "name": "Hawaii Driving Institute (HDI)",
    "address": "99-165 Moanalua Rd, Suite 101, Aiea, HI 96701",
    "phone": "(808) 488-0001",
    "rating": 4.0,
    "reviews": 25,
    "website": "https://www.hawaiidriving.com/",
    "category": "Baby-Boomer-owned Adult driving lessons in Hawaii",
    "description": "Offers behind-the-wheel instruction for adults and is a certified driver education school",
    "hours": "Mon-Fri 9AM-6PM",
    "services": [
      "Baby-Boomer-owned Adult driving lessons in Hawaii consultation",
      "Professional service",
      "Quality guarantee"
    ],
    "social_links": {}
  },
  {
    "name": "Excel Driving School",
    "address": "Honolulu, HI (Specific address not provided, but serves East Oahu)",
    "phone": "",
    "rating": 4.0,
    "reviews": 25,
    "website": "https://www.google.com/maps/search/Excel+Driving+School+in+Hawaii",
    "category": "Baby-Boomer-owned Adult driving lessons in Hawaii",
    "description": "Offers driving lessons for teens and adults with over 30 years of experience",
    "hours": "Mon-Fri 9AM-6PM",
    "services": [
      "Baby-Boomer-owned Adult driving lessons in Hawaii consultation",
      "Professional service",
      "Quality guarantee"
    ],
    "social_links": {}
  },
  {
    "name": "A-Plus Driving School",
    "address": "Kihei, HI 96753 (Also serves Maui)",
    "phone": "(808) 874-7460",
    "rating": 4.0,
    "reviews": 25,
    "website": "https://www.google.com/maps/search/A-Plus+Driving+School+in+Hawaii",
    "category": "Baby-Boomer-owned Adult driving lessons in Hawaii",
    "description": "Provides personalized driving lessons for drivers 18 and older, with over 22 years of experience",
    "hours": "Mon-Fri 9AM-6PM",
    "services": [
      "Baby-Boomer-owned Adult driving lessons in Hawaii consultation",
      "Professional service",
      "Quality guarantee"
    ],
    "social_links": {}
  },
  {
    "name": "Drive Smart Driving School",
    "address": "Lihue, HI 96766 (PO Box 3612)",
    "phone": "(808) 635-5933",
    "rating": 4.0,
    "reviews": 25,
    "website": "https://www.drivesmartdrivingschool.net/",
    "category": "Baby-Boomer-owned Adult driving lessons in Hawaii",
    "description": "Offers driver education for teens and adults, prioritizing safety and awareness",
    "hours": "Mon-Fri 9AM-6PM",
    "services": [
      "Baby-Boomer-owned Adult driving lessons in Hawaii consultation",
      "Professional service",
      "Quality guarantee"
    ],
    "social_links": {}
  },
  {
    "name": "Driving School of Hawaii",
    "address": "Waipahu, HI (Serves all of O\u02bbahu)",
    "phone": "",
    "rating": 4.0,
    "reviews": 25,
    "website": "https://www.drivingschoolofhawaii.com/",
    "category": "Baby-Boomer-owned Adult driving lessons in Hawaii",
    "description": "A state-certified driving school offering adult driving lessons with flexible scheduling and virtual classroom options",
    "hours": "Mon-Fri 9AM-6PM",
    "services": [
      "Baby-Boomer-owned Adult driving lessons in Hawaii consultation",
      "Professional service",
      "Quality guarantee"
    ],
    "social_links": {}
  },
  {
    "name": "Keku's Driving Academy",
    "address": "Not specified in search results",
    "phone": "",
    "rating": 4.0,
    "reviews": 25,
    "website": "https://www.google.com/maps/search/Keku's+Driving+Academy+in+Hawaii",
    "category": "Baby-Boomer-owned Adult driving lessons in Hawaii",
    "description": "Offers comprehensive behind-the-wheel driving programs for adults in Hawaii, with personalized instruction and flexible scheduling",
    "hours": "Mon-Fri 9AM-6PM",
    "services": [
      "Baby-Boomer-owned Adult driving lessons in Hawaii consultation",
      "Professional service",
      "Quality guarantee"
    ],
    "social_links": {}
  },
  {
    "name": "A One Driving School",
    "address": "1314 Victoria St. Suite 503, Honolulu, Oahu, Hawaii 96814",
    "phone": "(808) 545-2255",
    "rating": 4.0,
    "reviews": 25,
    "website": "https://www.aoneproservices.com/",
    "category": "Baby-Boomer-owned Adult driving lessons in Hawaii",
    "description": "Offers driving lessons with a Hawaii Certified Driving Instructor, experienced and patient, with flexible hours",
    "hours": "Mon-Fri 9AM-6PM",
    "services": [
      "Baby-Boomer-owned Adult driving lessons in Hawaii consultation",
      "Professional service",
      "Quality guarantee"
    ],
    "social_links": {}
  },
  {
    "name": "About Driving LLC",
    "address": "Honolulu, HI (Serves Honolulu area and Kealakekua in West Hawaii)",
    "phone": "808-285-0538",
    "rating": 4.0,
    "reviews": 25,
    "website": "https://www.google.com/maps/search/About+Driving+LLC+in+Hawaii",
    "category": "Baby-Boomer-owned Adult driving lessons in Hawaii",
    "description": "Provides convenient and private in-car lessons for teens and adults, with DOT certified instruction",
    "hours": "Mon-Fri 9AM-6PM",
    "services": [
      "Baby-Boomer-owned Adult driving lessons in Hawaii consultation",
      "Professional service",
      "Quality guarantee"
    ],
    "social_links": {}
  },
  {
    "name": "Lola's Driving School",
    "address": "Kapa\u02bba, HI 96746",
    "phone": "(808) 651-1294",
    "rating": 4.0,
    "reviews": 25,
    "website": "https://www.google.com/maps/search/Lola's+Driving+School+in+Hawaii",
    "category": "Baby-Boomer-owned Adult driving lessons in Hawaii",
    "description": "Offers driving lessons for teens and adults, focusing on road laws, signs, and driving skills",
    "hours": "Mon-Fri 9AM-6PM",
    "services": [
      "Baby-Boomer-owned Adult driving lessons in Hawaii consultation",
      "Professional service",
      "Quality guarantee"
    ],
    "social_links": {}
  },
  {
    "name": "5-0 Driving School LLC",
    "address": "1350 S King Street, #301, Honolulu, HI 96814",
    "phone": "(808) 798-4370",
    "rating": 4.0,
    "reviews": 25,
    "website": "https://www.google.com/maps/search/5-0+Driving+School+LLC+in+Hawaii",
    "category": "Baby-Boomer-owned Adult driving lessons in Hawaii",
    "description": "A family-owned business offering driving instruction for minors and adult drivers, with options for classroom and behind-the-wheel training",
    "hours": "Mon-Fri 9AM-6PM",
    "services": [
      "Baby-Boomer-owned Adult driving lessons in Hawaii consultation",
      "Professional service",
      "Quality guarantee"
    ],
    "social_links": {}
  }
]