[
  {
    "name": "Functional Medicine of Iowa",
    "address": "1000 Jordan Creek Pkwy, Ste 220, West Des Moines, IA 50266",
    "phone": "(515) 421-9933",
    "rating": 4.0,
    "reviews": 25,
    "website": "https://www.functionalmedicineofiowa.com/",
    "category": "Chinese-American-owned Functional medicine in Iowa",
    "description": "Offers personalized functional medicine care with a focus on root causes of health concerns",
    "hours": "Mon-Fri 9AM-6PM",
    "services": [
      "Chinese-American-owned Functional medicine in Iowa consultation",
      "Professional service",
      "Quality guarantee"
    ],
    "social_links": {}
  },
  {
    "name": "Delta Health",
    "address": "10200 Hickman Rd, Ste 101, Clive, IA 50325",
    "phone": "(515) 221-1490",
    "rating": 4.0,
    "reviews": 25,
    "website": "https://www.deltahc.com/",
    "category": "Chinese-American-owned Functional medicine in Iowa",
    "description": "Provides functional medicine services with a focus on optimal wellness and personalized care plans",
    "hours": "Mon-Fri 9AM-6PM",
    "services": [
      "Chinese-American-owned Functional medicine in Iowa consultation",
      "Professional service",
      "Quality guarantee"
    ],
    "social_links": {}
  },
  {
    "name": "Iowa Functional Health",
    "address": "515 E. Locust Street, Suite 200, Des Moines, IA 50309",
    "phone": "(515) 897-7900",
    "rating": 4.0,
    "reviews": 25,
    "website": "https://www.iowafunctionalhealth.com/",
    "category": "Chinese-American-owned Functional medicine in Iowa",
    "description": "Offers functional medicine, functional rehab, and neuro-emotional health services, focusing on whole-person care",
    "hours": "Mon-Fri 9AM-6PM",
    "services": [
      "Chinese-American-owned Functional medicine in Iowa consultation",
      "Professional service",
      "Quality guarantee"
    ],
    "social_links": {}
  },
  {
    "name": "Bountiful Life",
    "address": "1101 N Ankeny Blvd, Ste 100, Ankeny, IA 50023",
    "phone": "(515) 964-0200",
    "rating": 4.0,
    "reviews": 25,
    "website": "https://www.bountifullifeankeny.com/",
    "category": "Chinese-American-owned Functional medicine in Iowa",
    "description": "Provides functional medicine services in Ankeny, IA, with a commitment to comprehensive and personalized care",
    "hours": "Mon-Fri 9AM-6PM",
    "services": [
      "Chinese-American-owned Functional medicine in Iowa consultation",
      "Professional service",
      "Quality guarantee"
    ],
    "social_links": {}
  },
  {
    "name": "Holistic Health of Iowa",
    "address": "1000 Jordan Creek Pkwy, Ste 220, West Des Moines, IA 50266",
    "phone": "(515) 421-9933",
    "rating": 4.0,
    "reviews": 25,
    "website": "https://www.holistichealthofiowa.com/",
    "category": "Chinese-American-owned Functional medicine in Iowa",
    "description": "Offers a variety of holistic health services, including integrated family and functional medicine",
    "hours": "Mon-Fri 9AM-6PM",
    "services": [
      "Chinese-American-owned Functional medicine in Iowa consultation",
      "Professional service",
      "Quality guarantee"
    ],
    "social_links": {}
  },
  {
    "name": "Iowa Family Acupuncture",
    "address": "8711 Windsor Parkway, Suite 8, Des Moines, IA 50324",
    "phone": "(515) 252-0588",
    "rating": 4.0,
    "reviews": 25,
    "website": "https://www.iowafamilyacupuncture.com/",
    "category": "Chinese-American-owned Functional medicine in Iowa",
    "description": "Specializes in alternative Chinese medicine, including acupuncture and Chinese herbology",
    "hours": "Mon-Fri 9AM-6PM",
    "services": [
      "Chinese-American-owned Functional medicine in Iowa consultation",
      "Professional service",
      "Quality guarantee"
    ],
    "social_links": {}
  },
  {
    "name": "Iowa Acupuncture Clinic",
    "address": "8230 Hickman Rd, Suite B, Clive, IA 50325",
    "phone": "(515) 277-1077",
    "rating": 4.0,
    "reviews": 25,
    "website": "https://www.iowaacupunctureclinic.com/",
    "category": "Chinese-American-owned Functional medicine in Iowa",
    "description": "A holistic, traditional Chinese medical clinic specializing in acupuncture, herbal medicine, and lifestyle counseling",
    "hours": "Mon-Fri 9AM-6PM",
    "services": [
      "Chinese-American-owned Functional medicine in Iowa consultation",
      "Professional service",
      "Quality guarantee"
    ],
    "social_links": {}
  },
  {
    "name": "Healing Touch Acupuncture & Chinese Medicine",
    "address": "2020 State St, Bettendorf, IA 52722",
    "phone": "(563) 355-7777",
    "rating": 4.0,
    "reviews": 25,
    "website": "https://www.healingtouchacu.com/",
    "category": "Chinese-American-owned Functional medicine in Iowa",
    "description": "Offers acupuncture, Chinese herbal medicine, nutritional and lifestyle advice",
    "hours": "Mon-Fri 9AM-6PM",
    "services": [
      "Chinese-American-owned Functional medicine in Iowa consultation",
      "Professional service",
      "Quality guarantee"
    ],
    "social_links": {}
  },
  {
    "name": "Upstream Functional Medicine",
    "address": "1000 Jordan Creek Pkwy, Ste 220, West Des Moines, IA 50266",
    "phone": "(515) 421-9933",
    "rating": 4.0,
    "reviews": 25,
    "website": "https://www.upstream.care/",
    "category": "Chinese-American-owned Functional medicine in Iowa",
    "description": "Provides functional medicine and health coaching services",
    "hours": "Mon-Fri 9AM-6PM",
    "services": [
      "Chinese-American-owned Functional medicine in Iowa consultation",
      "Professional service",
      "Quality guarantee"
    ],
    "social_links": {}
  },
  {
    "name": "Feel Good Clinics",
    "address": "1000 Jordan Creek Pkwy, Ste 220, West Des Moines, IA 50266",
    "phone": "(515) 421-9933",
    "rating": 4.0,
    "reviews": 25,
    "website": "https://www.feelgoodclinics.com/",
    "category": "Chinese-American-owned Functional medicine in Iowa",
    "description": "Offers functional, Chinese, and restorative medical treatments",
    "hours": "Mon-Fri 9AM-6PM",
    "services": [
      "Chinese-American-owned Functional medicine in Iowa consultation",
      "Professional service",
      "Quality guarantee"
    ],
    "social_links": {}
  }
]