[
  {
    "name": "BI\u00c2N: A Private Club",
    "address": "Chicago, IL (Specific address not publicly available, as it's a private club)",
    "phone": "",
    "rating": 4.0,
    "reviews": 25,
    "website": "https://www.bian.club/",
    "category": "Buddhist-owned Steam rooms in Illinois",
    "description": "A private wellness club offering fitness, mindfulness classes, a steam room, and cold plunge",
    "hours": "Mon-Fri 9AM-6PM",
    "services": [
      "Buddhist-owned Steam rooms in Illinois consultation",
      "Professional service",
      "Quality guarantee"
    ],
    "social_links": {}
  },
  {
    "name": "Kohler Waters Spa at Lincoln Park",
    "address": "205 E. Superior St., Chicago, IL 60611",
    "phone": "(312) 940-4000",
    "rating": 4.0,
    "reviews": 25,
    "website": "https://www.kohlerwatersspas.com/location/lincoln-park-chicago",
    "category": "Buddhist-owned Steam rooms in Illinois",
    "description": "A luxury spa in Chicago offering hydrotherapy, saunas, steam rooms, and a relaxation lounge",
    "hours": "Mon-Fri 9AM-6PM",
    "services": [
      "Buddhist-owned Steam rooms in Illinois consultation",
      "Professional service",
      "Quality guarantee"
    ],
    "social_links": {}
  },
  {
    "name": "Chicago Bath House",
    "address": "1914 W. Division Street, Chicago, IL 60622",
    "phone": "(773) 227-2284",
    "rating": 4.0,
    "reviews": 25,
    "website": "https://www.chicagobathhouse.com/",
    "category": "Buddhist-owned Steam rooms in Illinois",
    "description": "A traditional bathhouse in Chicago offering a sauna, steam room, restaurant, and tanning services",
    "hours": "Mon-Fri 9AM-6PM",
    "services": [
      "Buddhist-owned Steam rooms in Illinois consultation",
      "Professional service",
      "Quality guarantee"
    ],
    "social_links": {}
  },
  {
    "name": "The Energy Oasis",
    "address": "Elk Grove Village, IL (Specific address not provided in search results)",
    "phone": "",
    "rating": 4.0,
    "reviews": 25,
    "website": "https://www.theenergyoasis.com/",
    "category": "Buddhist-owned Steam rooms in Illinois",
    "description": "A wellness center offering a meditation studio and potentially steam room access (implied through mentions of \"banya-goer\" and \"sauna culture\")",
    "hours": "Mon-Fri 9AM-6PM",
    "services": [
      "Buddhist-owned Steam rooms in Illinois consultation",
      "Professional service",
      "Quality guarantee"
    ],
    "social_links": {}
  },
  {
    "name": "AIRE Ancient Baths Chicago",
    "address": "800 West Superior St., Chicago, IL 60642",
    "phone": "(312) 312-9610",
    "rating": 4.0,
    "reviews": 25,
    "website": "https://beaire.com/en/aire-ancient-baths-chicago/",
    "category": "Buddhist-owned Steam rooms in Illinois",
    "description": "Offers a journey through traditional Roman, Greek, and Ottoman bath experiences, including steam rooms",
    "hours": "Mon-Fri 9AM-6PM",
    "services": [
      "Buddhist-owned Steam rooms in Illinois consultation",
      "Professional service",
      "Quality guarantee"
    ],
    "social_links": {}
  },
  {
    "name": "Lume Wellness",
    "address": "Chicago, IL (Specific address not provided in search results, but located in River North)",
    "phone": "",
    "rating": 4.0,
    "reviews": 25,
    "website": "https://lumewellness.com/",
    "category": "Buddhist-owned Steam rooms in Illinois",
    "description": "A luxury wellness center offering infrared saunas, cryotherapy, and other wellness therapies",
    "hours": "Mon-Fri 9AM-6PM",
    "services": [
      "Buddhist-owned Steam rooms in Illinois consultation",
      "Professional service",
      "Quality guarantee"
    ],
    "social_links": {}
  },
  {
    "name": "Perspire Sauna Studio (Lakeview)",
    "address": "3320 N Broadway St, Chicago, IL 60657",
    "phone": "(872) 804-3412",
    "rating": 4.0,
    "reviews": 25,
    "website": "https://perspiresauna.com/locations/il/lakeview/",
    "category": "Buddhist-owned Steam rooms in Illinois",
    "description": "Offers full-spectrum infrared sauna sessions with options for red light therapy and contrast therapy (cold showers)",
    "hours": "Mon-Fri 9AM-6PM",
    "services": [
      "Buddhist-owned Steam rooms in Illinois consultation",
      "Professional service",
      "Quality guarantee"
    ],
    "social_links": {}
  },
  {
    "name": "The Vulcan Room",
    "address": "Chicago, IL (Specific address not provided in search results)",
    "phone": "",
    "rating": 4.0,
    "reviews": 25,
    "website": "https://www.thevulcanroom.com/",
    "category": "Buddhist-owned Steam rooms in Illinois",
    "description": "Offers infrared sauna, red light therapy, and cold plunge therapies",
    "hours": "Mon-Fri 9AM-6PM",
    "services": [
      "Buddhist-owned Steam rooms in Illinois consultation",
      "Professional service",
      "Quality guarantee"
    ],
    "social_links": {}
  },
  {
    "name": "The St. Regis Spa Chicago",
    "address": "401 N Wabash Ave, Chicago, IL 60611",
    "phone": "(312) 340-2370",
    "rating": 4.0,
    "reviews": 25,
    "website": "https://www.marriott.com/en-us/hotels/chirs-the-st-regis-chicago/spa/",
    "category": "Buddhist-owned Steam rooms in Illinois",
    "description": "Offers a luxury spa experience with access to dry saunas and a swimming pool",
    "hours": "Mon-Fri 9AM-6PM",
    "services": [
      "Buddhist-owned Steam rooms in Illinois consultation",
      "Professional service",
      "Quality guarantee"
    ],
    "social_links": {}
  },
  {
    "name": "Salt Tree Yoga",
    "address": "Ottawa, IL (Specific address not provided in search results)",
    "phone": "(815) 343-2751",
    "rating": 4.0,
    "reviews": 25,
    "website": "https://salttreeyoga.com/",
    "category": "Buddhist-owned Steam rooms in Illinois",
    "description": "Offers a Himalayan Salt Cave, dry hydrotherapy, and a full-spectrum infrared sauna",
    "hours": "Mon-Fri 9AM-6PM",
    "services": [
      "Buddhist-owned Steam rooms in Illinois consultation",
      "Professional service",
      "Quality guarantee"
    ],
    "social_links": {}
  }
]