[
  {
    "name": "Beckley Automotive Services",
    "address": "1111 2nd Ave, Des Moines, IA 50314",
    "phone": "(515) 288-0177",
    "rating": 4.7,
    "reviews": 25,
    "website": "https://www.beckleyauto.com/",
    "category": "Asian-owned Engine replacement in Iowa",
    "description": "Specializes in Asian and domestic car service and repair, including engine diagnostics and maintenance",
    "hours": "Mon-Fri 9AM-6PM",
    "services": [
      "Asian-owned Engine replacement in Iowa consultation",
      "Professional service",
      "Quality guarantee"
    ],
    "social_links": {}
  },
  {
    "name": "Stephens Automotive Sales",
    "address": "2000 SE 14th St, Des Moines, IA 50320",
    "phone": "(515) 285-4444",
    "rating": 4.6,
    "reviews": 25,
    "website": "https://stephensautomotive.com/",
    "category": "Asian-owned Engine replacement in Iowa",
    "description": "Provides repair and preventive maintenance services for Asian cars, including engine work and diagnostics",
    "hours": "Mon-Fri 9AM-6PM",
    "services": [
      "Asian-owned Engine replacement in Iowa consultation",
      "Professional service",
      "Quality guarantee"
    ],
    "social_links": {}
  },
  {
    "name": "Honest Wrenches",
    "address": "1701 SE 14th St, Des Moines, IA 50320",
    "phone": "(515) 287-9475",
    "rating": 4.8,
    "reviews": 25,
    "website": "https://www.honestwrenches.com/",
    "category": "Asian-owned Engine replacement in Iowa",
    "description": "Specializes in Asian auto repair, offering comprehensive engine service and repair, including engine replacement",
    "hours": "Mon-Fri 9AM-6PM",
    "services": [
      "Asian-owned Engine replacement in Iowa consultation",
      "Professional service",
      "Quality guarantee"
    ],
    "social_links": {}
  },
  {
    "name": "Dave & Pat Seydel Auto & Truck",
    "address": "917 Maiden Ln, Iowa City, IA 52240",
    "phone": "(319) 351-6805",
    "rating": 4.7,
    "reviews": 25,
    "website": "https://daveandpatseydel.com/",
    "category": "Asian-owned Engine replacement in Iowa",
    "description": "A full-service facility specializing in Asian vehicle repairs, including engine overhaul, replacement, and maintenance",
    "hours": "Mon-Fri 9AM-6PM",
    "services": [
      "Asian-owned Engine replacement in Iowa consultation",
      "Professional service",
      "Quality guarantee"
    ],
    "social_links": {}
  },
  {
    "name": "CHR Tire and Auto",
    "address": "5499 NE 14th St, Des Moines, IA 50313",
    "phone": "(515) 265-4247",
    "rating": 4.5,
    "reviews": 25,
    "website": "https://chrtireandauto.com/",
    "category": "Asian-owned Engine replacement in Iowa",
    "description": "Offers a full range of auto repair and preventative maintenance services, specializing in Asian vehicles",
    "hours": "Mon-Fri 9AM-6PM",
    "services": [
      "Asian-owned Engine replacement in Iowa consultation",
      "Professional service",
      "Quality guarantee"
    ],
    "social_links": {}
  },
  {
    "name": "Fast T's Automotive",
    "address": "Mobile service in Waukee, IA and surrounding areas",
    "phone": "(515) 240-4444",
    "rating": 4.9,
    "reviews": 25,
    "website": "https://fasttsauto.com/",
    "category": "Asian-owned Engine replacement in Iowa",
    "description": "Provides mobile automotive engine diagnostic and repair services, including engine repair and installation",
    "hours": "Mon-Fri 9AM-6PM",
    "services": [
      "Asian-owned Engine replacement in Iowa consultation",
      "Professional service",
      "Quality guarantee"
    ],
    "social_links": {}
  },
  {
    "name": "Whitedog Auto",
    "address": "1107 S Gilbert St, Iowa City, IA 52240",
    "phone": "(319) 338-1000",
    "rating": 4.7,
    "reviews": 25,
    "website": "https://www.whitedogauto.com/",
    "category": "Asian-owned Engine replacement in Iowa",
    "description": "Iowa City's premier import auto repair shop, specializing in Asian makes and models",
    "hours": "Mon-Fri 9AM-6PM",
    "services": [
      "Asian-owned Engine replacement in Iowa consultation",
      "Professional service",
      "Quality guarantee"
    ],
    "social_links": {}
  },
  {
    "name": "Quality Car Care",
    "address": "900 Hwy 965 NE Suite 11, North Liberty, IA 52317",
    "phone": "(319) 626-2500",
    "rating": 4.6,
    "reviews": 25,
    "website": "https://qualitycarcareia.com/",
    "category": "Asian-owned Engine replacement in Iowa",
    "description": "Leading shop for engine repair and replacement services in North Liberty, IA",
    "hours": "Mon-Fri 9AM-6PM",
    "services": [
      "Asian-owned Engine replacement in Iowa consultation",
      "Professional service",
      "Quality guarantee"
    ],
    "social_links": {}
  },
  {
    "name": "Premier Automotive Service Center",
    "address": "4000 NW 126th St, Urbandale, IA 50322",
    "phone": "(515) 278-0244",
    "rating": 4.7,
    "reviews": 25,
    "website": "https://premierautomotiveia.com/",
    "category": "Asian-owned Engine replacement in Iowa",
    "description": "Offers unmatched engine replacement, repair, and rebuild services in Des Moines and the Greater Urbandale area",
    "hours": "Mon-Fri 9AM-6PM",
    "services": [
      "Asian-owned Engine replacement in Iowa consultation",
      "Professional service",
      "Quality guarantee"
    ],
    "social_links": {}
  },
  {
    "name": "Georgen Auto",
    "address": "201 W 4th St, Manchester, IA 52057 and 1001 2nd Ave, Marion, IA 52302",
    "phone": "(563) 927-8324 (Manchester) / (319) 377-3477 (Marion)",
    "rating": 4.8,
    "reviews": 25,
    "website": "https://georgenauto.com/",
    "category": "Asian-owned Engine replacement in Iowa",
    "description": "Provides trusted engine repair services in Manchester and Marion, IA, for all makes and models",
    "hours": "Mon-Fri 9AM-6PM",
    "services": [
      "Asian-owned Engine replacement in Iowa consultation",
      "Professional service",
      "Quality guarantee"
    ],
    "social_links": {}
  }
]