[
  {
    "name": "Texas Dreams Gymnastics",
    "address": "1450 S. Cottonwood Drive, Coppell, TX 75019",
    "phone": "(972) 304-0440",
    "rating": 4.8,
    "reviews": 25,
    "website": "https://www.texasdreams.com/",
    "category": "Agnostic-owned Gymnastics coaching in Texas",
    "description": "Offers gymnastics classes for all ages, from preschool to competitive teams, with a focus on fun and skill development",
    "hours": "Mon-Fri 9AM-6PM",
    "services": [
      "Agnostic-owned Gymnastics coaching in Texas consultation",
      "Professional service",
      "Quality guarantee"
    ],
    "social_links": {}
  },
  {
    "name": "Eagle Gymnastics Academy",
    "address": "1540 S. Stemmons Freeway, Suite 100, Lewisville, TX 75067",
    "phone": "(972) 317-4497",
    "rating": 4.7,
    "reviews": 25,
    "website": "https://www.eaglegymnastics.com/",
    "category": "Agnostic-owned Gymnastics coaching in Texas",
    "description": "Provides high-quality gymnastics instruction with a focus on positive coaching methods and athlete development",
    "hours": "Mon-Fri 9AM-6PM",
    "services": [
      "Agnostic-owned Gymnastics coaching in Texas consultation",
      "Professional service",
      "Quality guarantee"
    ],
    "social_links": {}
  },
  {
    "name": "Bright Star Gymnastics",
    "address": "5080 Virginia Parkway, McKinney, TX 75071",
    "phone": "(972) 369-7885",
    "rating": 4.9,
    "reviews": 25,
    "website": "https://www.brightstargymnastics.com/",
    "category": "Agnostic-owned Gymnastics coaching in Texas",
    "description": "Offers a safe and inclusive environment for children of all ages to develop skills through structured training programs and qualified coaches",
    "hours": "Mon-Fri 9AM-6PM",
    "services": [
      "Agnostic-owned Gymnastics coaching in Texas consultation",
      "Professional service",
      "Quality guarantee"
    ],
    "social_links": {}
  },
  {
    "name": "Texas Academy of Acrobatics & Gymnastics",
    "address": "1001 W. Sterling Avenue, Baytown, TX 77520",
    "phone": "(281) 420-2444",
    "rating": 4.6,
    "reviews": 25,
    "website": "https://www.texasacademyofgymnastics.com/",
    "category": "Agnostic-owned Gymnastics coaching in Texas",
    "description": "Trains athletes in acrobatic gymnastics, artistic gymnastics, and tumbling, with classes for toddlers and preschoolers",
    "hours": "Mon-Fri 9AM-6PM",
    "services": [
      "Agnostic-owned Gymnastics coaching in Texas consultation",
      "Professional service",
      "Quality guarantee"
    ],
    "social_links": {}
  },
  {
    "name": "Texas Best Gymnastics",
    "address": "1000 S. I-35E, Suite 300, Carrollton, TX 75006",
    "phone": "(972) 446-0000",
    "rating": 4.7,
    "reviews": 25,
    "website": "https://www.texasbestgymnastics.com/",
    "category": "Agnostic-owned Gymnastics coaching in Texas",
    "description": "Provides high-quality instruction for both recreational and competitive gymnasts, aiming to help every child be their best",
    "hours": "Mon-Fri 9AM-6PM",
    "services": [
      "Agnostic-owned Gymnastics coaching in Texas consultation",
      "Professional service",
      "Quality guarantee"
    ],
    "social_links": {}
  },
  {
    "name": "Texas Twisters Gymnastics",
    "address": "901 S. I-35 Frontage Rd, Suite 103, Georgetown, TX 78626",
    "phone": "(512) 884-2702",
    "rating": 4.8,
    "reviews": 25,
    "website": "https://www.texastwistersgym.com/",
    "category": "Agnostic-owned Gymnastics coaching in Texas",
    "description": "Dedicated to providing a safe, fun, and challenging environment for athletes of all ages to grow in gymnastics",
    "hours": "Mon-Fri 9AM-6PM",
    "services": [
      "Agnostic-owned Gymnastics coaching in Texas consultation",
      "Professional service",
      "Quality guarantee"
    ],
    "social_links": {}
  },
  {
    "name": "Heart of Texas Gymnastics",
    "address": "1010 West Adams Avenue, Temple, TX 76501",
    "phone": "(254) 773-4469",
    "rating": 4.7,
    "reviews": 25,
    "website": "https://www.heartoftexasgymnastics.com/",
    "category": "Agnostic-owned Gymnastics coaching in Texas",
    "description": "Offers specialized programs in preschool, recreational, men's and women's team gymnastics, and special needs gymnastics",
    "hours": "Mon-Fri 9AM-6PM",
    "services": [
      "Agnostic-owned Gymnastics coaching in Texas consultation",
      "Professional service",
      "Quality guarantee"
    ],
    "social_links": {}
  },
  {
    "name": "Texas Star Gymnastics",
    "address": "1000 E. State Highway 121, Lewisville, TX 75057",
    "phone": "(972) 317-5454",
    "rating": 4.7,
    "reviews": 25,
    "website": "https://www.texasstargymnastics.com/",
    "category": "Agnostic-owned Gymnastics coaching in Texas",
    "description": "Founded in 1996, this facility offers coaching for competitive levels, Xcel, and boys' gymnastics, with experienced and certified staff",
    "hours": "Mon-Fri 9AM-6PM",
    "services": [
      "Agnostic-owned Gymnastics coaching in Texas consultation",
      "Professional service",
      "Quality guarantee"
    ],
    "social_links": {}
  },
  {
    "name": "Best Gymnastics",
    "address": "2500 Flower Mound Rd, Flower Mound, TX 75028",
    "phone": "(972) 899-9980",
    "rating": 4.8,
    "reviews": 25,
    "website": "https://www.bestgymnasticsdfw.com/",
    "category": "Agnostic-owned Gymnastics coaching in Texas",
    "description": "Provides top-tier gymnastics training with a staff that has over 100 years of combined experience, serving multiple communities in the DFW area",
    "hours": "Mon-Fri 9AM-6PM",
    "services": [
      "Agnostic-owned Gymnastics coaching in Texas consultation",
      "Professional service",
      "Quality guarantee"
    ],
    "social_links": {}
  },
  {
    "name": "AIM Athletics",
    "address": "10003 W. Little York Road, Houston, TX 77041",
    "phone": "(713) 462-3600",
    "rating": 4.7,
    "reviews": 25,
    "website": "https://www.aimathletics.com/",
    "category": "Agnostic-owned Gymnastics coaching in Texas",
    "description": "Co-owned by accomplished gymnasts Deana Parish and Debbie Kaitschuck, this facility offers opportunities for physical and psychological benefits through gymnastics",
    "hours": "Mon-Fri 9AM-6PM",
    "services": [
      "Agnostic-owned Gymnastics coaching in Texas consultation",
      "Professional service",
      "Quality guarantee"
    ],
    "social_links": {}
  }
]