[
  {
    "name": "YMCA of Lincoln",
    "address": "Multiple locations in Lincoln, NE",
    "phone": "(402) 434-9200",
    "rating": 4.0,
    "reviews": 25,
    "website": "https://www.ymcalincoln.org/",
    "category": "Arabic-speaking Senior fitness in Nebraska",
    "description": "Offers a variety of group exercise classes for active older adults, including Fit for Life, chair yoga, and SilverSneakers programs",
    "hours": "Mon-Fri 9AM-6PM",
    "services": [
      "Arabic-speaking Senior fitness in Nebraska consultation",
      "Professional service",
      "Quality guarantee"
    ],
    "social_links": {}
  },
  {
    "name": "YMCA of Greater Omaha",
    "address": "Multiple locations in Omaha, NE",
    "phone": "(402) 341-9622",
    "rating": 4.0,
    "reviews": 25,
    "website": "https://www.omahaYMCA.org/",
    "category": "Arabic-speaking Senior fitness in Nebraska",
    "description": "Provides a wide range of exercise classes for seniors, such as low-impact exercise, chair classes, stretching, strength training, indoor cycling, water aerobics, and yoga. They also have a dedicated YMCA Healthy Living Center in Council Bluffs, Iowa",
    "hours": "Mon-Fri 9AM-6PM",
    "services": [
      "Arabic-speaking Senior fitness in Nebraska consultation",
      "Professional service",
      "Quality guarantee"
    ],
    "social_links": {}
  },
  {
    "name": "Peterson Senior Activity Center (Kearney)",
    "address": "2020 West 11th Street, Kearney, NE 68845",
    "phone": "(308) 233-3290",
    "rating": 4.0,
    "reviews": 25,
    "website": "https://www.kearneygov.org/departments/peterson-senior-activity-center/",
    "category": "Arabic-speaking Senior fitness in Nebraska",
    "description": "Offers various fitness classes like FROG (Fitness Reaching Older Generations), strength improvement, and yoga for individuals aged 50 and older",
    "hours": "Mon-Fri 9AM-6PM",
    "services": [
      "Arabic-speaking Senior fitness in Nebraska consultation",
      "Professional service",
      "Quality guarantee"
    ],
    "social_links": {}
  },
  {
    "name": "Grand Island YMCA",
    "address": "221 E. South Front St, Grand Island, NE 68801",
    "phone": "(308) 382-9740",
    "rating": 4.0,
    "reviews": 25,
    "website": "https://www.grandislandymca.org/",
    "category": "Arabic-speaking Senior fitness in Nebraska",
    "description": "Features senior-focused classes to improve mobility and maintain quality of life, including arthritis aquatic classes and Rock Steady Boxing for Parkinson's",
    "hours": "Mon-Fri 9AM-6PM",
    "services": [
      "Arabic-speaking Senior fitness in Nebraska consultation",
      "Professional service",
      "Quality guarantee"
    ],
    "social_links": {}
  },
  {
    "name": "Hastings YMCA",
    "address": "1430 W 16th St, Hastings, NE 68901",
    "phone": "(402) 463-3139",
    "rating": 4.0,
    "reviews": 25,
    "website": "https://hastingsymca.net/",
    "category": "Arabic-speaking Senior fitness in Nebraska",
    "description": "Offers FOREVERWELL programs designed for older adults, including group exercise classes, Tai Chi, and water exercise programs like AFYAP",
    "hours": "Mon-Fri 9AM-6PM",
    "services": [
      "Arabic-speaking Senior fitness in Nebraska consultation",
      "Professional service",
      "Quality guarantee"
    ],
    "social_links": {}
  },
  {
    "name": "Fremont Family YMCA",
    "address": "810 N. Lincoln Ave, Fremont, NE 68025",
    "phone": "(402) 721-6952",
    "rating": 4.0,
    "reviews": 25,
    "website": "https://fremontymca.org/",
    "category": "Arabic-speaking Senior fitness in Nebraska",
    "description": "Provides FOREVERWELL Group Fitness Classes for members 65+, including Forever Fit and Movement Improvement classes. They also offer SilverSneakers Classic",
    "hours": "Mon-Fri 9AM-6PM",
    "services": [
      "Arabic-speaking Senior fitness in Nebraska consultation",
      "Professional service",
      "Quality guarantee"
    ],
    "social_links": {}
  },
  {
    "name": "Norfolk Family YMCA",
    "address": "301 West Benjamin Ave, Norfolk, NE 68701",
    "phone": "(402) 371-9770",
    "rating": 4.0,
    "reviews": 25,
    "website": "https://norfolkymca.org/",
    "category": "Arabic-speaking Senior fitness in Nebraska",
    "description": "Offers a wide array of group exercise classes for active older adults, including SilverSneakers, yoga, and Foundations of Movement",
    "hours": "Mon-Fri 9AM-6PM",
    "services": [
      "Arabic-speaking Senior fitness in Nebraska consultation",
      "Professional service",
      "Quality guarantee"
    ],
    "social_links": {}
  },
  {
    "name": "ArchWell Health (Omaha)",
    "address": "5401 N 90th St, Omaha, NE 68134",
    "phone": "(402) 939-0000",
    "rating": 4.0,
    "reviews": 25,
    "website": "https://www.archwellhealth.com/locations/omaha-ne/north-90th-street",
    "category": "Arabic-speaking Senior fitness in Nebraska",
    "description": "Hosts free senior-focused exercise classes, including Chair Yoga, suitable for all fitness levels and helpful for balance and strength. They may assist with transportation",
    "hours": "Mon-Fri 9AM-6PM",
    "services": [
      "Arabic-speaking Senior fitness in Nebraska consultation",
      "Professional service",
      "Quality guarantee"
    ],
    "social_links": {}
  },
  {
    "name": "Aging Partners Senior Centers (Lincoln)",
    "address": "Multiple locations in Lincoln, NE (e.g., Victory Park: 600 S. 70th St.)",
    "phone": "(402) 441-7070",
    "rating": 4.0,
    "reviews": 25,
    "website": "https://www.lincoln.ne.gov/City/Agencies/Health/Aging/",
    "category": "Arabic-speaking Senior fitness in Nebraska",
    "description": "Offers health and fitness classes, recreational activities, and a fitness center at locations like Victory Park",
    "hours": "Mon-Fri 9AM-6PM",
    "services": [
      "Arabic-speaking Senior fitness in Nebraska consultation",
      "Professional service",
      "Quality guarantee"
    ],
    "social_links": {}
  },
  {
    "name": "Bellevue Senior Community Center",
    "address": "213 W. Mission Ave, Bellevue, NE 68005",
    "phone": "(402) 293-3041",
    "rating": 4.0,
    "reviews": 25,
    "website": "https://www.bellevue.net/departments/parks-recreation/senior-center/",
    "category": "Arabic-speaking Senior fitness in Nebraska",
    "description": "Provides a friendly place for seniors to socialize, exercise, and connect with community resources. They offer a noon meal and various activities",
    "hours": "Mon-Fri 9AM-6PM",
    "services": [
      "Arabic-speaking Senior fitness in Nebraska consultation",
      "Professional service",
      "Quality guarantee"
    ],
    "social_links": {}
  }
]