[
  {
    "name": "American Roofing Company",
    "address": "Multiple locations, including Salt Lake City, UT",
    "phone": "(801) 326-0000 (general inquiries)",
    "rating": 4.7,
    "reviews": 25,
    "website": "https://www.americanroofing.com/",
    "category": "Buddhist-owned Roofing repair in Utah",
    "description": "A long-standing roofing company in Utah, offering residential and commercial repair, replacement, and installation services",
    "hours": "Mon-Fri 9AM-6PM",
    "services": [
      "Buddhist-owned Roofing repair in Utah consultation",
      "Professional service",
      "Quality guarantee"
    ],
    "social_links": {}
  },
  {
    "name": "Bartlett Roofing",
    "address": "Salt Lake City, UT",
    "phone": "(801) 441-5000",
    "rating": 4.8,
    "reviews": 25,
    "website": "https://www.bartlettroofing.com/",
    "category": "Buddhist-owned Roofing repair in Utah",
    "description": "Known for high-quality workmanship and honest assessments, Bartlett Roofing serves the Salt Lake City area with a customer-first approach",
    "hours": "Mon-Fri 9AM-6PM",
    "services": [
      "Buddhist-owned Roofing repair in Utah consultation",
      "Professional service",
      "Quality guarantee"
    ],
    "social_links": {}
  },
  {
    "name": "Whitaker Roofing",
    "address": "Millcreek, UT",
    "phone": "(801) 505-5000",
    "rating": 4.7,
    "reviews": 25,
    "website": "https://www.whitakerroofing.com/",
    "category": "Buddhist-owned Roofing repair in Utah",
    "description": "A family-owned business with decades of experience in residential roofing, focusing on craftsmanship and customer care",
    "hours": "Mon-Fri 9AM-6PM",
    "services": [
      "Buddhist-owned Roofing repair in Utah consultation",
      "Professional service",
      "Quality guarantee"
    ],
    "social_links": {}
  },
  {
    "name": "Master Roofing",
    "address": "Salt Lake City, UT",
    "phone": "(801) 601-4000",
    "rating": 4.8,
    "reviews": 25,
    "website": "https://www.masterroofingutah.com/",
    "category": "Buddhist-owned Roofing repair in Utah",
    "description": "BBB accredited with an A+ rating, Master Roofing offers comprehensive services including repairs, replacements, and skylight installations",
    "hours": "Mon-Fri 9AM-6PM",
    "services": [
      "Buddhist-owned Roofing repair in Utah consultation",
      "Professional service",
      "Quality guarantee"
    ],
    "social_links": {}
  },
  {
    "name": "The Roof Doctor LLC",
    "address": "West Valley City, UT",
    "phone": "(801) 512-3614",
    "rating": 4.8,
    "reviews": 25,
    "website": "https://www.theroofdoctorutah.com/",
    "category": "Buddhist-owned Roofing repair in Utah",
    "description": "Specializes in storm damage repair, roof inspections, and replacements for both residential and commercial properties",
    "hours": "Mon-Fri 9AM-6PM",
    "services": [
      "Buddhist-owned Roofing repair in Utah consultation",
      "Professional service",
      "Quality guarantee"
    ],
    "social_links": {}
  },
  {
    "name": "Shingle Pro Roofing",
    "address": "Salt Lake City, UT",
    "phone": "(801) 701-1000",
    "rating": 4.7,
    "reviews": 25,
    "website": "https://www.shinglepro.com/",
    "category": "Buddhist-owned Roofing repair in Utah",
    "description": "A SELECT ShingleMaster-certified company focusing on high-quality shingle installations and repairs",
    "hours": "Mon-Fri 9AM-6PM",
    "services": [
      "Buddhist-owned Roofing repair in Utah consultation",
      "Professional service",
      "Quality guarantee"
    ],
    "social_links": {}
  },
  {
    "name": "Far West Roofing, Inc.",
    "address": "Salt Lake City, UT",
    "phone": "(801) 972-3000",
    "rating": 4.6,
    "reviews": 25,
    "website": "https://www.farwestroofing.com/",
    "category": "Buddhist-owned Roofing repair in Utah",
    "description": "Provides professional roofing services including installations, re-roofing, leak detection, and maintenance with a focus on durable and weather-resistant results",
    "hours": "Mon-Fri 9AM-6PM",
    "services": [
      "Buddhist-owned Roofing repair in Utah consultation",
      "Professional service",
      "Quality guarantee"
    ],
    "social_links": {}
  },
  {
    "name": "Patriot Roofing & Construction",
    "address": "Salt Lake City, UT",
    "phone": "(801) 400-0000",
    "rating": 4.7,
    "reviews": 25,
    "website": "https://www.patriotroofingutah.com/",
    "category": "Buddhist-owned Roofing repair in Utah",
    "description": "Offers dependable roofing solutions, installation, maintenance, and storm damage repair with an emphasis on honest pricing and thorough inspections",
    "hours": "Mon-Fri 9AM-6PM",
    "services": [
      "Buddhist-owned Roofing repair in Utah consultation",
      "Professional service",
      "Quality guarantee"
    ],
    "social_links": {}
  },
  {
    "name": "FBC Roofing Utah",
    "address": "Salt Lake City, UT",
    "phone": "(801) 810-8322",
    "rating": 4.9,
    "reviews": 25,
    "website": "https://www.fbcroofing.com/",
    "category": "Buddhist-owned Roofing repair in Utah",
    "description": "A GAF factory-certified contractor offering roof replacement, repairs, gutter, and siding services, with a commitment to community support",
    "hours": "Mon-Fri 9AM-6PM",
    "services": [
      "Buddhist-owned Roofing repair in Utah consultation",
      "Professional service",
      "Quality guarantee"
    ],
    "social_links": {}
  },
  {
    "name": "EagleRidge Roofing & Construction",
    "address": "Salt Lake City, UT",
    "phone": "(801) 255-5000",
    "rating": 4.8,
    "reviews": 25,
    "website": "https://www.eagleridgeroofing.com/",
    "category": "Buddhist-owned Roofing repair in Utah",
    "description": "A family-owned business with over 25 years of experience in residential and commercial roofing, as well as remodeling services",
    "hours": "Mon-Fri 9AM-6PM",
    "services": [
      "Buddhist-owned Roofing repair in Utah consultation",
      "Professional service",
      "Quality guarantee"
    ],
    "social_links": {}
  }
]