[
  {
    "name": "Genuine Automotive & Diesel",
    "address": "16501 Bratton Lane, Bldg 2, Suite A, Austin, TX 78728",
    "phone": "(512) 866-0212",
    "rating": 4.8,
    "reviews": 25,
    "website": "https://www.genuineautomotive.net/",
    "category": "Chinese-speaking Diesel repair in Texas",
    "description": "Offers comprehensive auto repair, care, and diagnostics, including specialized services for diesel engines. They work with all makes and models, including fleet vehicles and luxury cars",
    "hours": "Mon-Fri 9AM-6PM",
    "services": [
      "Chinese-speaking Diesel repair in Texas consultation",
      "Professional service",
      "Quality guarantee"
    ],
    "social_links": {}
  },
  {
    "name": "STP Diesel",
    "address": "7007 Long Point Rd, Houston, TX 77055",
    "phone": "(713) 429-1040",
    "rating": 4.9,
    "reviews": 25,
    "website": "https://www.stpdiesel.com/",
    "category": "Chinese-speaking Diesel repair in Texas",
    "description": "Specializes in diesel engine and transmission repair, serving Houston and surrounding areas. They are experts in Ford Powerstroke, Ram Cummins, and GM Duramax engines",
    "hours": "Mon-Fri 9AM-6PM",
    "services": [
      "Chinese-speaking Diesel repair in Texas consultation",
      "Professional service",
      "Quality guarantee"
    ],
    "social_links": {}
  },
  {
    "name": "Rick & Ray's Auto Plaza",
    "address": "3500 W 7th St, Fort Worth, TX 76107",
    "phone": "(817) 482-3150",
    "rating": 5.0,
    "reviews": 25,
    "website": "https://www.rickandraysautoplaza.com/",
    "category": "Chinese-speaking Diesel repair in Texas",
    "description": "A diesel repair shop serving Fort Worth and surrounding areas since 1993, specializing in Power Stroke, Duramax, and Cummins repairs",
    "hours": "Mon-Fri 9AM-6PM",
    "services": [
      "Chinese-speaking Diesel repair in Texas consultation",
      "Professional service",
      "Quality guarantee"
    ],
    "social_links": {}
  },
  {
    "name": "Montes Diesel Repair Fort Worth",
    "address": "6300 W Vickery Blvd, Fort Worth, TX 76107",
    "phone": "(682) 347-9708",
    "rating": 4.7,
    "reviews": 25,
    "website": "https://montesdieselrepair.com/",
    "category": "Chinese-speaking Diesel repair in Texas",
    "description": "Offers full-service diesel repair in Fort Worth with over a decade of experience and ASE-certified mechanics, specializing in fleet repair and upkeep",
    "hours": "Mon-Fri 9AM-6PM",
    "services": [
      "Chinese-speaking Diesel repair in Texas consultation",
      "Professional service",
      "Quality guarantee"
    ],
    "social_links": {}
  },
  {
    "name": "TAT Express Inc.",
    "address": "10455 Shady Trail, Dallas, TX 75220",
    "phone": "(214) 350-7777",
    "rating": 4.8,
    "reviews": 25,
    "website": "https://tatexpressinc.com/",
    "category": "Chinese-speaking Diesel repair in Texas",
    "description": "A family-owned diesel repair shop in Dallas specializing in factory scheduled maintenance and oil changes, focusing on timely and affordable service",
    "hours": "Mon-Fri 9AM-6PM",
    "services": [
      "Chinese-speaking Diesel repair in Texas consultation",
      "Professional service",
      "Quality guarantee"
    ],
    "social_links": {}
  },
  {
    "name": "Spartan Diesel Shop",
    "address": "232 Yorktown St, Dallas, TX 75208",
    "phone": "(214) 489-3753",
    "rating": 4.9,
    "reviews": 25,
    "website": "https://www.spartandieselshop.com/",
    "category": "Chinese-speaking Diesel repair in Texas",
    "description": "Offers local mechanic work for diesel trucks and full-service fleet vehicles in Dallas, Texas",
    "hours": "Mon-Fri 9AM-6PM",
    "services": [
      "Chinese-speaking Diesel repair in Texas consultation",
      "Professional service",
      "Quality guarantee"
    ],
    "social_links": {}
  },
  {
    "name": "Texas Diesel Injection",
    "address": "7410 S Zaragosa Rd, San Antonio, TX 78242",
    "phone": "(210) 646-8299",
    "rating": 4.7,
    "reviews": 25,
    "website": "https://www.texasdieselinjection.com/",
    "category": "Chinese-speaking Diesel repair in Texas",
    "description": "Premier diesel engine service provider in San Antonio, Texas, with 39 years of experience in repair and maintenance for all types of diesel vehicles, including medium-duty trucks",
    "hours": "Mon-Fri 9AM-6PM",
    "services": [
      "Chinese-speaking Diesel repair in Texas consultation",
      "Professional service",
      "Quality guarantee"
    ],
    "social_links": {}
  },
  {
    "name": "D&S Garage & Diesel Service",
    "address": "639 Rhapsody Drive, San Antonio, TX 78216",
    "phone": "(210) 340-8054",
    "rating": 4.8,
    "reviews": 25,
    "website": "https://www.dsgaragedieselservice.com/",
    "category": "Chinese-speaking Diesel repair in Texas",
    "description": "Providing quality auto repairs for diesel and gas vehicles since 1978, specializing in all types of diesel engines including Powerstroke, Cummins, and Duramax",
    "hours": "Mon-Fri 9AM-6PM",
    "services": [
      "Chinese-speaking Diesel repair in Texas consultation",
      "Professional service",
      "Quality guarantee"
    ],
    "social_links": {}
  },
  {
    "name": "Excalibur Auto Repair",
    "address": "1000 E 40th St, Austin, TX 78751",
    "phone": "(512) 452-4455",
    "rating": 4.7,
    "reviews": 25,
    "website": "https://www.excaliburautorepair.com/",
    "category": "Chinese-speaking Diesel repair in Texas",
    "description": "Offers a full range of diesel engine diagnosis, maintenance, and repairs for diesel cars, light-duty, and medium-duty trucks",
    "hours": "Mon-Fri 9AM-6PM",
    "services": [
      "Chinese-speaking Diesel repair in Texas consultation",
      "Professional service",
      "Quality guarantee"
    ],
    "social_links": {}
  },
  {
    "name": "Lone Star Tire & Diesel Service",
    "address": "11115 Harry Hines Blvd, Dallas, TX 75229",
    "phone": "(214) 351-7200",
    "rating": 4.7,
    "reviews": 25,
    "website": "https://lonestardiesel.com/",
    "category": "Chinese-speaking Diesel repair in Texas",
    "description": "Provides professional diesel mechanics and top-rated light to heavy-duty diesel truck and fleet repairs in Dallas, Texas, including mobile repair services",
    "hours": "Mon-Fri 9AM-6PM",
    "services": [
      "Chinese-speaking Diesel repair in Texas consultation",
      "Professional service",
      "Quality guarantee"
    ],
    "social_links": {}
  }
]