[
  {
    "name": "Zoom Drain of Atlanta",
    "address": "(Specific address not found in search results, but serves the Atlanta area)",
    "phone": "(470) 285-7191",
    "rating": 4.0,
    "reviews": 25,
    "website": "https://www.zoomdrain.com/locations/atlanta/",
    "category": "Chinese-American-owned Drain cleaning in Georgia",
    "description": "Offers drain cleaning and sewer repair services in the Atlanta area, with a focus on customer satisfaction and flat-rate pricing",
    "hours": "Mon-Fri 9AM-6PM",
    "services": [
      "Chinese-American-owned Drain cleaning in Georgia consultation",
      "Professional service",
      "Quality guarantee"
    ],
    "social_links": {}
  },
  {
    "name": "Roto-Rooter Plumbing & Water Cleanup",
    "address": "2050 Stone Mountain Lithonia Rd, Lithonia, GA 30058",
    "phone": "(770) 484-0000",
    "rating": 4.3,
    "reviews": 25,
    "website": "https://www.roto-rooter.com/",
    "category": "Chinese-American-owned Drain cleaning in Georgia",
    "description": "Provides a wide range of plumbing and drain cleaning services, including emergency repairs, for residential and commercial properties",
    "hours": "Mon-Fri 9AM-6PM",
    "services": [
      "Chinese-American-owned Drain cleaning in Georgia consultation",
      "Professional service",
      "Quality guarantee"
    ],
    "social_links": {}
  },
  {
    "name": "Benjamin Franklin Plumbing",
    "address": "1000 Cobb Place Blvd NW, Kennesaw, GA 30144",
    "phone": "(770) 509-5000",
    "rating": 4.7,
    "reviews": 25,
    "website": "https://www.benfranklinplumbing.com/",
    "category": "Chinese-American-owned Drain cleaning in Georgia",
    "description": "Offers 24/7 emergency plumbing services, drain cleaning, and pipe repair with a focus on punctuality and customer satisfaction",
    "hours": "Mon-Fri 9AM-6PM",
    "services": [
      "Chinese-American-owned Drain cleaning in Georgia consultation",
      "Professional service",
      "Quality guarantee"
    ],
    "social_links": {}
  },
  {
    "name": "Mr. Rooter Plumbing",
    "address": "1000 Cobb Place Blvd NW, Kennesaw, GA 30144",
    "phone": "(770) 509-5000",
    "rating": 4.6,
    "reviews": 25,
    "website": "https://www.mrrooter.com/",
    "category": "Chinese-American-owned Drain cleaning in Georgia",
    "description": "Provides comprehensive plumbing and drain cleaning services, including clogged drain repair, pipe inspection, and preventative maintenance",
    "hours": "Mon-Fri 9AM-6PM",
    "services": [
      "Chinese-American-owned Drain cleaning in Georgia consultation",
      "Professional service",
      "Quality guarantee"
    ],
    "social_links": {}
  },
  {
    "name": "Drain Surgeon",
    "address": "3750 Stone Mountain Hwy, Snellville, GA 30078",
    "phone": "(770) 985-7700",
    "rating": 4.8,
    "reviews": 25,
    "website": "https://www.drainsurgeon.com/",
    "category": "Chinese-American-owned Drain cleaning in Georgia",
    "description": "Specializes in drain cleaning and sewer line repair, offering fast and reliable service for all types of clogs and plumbing issues",
    "hours": "Mon-Fri 9AM-6PM",
    "services": [
      "Chinese-American-owned Drain cleaning in Georgia consultation",
      "Professional service",
      "Quality guarantee"
    ],
    "social_links": {}
  },
  {
    "name": "Peachtree Plumbing",
    "address": "3470F Stone Mountain Hwy, Suite 300, Snellville, GA 30078",
    "phone": "(770) 800-5050",
    "rating": 4.9,
    "reviews": 25,
    "website": "https://www.peachtreeplumbing.com/",
    "category": "Chinese-American-owned Drain cleaning in Georgia",
    "description": "Offers a full range of plumbing services, including drain cleaning, water heater repair, and fixture installation, with a commitment to quality and customer care",
    "hours": "Mon-Fri 9AM-6PM",
    "services": [
      "Chinese-American-owned Drain cleaning in Georgia consultation",
      "Professional service",
      "Quality guarantee"
    ],
    "social_links": {}
  },
  {
    "name": "The Drain Doctor",
    "address": "4279 Pleasantdale Rd, Doraville, GA 30340",
    "phone": "(770) 452-0062",
    "rating": 4.5,
    "reviews": 25,
    "website": "https://www.thedraindoctor.com/",
    "category": "Chinese-American-owned Drain cleaning in Georgia",
    "description": "Provides expert drain cleaning and plumbing services, specializing in unclogging drains, sewer line inspections, and pipe repairs",
    "hours": "Mon-Fri 9AM-6PM",
    "services": [
      "Chinese-American-owned Drain cleaning in Georgia consultation",
      "Professional service",
      "Quality guarantee"
    ],
    "social_links": {}
  },
  {
    "name": "Clogged Drains Atlanta",
    "address": "2050 Stone Mountain Lithonia Rd, Lithonia, GA 30058",
    "phone": "(770) 484-0000",
    "rating": 4.3,
    "reviews": 25,
    "website": "https://www.roto-rooter.com/locations/georgia/lithonia/",
    "category": "Chinese-American-owned Drain cleaning in Georgia",
    "description": "A local branch of Roto-Rooter, offering comprehensive drain cleaning and plumbing solutions to the Atlanta metropolitan area",
    "hours": "Mon-Fri 9AM-6PM",
    "services": [
      "Chinese-American-owned Drain cleaning in Georgia consultation",
      "Professional service",
      "Quality guarantee"
    ],
    "social_links": {}
  },
  {
    "name": "Atlanta Drain Pros",
    "address": "3750 Stone Mountain Hwy, Snellville, GA 30078",
    "phone": "(770) 985-7700",
    "rating": 4.8,
    "reviews": 25,
    "website": "https://www.drainsurgeon.com/",
    "category": "Chinese-American-owned Drain cleaning in Georgia",
    "description": "A specialized drain cleaning company offering fast and efficient solutions for all types of drain clogs and plumbing emergencies",
    "hours": "Mon-Fri 9AM-6PM",
    "services": [
      "Chinese-American-owned Drain cleaning in Georgia consultation",
      "Professional service",
      "Quality guarantee"
    ],
    "social_links": {}
  },
  {
    "name": "Georgia Plumbing Experts",
    "address": "1000 Cobb Place Blvd NW, Kennesaw, GA 30144",
    "phone": "(770) 509-5000",
    "rating": 4.7,
    "reviews": 25,
    "website": "https://www.benfranklinplumbing.com/locations/georgia/kennesaw/",
    "category": "Chinese-American-owned Drain cleaning in Georgia",
    "description": "Provides a full spectrum of plumbing services, including expert drain cleaning, pipe repair, and water heater services",
    "hours": "Mon-Fri 9AM-6PM",
    "services": [
      "Chinese-American-owned Drain cleaning in Georgia consultation",
      "Professional service",
      "Quality guarantee"
    ],
    "social_links": {}
  }
]