[
  {
    "name": "Arkansas Wrestling Academy",
    "address": "6900 Pinnacle Valley Rd, Little Rock, AR 72223",
    "phone": "(501) 519-0850",
    "rating": 4.0,
    "reviews": 25,
    "website": "https://www.arwrestlingacademy.com/",
    "category": "Catholic-owned Wrestling classes in Arkansas",
    "description": "Offers youth wrestling programs and training led by former NCAA Champion Pat Smith",
    "hours": "Mon-Fri 9AM-6PM",
    "services": [
      "Catholic-owned Wrestling classes in Arkansas consultation",
      "Professional service",
      "Quality guarantee"
    ],
    "social_links": {}
  },
  {
    "name": "Ozark Mountain Wrestling Academy",
    "address": "Information not available",
    "phone": "",
    "rating": 4.0,
    "reviews": 25,
    "website": "https://www.ozarkmountainwrestling.com/",
    "category": "Catholic-owned Wrestling classes in Arkansas",
    "description": "A professional wrestling training facility in Northwest Arkansas, led by former NXT Superstar Ivan Warsaw",
    "hours": "Mon-Fri 9AM-6PM",
    "services": [
      "Catholic-owned Wrestling classes in Arkansas consultation",
      "Professional service",
      "Quality guarantee"
    ],
    "social_links": {}
  },
  {
    "name": "Arkansas Regional Training Center (ARTC)",
    "address": "University Drive, Little Rock, Arkansas, 72204",
    "phone": "404-452-3790",
    "rating": 4.0,
    "reviews": 25,
    "website": "https://www.arkansasrtc.com/",
    "category": "Catholic-owned Wrestling classes in Arkansas",
    "description": "A non-profit organization providing world-class training and development for wrestlers",
    "hours": "Mon-Fri 9AM-6PM",
    "services": [
      "Catholic-owned Wrestling classes in Arkansas consultation",
      "Professional service",
      "Quality guarantee"
    ],
    "social_links": {}
  },
  {
    "name": "Diamond State Martial Arts",
    "address": "14819 Elkhorn Springs Rd, Fayetteville, AR 72704",
    "phone": "(479) 966-9427",
    "rating": 4.0,
    "reviews": 25,
    "website": "https://www.diamondstatemartialarts.com/",
    "category": "Catholic-owned Wrestling classes in Arkansas",
    "description": "Offers wrestling classes for adults and youth, emphasizing technique and fitness",
    "hours": "Mon-Fri 9AM-6PM",
    "services": [
      "Catholic-owned Wrestling classes in Arkansas consultation",
      "Professional service",
      "Quality guarantee"
    ],
    "social_links": {}
  },
  {
    "name": "USA Wrestling Clubs in Arkansas",
    "address": "7601 Pinnacle Valley Rd, Little Rock, AR 72223",
    "phone": "501-804-0457",
    "rating": 4.0,
    "reviews": 25,
    "website": "https://www.arkansasusawrestling.com/",
    "category": "Catholic-owned Wrestling classes in Arkansas",
    "description": "A directory of USA Wrestling clubs across Arkansas",
    "hours": "Mon-Fri 9AM-6PM",
    "services": [
      "Catholic-owned Wrestling classes in Arkansas consultation",
      "Professional service",
      "Quality guarantee"
    ],
    "social_links": {}
  },
  {
    "name": "NWA Wrestling Academy",
    "address": "Information not available",
    "phone": "479-295-2143",
    "rating": 4.0,
    "reviews": 25,
    "website": "https://www.google.com/maps/search/NWA+Wrestling+Academy+in+Arkansas",
    "category": "Catholic-owned Wrestling classes in Arkansas",
    "description": "A non-profit organization focused on growing the sport of wrestling and instilling character in student athletes",
    "hours": "Mon-Fri 9AM-6PM",
    "services": [
      "Catholic-owned Wrestling classes in Arkansas consultation",
      "Professional service",
      "Quality guarantee"
    ],
    "social_links": {}
  },
  {
    "name": "Jonesboro Grappling Association",
    "address": "Information not available",
    "phone": "",
    "rating": 4.0,
    "reviews": 25,
    "website": "https://www.google.com/maps/search/Jonesboro+Grappling+Association+in+Arkansas",
    "category": "Catholic-owned Wrestling classes in Arkansas",
    "description": "Offers classes in wrestling, catch wrestling, jiu-jitsu, and judo for children and adults",
    "hours": "Mon-Fri 9AM-6PM",
    "services": [
      "Catholic-owned Wrestling classes in Arkansas consultation",
      "Professional service",
      "Quality guarantee"
    ],
    "social_links": {}
  },
  {
    "name": "Episcopal Collegiate School (Wrestling Program)",
    "address": "1701 Cantrell Road, Little Rock, AR 72201",
    "phone": "(501) 978-4456",
    "rating": 4.0,
    "reviews": 25,
    "website": "https://www.episcopalcollegiate.org/athletics/wrestling",
    "category": "Catholic-owned Wrestling classes in Arkansas",
    "description": "A private school offering a wrestling program for students",
    "hours": "Mon-Fri 9AM-6PM",
    "services": [
      "Catholic-owned Wrestling classes in Arkansas consultation",
      "Professional service",
      "Quality guarantee"
    ],
    "social_links": {}
  },
  {
    "name": "Subiaco Academy (Wrestling Program)",
    "address": "405 North Subiaco Avenue, Subiaco, AR 72865",
    "phone": "(479) 934-1000",
    "rating": 4.0,
    "reviews": 25,
    "website": "https://www.subi.org/",
    "category": "Catholic-owned Wrestling classes in Arkansas",
    "description": "A Catholic, all-boys college preparatory school that offers a wrestling program",
    "hours": "Mon-Fri 9AM-6PM",
    "services": [
      "Catholic-owned Wrestling classes in Arkansas consultation",
      "Professional service",
      "Quality guarantee"
    ],
    "social_links": {}
  },
  {
    "name": "Catholic High School for Boys (Wrestling Program)",
    "address": "Information not available",
    "phone": "",
    "rating": 4.0,
    "reviews": 25,
    "website": "https://www.catholichigh.com/athletics/wrestling",
    "category": "Catholic-owned Wrestling classes in Arkansas",
    "description": "A Catholic high school in Little Rock, Arkansas, with a wrestling team",
    "hours": "Mon-Fri 9AM-6PM",
    "services": [
      "Catholic-owned Wrestling classes in Arkansas consultation",
      "Professional service",
      "Quality guarantee"
    ],
    "social_links": {}
  }
]