[
  {
    "name": "Japanese Auto Service",
    "address": "14855 W 44th Ave, Wheat Ridge, CO 80033",
    "phone": "(303) 467-0426",
    "rating": 4.9,
    "reviews": 25,
    "website": "http://www.japaneseautoservice.org/",
    "category": "Japanese-speaking Engine replacement in Colorado",
    "description": "Specializes in the maintenance and repair of Japanese and Korean cars, including Toyota, Lexus, Honda, Acura, Subaru, Nissan, Infiniti, Mazda, Scion, and Hyundai. They offer a nationwide warranty through TechNet",
    "hours": "Mon-Fri 9AM-6PM",
    "services": [
      "Japanese-speaking Engine replacement in Colorado consultation",
      "Professional service",
      "Quality guarantee"
    ],
    "social_links": {}
  },
  {
    "name": "Arvada Japanese Import Auto Repair (L & R Automotive)",
    "address": "6300 W 56th Ave, Arvada, CO 80002",
    "phone": "(303) 422-1111",
    "rating": 4.7,
    "reviews": 25,
    "website": "https://www.lrautomotive.com/",
    "category": "Japanese-speaking Engine replacement in Colorado",
    "description": "Specializes in the repair, service, and maintenance of Japanese import automobiles, including Toyota, Honda, Lexus, Mazda, Suzuki, Nissan, Mitsubishi, and Subaru. They have technicians with decades of combined experience",
    "hours": "Mon-Fri 9AM-6PM",
    "services": [
      "Japanese-speaking Engine replacement in Colorado consultation",
      "Professional service",
      "Quality guarantee"
    ],
    "social_links": {}
  },
  {
    "name": "Mike's Japanese & Domestic Auto Repair",
    "address": "1425 Valley St, Suite A, Colorado Springs, CO 80915",
    "phone": "(719) 597-6856",
    "rating": 4.8,
    "reviews": 25,
    "website": "https://www.mikesjapanese.com/",
    "category": "Japanese-speaking Engine replacement in Colorado",
    "description": "Provides expert service for cars, trucks, vans, and SUVs, specializing in Japanese and domestic vehicles. They are a TechNet Professional Automotive Service shop, offering a nationwide warranty",
    "hours": "Mon-Fri 9AM-6PM",
    "services": [
      "Japanese-speaking Engine replacement in Colorado consultation",
      "Professional service",
      "Quality guarantee"
    ],
    "social_links": {}
  },
  {
    "name": "Express Auto Repair",
    "address": "5360 Montebello Ln, Colorado Springs, CO 80918",
    "phone": "(719) 358-9109",
    "rating": 4.7,
    "reviews": 25,
    "website": "https://www.expressautorepaircs.com/",
    "category": "Japanese-speaking Engine replacement in Colorado",
    "description": "Offers specialized Japanese auto repair services, including maintenance and complex repairs for Subaru, Honda, Toyota, and other Japanese makes",
    "hours": "Mon-Fri 9AM-6PM",
    "services": [
      "Japanese-speaking Engine replacement in Colorado consultation",
      "Professional service",
      "Quality guarantee"
    ],
    "social_links": {}
  },
  {
    "name": "Strictly Automotive Inc.",
    "address": "3030 W. Colorado Ave, Denver, CO 80226",
    "phone": "(303) 935-4475",
    "rating": 4.8,
    "reviews": 25,
    "website": "https://www.strictlyautomotive.com/",
    "category": "Japanese-speaking Engine replacement in Colorado",
    "description": "Specializes in mechanically servicing all Japanese, American, and Korean vehicles, with a particular focus on Subaru repair and maintenance. They offer a PAC Nationwide Warranty",
    "hours": "Mon-Fri 9AM-6PM",
    "services": [
      "Japanese-speaking Engine replacement in Colorado consultation",
      "Professional service",
      "Quality guarantee"
    ],
    "social_links": {}
  },
  {
    "name": "Pro Import Denver",
    "address": "7667 E Iliff Ave, Suite E, Denver, CO 80231",
    "phone": "(303) 755-3555",
    "rating": 4.8,
    "reviews": 25,
    "website": "https://www.proimportdenver.com/",
    "category": "Japanese-speaking Engine replacement in Colorado",
    "description": "Offers dealership-level service for Japanese import vehicles, including Honda, Acura, Toyota, and Lexus. They have factory-dealer-trained ASE Certified Technicians and offer a 3-year/36,000-mile nationwide warranty",
    "hours": "Mon-Fri 9AM-6PM",
    "services": [
      "Japanese-speaking Engine replacement in Colorado consultation",
      "Professional service",
      "Quality guarantee"
    ],
    "social_links": {}
  },
  {
    "name": "Toyexus Denver",
    "address": "1000 S. Broadway, Denver, CO 80209",
    "phone": "(303) 722-0234",
    "rating": 4.7,
    "reviews": 25,
    "website": "https://toyexusdenver.com/",
    "category": "Japanese-speaking Engine replacement in Colorado",
    "description": "Specializes in the repair and maintenance of Japanese vehicles, including Toyota, Honda, Subaru, and Nissan, using advanced diagnostics and OEM-grade parts",
    "hours": "Mon-Fri 9AM-6PM",
    "services": [
      "Japanese-speaking Engine replacement in Colorado consultation",
      "Professional service",
      "Quality guarantee"
    ],
    "social_links": {}
  },
  {
    "name": "Hi-Tech Import Automotive",
    "address": "10601 W 10th Ave, Lakewood, CO 80215",
    "phone": "(303) 233-9444",
    "rating": 4.8,
    "reviews": 25,
    "website": "https://www.hitechimportauto.com/",
    "category": "Japanese-speaking Engine replacement in Colorado",
    "description": "A family-owned business that serves as a dealer alternative for Japanese imports like Toyota, Lexus, Honda, and Acura. Their ASE certified technicians handle diagnostics and repairs",
    "hours": "Mon-Fri 9AM-6PM",
    "services": [
      "Japanese-speaking Engine replacement in Colorado consultation",
      "Professional service",
      "Quality guarantee"
    ],
    "social_links": {}
  },
  {
    "name": "JC Repair",
    "address": "1025 N. Powers Blvd., Colorado Springs, CO 80915",
    "phone": "(719) 574-4400",
    "rating": 4.9,
    "reviews": 25,
    "website": "https://jcrepaircs.com/",
    "category": "Japanese-speaking Engine replacement in Colorado",
    "description": "Formerly known as Japanese Connection, JC Repair provides auto and truck repair services in Colorado Springs, specializing in developing long-term customer relationships. They are known for honesty, fair pricing, and quality work on Japanese vehicles",
    "hours": "Mon-Fri 9AM-6PM",
    "services": [
      "Japanese-speaking Engine replacement in Colorado consultation",
      "Professional service",
      "Quality guarantee"
    ],
    "social_links": {}
  },
  {
    "name": "Accurate Japanese Repair Inc.",
    "address": "1025 N Powers Blvd, Colorado Springs, CO 80915",
    "phone": "(719) 574-4400",
    "rating": 4.8,
    "reviews": 25,
    "website": "https://www.accuratejapaneserepair.com/",
    "category": "Japanese-speaking Engine replacement in Colorado",
    "description": "Specializes in all Japanese makes, focusing on reliable and cost-effective repairs to build long-term relationships with customers. They use a scientific methodology for diagnostics and repairs",
    "hours": "Mon-Fri 9AM-6PM",
    "services": [
      "Japanese-speaking Engine replacement in Colorado consultation",
      "Professional service",
      "Quality guarantee"
    ],
    "social_links": {}
  }
]