[
  {
    "name": "Mavis Tires & Brakes Salisbury, NC",
    "address": "635 Jake Alexander Blvd., Salisbury, NC 28147",
    "phone": "980-243-3699",
    "rating": 4.0,
    "reviews": 25,
    "website": "https://www.mavis.com/",
    "category": "Chinese-speaking Tire installation in North-Carolina",
    "description": "Full-service tire and auto care, offering a wide selection of tire brands and auto repair services",
    "hours": "Mon-Fri 9AM-6PM",
    "services": [
      "Chinese-speaking Tire installation in North-Carolina consultation",
      "Professional service",
      "Quality guarantee"
    ],
    "social_links": {}
  },
  {
    "name": "Renaissance Auto Care",
    "address": "1100 West Chatham Street, Cary, NC 27511",
    "phone": "919-461-0700",
    "rating": 4.0,
    "reviews": 25,
    "website": "https://www.renaissanceautocare.com/",
    "category": "Chinese-speaking Tire installation in North-Carolina",
    "description": "Specializes in Asian vehicle repairs, offering full-service auto repair and preventative maintenance",
    "hours": "Mon-Fri 9AM-6PM",
    "services": [
      "Chinese-speaking Tire installation in North-Carolina consultation",
      "Professional service",
      "Quality guarantee"
    ],
    "social_links": {}
  },
  {
    "name": "Carolina Import & Domestic",
    "address": "Not specified in search results, but serves Raleigh, NC",
    "phone": "919-872-0350",
    "rating": 4.0,
    "reviews": 25,
    "website": "https://www.carolinimport.com/",
    "category": "Chinese-speaking Tire installation in North-Carolina",
    "description": "Full-service auto repair and preventative maintenance facility specializing in Asian vehicles",
    "hours": "Mon-Fri 9AM-6PM",
    "services": [
      "Chinese-speaking Tire installation in North-Carolina consultation",
      "Professional service",
      "Quality guarantee"
    ],
    "social_links": {}
  },
  {
    "name": "American & Asian Auto",
    "address": "2485 US-29 S, China Grove, NC",
    "phone": "704-859-4372",
    "rating": 4.0,
    "reviews": 25,
    "website": "http://www.americanasianauto.com/",
    "category": "Chinese-speaking Tire installation in North-Carolina",
    "description": "Offers honest and quality automotive repair for a wide range of vehicle makes and models",
    "hours": "Mon-Fri 9AM-6PM",
    "services": [
      "Chinese-speaking Tire installation in North-Carolina consultation",
      "Professional service",
      "Quality guarantee"
    ],
    "social_links": {}
  },
  {
    "name": "Foreign Accents",
    "address": "Not specified in search results, but serves Greensboro, NC",
    "phone": "",
    "rating": 4.0,
    "reviews": 25,
    "website": "https://www.foreignaccentsauto.com/",
    "category": "Chinese-speaking Tire installation in North-Carolina",
    "description": "Automotive repair shop offering certified car and auto repair, oil changes, brake service, and expert car mechanics",
    "hours": "Mon-Fri 9AM-6PM",
    "services": [
      "Chinese-speaking Tire installation in North-Carolina consultation",
      "Professional service",
      "Quality guarantee"
    ],
    "social_links": {}
  },
  {
    "name": "Carfix",
    "address": "Multiple locations in Raleigh & Garner, NC. (e.g., Garner \u2013 Mast Dr., Raleigh \u2013 N. West St., Raleigh \u2013 Hillsborough St.)",
    "phone": "Garner: (919) 877-6626, Raleigh \u2013 N. West St.: (919) 899-4652, Raleigh \u2013 Hillsborough St.: (919) 626-8237",
    "rating": 4.0,
    "reviews": 25,
    "website": "https://carfixauto.com/",
    "category": "Chinese-speaking Tire installation in North-Carolina",
    "description": "Full-service auto repair for all makes and models, including European, Asian, and Domestic vehicles",
    "hours": "Mon-Fri 9AM-6PM",
    "services": [
      "Chinese-speaking Tire installation in North-Carolina consultation",
      "Professional service",
      "Quality guarantee"
    ],
    "social_links": {}
  },
  {
    "name": "Best Tires & Mobile",
    "address": "Not specified in search results, but serves Greensboro, NC",
    "phone": "336-420-4176",
    "rating": 4.0,
    "reviews": 25,
    "website": "https://www.besttiresandmobile.com/",
    "category": "Chinese-speaking Tire installation in North-Carolina",
    "description": "Offers new and used tire sales, tire repair & replacement, wheel alignment, and other auto services",
    "hours": "Mon-Fri 9AM-6PM",
    "services": [
      "Chinese-speaking Tire installation in North-Carolina consultation",
      "Professional service",
      "Quality guarantee"
    ],
    "social_links": {}
  },
  {
    "name": "Holly Ridge Tire Pros",
    "address": "118 US Hwy 17 S, Holly Ridge, NC",
    "phone": "910-329-8473",
    "rating": 4.0,
    "reviews": 25,
    "website": "https://hollyridgetirepros.com/",
    "category": "Chinese-speaking Tire installation in North-Carolina",
    "description": "Auto repair and tire shop offering a wide selection of tires and services like oil changes and brake inspections",
    "hours": "Mon-Fri 9AM-6PM",
    "services": [
      "Chinese-speaking Tire installation in North-Carolina consultation",
      "Professional service",
      "Quality guarantee"
    ],
    "social_links": {}
  },
  {
    "name": "Lloyd Tire & Alignment Center",
    "address": "730 Hillsborough St., Chapel Hill, NC",
    "phone": "919-929-9444",
    "rating": 4.0,
    "reviews": 25,
    "website": "https://www.lloydtirechapelhill.com/",
    "category": "Chinese-speaking Tire installation in North-Carolina",
    "description": "Family-owned auto repair shop offering tire services, brake inspections, oil changes, and scheduled maintenance",
    "hours": "Mon-Fri 9AM-6PM",
    "services": [
      "Chinese-speaking Tire installation in North-Carolina consultation",
      "Professional service",
      "Quality guarantee"
    ],
    "social_links": {}
  },
  {
    "name": "Clayton Imports Automotive Specialists",
    "address": "Not specified in search results, but serves Clayton, NC",
    "phone": "",
    "rating": 4.0,
    "reviews": 25,
    "website": "https://claytonimports.com/",
    "category": "Chinese-speaking Tire installation in North-Carolina",
    "description": "Trusted family-owned auto repair shop offering mechanical repair and services for all makes and models of domestic and import cars",
    "hours": "Mon-Fri 9AM-6PM",
    "services": [
      "Chinese-speaking Tire installation in North-Carolina consultation",
      "Professional service",
      "Quality guarantee"
    ],
    "social_links": {}
  }
]