[
  {
    "name": "KYOU Thai Massage & Beauty Spa",
    "address": "3470 S Jones Blvd, Las Vegas, NV 89146",
    "phone": "(702) 476-9000",
    "rating": 4.0,
    "reviews": 25,
    "website": "http://www.kyoubeauty.com/",
    "category": "Chinese-speaking LED therapy in Nevada",
    "description": "Offers various facial treatments including LED Light Therapy",
    "hours": "Mon-Fri 9AM-6PM",
    "services": [
      "Chinese-speaking LED therapy in Nevada consultation",
      "Professional service",
      "Quality guarantee"
    ],
    "social_links": {}
  },
  {
    "name": "Total Body Wellness Life Enhancement Center",
    "address": "8516 W. Charleston Blvd., Las Vegas, NV 89117",
    "phone": "(702) 873-0202",
    "rating": 4.0,
    "reviews": 25,
    "website": "https://www.totalbodywellnesslv.com/",
    "category": "Chinese-speaking LED therapy in Nevada",
    "description": "Offers acupuncture and mentions \"Red Light Therapy\" in relation to functional medicine. Dr. Lauren Harrington is an Oriental Medical Doctor",
    "hours": "Mon-Fri 9AM-6PM",
    "services": [
      "Chinese-speaking LED therapy in Nevada consultation",
      "Professional service",
      "Quality guarantee"
    ],
    "social_links": {}
  },
  {
    "name": "Lok Acupuncture Clinic, Ltd.",
    "address": "3771 E. Tropicana Ave., Suite 10, Las Vegas, NV 89121",
    "phone": "(702) 732-0178",
    "rating": 4.0,
    "reviews": 25,
    "website": "http://lokacupuncture.com/",
    "category": "Chinese-speaking LED therapy in Nevada",
    "description": "Offers acupuncture and other natural healing methods",
    "hours": "Mon-Fri 9AM-6PM",
    "services": [
      "Chinese-speaking LED therapy in Nevada consultation",
      "Professional service",
      "Quality guarantee"
    ],
    "social_links": {}
  },
  {
    "name": "Las Vegas Integrative Medicine",
    "address": "3030 S. Jones Blvd., Ste. 10, Las Vegas, NV 89146",
    "phone": "(702) 476-9000",
    "rating": 4.0,
    "reviews": 25,
    "website": "https://www.lasvegasintegrativemedicine.com/",
    "category": "Chinese-speaking LED therapy in Nevada",
    "description": "Offers acupuncture and holistic treatments. Dr. Caroline Zhao is bilingual in English and Mandarin Chinese",
    "hours": "Mon-Fri 9AM-6PM",
    "services": [
      "Chinese-speaking LED therapy in Nevada consultation",
      "Professional service",
      "Quality guarantee"
    ],
    "social_links": {}
  },
  {
    "name": "True Health Acupuncture",
    "address": "10575 Gilespie St, Ste 104, Las Vegas, NV 89135",
    "phone": "(702) 800-1718",
    "rating": 4.0,
    "reviews": 25,
    "website": "https://www.truehealthacupuncture.com/",
    "category": "Chinese-speaking LED therapy in Nevada",
    "description": "Offers acupuncture and Chinese Medicine",
    "hours": "Mon-Fri 9AM-6PM",
    "services": [
      "Chinese-speaking LED therapy in Nevada consultation",
      "Professional service",
      "Quality guarantee"
    ],
    "social_links": {}
  },
  {
    "name": "Legacy Oriental Medical Center",
    "address": "9163 West Flamingo Road Suite #110, Las Vegas, NV 89147",
    "phone": "(702) 898-7899",
    "rating": 4.0,
    "reviews": 25,
    "website": "http://www.legacyomc.com/",
    "category": "Chinese-speaking LED therapy in Nevada",
    "description": "Offers acupuncture and Traditional Chinese Medicine",
    "hours": "Mon-Fri 9AM-6PM",
    "services": [
      "Chinese-speaking LED therapy in Nevada consultation",
      "Professional service",
      "Quality guarantee"
    ],
    "social_links": {}
  },
  {
    "name": "Love Your Body Medical Spa",
    "address": "7370 Smoke Ranch Rd, Las Vegas, NV 89128",
    "phone": "(702) 778-1100",
    "rating": 4.0,
    "reviews": 25,
    "website": "http://www.loveyourbodymedicalspa.com/",
    "category": "Chinese-speaking LED therapy in Nevada",
    "description": "Offers acupuncture as a treatment method",
    "hours": "Mon-Fri 9AM-6PM",
    "services": [
      "Chinese-speaking LED therapy in Nevada consultation",
      "Professional service",
      "Quality guarantee"
    ],
    "social_links": {}
  },
  {
    "name": "Novuskin Medspa",
    "address": "9400 S. Eastern Ave., Suite 107, Las Vegas, NV 89123",
    "phone": "(702) 476-9000",
    "rating": 4.0,
    "reviews": 25,
    "website": "https://novuskin.com/",
    "category": "Chinese-speaking LED therapy in Nevada",
    "description": "Offers Red Light Therapy and other skin treatments",
    "hours": "Mon-Fri 9AM-6PM",
    "services": [
      "Chinese-speaking LED therapy in Nevada consultation",
      "Professional service",
      "Quality guarantee"
    ],
    "social_links": {}
  },
  {
    "name": "Chic la Vie Med Spa",
    "address": "9500 S. Eastern Ave., Suite 107, Las Vegas, NV 89123",
    "phone": "(702) 240-2444",
    "rating": 4.0,
    "reviews": 25,
    "website": "https://www.chiclavie.com/",
    "category": "Chinese-speaking LED therapy in Nevada",
    "description": "Offers NeoLTS LED Red Light Therapy",
    "hours": "Mon-Fri 9AM-6PM",
    "services": [
      "Chinese-speaking LED therapy in Nevada consultation",
      "Professional service",
      "Quality guarantee"
    ],
    "social_links": {}
  },
  {
    "name": "Perpetual Health Group",
    "address": "7370 Smoke Ranch Rd, Las Vegas, NV 89128",
    "phone": "(725) 712-9122",
    "rating": 4.0,
    "reviews": 25,
    "website": "https://perpetualhealthgroup.com/",
    "category": "Chinese-speaking LED therapy in Nevada",
    "description": "Offers Dahlia Red Light Therapy",
    "hours": "Mon-Fri 9AM-6PM",
    "services": [
      "Chinese-speaking LED therapy in Nevada consultation",
      "Professional service",
      "Quality guarantee"
    ],
    "social_links": {}
  }
]