[
  {
    "name": "Korean Taekwondo Academy Northwest",
    "address": "7025 Michigan Rd, Indianapolis, IN 46268",
    "phone": "(317) 291-7000",
    "rating": 4.8,
    "reviews": 25,
    "website": "https://www.indianataekwondo.com/",
    "category": "Arabic-speaking Taekwondo classes in Indiana",
    "description": "Offers Taekwondo classes for all ages and skill levels, focusing on self-defense, discipline, and confidence",
    "hours": "Mon-Fri 9AM-6PM",
    "services": [
      "Arabic-speaking Taekwondo classes in Indiana consultation",
      "Professional service",
      "Quality guarantee"
    ],
    "social_links": {}
  },
  {
    "name": "Korea Taekwondo Academy",
    "address": "4905 W 79th St, Indianapolis, IN 46268",
    "phone": "(317) 872-0220",
    "rating": 4.9,
    "reviews": 25,
    "website": "https://www.koreataekwondoacademy.com/",
    "category": "Arabic-speaking Taekwondo classes in Indiana",
    "description": "A long-standing academy with over 50 years of experience, providing professional Taekwondo training for children, adults, and families",
    "hours": "Mon-Fri 9AM-6PM",
    "services": [
      "Arabic-speaking Taekwondo classes in Indiana consultation",
      "Professional service",
      "Quality guarantee"
    ],
    "social_links": {}
  },
  {
    "name": "Choi Martial Arts Academy",
    "address": "6910 Madison Ave, Indianapolis, IN 46227",
    "phone": "(317) 881-7444",
    "rating": 4.7,
    "reviews": 25,
    "website": "https://www.choimartialarts.com/",
    "category": "Arabic-speaking Taekwondo classes in Indiana",
    "description": "The oldest Taekwondo school in Indiana, offering classes for all ages and skill levels, including an after-school program and martial arts camps",
    "hours": "Mon-Fri 9AM-6PM",
    "services": [
      "Arabic-speaking Taekwondo classes in Indiana consultation",
      "Professional service",
      "Quality guarantee"
    ],
    "social_links": {}
  },
  {
    "name": "Taekwondo Classes Indianapolis",
    "address": "8450 N Michigan Rd, Indianapolis, IN 46268",
    "phone": "(317) 872-0220",
    "rating": 4.8,
    "reviews": 25,
    "website": "https://www.indianataekwondo.com/",
    "category": "Arabic-speaking Taekwondo classes in Indiana",
    "description": "A traditional Taekwondo school emphasizing focus, confidence, discipline, and respect, with programs for kids, teens, and adults",
    "hours": "Mon-Fri 9AM-6PM",
    "services": [
      "Arabic-speaking Taekwondo classes in Indiana consultation",
      "Professional service",
      "Quality guarantee"
    ],
    "social_links": {}
  },
  {
    "name": "Indiana Taekwondo Academy",
    "address": "50 N Peru St, Cicero, IN 46034",
    "phone": "(317) 776-1111",
    "rating": 4.5,
    "reviews": 25,
    "website": "https://www.indianataekwondo.com/",
    "category": "Arabic-speaking Taekwondo classes in Indiana",
    "description": "Serving central Indiana's martial arts community for over 50 years, operated by Grand Master James Crays",
    "hours": "Mon-Fri 9AM-6PM",
    "services": [
      "Arabic-speaking Taekwondo classes in Indiana consultation",
      "Professional service",
      "Quality guarantee"
    ],
    "social_links": {}
  },
  {
    "name": "Traditional Taekwondo Academy & Fitness Center",
    "address": "2245 169th St, Hammond, IN 46323",
    "phone": "(219) 805-0062",
    "rating": 5.0,
    "reviews": 25,
    "website": "https://www.facebook.com/TraditionalTaekwondoHammond/",
    "category": "Arabic-speaking Taekwondo classes in Indiana",
    "description": "A highly-rated Taekwondo school offering fitness and martial arts training",
    "hours": "Mon-Fri 9AM-6PM",
    "services": [
      "Arabic-speaking Taekwondo classes in Indiana consultation",
      "Professional service",
      "Quality guarantee"
    ],
    "social_links": {}
  },
  {
    "name": "Tiger Taekwondo Academy LLC",
    "address": "728 S Tillotson Ave, Muncie, IN 47304",
    "phone": "(765) 213-2472",
    "rating": 4.0,
    "reviews": 25,
    "website": "https://www.tigertaekwondo.com/",
    "category": "Arabic-speaking Taekwondo classes in Indiana",
    "description": "Offers Taekwondo classes with a focus on discipline, respect, and physical fitness",
    "hours": "Mon-Fri 9AM-6PM",
    "services": [
      "Arabic-speaking Taekwondo classes in Indiana consultation",
      "Professional service",
      "Quality guarantee"
    ],
    "social_links": {}
  },
  {
    "name": "VKO's Martial Arts Academy",
    "address": "111 E Tipton St, Seymour, IN 47274",
    "phone": "(812) 523-3300",
    "rating": 4.9,
    "reviews": 25,
    "website": "https://www.vkosmartialarts.com/",
    "category": "Arabic-speaking Taekwondo classes in Indiana",
    "description": "A premier martial arts gym offering Taekwondo classes for all ages, focusing on discipline and the benefits of martial arts",
    "hours": "Mon-Fri 9AM-6PM",
    "services": [
      "Arabic-speaking Taekwondo classes in Indiana consultation",
      "Professional service",
      "Quality guarantee"
    ],
    "social_links": {}
  },
  {
    "name": "Heritage Black Belt Academy",
    "address": "1020 Sagamore Pkwy S, Lafayette, IN 47905",
    "phone": "(765) 447-1000",
    "rating": 4.6,
    "reviews": 25,
    "website": "https://www.heritageblackbelt.com/",
    "category": "Arabic-speaking Taekwondo classes in Indiana",
    "description": "Offers martial arts, self-defense, and discipline training with certified American Taekwondo Association instructors",
    "hours": "Mon-Fri 9AM-6PM",
    "services": [
      "Arabic-speaking Taekwondo classes in Indiana consultation",
      "Professional service",
      "Quality guarantee"
    ],
    "social_links": {}
  },
  {
    "name": "Master Yoo's Taekwondo",
    "address": "12750 Horseman Dr, Carmel, IN 46033",
    "phone": "(317) 575-8888",
    "rating": 4.8,
    "reviews": 25,
    "website": "https://www.masteryostaekwondo.com/",
    "category": "Arabic-speaking Taekwondo classes in Indiana",
    "description": "A highly-rated martial arts school in Carmel, Fishers, and Noblesville, focusing on self-defense and life skills for children and adults",
    "hours": "Mon-Fri 9AM-6PM",
    "services": [
      "Arabic-speaking Taekwondo classes in Indiana consultation",
      "Professional service",
      "Quality guarantee"
    ],
    "social_links": {}
  }
]