[
  {
    "name": "Ridgemont Equity Partners",
    "address": "Charlotte, North Carolina",
    "phone": "(704) 377-1100",
    "rating": 4.0,
    "reviews": 25,
    "website": "https://ridgemontep.com/",
    "category": "Chinese-speaking Private equity in North-Carolina",
    "description": "A middle-market private equity firm specializing in sectors like healthcare, energy, and telecommunications",
    "hours": "Mon-Fri 9AM-6PM",
    "services": [
      "Chinese-speaking Private equity in North-Carolina consultation",
      "Professional service",
      "Quality guarantee"
    ],
    "social_links": {}
  },
  {
    "name": "Pamlico Capital",
    "address": "Charlotte, North Carolina",
    "phone": "(704) 442-4700",
    "rating": 4.0,
    "reviews": 25,
    "website": "https://pamcap.com/",
    "category": "Chinese-speaking Private equity in North-Carolina",
    "description": "Focuses on growth-oriented middle-market companies in industries such as healthcare, software, and communications",
    "hours": "Mon-Fri 9AM-6PM",
    "services": [
      "Chinese-speaking Private equity in North-Carolina consultation",
      "Professional service",
      "Quality guarantee"
    ],
    "social_links": {}
  },
  {
    "name": "Falfurrias Capital Partners",
    "address": "Charlotte, North Carolina",
    "phone": "(704) 503-1400",
    "rating": 4.0,
    "reviews": 25,
    "website": "https://falfurrias.com/",
    "category": "Chinese-speaking Private equity in North-Carolina",
    "description": "Specializes in investing in middle-market companies across sectors such as financial services, industrials, and consumer goods",
    "hours": "Mon-Fri 9AM-6PM",
    "services": [
      "Chinese-speaking Private equity in North-Carolina consultation",
      "Professional service",
      "Quality guarantee"
    ],
    "social_links": {}
  },
  {
    "name": "Carousel Capital",
    "address": "Charlotte, North Carolina",
    "phone": "(704) 672-1400",
    "rating": 4.0,
    "reviews": 25,
    "website": "https://carouselcapital.com/",
    "category": "Chinese-speaking Private equity in North-Carolina",
    "description": "Focuses on private equity investments in the Southeastern United States, with a people-first approach",
    "hours": "Mon-Fri 9AM-6PM",
    "services": [
      "Chinese-speaking Private equity in North-Carolina consultation",
      "Professional service",
      "Quality guarantee"
    ],
    "social_links": {}
  },
  {
    "name": "Plexus Capital",
    "address": "Charlotte, North Carolina",
    "phone": "(704) 817-3000",
    "rating": 4.0,
    "reviews": 25,
    "website": "https://plexuscap.com/",
    "category": "Chinese-speaking Private equity in North-Carolina",
    "description": "Dedicated to supporting small and lower middle-market businesses across a range of industries",
    "hours": "Mon-Fri 9AM-6PM",
    "services": [
      "Chinese-speaking Private equity in North-Carolina consultation",
      "Professional service",
      "Quality guarantee"
    ],
    "social_links": {}
  },
  {
    "name": "Frontier Growth",
    "address": "Charlotte, North Carolina",
    "phone": "",
    "rating": 4.0,
    "reviews": 25,
    "website": "https://frontiergrowth.com/",
    "category": "Chinese-speaking Private equity in North-Carolina",
    "description": "Focuses on investing in high-growth software and technology-enabled businesses",
    "hours": "Mon-Fri 9AM-6PM",
    "services": [
      "Chinese-speaking Private equity in North-Carolina consultation",
      "Professional service",
      "Quality guarantee"
    ],
    "social_links": {}
  },
  {
    "name": "Summit Park",
    "address": "Charlotte, North Carolina",
    "phone": "(704) 672-1400",
    "rating": 4.0,
    "reviews": 25,
    "website": "https://summitpark.com/",
    "category": "Chinese-speaking Private equity in North-Carolina",
    "description": "Focuses on lower middle-market companies across the Southeast and other regions in the United States, primarily in business services, consumer products, and industrial growth",
    "hours": "Mon-Fri 9AM-6PM",
    "services": [
      "Chinese-speaking Private equity in North-Carolina consultation",
      "Professional service",
      "Quality guarantee"
    ],
    "social_links": {}
  },
  {
    "name": "Zabel Companies",
    "address": "Raleigh, North Carolina",
    "phone": "(919) 803-0000",
    "rating": 4.0,
    "reviews": 25,
    "website": "https://zabelcompanies.com/",
    "category": "Chinese-speaking Private equity in North-Carolina",
    "description": "Specializes in lower middle-market businesses, focusing on long-term partnerships in industries such as manufacturing, distribution, and business services",
    "hours": "Mon-Fri 9AM-6PM",
    "services": [
      "Chinese-speaking Private equity in North-Carolina consultation",
      "Professional service",
      "Quality guarantee"
    ],
    "social_links": {}
  },
  {
    "name": "NovaQuest Capital Management (now QHP Capital)",
    "address": "Raleigh, North Carolina",
    "phone": "(919) 378-0000",
    "rating": 4.0,
    "reviews": 25,
    "website": "https://qhpcp.com/",
    "category": "Chinese-speaking Private equity in North-Carolina",
    "description": "A healthcare-focused private equity firm dedicated to investing in and scaling middle-market companies, particularly in life sciences and healthcare",
    "hours": "Mon-Fri 9AM-6PM",
    "services": [
      "Chinese-speaking Private equity in North-Carolina consultation",
      "Professional service",
      "Quality guarantee"
    ],
    "social_links": {}
  },
  {
    "name": "Kian Capital Partners",
    "address": "Charlotte, North Carolina",
    "phone": "(704) 973-0700",
    "rating": 4.0,
    "reviews": 25,
    "website": "https://kiancapital.com/",
    "category": "Chinese-speaking Private equity in North-Carolina",
    "description": "Specializes in providing investment management and capital solutions tailored for lower-middle-market businesses in sectors such as consumer services, specialty manufacturing, and value-added distribution",
    "hours": "Mon-Fri 9AM-6PM",
    "services": [
      "Chinese-speaking Private equity in North-Carolina consultation",
      "Professional service",
      "Quality guarantee"
    ],
    "social_links": {}
  }
]