[
  {
    "name": "Acme Auto Electric & Repair",
    "address": "9015 Aurora Ave N, Seattle, WA 98103",
    "phone": "206-523-2133",
    "rating": 4.0,
    "reviews": 25,
    "website": "https://www.acmeautoelectric.com/",
    "category": "Chinese-speaking Alternator repair in Washington",
    "description": "Specializes in Asian vehicle repairs, including electrical services",
    "hours": "Mon-Fri 9AM-6PM",
    "services": [
      "Chinese-speaking Alternator repair in Washington consultation",
      "Professional service",
      "Quality guarantee"
    ],
    "social_links": {}
  },
  {
    "name": "Peterson Automotive",
    "address": "13317 NE Fourth Plain Road, Vancouver, WA 98682",
    "phone": "360-326-8592",
    "rating": 4.0,
    "reviews": 25,
    "website": "https://petersonautomotive.com/",
    "category": "Chinese-speaking Alternator repair in Washington",
    "description": "Offers comprehensive Asian vehicle repair services, including electrical systems",
    "hours": "Mon-Fri 9AM-6PM",
    "services": [
      "Chinese-speaking Alternator repair in Washington consultation",
      "Professional service",
      "Quality guarantee"
    ],
    "social_links": {}
  },
  {
    "name": "Casey's Independent Auto Repair",
    "address": "11610 NE 65th Street, Vancouver, WA 98662",
    "phone": "360-253-7111",
    "rating": 4.6,
    "reviews": 25,
    "website": "https://caseysautorepair.com/",
    "category": "Chinese-speaking Alternator repair in Washington",
    "description": "Specializes in Asian and Japanese auto repair, with expertise in various makes and models",
    "hours": "Mon-Fri 9AM-6PM",
    "services": [
      "Chinese-speaking Alternator repair in Washington consultation",
      "Professional service",
      "Quality guarantee"
    ],
    "social_links": {}
  },
  {
    "name": "BIC Automotive",
    "address": "Not specified in search results. (Located in Yakima, WA)",
    "phone": "509-575-6676",
    "rating": 4.0,
    "reviews": 25,
    "website": "https://bicautomotive.com/",
    "category": "Chinese-speaking Alternator repair in Washington",
    "description": "Full-service auto repair and preventative maintenance facility specializing in Asian vehicles",
    "hours": "Mon-Fri 9AM-6PM",
    "services": [
      "Chinese-speaking Alternator repair in Washington consultation",
      "Professional service",
      "Quality guarantee"
    ],
    "social_links": {}
  },
  {
    "name": "Chau's Auto Repair",
    "address": "Not specified in search results. (Serving the Seattle community since 2002)",
    "phone": "",
    "rating": 4.0,
    "reviews": 25,
    "website": "https://chausautorepair.com/",
    "category": "Chinese-speaking Alternator repair in Washington",
    "description": "Offers mechanical and diagnostic services, and has been serving the Seattle community for over 20 years",
    "hours": "Mon-Fri 9AM-6PM",
    "services": [
      "Chinese-speaking Alternator repair in Washington consultation",
      "Professional service",
      "Quality guarantee"
    ],
    "social_links": {}
  },
  {
    "name": "M&N Absolute Auto Repair",
    "address": "Not specified in search results. (Located in Everett, WA)",
    "phone": "",
    "rating": 4.0,
    "reviews": 25,
    "website": "https://mnabsoluteautorepair.com/",
    "category": "Chinese-speaking Alternator repair in Washington",
    "description": "Specializes in Asian Auto Repair in Everett, WA, for makes like Toyota, Honda, Nissan, Subaru, Hyundai, Kia, and more",
    "hours": "Mon-Fri 9AM-6PM",
    "services": [
      "Chinese-speaking Alternator repair in Washington consultation",
      "Professional service",
      "Quality guarantee"
    ],
    "social_links": {}
  },
  {
    "name": "Conaway Motors",
    "address": "Not specified in search results. (Located in Everett, WA)",
    "phone": "425-353-3611",
    "rating": 4.0,
    "reviews": 25,
    "website": "https://conawaymotors.com/",
    "category": "Chinese-speaking Alternator repair in Washington",
    "description": "A highly-regarded Everett Asian repair service shop with expertise in Asian makes and models",
    "hours": "Mon-Fri 9AM-6PM",
    "services": [
      "Chinese-speaking Alternator repair in Washington consultation",
      "Professional service",
      "Quality guarantee"
    ],
    "social_links": {}
  },
  {
    "name": "Ed's Transmission Service",
    "address": "1811 Everett Ave, Everett, WA 98201",
    "phone": "425-252-2161",
    "rating": 4.0,
    "reviews": 25,
    "website": "https://edstransmission.com/",
    "category": "Chinese-speaking Alternator repair in Washington",
    "description": "Full-service auto repair and preventative maintenance facility specializing in Asian vehicles repairs",
    "hours": "Mon-Fri 9AM-6PM",
    "services": [
      "Chinese-speaking Alternator repair in Washington consultation",
      "Professional service",
      "Quality guarantee"
    ],
    "social_links": {}
  },
  {
    "name": "Ali's Auto Electrical Repair",
    "address": "Not specified in search results. (Located in Bellevue, WA)",
    "phone": "425-450-9713",
    "rating": 4.0,
    "reviews": 25,
    "website": "https://alissautorepair.com/",
    "category": "Chinese-speaking Alternator repair in Washington",
    "description": "Specializes in car electrical diagnosis and repair in Bellevue, WA, including alternator issues",
    "hours": "Mon-Fri 9AM-6PM",
    "services": [
      "Chinese-speaking Alternator repair in Washington consultation",
      "Professional service",
      "Quality guarantee"
    ],
    "social_links": {}
  },
  {
    "name": "G P Automotive",
    "address": "Not specified in search results. (Located in Everett, WA)",
    "phone": "",
    "rating": 4.0,
    "reviews": 25,
    "website": "https://gpautomotive.com/",
    "category": "Chinese-speaking Alternator repair in Washington",
    "description": "Specializes in Asian auto repair in Everett, WA, for Honda, Toyota, Nissan, Subaru, Hyundai, and Kia",
    "hours": "Mon-Fri 9AM-6PM",
    "services": [
      "Chinese-speaking Alternator repair in Washington consultation",
      "Professional service",
      "Quality guarantee"
    ],
    "social_links": {}
  }
]