[
  {
    "name": "American Family Insurance",
    "address": "Multiple locations across North Dakota. For specific addresses, please visit their website",
    "phone": "1-800-MY-AMFAM (1-800-692-6326)",
    "rating": 4.5,
    "reviews": 25,
    "website": "https://www.amfam.com/",
    "category": "Arabic-speaking Property insurance in North-Dakota",
    "description": "Offers comprehensive coverage options and is known for good customer service",
    "hours": "Mon-Fri 9AM-6PM",
    "services": [
      "Arabic-speaking Property insurance in North-Dakota consultation",
      "Professional service",
      "Quality guarantee"
    ],
    "social_links": {}
  },
  {
    "name": "State Farm",
    "address": "Multiple locations across North Dakota. For specific addresses, please visit their website",
    "phone": "1-800-STATEFARM (1-800-782-8332)",
    "rating": 4.7,
    "reviews": 25,
    "website": "https://www.statefarm.com/",
    "category": "Arabic-speaking Property insurance in North-Dakota",
    "description": "A large insurer with local agents available and a broad array of coverage options",
    "hours": "Mon-Fri 9AM-6PM",
    "services": [
      "Arabic-speaking Property insurance in North-Dakota consultation",
      "Professional service",
      "Quality guarantee"
    ],
    "social_links": {}
  },
  {
    "name": "Chubb",
    "address": "Multiple locations. For specific addresses, please visit their website",
    "phone": "",
    "rating": 5.0,
    "reviews": 25,
    "website": "https://www.chubb.com/",
    "category": "Arabic-speaking Property insurance in North-Dakota",
    "description": "Known for comprehensive coverage for high-value homes and excellent claims satisfaction",
    "hours": "Mon-Fri 9AM-6PM",
    "services": [
      "Arabic-speaking Property insurance in North-Dakota consultation",
      "Professional service",
      "Quality guarantee"
    ],
    "social_links": {}
  },
  {
    "name": "Allstate",
    "address": "Multiple locations across North Dakota. For specific addresses, please visit their website",
    "phone": "1-800-ALLSTATE (1-800-255-7828)",
    "rating": 4.5,
    "reviews": 25,
    "website": "https://www.allstate.com/",
    "category": "Arabic-speaking Property insurance in North-Dakota",
    "description": "Offers a variety of policy options and discounts, known for being a more affordable option",
    "hours": "Mon-Fri 9AM-6PM",
    "services": [
      "Arabic-speaking Property insurance in North-Dakota consultation",
      "Professional service",
      "Quality guarantee"
    ],
    "social_links": {}
  },
  {
    "name": "Country Financial",
    "address": "Multiple locations across North Dakota. For specific addresses, please visit their website",
    "phone": "1-866-COUNTRY (1-866-268-6879)",
    "rating": 4.6,
    "reviews": 25,
    "website": "https://www.countryfinancial.com/",
    "category": "Arabic-speaking Property insurance in North-Dakota",
    "description": "Known for good customer service and offers various discounts",
    "hours": "Mon-Fri 9AM-6PM",
    "services": [
      "Arabic-speaking Property insurance in North-Dakota consultation",
      "Professional service",
      "Quality guarantee"
    ],
    "social_links": {}
  },
  {
    "name": "North Star Mutual",
    "address": "Multiple locations. For specific addresses, please visit their website",
    "phone": "1-800-333-4947",
    "rating": 4.0,
    "reviews": 25,
    "website": "https://www.northstarmutual.com/",
    "category": "Arabic-speaking Property insurance in North-Dakota",
    "description": "Offers the most affordable homeowners insurance in North Dakota",
    "hours": "Mon-Fri 9AM-6PM",
    "services": [
      "Arabic-speaking Property insurance in North-Dakota consultation",
      "Professional service",
      "Quality guarantee"
    ],
    "social_links": {}
  },
  {
    "name": "Auto-Owners Insurance",
    "address": "Multiple locations. For specific addresses, please visit their website",
    "phone": "1-888-333-3731",
    "rating": 4.0,
    "reviews": 25,
    "website": "https://www.auto-owners.com/",
    "category": "Arabic-speaking Property insurance in North-Dakota",
    "description": "Excels in coverage options and is a highly-rated alternative",
    "hours": "Mon-Fri 9AM-6PM",
    "services": [
      "Arabic-speaking Property insurance in North-Dakota consultation",
      "Professional service",
      "Quality guarantee"
    ],
    "social_links": {}
  },
  {
    "name": "Agraria",
    "address": "Multiple locations. For specific addresses, please visit their website",
    "phone": "1-800-234-4450",
    "rating": 4.0,
    "reviews": 25,
    "website": "https://www.agraria.com/",
    "category": "Arabic-speaking Property insurance in North-Dakota",
    "description": "Known for being the most affordable option and offering unique coverage",
    "hours": "Mon-Fri 9AM-6PM",
    "services": [
      "Arabic-speaking Property insurance in North-Dakota consultation",
      "Professional service",
      "Quality guarantee"
    ],
    "social_links": {}
  },
  {
    "name": "Nodak Insurance Company",
    "address": "Multiple locations. For specific addresses, please visit their website",
    "phone": "1-800-332-8540",
    "rating": 4.0,
    "reviews": 25,
    "website": "https://www.nodakins.com/",
    "category": "Arabic-speaking Property insurance in North-Dakota",
    "description": "Offers auto, farm, home, and life insurance in North Dakota",
    "hours": "Mon-Fri 9AM-6PM",
    "services": [
      "Arabic-speaking Property insurance in North-Dakota consultation",
      "Professional service",
      "Quality guarantee"
    ],
    "social_links": {}
  },
  {
    "name": "Steffes Agency",
    "address": "Multiple locations, including Bismarck, ND. For specific addresses, please visit their website",
    "phone": "701-222-9618 (Bismarck office)",
    "rating": 4.0,
    "reviews": 25,
    "website": "https://www.steffesagency.com/",
    "category": "Arabic-speaking Property insurance in North-Dakota",
    "description": "A full-service insurance agency offering home, auto, business, and farm insurance",
    "hours": "Mon-Fri 9AM-6PM",
    "services": [
      "Arabic-speaking Property insurance in North-Dakota consultation",
      "Professional service",
      "Quality guarantee"
    ],
    "social_links": {}
  }
]