[
  {
    "name": "Cheyenne Dermatology & Wyoming Laser Center",
    "address": "2112 Seymour Avenue, Cheyenne, WY 82001",
    "phone": "(307) 635-8299",
    "rating": 4.7,
    "reviews": 25,
    "website": "https://www.seitzdermatology.com/",
    "category": "Bengali-speaking Cellulite treatment in Wyoming",
    "description": "Offers a range of medical and cosmetic dermatology services, including treatments that can address cellulite",
    "hours": "Mon-Fri 9AM-6PM",
    "services": [
      "Bengali-speaking Cellulite treatment in Wyoming consultation",
      "Professional service",
      "Quality guarantee"
    ],
    "social_links": {}
  },
  {
    "name": "Lush Medical Aesthetics + Wellness",
    "address": "1720 Dell Range Blvd, Cheyenne, WY 82009",
    "phone": "(307) 222-7030",
    "rating": 4.8,
    "reviews": 25,
    "website": "https://lushmedicalaesthetics.com/",
    "category": "Bengali-speaking Cellulite treatment in Wyoming",
    "description": "Provides advanced skincare, laser services, and other aesthetic treatments that may help with cellulite appearance",
    "hours": "Mon-Fri 9AM-6PM",
    "services": [
      "Bengali-speaking Cellulite treatment in Wyoming consultation",
      "Professional service",
      "Quality guarantee"
    ],
    "social_links": {}
  },
  {
    "name": "Signature Plastic Surgery & Aesthetics",
    "address": "110 E. Broadway St, Jackson, WY 83001",
    "phone": "(307) 733-4000",
    "rating": 4.8,
    "reviews": 25,
    "website": "https://www.signatureplasticsurgery.com/",
    "category": "Bengali-speaking Cellulite treatment in Wyoming",
    "description": "Offers body contouring treatments such as CoolSculpting, Kybella, and Morpheus 8, which can address cellulite",
    "hours": "Mon-Fri 9AM-6PM",
    "services": [
      "Bengali-speaking Cellulite treatment in Wyoming consultation",
      "Professional service",
      "Quality guarantee"
    ],
    "social_links": {}
  },
  {
    "name": "Rejuvenate You",
    "address": "940 E. 3rd St, Suite 215, Casper, WY 82601",
    "phone": "(307) 333-5056",
    "rating": 4.9,
    "reviews": 25,
    "website": "https://www.rejuvenateyou307.com/",
    "category": "Bengali-speaking Cellulite treatment in Wyoming",
    "description": "Specializes in various aesthetic treatments, including body sculpting services that may target cellulite",
    "hours": "Mon-Fri 9AM-6PM",
    "services": [
      "Bengali-speaking Cellulite treatment in Wyoming consultation",
      "Professional service",
      "Quality guarantee"
    ],
    "social_links": {}
  },
  {
    "name": "Beautifill Laser Body Sculpting",
    "address": "204 S Durbin St, Casper, WY 82601",
    "phone": "(307) 234-4585",
    "rating": 4.5,
    "reviews": 25,
    "website": "https://www.nby.com/beautifill-laser-body-sculpting-casper-wy/",
    "category": "Bengali-speaking Cellulite treatment in Wyoming",
    "description": "Offers a minimally invasive laser body sculpting treatment that can help reduce fat cells and improve the appearance of cellulite",
    "hours": "Mon-Fri 9AM-6PM",
    "services": [
      "Bengali-speaking Cellulite treatment in Wyoming consultation",
      "Professional service",
      "Quality guarantee"
    ],
    "social_links": {}
  },
  {
    "name": "Central Wyoming Skin Clinic",
    "address": "Multiple locations including Casper, Gillette, and Laramie, WY. (Casper address: 3030 E. 2nd St, Casper, WY 82609)",
    "phone": "(307) 234-5454 (Casper)",
    "rating": 4.6,
    "reviews": 25,
    "website": "https://www.centralwyomingskinclinic.com/",
    "category": "Bengali-speaking Cellulite treatment in Wyoming",
    "description": "A dermatology clinic that offers various skin treatments, potentially including those that address cellulite",
    "hours": "Mon-Fri 9AM-6PM",
    "services": [
      "Bengali-speaking Cellulite treatment in Wyoming consultation",
      "Professional service",
      "Quality guarantee"
    ],
    "social_links": {}
  },
  {
    "name": "Advanced Dermatology and Cosmetic Surgery",
    "address": "Multiple locations including Jackson and Pinedale, WY. (Jackson address: 120 E. Broadway St, Suite 100, Jackson, WY 83001)",
    "phone": "(307) 733-4000 (Jackson)",
    "rating": 4.7,
    "reviews": 25,
    "website": "https://www.advanceddermwy.com/",
    "category": "Bengali-speaking Cellulite treatment in Wyoming",
    "description": "Provides a comprehensive range of medical and cosmetic dermatology services, including treatments for skin texture and contouring",
    "hours": "Mon-Fri 9AM-6PM",
    "services": [
      "Bengali-speaking Cellulite treatment in Wyoming consultation",
      "Professional service",
      "Quality guarantee"
    ],
    "social_links": {}
  },
  {
    "name": "Wyo Med Spa",
    "address": "201 E. Lincolnway, Suite 200, Cheyenne, WY 82001",
    "phone": "(307) 222-7030",
    "rating": 4.8,
    "reviews": 25,
    "website": "https://wyomedspa.com/",
    "category": "Bengali-speaking Cellulite treatment in Wyoming",
    "description": "Offers a variety of luxury spa services, including treatments that utilize radiofrequency technology for skin rejuvenation and tightening",
    "hours": "Mon-Fri 9AM-6PM",
    "services": [
      "Bengali-speaking Cellulite treatment in Wyoming consultation",
      "Professional service",
      "Quality guarantee"
    ],
    "social_links": {}
  },
  {
    "name": "Revitalize Med Spa",
    "address": "201 E. Lincolnway, Suite 200, Laramie, WY 82070",
    "phone": "(307) 742-0123",
    "rating": 4.7,
    "reviews": 25,
    "website": "https://www.revitalizemedspa.com/",
    "category": "Bengali-speaking Cellulite treatment in Wyoming",
    "description": "Specializes in medical aesthetic treatments focused on restoring skin health and creating a natural, refined look, which may include cellulite reduction",
    "hours": "Mon-Fri 9AM-6PM",
    "services": [
      "Bengali-speaking Cellulite treatment in Wyoming consultation",
      "Professional service",
      "Quality guarantee"
    ],
    "social_links": {}
  },
  {
    "name": "Wyoming Medical Wellness Center",
    "address": "1000 S. Douglas Hwy, Suite 101, Gillette, WY 82718",
    "phone": "(307) 670-9200",
    "rating": 4.5,
    "reviews": 25,
    "website": "https://www.wyomingmedicalwellness.com/",
    "category": "Bengali-speaking Cellulite treatment in Wyoming",
    "description": "Offers body contouring services like SculpSure and TempSure Firm, which are designed to reduce fat and improve skin tightness, potentially addressing cellulite",
    "hours": "Mon-Fri 9AM-6PM",
    "services": [
      "Bengali-speaking Cellulite treatment in Wyoming consultation",
      "Professional service",
      "Quality guarantee"
    ],
    "social_links": {}
  }
]