[
  {
    "name": "Ramirez Brothers Painting",
    "address": "Multiple locations, including Newport and Covington, KY",
    "phone": "(859) 274-0199",
    "rating": 4.0,
    "reviews": 25,
    "website": "https://www.ramirezbrotherspainting.com/",
    "category": "Arabic-speaking Painting in Kentucky",
    "description": "Professional painting services for residential and commercial properties, with over 16 years of experience",
    "hours": "Mon-Fri 9AM-6PM",
    "services": [
      "Arabic-speaking Painting in Kentucky consultation",
      "Professional service",
      "Quality guarantee"
    ],
    "social_links": {}
  },
  {
    "name": "Capital Painting",
    "address": "Locations in Hopkinsville, KY and Owensboro, KY",
    "phone": "(270) 721-4730 (Hopkinsville), (270) 925-3717 (Owensboro - Triple G Custom Painting & Drywall LLC, which also serves Owensboro)",
    "rating": 4.0,
    "reviews": 25,
    "website": "https://capitalpainting.com/",
    "category": "Arabic-speaking Painting in Kentucky",
    "description": "Specializes in residential, commercial, and industrial painting services, including cabinet refinishing and staining",
    "hours": "Mon-Fri 9AM-6PM",
    "services": [
      "Arabic-speaking Painting in Kentucky consultation",
      "Professional service",
      "Quality guarantee"
    ],
    "social_links": {}
  },
  {
    "name": "Ben Pearl Painting",
    "address": "Serving the greater Owensboro area",
    "phone": "",
    "rating": 4.0,
    "reviews": 25,
    "website": "https://benpearlpainting.com/",
    "category": "Arabic-speaking Painting in Kentucky",
    "description": "One of the largest commercial painting contractors in the Owensboro area, also offering residential and industrial painting and epoxy floor coatings",
    "hours": "Mon-Fri 9AM-6PM",
    "services": [
      "Arabic-speaking Painting in Kentucky consultation",
      "Professional service",
      "Quality guarantee"
    ],
    "social_links": {}
  },
  {
    "name": "CertaPro Painters",
    "address": "Multiple locations, including Frankfort, KY and Elizabethtown, KY",
    "phone": "(502) 290-6636 (Elizabethtown), (502) 574-5850 (Louisville - Lead-Safe Louisville, may have related services)",
    "rating": 4.0,
    "reviews": 25,
    "website": "https://certapro.com/",
    "category": "Arabic-speaking Painting in Kentucky",
    "description": "Offers professional residential and commercial painting services with a focus on customer satisfaction and a detailed painting process",
    "hours": "Mon-Fri 9AM-6PM",
    "services": [
      "Arabic-speaking Painting in Kentucky consultation",
      "Professional service",
      "Quality guarantee"
    ],
    "social_links": {}
  },
  {
    "name": "Anointed Hands Painting",
    "address": "Locations in Lexington, KY and Frankfort, KY",
    "phone": "(859) 475-2276",
    "rating": 4.0,
    "reviews": 25,
    "website": "https://www.anointedhandspainting.com/",
    "category": "Arabic-speaking Painting in Kentucky",
    "description": "Provides interior and exterior painting services for residential and commercial clients, with over 25 years of experience",
    "hours": "Mon-Fri 9AM-6PM",
    "services": [
      "Arabic-speaking Painting in Kentucky consultation",
      "Professional service",
      "Quality guarantee"
    ],
    "social_links": {}
  },
  {
    "name": "Big J Painting LLC",
    "address": "Serving Central Kentucky, including Lexington, KY",
    "phone": "",
    "rating": 4.0,
    "reviews": 25,
    "website": "https://bigjpainting.com/",
    "category": "Arabic-speaking Painting in Kentucky",
    "description": "Offers professional interior and exterior painting and staining for commercial and residential clients, with a focus on quality and affordability",
    "hours": "Mon-Fri 9AM-6PM",
    "services": [
      "Arabic-speaking Painting in Kentucky consultation",
      "Professional service",
      "Quality guarantee"
    ],
    "social_links": {}
  },
  {
    "name": "Perdue Painting",
    "address": "Serving Bowling Green, KY and the Warren County area",
    "phone": "(270) 721-4730",
    "rating": 4.0,
    "reviews": 25,
    "website": "https://perduepainting.com/",
    "category": "Arabic-speaking Painting in Kentucky",
    "description": "Provides high-quality residential and commercial painting services, focusing on exterior and interior transformations",
    "hours": "Mon-Fri 9AM-6PM",
    "services": [
      "Arabic-speaking Painting in Kentucky consultation",
      "Professional service",
      "Quality guarantee"
    ],
    "social_links": {}
  },
  {
    "name": "Noles Home Maintenance",
    "address": "Serving Owensboro, KY and surrounding areas",
    "phone": "",
    "rating": 4.0,
    "reviews": 25,
    "website": "https://noleshomemaintenance.com/",
    "category": "Arabic-speaking Painting in Kentucky",
    "description": "A local painting company and general contractor offering a wide range of renovation and home maintenance services",
    "hours": "Mon-Fri 9AM-6PM",
    "services": [
      "Arabic-speaking Painting in Kentucky consultation",
      "Professional service",
      "Quality guarantee"
    ],
    "social_links": {}
  },
  {
    "name": "Triple G Custom Painting & Drywall LLC",
    "address": "Serving Owensboro, KY and Henderson, KY",
    "phone": "(270) 925-3717",
    "rating": 4.0,
    "reviews": 25,
    "website": "https://triplegcustompainting.com/",
    "category": "Arabic-speaking Painting in Kentucky",
    "description": "Offers professional painting services for residential and commercial properties with over 21 years of experience",
    "hours": "Mon-Fri 9AM-6PM",
    "services": [
      "Arabic-speaking Painting in Kentucky consultation",
      "Professional service",
      "Quality guarantee"
    ],
    "social_links": {}
  },
  {
    "name": "M.S. Painting Co.",
    "address": "Serving Covington, KY and Newport, KY",
    "phone": "(859) 363-5562 (Covington), (859) 653-6112 (Newport)",
    "rating": 4.0,
    "reviews": 25,
    "website": "https://mspaintingco.com/",
    "category": "Arabic-speaking Painting in Kentucky",
    "description": "Provides professional interior and exterior painting services for residential and commercial clients, with nearly 25 years of experience",
    "hours": "Mon-Fri 9AM-6PM",
    "services": [
      "Arabic-speaking Painting in Kentucky consultation",
      "Professional service",
      "Quality guarantee"
    ],
    "social_links": {}
  }
]