[
  {
    "name": "Solaris Massage of Kansas City",
    "address": "1715 Washington St, Kansas City, MO 64108 (Note: This is in Missouri, but serves the Kansas City area)",
    "phone": "(816) 888-0826",
    "rating": 4.0,
    "reviews": 25,
    "website": "https://www.solaris massagekc.com/",
    "category": "Central-American-owned Couples massage in Kansas",
    "description": "Offers couples massages as a way to celebrate special occasions or for those new to massage",
    "hours": "Mon-Fri 9AM-6PM",
    "services": [
      "Central-American-owned Couples massage in Kansas consultation",
      "Professional service",
      "Quality guarantee"
    ],
    "social_links": {}
  },
  {
    "name": "Elevate",
    "address": "1031 Massachusetts St, Lawrence, KS 66044",
    "phone": "(785) 371-1007",
    "rating": 4.0,
    "reviews": 25,
    "website": "https://www.elevate-lawrence.com/",
    "category": "Central-American-owned Couples massage in Kansas",
    "description": "Premier massage and energetic healing center offering services for individuals and couples",
    "hours": "Mon-Fri 9AM-6PM",
    "services": [
      "Central-American-owned Couples massage in Kansas consultation",
      "Professional service",
      "Quality guarantee"
    ],
    "social_links": {}
  },
  {
    "name": "Zen Massage USA",
    "address": "12615 Metcalf Ave, Overland Park, KS 66213",
    "phone": "(913) 338-1111",
    "rating": 4.0,
    "reviews": 25,
    "website": "https://www.zenmassageusa.com/",
    "category": "Central-American-owned Couples massage in Kansas",
    "description": "Offers couples massages for a shared experience of renewal, perfect for special occasions",
    "hours": "Mon-Fri 9AM-6PM",
    "services": [
      "Central-American-owned Couples massage in Kansas consultation",
      "Professional service",
      "Quality guarantee"
    ],
    "social_links": {}
  },
  {
    "name": "Ultimate Escape Day Spa",
    "address": "7401 W 119th St, Overland Park, KS 66213",
    "phone": "(913) 851-8800",
    "rating": 4.0,
    "reviews": 25,
    "website": "https://www.ultimateescapespa.com/",
    "category": "Central-American-owned Couples massage in Kansas",
    "description": "Provides a relaxing atmosphere for couples massages, with options for Swedish and Swedish-Deep tissue",
    "hours": "Mon-Fri 9AM-6PM",
    "services": [
      "Central-American-owned Couples massage in Kansas consultation",
      "Professional service",
      "Quality guarantee"
    ],
    "social_links": {}
  },
  {
    "name": "The Health & Wellness Clinic KC",
    "address": "11111 W 95th St, Overland Park, KS 66214",
    "phone": "(913) 890-3300",
    "rating": 4.0,
    "reviews": 25,
    "website": "https://www.healthandwellnesskc.com/",
    "category": "Central-American-owned Couples massage in Kansas",
    "description": "Offers couples massages in a serene atmosphere with customizable options like Swedish, deep tissue, and hot stone",
    "hours": "Mon-Fri 9AM-6PM",
    "services": [
      "Central-American-owned Couples massage in Kansas consultation",
      "Professional service",
      "Quality guarantee"
    ],
    "social_links": {}
  },
  {
    "name": "The Metropolitan Spa",
    "address": "2139 Summit St, Kansas City, MO 64108 (Note: This is in Missouri, but serves the Kansas City area)",
    "phone": "(913) 777-6422",
    "rating": 4.0,
    "reviews": 25,
    "website": "https://www.themetropolitanspakc.com/",
    "category": "Central-American-owned Couples massage in Kansas",
    "description": "Provides a serene and nurturing environment for couples massages, suitable for romantic experiences or quality time",
    "hours": "Mon-Fri 9AM-6PM",
    "services": [
      "Central-American-owned Couples massage in Kansas consultation",
      "Professional service",
      "Quality guarantee"
    ],
    "social_links": {}
  },
  {
    "name": "Spavia",
    "address": "2930 SW Wanamaker Rd, Topeka, KS 66614",
    "phone": "(785) 273-7722",
    "rating": 4.0,
    "reviews": 25,
    "website": "https://www.spaviamassage.com/locations/topeka",
    "category": "Central-American-owned Couples massage in Kansas",
    "description": "Offers couples massages in a couple's room, with options to upgrade to deep tissue, salt stone, or sports massage",
    "hours": "Mon-Fri 9AM-6PM",
    "services": [
      "Central-American-owned Couples massage in Kansas consultation",
      "Professional service",
      "Quality guarantee"
    ],
    "social_links": {}
  },
  {
    "name": "Lifestyle Massage + Bodywork",
    "address": "3013 Brookside Blvd, Kansas City, MO 64108 (Note: This is in Missouri, but serves the Kansas City area)",
    "phone": "(913) 942-0340",
    "rating": 4.0,
    "reviews": 25,
    "website": "https://www.lifestylemassagekc.com/",
    "category": "Central-American-owned Couples massage in Kansas",
    "description": "Offers couples massage therapy with customized sessions to fit individual goals and needs, including relaxation and therapeutic relief",
    "hours": "Mon-Fri 9AM-6PM",
    "services": [
      "Central-American-owned Couples massage in Kansas consultation",
      "Professional service",
      "Quality guarantee"
    ],
    "social_links": {}
  },
  {
    "name": "Remedy Spa",
    "address": "2020 N Amidon Ave, Wichita, KS 67203",
    "phone": "(316) 201-1001",
    "rating": 4.0,
    "reviews": 25,
    "website": "https://www.remedyspa.com/",
    "category": "Central-American-owned Couples massage in Kansas",
    "description": "Offers couples spa services in Wichita, including side-by-side massage and facial packages",
    "hours": "Mon-Fri 9AM-6PM",
    "services": [
      "Central-American-owned Couples massage in Kansas consultation",
      "Professional service",
      "Quality guarantee"
    ],
    "social_links": {}
  },
  {
    "name": "Body & Soul Therapeutic Massage",
    "address": "2020 N Hillside St, Wichita, KS 67214",
    "phone": "(316) 618-5789",
    "rating": 4.0,
    "reviews": 25,
    "website": "https://www.bodyandsoulmassage.com/",
    "category": "Central-American-owned Couples massage in Kansas",
    "description": "Provides couples massages for relaxation and celebration, where each person receives a personalized massage in the same room",
    "hours": "Mon-Fri 9AM-6PM",
    "services": [
      "Central-American-owned Couples massage in Kansas consultation",
      "Professional service",
      "Quality guarantee"
    ],
    "social_links": {}
  }
]