[
  {
    "name": "Eye Associates of New Mexico",
    "address": "Multiple locations including Albuquerque, Santa Fe, Los Alamos, Los Lunas, Rio Rancho, and Roswell. (Specific addresses vary by location, e.g., 1623 Central Avenue, Los Alamos, NM 87544)",
    "phone": "(505) 662-5444 (Los Alamos location as an example)",
    "rating": 4.0,
    "reviews": 25,
    "website": "https://www.eyenm.com/",
    "category": "Bengali-speaking Ophthalmology in New-Mexico",
    "description": "Offers a full range of ophthalmology services including cataract surgery, LASIK, and treatment for complex eye diseases",
    "hours": "Mon-Fri 9AM-6PM",
    "services": [
      "Bengali-speaking Ophthalmology in New-Mexico consultation",
      "Professional service",
      "Quality guarantee"
    ],
    "social_links": {}
  },
  {
    "name": "Southwest Eyecare",
    "address": "806 Dr Martin Luther King Jr Ave NE, Albuquerque, NM 87102",
    "phone": "(505) 346-0500",
    "rating": 4.0,
    "reviews": 25,
    "website": "https://www.southwesteyecare.com/",
    "category": "Bengali-speaking Ophthalmology in New-Mexico",
    "description": "Specializes in advanced technology cataract surgery, glaucoma, and other medical and surgical eye conditions",
    "hours": "Mon-Fri 9AM-6PM",
    "services": [
      "Bengali-speaking Ophthalmology in New-Mexico consultation",
      "Professional service",
      "Quality guarantee"
    ],
    "social_links": {}
  },
  {
    "name": "Juliette Eye Institute",
    "address": "806 Dr Martin Luther King Jr Ave NE, Albuquerque, NM 87102",
    "phone": "(505) 883-2020",
    "rating": 4.0,
    "reviews": 25,
    "website": "https://www.julietteeye.com/",
    "category": "Bengali-speaking Ophthalmology in New-Mexico",
    "description": "Provides LASIK, cataract surgery, and other vision correction procedures with a focus on personalized care",
    "hours": "Mon-Fri 9AM-6PM",
    "services": [
      "Bengali-speaking Ophthalmology in New-Mexico consultation",
      "Professional service",
      "Quality guarantee"
    ],
    "social_links": {}
  },
  {
    "name": "Eyes of the Southwest",
    "address": "1505 S Main St, Las Cruces, NM 88001",
    "phone": "(575) 522-1111",
    "rating": 4.0,
    "reviews": 25,
    "website": "https://www.eyes-of-the-southwest.com/",
    "category": "Bengali-speaking Ophthalmology in New-Mexico",
    "description": "Offers state-of-the-art cataract surgery, dry eye treatment, and comprehensive eye examinations",
    "hours": "Mon-Fri 9AM-6PM",
    "services": [
      "Bengali-speaking Ophthalmology in New-Mexico consultation",
      "Professional service",
      "Quality guarantee"
    ],
    "social_links": {}
  },
  {
    "name": "Lovato Eyecare",
    "address": "5341 Wyoming Blvd NE Suite A, Albuquerque, NM 87109",
    "phone": "(505) 821-8888",
    "rating": 4.0,
    "reviews": 25,
    "website": "https://lovatoeyecare.com/",
    "category": "Bengali-speaking Ophthalmology in New-Mexico",
    "description": "A premier destination for eye care needs, offering cutting-edge technology in optometry, optical, and contact lens services",
    "hours": "Mon-Fri 9AM-6PM",
    "services": [
      "Bengali-speaking Ophthalmology in New-Mexico consultation",
      "Professional service",
      "Quality guarantee"
    ],
    "social_links": {}
  },
  {
    "name": "Desert Mountain Eye Care",
    "address": "7001 Wyoming Blvd NE, Albuquerque, NM 87109",
    "phone": "(505) 821-1111",
    "rating": 4.0,
    "reviews": 25,
    "website": "https://www.desertmountaineyecare.com/",
    "category": "Bengali-speaking Ophthalmology in New-Mexico",
    "description": "Focuses on dry eye diagnosis, glaucoma management, and diabetic eye care, with personalized prescriptions for glasses and contact lenses",
    "hours": "Mon-Fri 9AM-6PM",
    "services": [
      "Bengali-speaking Ophthalmology in New-Mexico consultation",
      "Professional service",
      "Quality guarantee"
    ],
    "social_links": {}
  },
  {
    "name": "Orbit Eyecare",
    "address": "10400 Academy Rd NE, Albuquerque, NM 87111",
    "phone": "(505) 293-0202",
    "rating": 4.0,
    "reviews": 25,
    "website": "https://www.orbit-eyecare.com/",
    "category": "Bengali-speaking Ophthalmology in New-Mexico",
    "description": "Offers comprehensive eye care services, including routine eye exams, treatment for eye diseases, and contact lens fittings",
    "hours": "Mon-Fri 9AM-6PM",
    "services": [
      "Bengali-speaking Ophthalmology in New-Mexico consultation",
      "Professional service",
      "Quality guarantee"
    ],
    "social_links": {}
  },
  {
    "name": "Retina Consultants of New Mexico",
    "address": "806 Dr Martin Luther King Jr Ave NE, Albuquerque, NM 87102",
    "phone": "(505) 888-4333",
    "rating": 4.0,
    "reviews": 25,
    "website": "https://www.retinanm.com/",
    "category": "Bengali-speaking Ophthalmology in New-Mexico",
    "description": "Specializes in the diagnosis and treatment of retinal diseases, including macular degeneration and diabetic retinopathy",
    "hours": "Mon-Fri 9AM-6PM",
    "services": [
      "Bengali-speaking Ophthalmology in New-Mexico consultation",
      "Professional service",
      "Quality guarantee"
    ],
    "social_links": {}
  },
  {
    "name": "Coleman Vision",
    "address": "7001 Wyoming Blvd NE, Albuquerque, NM 87109",
    "phone": "(505) 821-8888",
    "rating": 4.0,
    "reviews": 25,
    "website": "https://www.colemavision.com/",
    "category": "Bengali-speaking Ophthalmology in New-Mexico",
    "description": "Offers a range of vision correction services, including LASIK and other refractive surgeries",
    "hours": "Mon-Fri 9AM-6PM",
    "services": [
      "Bengali-speaking Ophthalmology in New-Mexico consultation",
      "Professional service",
      "Quality guarantee"
    ],
    "social_links": {}
  },
  {
    "name": "Southwest Eye Care (Farmington)",
    "address": "2300 East 30th Street, Suite 105, Farmington, NM 87401",
    "phone": "(505) 516-1220",
    "rating": 4.0,
    "reviews": 25,
    "website": "https://www.southwesteyecare.com/farmington-nm/",
    "category": "Bengali-speaking Ophthalmology in New-Mexico",
    "description": "Provides ophthalmology services to the Farmington area as part of the Southwest Eye Consultants network",
    "hours": "Mon-Fri 9AM-6PM",
    "services": [
      "Bengali-speaking Ophthalmology in New-Mexico consultation",
      "Professional service",
      "Quality guarantee"
    ],
    "social_links": {}
  }
]