[
  {
    "name": "Wellesley Cosmetic Surgery",
    "address": "600 Washington St, Wellesley, MA 02481",
    "phone": "(781) 534-5670",
    "rating": 5.0,
    "reviews": 25,
    "website": "https://www.wellesleycosmeticsurgery.com/",
    "category": "Central-American-owned Cosmetic surgery in Massachusetts",
    "description": "Offers a range of surgical and non-surgical cosmetic procedures, with a focus on natural-looking results and patient comfort",
    "hours": "Mon-Fri 9AM-6PM",
    "services": [
      "Central-American-owned Cosmetic surgery in Massachusetts consultation",
      "Professional service",
      "Quality guarantee"
    ],
    "social_links": {}
  },
  {
    "name": "Boston Center for Plastic Surgery",
    "address": "2300 Crown Colony Drive, Suite 101, Quincy, MA 02169",
    "phone": "(617) 774-0100",
    "rating": 4.9,
    "reviews": 25,
    "website": "https://www.bostonplasticsurgery.com/",
    "category": "Central-American-owned Cosmetic surgery in Massachusetts",
    "description": "Provides a comprehensive array of cosmetic and reconstructive surgery services, emphasizing patient safety and satisfaction",
    "hours": "Mon-Fri 9AM-6PM",
    "services": [
      "Central-American-owned Cosmetic surgery in Massachusetts consultation",
      "Professional service",
      "Quality guarantee"
    ],
    "social_links": {}
  },
  {
    "name": "JL Plastic Surgery",
    "address": "1330 Beacon St, Brookline, MA 02446",
    "phone": "(617) 477-5100",
    "rating": 4.9,
    "reviews": 25,
    "website": "https://www.jlplasticsurgery.com/",
    "category": "Central-American-owned Cosmetic surgery in Massachusetts",
    "description": "Specializes in various plastic surgery procedures, including breast augmentation and abdominoplasty, with a strong focus on patient experience and results",
    "hours": "Mon-Fri 9AM-6PM",
    "services": [
      "Central-American-owned Cosmetic surgery in Massachusetts consultation",
      "Professional service",
      "Quality guarantee"
    ],
    "social_links": {}
  },
  {
    "name": "Dr. Samuel Lin, MD",
    "address": "330 Brookline Ave, Boston, MA 02215",
    "phone": "(617) 632-7111",
    "rating": 4.9,
    "reviews": 25,
    "website": "https://www.bostonplasticsurgery.com/our-team/samuel-lin-md/",
    "category": "Central-American-owned Cosmetic surgery in Massachusetts",
    "description": "A board-certified plastic surgeon known for his expertise in cosmetic and reconstructive surgery, with a high volume of positive patient reviews",
    "hours": "Mon-Fri 9AM-6PM",
    "services": [
      "Central-American-owned Cosmetic surgery in Massachusetts consultation",
      "Professional service",
      "Quality guarantee"
    ],
    "social_links": {}
  },
  {
    "name": "Montilla Plastic Surgery",
    "address": "1000 Pleasant St, Worcester, MA 01602",
    "phone": "(508) 755-0000",
    "rating": 4.8,
    "reviews": 25,
    "website": "https://www.montillaplasticsurgery.com/",
    "category": "Central-American-owned Cosmetic surgery in Massachusetts",
    "description": "Offers customized surgical and non-surgical enhancements, focusing on natural beauty and providing a private, exclusive clinic experience",
    "hours": "Mon-Fri 9AM-6PM",
    "services": [
      "Central-American-owned Cosmetic surgery in Massachusetts consultation",
      "Professional service",
      "Quality guarantee"
    ],
    "social_links": {}
  },
  {
    "name": "Dr. Fouad Samaha, MD",
    "address": "2300 Crown Colony Drive, Suite 101, Quincy, MA 02169",
    "phone": "(617) 774-0100",
    "rating": 4.8,
    "reviews": 25,
    "website": "https://www.bostonplasticsurgery.com/our-team/fouad-samaha-md/",
    "category": "Central-American-owned Cosmetic surgery in Massachusetts",
    "description": "A board-certified plastic surgeon with extensive experience, known for his warm demeanor and exceptional surgical results",
    "hours": "Mon-Fri 9AM-6PM",
    "services": [
      "Central-American-owned Cosmetic surgery in Massachusetts consultation",
      "Professional service",
      "Quality guarantee"
    ],
    "social_links": {}
  },
  {
    "name": "Dr. Sean Doherty, MD",
    "address": "1330 Beacon St, Brookline, MA 02446",
    "phone": "(617) 477-5100",
    "rating": 4.8,
    "reviews": 25,
    "website": "https://www.drseandoherty.com/",
    "category": "Central-American-owned Cosmetic surgery in Massachusetts",
    "description": "A board-certified plastic surgeon recognized for his expertise in cosmetic procedures, with a focus on natural-looking results and patient care",
    "hours": "Mon-Fri 9AM-6PM",
    "services": [
      "Central-American-owned Cosmetic surgery in Massachusetts consultation",
      "Professional service",
      "Quality guarantee"
    ],
    "social_links": {}
  },
  {
    "name": "Dr. Rita Sadowski, MD",
    "address": "1205 Boston Post Rd, Guilford, CT 06437 (Note: This is in Connecticut, but frequently appears in searches for MA providers)",
    "phone": "(203) 453-6555",
    "rating": 4.8,
    "reviews": 25,
    "website": "https://www.sadowskimd.com/",
    "category": "Central-American-owned Cosmetic surgery in Massachusetts",
    "description": "Offers a range of cosmetic and reconstructive surgery services, with a highly-rated patient experience",
    "hours": "Mon-Fri 9AM-6PM",
    "services": [
      "Central-American-owned Cosmetic surgery in Massachusetts consultation",
      "Professional service",
      "Quality guarantee"
    ],
    "social_links": {}
  },
  {
    "name": "Dr. Guy Rochman, MD",
    "address": "300 Mount Auburn St Ste 511, Cambridge, MA 02138",
    "phone": "(617) 277-7700",
    "rating": 4.8,
    "reviews": 25,
    "website": "https://www.cambridgeplasticsurgery.com/",
    "category": "Central-American-owned Cosmetic surgery in Massachusetts",
    "description": "A plastic surgeon specializing in cosmetic and reconstructive procedures, with a focus on personalized care and patient satisfaction",
    "hours": "Mon-Fri 9AM-6PM",
    "services": [
      "Central-American-owned Cosmetic surgery in Massachusetts consultation",
      "Professional service",
      "Quality guarantee"
    ],
    "social_links": {}
  },
  {
    "name": "Dr. Edward Walter Malin, MD",
    "address": "25 Libby St Fl 2, Brockton, MA 02302",
    "phone": "(508) 587-8787",
    "rating": 5.0,
    "reviews": 25,
    "website": "https://www.signaturehealth.org/doctors/malin-edward-walter-md/",
    "category": "Central-American-owned Cosmetic surgery in Massachusetts",
    "description": "A plastic surgeon with extensive experience, noted for his skill in both reconstructive and cosmetic procedures",
    "hours": "Mon-Fri 9AM-6PM",
    "services": [
      "Central-American-owned Cosmetic surgery in Massachusetts consultation",
      "Professional service",
      "Quality guarantee"
    ],
    "social_links": {}
  }
]