[
  {
    "name": "St. Viator Parish School",
    "address": "4343 W. Charleston Blvd, Las Vegas, NV 89102",
    "phone": "(702) 878-3027",
    "rating": 4.0,
    "reviews": 25,
    "website": "https://www.stviatorlv.org/",
    "category": "Catholic-owned Childrens activities in Nevada",
    "description": "Offers a variety of extracurricular activities for students, including campus ministry, sports, and clubs",
    "hours": "Mon-Fri 9AM-6PM",
    "services": [
      "Catholic-owned Childrens activities in Nevada consultation",
      "Professional service",
      "Quality guarantee"
    ],
    "social_links": {}
  },
  {
    "name": "St. Elizabeth Ann Seton Catholic Church - Children's Faith Formation",
    "address": "1811 Thomasville Dr, Las Vegas, NV 89134",
    "phone": "(702) 804-8306",
    "rating": 4.0,
    "reviews": 25,
    "website": "https://seaslv.org/childrens-faith-formation",
    "category": "Catholic-owned Childrens activities in Nevada",
    "description": "Provides faith formation programs for children aged 3 through 8th grade, including sacramental preparation",
    "hours": "Mon-Fri 9AM-6PM",
    "services": [
      "Catholic-owned Childrens activities in Nevada consultation",
      "Professional service",
      "Quality guarantee"
    ],
    "social_links": {}
  },
  {
    "name": "St. Francis of Assisi Roman Catholic Church - Youth Group",
    "address": "250 E. Pioneer Blvd, Henderson, NV 89015",
    "phone": "(702) 565-1770",
    "rating": 4.0,
    "reviews": 25,
    "website": "https://stfrancisofassisi.net/youth-group",
    "category": "Catholic-owned Childrens activities in Nevada",
    "description": "Offers a high school youth group with activities, games, and faith-based discussions",
    "hours": "Mon-Fri 9AM-6PM",
    "services": [
      "Catholic-owned Childrens activities in Nevada consultation",
      "Professional service",
      "Quality guarantee"
    ],
    "social_links": {}
  },
  {
    "name": "Saint Anne Catholic Church - Altar Servers & Scout Recruitment",
    "address": "1901 South Maryland Parkway, Las Vegas, NV 89104",
    "phone": "(702) 735-0510",
    "rating": 4.0,
    "reviews": 25,
    "website": "https://www.stannelvnv.org/",
    "category": "Catholic-owned Childrens activities in Nevada",
    "description": "Recruits altar servers for children in K-5th grade and participates in scout programs",
    "hours": "Mon-Fri 9AM-6PM",
    "services": [
      "Catholic-owned Childrens activities in Nevada consultation",
      "Professional service",
      "Quality guarantee"
    ],
    "social_links": {}
  },
  {
    "name": "St. Francis de Sales School - Extracurricular Activities",
    "address": "1111 Michael Way, Las Vegas, NV 89108",
    "phone": "(702) 647-2828",
    "rating": 4.0,
    "reviews": 25,
    "website": "https://www.stfrancisdesaleslv.org/",
    "category": "Catholic-owned Childrens activities in Nevada",
    "description": "Offers a wide range of extracurricular activities for students, including choir, altar servers, student council, and sports",
    "hours": "Mon-Fri 9AM-6PM",
    "services": [
      "Catholic-owned Childrens activities in Nevada consultation",
      "Professional service",
      "Quality guarantee"
    ],
    "social_links": {}
  },
  {
    "name": "Catholic Charities of Northern Nevada - Children's Services",
    "address": "500 E. 4th St, Reno, NV 89512",
    "phone": "(775) 322-7073",
    "rating": 4.0,
    "reviews": 25,
    "website": "https://www.ccsnn.org/",
    "category": "Catholic-owned Childrens activities in Nevada",
    "description": "Provides various services including family services, and distributes items like Easter baskets and stockings for children. They also offer children's behavioral services",
    "hours": "Mon-Fri 9AM-6PM",
    "services": [
      "Catholic-owned Childrens activities in Nevada consultation",
      "Professional service",
      "Quality guarantee"
    ],
    "social_links": {}
  },
  {
    "name": "Catholic Charities of Southern Nevada - Youth Mentoring Program",
    "address": "1501 Las Vegas Blvd North, Las Vegas, NV 89101",
    "phone": "(775) 471-5831",
    "rating": 4.0,
    "reviews": 25,
    "website": "https://www.catholiccharities.com/",
    "category": "Catholic-owned Childrens activities in Nevada",
    "description": "Offers a Youth Mentoring Program for refugee youth ages 15-24 to help them achieve personal, academic, and career goals",
    "hours": "Mon-Fri 9AM-6PM",
    "services": [
      "Catholic-owned Childrens activities in Nevada consultation",
      "Professional service",
      "Quality guarantee"
    ],
    "social_links": {}
  },
  {
    "name": "Holy Spirit Catholic Church - Youth & Young Adult Ministry",
    "address": "5830 Mesa Park Drive, Las Vegas, NV 89135",
    "phone": "(702) 459-7778",
    "rating": 4.0,
    "reviews": 25,
    "website": "https://www.holyspiritlv.org/youth-and-young-adult-ministry",
    "category": "Catholic-owned Childrens activities in Nevada",
    "description": "Provides programs for youth, including \"Edge\" for middle schoolers and \"The Upper Room\" for high schoolers, focusing on faith development",
    "hours": "Mon-Fri 9AM-6PM",
    "services": [
      "Catholic-owned Childrens activities in Nevada consultation",
      "Professional service",
      "Quality guarantee"
    ],
    "social_links": {}
  },
  {
    "name": "Saint Thomas Aquinas Cathedral - Youth Ministry",
    "address": "310 W. Booth St, Reno, NV 89503",
    "phone": "(775) 484-3550",
    "rating": 4.0,
    "reviews": 25,
    "website": "https://www.stacatherdral.com/youth-ministry",
    "category": "Catholic-owned Childrens activities in Nevada",
    "description": "Offers a youth ministry program for 8th-12th graders with activities, discussions, and service projects",
    "hours": "Mon-Fri 9AM-6PM",
    "services": [
      "Catholic-owned Childrens activities in Nevada consultation",
      "Professional service",
      "Quality guarantee"
    ],
    "social_links": {}
  },
  {
    "name": "St. Jude's Ranch for Children",
    "address": "200 Wilson Circle, Boulder City, NV 89005",
    "phone": "(702) 294-7100",
    "rating": 4.0,
    "reviews": 25,
    "website": "https://www.stjudesranch.org/",
    "category": "Catholic-owned Childrens activities in Nevada",
    "description": "While not exclusively a \"children's activities business,\" this organization transforms the lives of abused and at-risk children by providing a safe and nurturing environment and therapeutic services. They also have a chapel available for events",
    "hours": "Mon-Fri 9AM-6PM",
    "services": [
      "Catholic-owned Childrens activities in Nevada consultation",
      "Professional service",
      "Quality guarantee"
    ],
    "social_links": {}
  }
]