[
  {
    "name": "Tribeca Aesthetics",
    "address": "101 Liberty St, New York, NY 10006",
    "phone": "(212) 759-1555",
    "rating": 4.8,
    "reviews": 25,
    "website": "https://www.tribecaaesthetics.com/",
    "category": "Asian-owned IPL therapy in New-York",
    "description": "Tribeca Aesthetics, founded by Dr. Sung, specializes in advanced skincare treatments, with a particular focus on the nuances of Asian skin. They offer a range of energy-based treatments, including IPL, Ultherapy, Thermage, and PicoSure Pro",
    "hours": "Mon-Fri 9AM-6PM",
    "services": [
      "Asian-owned IPL therapy in New-York consultation",
      "Professional service",
      "Quality guarantee"
    ],
    "social_links": {}
  },
  {
    "name": "Union Derm",
    "address": "860 Park Ave, New York, NY 10021 (Park Ave location) and 1065 Park Ave, New York, NY 10028 (Union Square location)",
    "phone": "(212) 529-8420",
    "rating": 4.7,
    "reviews": 25,
    "website": "https://www.unionderm.com/",
    "category": "Asian-owned IPL therapy in New-York",
    "description": "Union Derm features Dr. Yunyoung Claire Chang, a board-certified cosmetic dermatologist specializing in skin of color, including Asian skin. They offer state-of-the-art laser therapy, which can include IPL, to address pigmentation and other concerns common in Asian skin types",
    "hours": "Mon-Fri 9AM-6PM",
    "services": [
      "Asian-owned IPL therapy in New-York consultation",
      "Professional service",
      "Quality guarantee"
    ],
    "social_links": {}
  },
  {
    "name": "Dr. Dennis Gross Dermatology",
    "address": "159 E 65th St, New York, NY 10065",
    "phone": "(212) 517-8855",
    "rating": 4.7,
    "reviews": 25,
    "website": "https://www.drdennisgross.com/",
    "category": "Asian-owned IPL therapy in New-York",
    "description": "This practice offers IPL\u00ae photofacial treatments using the Lumenis M22 laser, known for treating sun damage, hyperpigmentation, and improving skin tone. They cater to patients in New York City and surrounding areas",
    "hours": "Mon-Fri 9AM-6PM",
    "services": [
      "Asian-owned IPL therapy in New-York consultation",
      "Professional service",
      "Quality guarantee"
    ],
    "social_links": {}
  },
  {
    "name": "Khrom Dermatology and Aesthetics",
    "address": "2797 Ocean Pkwy, Brooklyn, NY 11235 (and other locations)",
    "phone": "(718) 615-4000",
    "rating": 4.7,
    "reviews": 25,
    "website": "https://www.khromdermatology.com/",
    "category": "Asian-owned IPL therapy in New-York",
    "description": "Khrom Dermatology offers innovative IPL therapy, which can be precisely tuned for various skin types. They treat conditions like hyperpigmentation, spider veins, and rosacea, emphasizing a comfortable and effective experience",
    "hours": "Mon-Fri 9AM-6PM",
    "services": [
      "Asian-owned IPL therapy in New-York consultation",
      "Professional service",
      "Quality guarantee"
    ],
    "social_links": {}
  },
  {
    "name": "LING Spa",
    "address": "127 Prince St, New York, NY 10012 (SoHo location) and 105 W 77th St, New York, NY 10024 (Upper West Side location)",
    "phone": "(212) 982- LING (5464)",
    "rating": 4.5,
    "reviews": 25,
    "website": "https://www.lingspa.com/",
    "category": "Asian-owned IPL therapy in New-York",
    "description": "Founded by celebrity facialist Ling Chan, LING Spa merges traditional Asian beauty principles with advanced skincare technology. While not exclusively IPL, they offer a range of holistic treatments for effective skincare",
    "hours": "Mon-Fri 9AM-6PM",
    "services": [
      "Asian-owned IPL therapy in New-York consultation",
      "Professional service",
      "Quality guarantee"
    ],
    "social_links": {}
  },
  {
    "name": "William Lao, MD",
    "address": "104 E 40th St, Suite 301, New York, NY 10016",
    "phone": "(212) 759-7770",
    "rating": 4.8,
    "reviews": 25,
    "website": "https://www.williamlaomd.com/",
    "category": "Asian-owned IPL therapy in New-York",
    "description": "Dr. William Lao specializes in IPL Photofacial treatments, offering a non-invasive way to improve skin texture and tone for a more youthful glow. He provides personalized IPL treatments in his New York City office",
    "hours": "Mon-Fri 9AM-6PM",
    "services": [
      "Asian-owned IPL therapy in New-York consultation",
      "Professional service",
      "Quality guarantee"
    ],
    "social_links": {}
  },
  {
    "name": "Debra Jaliman, MD",
    "address": "122 E 82nd St, New York, NY 10028",
    "phone": "(212) 517-8855",
    "rating": 4.6,
    "reviews": 25,
    "website": "https://www.debrajalimanmd.com/",
    "category": "Asian-owned IPL therapy in New-York",
    "description": "Dr. Debra Jaliman's office offers IPL treatments to address pigmentation irregularities, rosacea, and sun damage, aiming for a brighter and more even complexion with minimal downtime",
    "hours": "Mon-Fri 9AM-6PM",
    "services": [
      "Asian-owned IPL therapy in New-York consultation",
      "Professional service",
      "Quality guarantee"
    ],
    "social_links": {}
  },
  {
    "name": "Kahuna Skin Clinic",
    "address": "306 5th Ave., 5th & 6th floor, New York, NY 10001",
    "phone": "(646) 398-7556",
    "rating": 4.8,
    "reviews": 25,
    "website": "https://kahunaskinclinic.com/",
    "category": "Asian-owned IPL therapy in New-York",
    "description": "Kahuna Skin Clinic blends K-Beauty principles with advanced skincare technology, offering a range of treatments for skin health and wellness. While specific IPL services are not detailed, their focus on K-Beauty suggests a comprehensive approach to skin rejuvenation",
    "hours": "Mon-Fri 9AM-6PM",
    "services": [
      "Asian-owned IPL therapy in New-York consultation",
      "Professional service",
      "Quality guarantee"
    ],
    "social_links": {}
  },
  {
    "name": "Eunyoung Park Aesthetics",
    "address": "150 E 52nd St, New York, NY 10022",
    "phone": "(646) 678-5554",
    "rating": 4.9,
    "reviews": 25,
    "website": "https://www.eunyoungpark.com/",
    "category": "Asian-owned IPL therapy in New-York",
    "description": "Founded by a Master Aesthetician with extensive training in South Korea, Eunyoung Park Aesthetics offers advanced medical skincare treatments. They stay updated with the latest technologies to provide effective skincare solutions",
    "hours": "Mon-Fri 9AM-6PM",
    "services": [
      "Asian-owned IPL therapy in New-York consultation",
      "Professional service",
      "Quality guarantee"
    ],
    "social_links": {}
  },
  {
    "name": "Yukie Natori NY Beauty Salon",
    "address": "120 E 56th St, Suite 201, New York, NY 10022",
    "phone": "(212) 758-4000",
    "rating": 4.5,
    "reviews": 25,
    "website": "https://www.yukienatori.com/",
    "category": "Asian-owned IPL therapy in New-York",
    "description": "This Japanese beauty salon offers various aesthetic treatments, including Intense Pulsed Light (IPL) for the face and neck, aiming to improve skin texture and tone",
    "hours": "Mon-Fri 9AM-6PM",
    "services": [
      "Asian-owned IPL therapy in New-York consultation",
      "Professional service",
      "Quality guarantee"
    ],
    "social_links": {}
  }
]