[
  {
    "name": "The Tuke Firm",
    "address": "Troy, MI (Serves Michigan, Oakland County, and Surrounding Counties)",
    "phone": "",
    "rating": 4.0,
    "reviews": 25,
    "website": "https://www.thetukefirm.com/",
    "category": "Black-owned Family law in Michigan",
    "description": "Focuses on divorce and family law, with a founder who has over 20 years of experience. They offer transparent pricing and a flat fee option for simpler cases",
    "hours": "Mon-Fri 9AM-6PM",
    "services": [
      "Black-owned Family law in Michigan consultation",
      "Professional service",
      "Quality guarantee"
    ],
    "social_links": {}
  },
  {
    "name": "Law Office of Rita O. White, PLLC",
    "address": "Not explicitly listed, but she is a Wayne County Assistant Prosecutor and practices in Michigan",
    "phone": "",
    "rating": 4.0,
    "reviews": 25,
    "website": "https://thenationalblacklawyers.com/",
    "category": "Black-owned Family law in Michigan",
    "description": "Specializes in family law, criminal defense, and probate. Attorney White has over 20 years of litigation experience",
    "hours": "Mon-Fri 9AM-6PM",
    "services": [
      "Black-owned Family law in Michigan consultation",
      "Professional service",
      "Quality guarantee"
    ],
    "social_links": {}
  },
  {
    "name": "Cartwright Law Firm, PLLC",
    "address": "24750 Lahser Rd, Southfield, MI 48033",
    "phone": "248-352-8722",
    "rating": 4.0,
    "reviews": 25,
    "website": "https://www.cartwrightlawfirmmi.com/",
    "category": "Black-owned Family law in Michigan",
    "description": "Offers family law services, including divorce and child support, with over 20 years of experience. They emphasize personalized service and affordable payment plans",
    "hours": "Mon-Fri 9AM-6PM",
    "services": [
      "Black-owned Family law in Michigan consultation",
      "Professional service",
      "Quality guarantee"
    ],
    "social_links": {}
  },
  {
    "name": "Tanisha M. Davis, Attorney at Law, PLLC",
    "address": "17373 W. 12 Mile Road, Lathrup Village, MI",
    "phone": "248-996-8701",
    "rating": 4.0,
    "reviews": 25,
    "website": "https://www.tanishamdavislaw.com/",
    "category": "Black-owned Family law in Michigan",
    "description": "A respected family and criminal law attorney in Michigan with experience in various legal areas",
    "hours": "Mon-Fri 9AM-6PM",
    "services": [
      "Black-owned Family law in Michigan consultation",
      "Professional service",
      "Quality guarantee"
    ],
    "social_links": {}
  },
  {
    "name": "McCoy & Associates PLLC",
    "address": "2381 E. Stadium Blvd, Ann Arbor, MI 48104",
    "phone": "734-769-0001",
    "rating": 4.0,
    "reviews": 25,
    "website": "https://www.google.com/maps/search/McCoy+&+Associates+PLLC+in+Michigan",
    "category": "Black-owned Family law in Michigan",
    "description": "Offers family law services, including divorce, child custody, and child support",
    "hours": "Mon-Fri 9AM-6PM",
    "services": [
      "Black-owned Family law in Michigan consultation",
      "Professional service",
      "Quality guarantee"
    ],
    "social_links": {}
  },
  {
    "name": "Simmons Legal dba The LawChic",
    "address": "77 Bagley St, Pontiac, MI 48341",
    "phone": "248-732-7559",
    "rating": 4.0,
    "reviews": 25,
    "website": "https://www.thelawchic.com/",
    "category": "Black-owned Family law in Michigan",
    "description": "Provides family law services, including divorce, child custody, and child support",
    "hours": "Mon-Fri 9AM-6PM",
    "services": [
      "Black-owned Family law in Michigan consultation",
      "Professional service",
      "Quality guarantee"
    ],
    "social_links": {}
  },
  {
    "name": "Mack Law Group",
    "address": "Bloomfield Hills, MI",
    "phone": "",
    "rating": 4.0,
    "reviews": 25,
    "website": "https://macklawgroup.com/",
    "category": "Black-owned Family law in Michigan",
    "description": "While their primary focus is business and estate planning, they serve families in Southeast Michigan and emphasize personalized attention",
    "hours": "Mon-Fri 9AM-6PM",
    "services": [
      "Black-owned Family law in Michigan consultation",
      "Professional service",
      "Quality guarantee"
    ],
    "social_links": {}
  }
]