[
  {
    "name": "Ekaru",
    "address": "145 Main St, Westford, MA 01886",
    "phone": "(978) 577-1020",
    "rating": 4.0,
    "reviews": 25,
    "website": "https://www.ekaru.com/",
    "category": "Hispanic-owned Data backup solutions in Massachusetts",
    "description": "Offers data backup and disaster recovery services, including file-based backup and full backup and disaster recovery services",
    "hours": "Mon-Fri 9AM-6PM",
    "services": [
      "Hispanic-owned Data backup solutions in Massachusetts consultation",
      "Professional service",
      "Quality guarantee"
    ],
    "social_links": {}
  },
  {
    "name": "resquoo",
    "address": "100 Corporate Park Dr, Peabody, MA 01960",
    "phone": "(800) 770-7099",
    "rating": 4.0,
    "reviews": 25,
    "website": "https://resquoo.com/",
    "category": "Hispanic-owned Data backup solutions in Massachusetts",
    "description": "Provides data recovery services and also offers data protection and backup solutions, including custom backup drives, network storage, and cloud solutions",
    "hours": "Mon-Fri 9AM-6PM",
    "services": [
      "Hispanic-owned Data backup solutions in Massachusetts consultation",
      "Professional service",
      "Quality guarantee"
    ],
    "social_links": {}
  },
  {
    "name": "Secure Data Recovery Services",
    "address": "133 Federal St, Boston, MA 02110",
    "phone": "(800) 388-3868",
    "rating": 4.0,
    "reviews": 25,
    "website": "https://www.securedatarecovery.com/",
    "category": "Hispanic-owned Data backup solutions in Massachusetts",
    "description": "Specializes in data recovery from various devices and also offers data backup and disaster recovery services",
    "hours": "Mon-Fri 9AM-6PM",
    "services": [
      "Hispanic-owned Data backup solutions in Massachusetts consultation",
      "Professional service",
      "Quality guarantee"
    ],
    "social_links": {}
  },
  {
    "name": "Disk Doctors",
    "address": "1373 Cambridge St, Cambridge, MA 02139",
    "phone": "(617) 491-3282",
    "rating": 4.0,
    "reviews": 25,
    "website": "https://www.diskdoctors.com/",
    "category": "Hispanic-owned Data backup solutions in Massachusetts",
    "description": "Provides data recovery services with locations in Cambridge and Newton, Massachusetts. They may offer related backup solutions",
    "hours": "Mon-Fri 9AM-6PM",
    "services": [
      "Hispanic-owned Data backup solutions in Massachusetts consultation",
      "Professional service",
      "Quality guarantee"
    ],
    "social_links": {}
  },
  {
    "name": "WeRecoverData.com",
    "address": "101 Federal St, Boston, MA 02110",
    "phone": "(800) 347-5377",
    "rating": 4.0,
    "reviews": 25,
    "website": "https://www.werecoverdata.com/",
    "category": "Hispanic-owned Data backup solutions in Massachusetts",
    "description": "Offers comprehensive data recovery services for businesses and individuals, and may provide data backup solutions",
    "hours": "Mon-Fri 9AM-6PM",
    "services": [
      "Hispanic-owned Data backup solutions in Massachusetts consultation",
      "Professional service",
      "Quality guarantee"
    ],
    "social_links": {}
  },
  {
    "name": "Data Recovery Guru",
    "address": "101 Federal St, Boston, MA 02110",
    "phone": "(617) 571-9172",
    "rating": 4.0,
    "reviews": 25,
    "website": "https://www.datarecoveryguru.com/",
    "category": "Hispanic-owned Data backup solutions in Massachusetts",
    "description": "Provides data recovery services for hard drives, SSDs, and RAID servers, with a focus on transparency and customer satisfaction. They may offer backup solutions as part of their services",
    "hours": "Mon-Fri 9AM-6PM",
    "services": [
      "Hispanic-owned Data backup solutions in Massachusetts consultation",
      "Professional service",
      "Quality guarantee"
    ],
    "social_links": {}
  },
  {
    "name": "CyberGlobal",
    "address": "33 Richwood St, Apt B, Framingham, MA 01701",
    "phone": "(617) 678-7862",
    "rating": 4.0,
    "reviews": 25,
    "website": "https://www.cyberglobal.com/",
    "category": "Hispanic-owned Data backup solutions in Massachusetts",
    "description": "Offers a range of cybersecurity services, which often include data backup and protection strategies",
    "hours": "Mon-Fri 9AM-6PM",
    "services": [
      "Hispanic-owned Data backup solutions in Massachusetts consultation",
      "Professional service",
      "Quality guarantee"
    ],
    "social_links": {}
  },
  {
    "name": "techhaven",
    "address": "160 Main St, Milford, MA 01757",
    "phone": "(508) 473-7400",
    "rating": 4.0,
    "reviews": 25,
    "website": "https://www.techhaven.com/",
    "category": "Hispanic-owned Data backup solutions in Massachusetts",
    "description": "Provides IT services, including data backup and disaster recovery solutions to protect businesses from data loss and cyber threats",
    "hours": "Mon-Fri 9AM-6PM",
    "services": [
      "Hispanic-owned Data backup solutions in Massachusetts consultation",
      "Professional service",
      "Quality guarantee"
    ],
    "social_links": {}
  },
  {
    "name": "Huntress",
    "address": "Not specified in search results, but has a presence in Boston, MA",
    "phone": "",
    "rating": 4.0,
    "reviews": 25,
    "website": "https://www.huntress.com/",
    "category": "Hispanic-owned Data backup solutions in Massachusetts",
    "description": "Focuses on cybersecurity for businesses and offers managed cybersecurity products, which can include data protection measures",
    "hours": "Mon-Fri 9AM-6PM",
    "services": [
      "Hispanic-owned Data backup solutions in Massachusetts consultation",
      "Professional service",
      "Quality guarantee"
    ],
    "social_links": {}
  },
  {
    "name": "Immuta",
    "address": "Not specified in search results, but has a presence in Boston, MA",
    "phone": "",
    "rating": 4.0,
    "reviews": 25,
    "website": "https://www.immuta.com/",
    "category": "Hispanic-owned Data backup solutions in Massachusetts",
    "description": "Provides data security and governance solutions, which are crucial components of a comprehensive data backup strategy",
    "hours": "Mon-Fri 9AM-6PM",
    "services": [
      "Hispanic-owned Data backup solutions in Massachusetts consultation",
      "Professional service",
      "Quality guarantee"
    ],
    "social_links": {}
  }
]