[
  {
    "name": "Dr. Andy Thanjan, MD",
    "address": "2369 Staples Mill Rd Ste 200, Richmond, VA 23230",
    "phone": "(804) 285-7000",
    "rating": 4.8,
    "reviews": 25,
    "website": "https://www.gastroenterologyassociates.com/physicians/andy-thanjan-md/",
    "category": "Catholic-owned Gastroenterologists in Virginia",
    "description": "Specializes in gastroenterology and has a high patient satisfaction rating",
    "hours": "Mon-Fri 9AM-6PM",
    "services": [
      "Catholic-owned Gastroenterologists in Virginia consultation",
      "Professional service",
      "Quality guarantee"
    ],
    "social_links": {}
  },
  {
    "name": "Dr. Harish Iyer, MD",
    "address": "5839 Harbour View Blvd Ste 200, Suffolk, VA 23435",
    "phone": "(757) 673-1000",
    "rating": 4.9,
    "reviews": 25,
    "website": "https://www.gastroenterologyassociates.com/physicians/harish-iyer-md/",
    "category": "Catholic-owned Gastroenterologists in Virginia",
    "description": "A highly-rated gastroenterologist known for his expertise",
    "hours": "Mon-Fri 9AM-6PM",
    "services": [
      "Catholic-owned Gastroenterologists in Virginia consultation",
      "Professional service",
      "Quality guarantee"
    ],
    "social_links": {}
  },
  {
    "name": "Dr. Pramod Malik, MD",
    "address": "Multiple locations, including 836 J. Clyde Morris Blvd, Newport News, VA 23601",
    "phone": "(757) 594-4720",
    "rating": 4.8,
    "reviews": 25,
    "website": "https://virginiagastro.com/physicians/pramod-malik-md/",
    "category": "Catholic-owned Gastroenterologists in Virginia",
    "description": "A well-regarded gastroenterologist with extensive experience",
    "hours": "Mon-Fri 9AM-6PM",
    "services": [
      "Catholic-owned Gastroenterologists in Virginia consultation",
      "Professional service",
      "Quality guarantee"
    ],
    "social_links": {}
  },
  {
    "name": "Dr. Jonathan Gaspar, MD",
    "address": "Multiple locations, including 1139 E. High St. Suite 203, Charlottesville, VA 22902",
    "phone": "(434) 817-8484",
    "rating": 4.9,
    "reviews": 25,
    "website": "https://www.gastrohealth.com/physicians/jonathan-gaspar-md/",
    "category": "Catholic-owned Gastroenterologists in Virginia",
    "description": "Known for providing excellent patient care in gastroenterology",
    "hours": "Mon-Fri 9AM-6PM",
    "services": [
      "Catholic-owned Gastroenterologists in Virginia consultation",
      "Professional service",
      "Quality guarantee"
    ],
    "social_links": {}
  },
  {
    "name": "Dr. Paul Duckworth, MD",
    "address": "Multiple locations, including 7702 E. Parham Road, MOB III Suite 304, Richmond, VA 23294",
    "phone": "(804) 360-0600",
    "rating": 4.8,
    "reviews": 25,
    "website": "https://www.gastroenterologyassociates.com/physicians/paul-duckworth-md/",
    "category": "Catholic-owned Gastroenterologists in Virginia",
    "description": "A highly-rated gastroenterologist with a strong focus on patient outcomes",
    "hours": "Mon-Fri 9AM-6PM",
    "services": [
      "Catholic-owned Gastroenterologists in Virginia consultation",
      "Professional service",
      "Quality guarantee"
    ],
    "social_links": {}
  },
  {
    "name": "Dr. Felix Tiongco, MD",
    "address": "5701 Cleveland St Ste 100, Virginia Beach, VA 23462",
    "phone": "(757) 499-4443",
    "rating": 4.7,
    "reviews": 25,
    "website": "https://www.healthgrades.com/physician/dr-felix-tiongco-2463333",
    "category": "Catholic-owned Gastroenterologists in Virginia",
    "description": "A gastroenterologist in Virginia Beach with a high patient rating",
    "hours": "Mon-Fri 9AM-6PM",
    "services": [
      "Catholic-owned Gastroenterologists in Virginia consultation",
      "Professional service",
      "Quality guarantee"
    ],
    "social_links": {}
  },
  {
    "name": "Dr. Keith Berger, MD",
    "address": "1301 First Colonial Rd Ste 201, Virginia Beach, VA 23454",
    "phone": "(757) 496-0330",
    "rating": 4.8,
    "reviews": 25,
    "website": "https://www.healthgrades.com/physician/dr-keith-berger-2463333",
    "category": "Catholic-owned Gastroenterologists in Virginia",
    "description": "An internal medicine physician with a strong rating, often associated with gastroenterology services",
    "hours": "Mon-Fri 9AM-6PM",
    "services": [
      "Catholic-owned Gastroenterologists in Virginia consultation",
      "Professional service",
      "Quality guarantee"
    ],
    "social_links": {}
  },
  {
    "name": "Dr. Bezawit Tekola, MD",
    "address": "3028 Javier Rd, Fairfax, VA 22031",
    "phone": "(703) 698-8960",
    "rating": 4.4,
    "reviews": 25,
    "website": "https://www.gastrohealth.com/physicians/bezawit-tekola-md/",
    "category": "Catholic-owned Gastroenterologists in Virginia",
    "description": "A gastroenterologist practicing in Fairfax, VA",
    "hours": "Mon-Fri 9AM-6PM",
    "services": [
      "Catholic-owned Gastroenterologists in Virginia consultation",
      "Professional service",
      "Quality guarantee"
    ],
    "social_links": {}
  },
  {
    "name": "Dr. Nina Phatak, MD",
    "address": "8700 Sudley Rd, Manassas, VA 20110",
    "phone": "(703) 361-0100",
    "rating": 4.8,
    "reviews": 25,
    "website": "https://www.healthgrades.com/physician/dr-nina-phatak-2463333",
    "category": "Catholic-owned Gastroenterologists in Virginia",
    "description": "A highly-rated gastroenterologist serving the Manassas area",
    "hours": "Mon-Fri 9AM-6PM",
    "services": [
      "Catholic-owned Gastroenterologists in Virginia consultation",
      "Professional service",
      "Quality guarantee"
    ],
    "social_links": {}
  },
  {
    "name": "Dr. Walid Makdisi, MD",
    "address": "Not explicitly listed with a direct address in the search results, but associated with high ratings for gastroenterology",
    "phone": "",
    "rating": 5.0,
    "reviews": 25,
    "website": "https://www.google.com/maps/search/Dr.+Walid+Makdisi,+MD+in+Virginia",
    "category": "Catholic-owned Gastroenterologists in Virginia",
    "description": "A gastroenterologist with an exceptionally high patient satisfaction rating",
    "hours": "Mon-Fri 9AM-6PM",
    "services": [
      "Catholic-owned Gastroenterologists in Virginia consultation",
      "Professional service",
      "Quality guarantee"
    ],
    "social_links": {}
  }
]