[
  {
    "name": "AZ Top Tier Cleaning Solutions",
    "address": "Phoenix, AZ (Specific address not publicly available, but serves the Phoenix area)",
    "phone": "(480) 442-0111",
    "rating": 5.0,
    "reviews": 25,
    "website": "https://aztoptiercleaningsolutions.com/",
    "category": "Jewish-owned Office cleaning in Arizona",
    "description": "Offers comprehensive office cleaning services in Phoenix, focusing on professionalism, reliability, and creating an inviting work environment",
    "hours": "Mon-Fri 9AM-6PM",
    "services": [
      "Jewish-owned Office cleaning in Arizona consultation",
      "Professional service",
      "Quality guarantee"
    ],
    "social_links": {}
  },
  {
    "name": "Copper State Commercial Cleaning",
    "address": "Phoenix, AZ (Serves the greater Phoenix metro area)",
    "phone": "(602) 335-1115",
    "rating": 5.0,
    "reviews": 25,
    "website": "https://copperstatecleaning.com/",
    "category": "Jewish-owned Office cleaning in Arizona",
    "description": "Provides reliable, customized, and professional commercial cleaning services in Phoenix, emphasizing workplace safety, health, and cleanliness",
    "hours": "Mon-Fri 9AM-6PM",
    "services": [
      "Jewish-owned Office cleaning in Arizona consultation",
      "Professional service",
      "Quality guarantee"
    ],
    "social_links": {}
  },
  {
    "name": "Keepers Commercial Cleaning",
    "address": "Phoenix, AZ (Serves Phoenix and throughout Arizona)",
    "phone": "(480) 306-7100",
    "rating": 5.0,
    "reviews": 25,
    "website": "https://keeperscleaning.com/",
    "category": "Jewish-owned Office cleaning in Arizona",
    "description": "Offers proactive, reliable, and responsive commercial cleaning services with a satisfaction guarantee, serving various business types",
    "hours": "Mon-Fri 9AM-6PM",
    "services": [
      "Jewish-owned Office cleaning in Arizona consultation",
      "Professional service",
      "Quality guarantee"
    ],
    "social_links": {}
  },
  {
    "name": "360clean",
    "address": "Phoenix, AZ (Serves the greater Phoenix area)",
    "phone": "(602) 335-1115",
    "rating": 4.8,
    "reviews": 25,
    "website": "https://www.360clean.com/locations/phoenix-az/",
    "category": "Jewish-owned Office cleaning in Arizona",
    "description": "Specializes in innovative, health-focused janitorial services using advanced processes for medical-grade cleaning",
    "hours": "Mon-Fri 9AM-6PM",
    "services": [
      "Jewish-owned Office cleaning in Arizona consultation",
      "Professional service",
      "Quality guarantee"
    ],
    "social_links": {}
  },
  {
    "name": "Mopstar Cleaners",
    "address": "Phoenix, AZ (Serves Phoenix, Scottsdale, Glendale, and other Valley cities)",
    "phone": "(602) 578-0248",
    "rating": 5.0,
    "reviews": 25,
    "website": "https://mopstarcleaners.com/",
    "category": "Jewish-owned Office cleaning in Arizona",
    "description": "A top-rated cleaning service offering a variety of cleaning solutions, including commercial cleaning, with a satisfaction guarantee",
    "hours": "Mon-Fri 9AM-6PM",
    "services": [
      "Jewish-owned Office cleaning in Arizona consultation",
      "Professional service",
      "Quality guarantee"
    ],
    "social_links": {}
  },
  {
    "name": "SolSource Clean",
    "address": "Phoenix, AZ (Serves the cities surrounding Phoenix)",
    "phone": "(602) 734-5755",
    "rating": 5.0,
    "reviews": 25,
    "website": "https://www.solsourceclean.com/",
    "category": "Jewish-owned Office cleaning in Arizona",
    "description": "A family-owned business providing a range of janitorial services, including office cleaning, with a focus on integrity, reliability, and customer satisfaction",
    "hours": "Mon-Fri 9AM-6PM",
    "services": [
      "Jewish-owned Office cleaning in Arizona consultation",
      "Professional service",
      "Quality guarantee"
    ],
    "social_links": {}
  },
  {
    "name": "Sonoran Cleaning",
    "address": "Phoenix, AZ (Serves the Phoenix metropolitan area)",
    "phone": "(602) 734-5755",
    "rating": 5.0,
    "reviews": 25,
    "website": "https://sonorancleaning.com/",
    "category": "Jewish-owned Office cleaning in Arizona",
    "description": "Offers nightly office and commercial cleaning services with experienced and background-checked employees, emphasizing attention to detail and reliability",
    "hours": "Mon-Fri 9AM-6PM",
    "services": [
      "Jewish-owned Office cleaning in Arizona consultation",
      "Professional service",
      "Quality guarantee"
    ],
    "social_links": {}
  },
  {
    "name": "Stratus Building Solutions",
    "address": "3839 N 3rd St. Suite 109, Phoenix, AZ 85012",
    "phone": "(602) 734-5755",
    "rating": 4.8,
    "reviews": 25,
    "website": "https://www.stratusbuilding.com/locations/phoenix-az/",
    "category": "Jewish-owned Office cleaning in Arizona",
    "description": "Provides professional and efficient commercial cleaning services tailored to business needs, using the latest equipment and eco-friendly products",
    "hours": "Mon-Fri 9AM-6PM",
    "services": [
      "Jewish-owned Office cleaning in Arizona consultation",
      "Professional service",
      "Quality guarantee"
    ],
    "social_links": {}
  },
  {
    "name": "Health Point Cleaning Solutions",
    "address": "Phoenix, AZ (Serves businesses throughout Arizona)",
    "phone": "(602) 734-5755",
    "rating": 4.9,
    "reviews": 25,
    "website": "https://healthpointcleaning.com/",
    "category": "Jewish-owned Office cleaning in Arizona",
    "description": "A trusted commercial cleaning company offering janitorial and medical cleaning services, utilizing advanced disinfection systems",
    "hours": "Mon-Fri 9AM-6PM",
    "services": [
      "Jewish-owned Office cleaning in Arizona consultation",
      "Professional service",
      "Quality guarantee"
    ],
    "social_links": {}
  },
  {
    "name": "Habibi's Cleaning Service",
    "address": "Fountain Hills, AZ (Serves Fountain Hills, Phoenix, and Scottsdale areas)",
    "phone": "(602) 578-0248",
    "rating": 5.0,
    "reviews": 25,
    "website": "https://habibiscleaningservice.com/",
    "category": "Jewish-owned Office cleaning in Arizona",
    "description": "A locally owned business offering commercial and post-construction cleaning services with a focus on quality, reliability, and customer satisfaction",
    "hours": "Mon-Fri 9AM-6PM",
    "services": [
      "Jewish-owned Office cleaning in Arizona consultation",
      "Professional service",
      "Quality guarantee"
    ],
    "social_links": {}
  }
]