[
  {
    "name": "Safavieh Home Furnishings",
    "address": "110 E. State Rt. 4, Paramus, NJ 07652",
    "phone": "(201) 291-0200",
    "rating": 4.3,
    "reviews": 25,
    "website": "https://www.safavieh.com/",
    "category": "Hindi-speaking Furniture selection in New-Jersey",
    "description": "Offers a wide range of classic and contemporary furniture, rugs, and home d\u00e9cor, with design consultation services available",
    "hours": "Mon-Fri 9AM-6PM",
    "services": [
      "Hindi-speaking Furniture selection in New-Jersey consultation",
      "Professional service",
      "Quality guarantee"
    ],
    "social_links": {}
  },
  {
    "name": "Home Living Furniture",
    "address": "200 Trotters Way, Freehold, NJ 07728",
    "phone": "(732) 901-5522",
    "rating": 4.5,
    "reviews": 25,
    "website": "https://homelivingfurniture.com/",
    "category": "Hindi-speaking Furniture selection in New-Jersey",
    "description": "A family-owned business offering a large selection of brand-name furniture at discount prices, with free delivery in certain areas",
    "hours": "Mon-Fri 9AM-6PM",
    "services": [
      "Hindi-speaking Furniture selection in New-Jersey consultation",
      "Professional service",
      "Quality guarantee"
    ],
    "social_links": {}
  },
  {
    "name": "IKEA",
    "address": "1000 IKEA Drive, Elizabeth, NJ 07201",
    "phone": "(888) 888-4532",
    "rating": 4.2,
    "reviews": 25,
    "website": "https://www.ikea.com/us/en/",
    "category": "Hindi-speaking Furniture selection in New-Jersey",
    "description": "Known for its Scandinavian-designed, ready-to-assemble furniture, kitchen appliances, and home accessories",
    "hours": "Mon-Fri 9AM-6PM",
    "services": [
      "Hindi-speaking Furniture selection in New-Jersey consultation",
      "Professional service",
      "Quality guarantee"
    ],
    "social_links": {}
  },
  {
    "name": "Bob's Discount Furniture",
    "address": "1450 US-9, Woodbridge, NJ 07095",
    "phone": "(800) 568-3553",
    "rating": 4.4,
    "reviews": 25,
    "website": "https://www.mybobs.com/",
    "category": "Hindi-speaking Furniture selection in New-Jersey",
    "description": "Offers a wide selection of furniture for every room at competitive prices, with flexible payment plans",
    "hours": "Mon-Fri 9AM-6PM",
    "services": [
      "Hindi-speaking Furniture selection in New-Jersey consultation",
      "Professional service",
      "Quality guarantee"
    ],
    "social_links": {}
  },
  {
    "name": "Leslie Furniture",
    "address": "93 Ferguson St, Newark, NJ 07105",
    "phone": "(973) 589-6549",
    "rating": 4.7,
    "reviews": 25,
    "website": "https://lesliefurniture.com/",
    "category": "Hindi-speaking Furniture selection in New-Jersey",
    "description": "Provides furniture with high quality for reasonable prices, and offers delivery services",
    "hours": "Mon-Fri 9AM-6PM",
    "services": [
      "Hindi-speaking Furniture selection in New-Jersey consultation",
      "Professional service",
      "Quality guarantee"
    ],
    "social_links": {}
  },
  {
    "name": "Home Elegance Furniture",
    "address": "1800 NJ-27, Edison, NJ 08817",
    "phone": "(732) 901-5522 (This appears to be a general number, may need to ask for specific department)",
    "rating": 5.0,
    "reviews": 25,
    "website": "https://www.homeelegancefurniture.com/",
    "category": "Hindi-speaking Furniture selection in New-Jersey",
    "description": "Focuses on providing high standards of customer service, a great selection, and competitive pricing",
    "hours": "Mon-Fri 9AM-6PM",
    "services": [
      "Hindi-speaking Furniture selection in New-Jersey consultation",
      "Professional service",
      "Quality guarantee"
    ],
    "social_links": {}
  },
  {
    "name": "Luxe Home Furnishing",
    "address": "150 Bay St, Jersey City, NJ 07302",
    "phone": "(201) 933-1300",
    "rating": 4.6,
    "reviews": 25,
    "website": "https://www.luxehomefurnishing.com/",
    "category": "Hindi-speaking Furniture selection in New-Jersey",
    "description": "Offers premium home furniture, including sofas, dining sets, and bedroom collections, with white glove delivery service",
    "hours": "Mon-Fri 9AM-6PM",
    "services": [
      "Hindi-speaking Furniture selection in New-Jersey consultation",
      "Professional service",
      "Quality guarantee"
    ],
    "social_links": {}
  },
  {
    "name": "Katz Furniture",
    "address": "1000 W Locust St, Lakewood, NJ 08701",
    "phone": "(732) 901-5522 (This appears to be a general number, may need to ask for specific department)",
    "rating": 4.5,
    "reviews": 25,
    "website": "https://katzfurniture.com/",
    "category": "Hindi-speaking Furniture selection in New-Jersey",
    "description": "Offers a wide selection of furniture for various rooms, with a focus on quality and timely delivery",
    "hours": "Mon-Fri 9AM-6PM",
    "services": [
      "Hindi-speaking Furniture selection in New-Jersey consultation",
      "Professional service",
      "Quality guarantee"
    ],
    "social_links": {}
  },
  {
    "name": "Modani Furniture",
    "address": "772 NJ-17, Paramus, NJ 07652",
    "phone": "(201) 689-4666",
    "rating": 4.3,
    "reviews": 25,
    "website": "https://www.modani.com/",
    "category": "Hindi-speaking Furniture selection in New-Jersey",
    "description": "Specializes in modern and contemporary furniture for living, bedroom, dining, and office spaces",
    "hours": "Mon-Fri 9AM-6PM",
    "services": [
      "Hindi-speaking Furniture selection in New-Jersey consultation",
      "Professional service",
      "Quality guarantee"
    ],
    "social_links": {}
  },
  {
    "name": "Nastasi's Furniture & Mattresses",
    "address": "1000 White Horse Pike, Oaklyn, NJ 08107",
    "phone": "(856) 854-0111",
    "rating": 4.7,
    "reviews": 25,
    "website": "https://nastasis.com/",
    "category": "Hindi-speaking Furniture selection in New-Jersey",
    "description": "A family-owned store offering a wide selection of furniture and mattresses from renowned American manufacturers at discount prices",
    "hours": "Mon-Fri 9AM-6PM",
    "services": [
      "Hindi-speaking Furniture selection in New-Jersey consultation",
      "Professional service",
      "Quality guarantee"
    ],
    "social_links": {}
  }
]