[
  {
    "name": "Ridgeline Longevity & Aesthetics",
    "address": "3400 W. Central Dr., Idaho Falls, ID 83402",
    "phone": "(208) 529-7000",
    "rating": 4.8,
    "reviews": 25,
    "website": "https://ridgelineaesthetics.com/",
    "category": "Armenian-speaking Body contouring in Idaho",
    "description": "Offers advanced body sculpting and contouring treatments like Morpheus8 and Accent Prime to smooth skin, reduce cellulite, and enhance natural contours",
    "hours": "Mon-Fri 9AM-6PM",
    "services": [
      "Armenian-speaking Body contouring in Idaho consultation",
      "Professional service",
      "Quality guarantee"
    ],
    "social_links": {}
  },
  {
    "name": "Advanced Specialty Care & Med Spa",
    "address": "16111 N. Brinson St. Suite 110, Nampa, ID 83687",
    "phone": "(208) 468-9400",
    "rating": 4.7,
    "reviews": 25,
    "website": "https://www.nampaobgyn.com/",
    "category": "Armenian-speaking Body contouring in Idaho",
    "description": "Provides body contouring services using Alma Accent technology, as well as liposuction treatments like LipoLife and LipoFlow",
    "hours": "Mon-Fri 9AM-6PM",
    "services": [
      "Armenian-speaking Body contouring in Idaho consultation",
      "Professional service",
      "Quality guarantee"
    ],
    "social_links": {}
  },
  {
    "name": "Dr. Mark Freeman - CoolSculpting",
    "address": "3400 W. Central Dr., Idaho Falls, ID 83402",
    "phone": "(208) 881-5351",
    "rating": 4.1,
    "reviews": 25,
    "website": "https://www.freemanplasticsurgery.com/",
    "category": "Armenian-speaking Body contouring in Idaho",
    "description": "Offers non-surgical fat reduction with CoolSculpting, and was the first provider in eastern Idaho to offer Dual CoolSculpting",
    "hours": "Mon-Fri 9AM-6PM",
    "services": [
      "Armenian-speaking Body contouring in Idaho consultation",
      "Professional service",
      "Quality guarantee"
    ],
    "social_links": {}
  },
  {
    "name": "Silk Touch Cosmetic Surgery, Lipo, & Medspa",
    "address": "851 E. Parkcenter Blvd., Boise, ID 83706",
    "phone": "(208) 939-3110",
    "rating": 4.9,
    "reviews": 25,
    "website": "https://silktouchcosmetic.com/",
    "category": "Armenian-speaking Body contouring in Idaho",
    "description": "Idaho's premier cosmetic surgery, liposuction, and medical spa center offering advanced body contouring and a comprehensive range of aesthetic services",
    "hours": "Mon-Fri 9AM-6PM",
    "services": [
      "Armenian-speaking Body contouring in Idaho consultation",
      "Professional service",
      "Quality guarantee"
    ],
    "social_links": {}
  },
  {
    "name": "Treasure Valley Dermatology",
    "address": "9393 W. Chinden Blvd., Boise, ID 83714",
    "phone": "(208) 322-7790",
    "rating": 4.7,
    "reviews": 25,
    "website": "https://www.tv-derm.com/",
    "category": "Armenian-speaking Body contouring in Idaho",
    "description": "Offers CoolSculpting, a non-invasive fat freezing treatment for body contouring, with expert providers and a helpful staff",
    "hours": "Mon-Fri 9AM-6PM",
    "services": [
      "Armenian-speaking Body contouring in Idaho consultation",
      "Professional service",
      "Quality guarantee"
    ],
    "social_links": {}
  },
  {
    "name": "Center for Aesthetics (CFA)",
    "address": "3400 W. Central Dr., Idaho Falls, ID 83402",
    "phone": "(208) 529-7000",
    "rating": 4.8,
    "reviews": 25,
    "website": "https://www.centerforaesthetics.com/",
    "category": "Armenian-speaking Body contouring in Idaho",
    "description": "A top CoolSculpting practice in the Idaho Falls region, offering a non-surgical method to freeze away stubborn fat for a slimmer, more sculpted appearance",
    "hours": "Mon-Fri 9AM-6PM",
    "services": [
      "Armenian-speaking Body contouring in Idaho consultation",
      "Professional service",
      "Quality guarantee"
    ],
    "social_links": {}
  },
  {
    "name": "Renu MediSpa",
    "address": "121 S. Main St., Eagle, ID 83616",
    "phone": "(208) 409-0577",
    "rating": 4.7,
    "reviews": 25,
    "website": "https://www.renumedispa.com/",
    "category": "Armenian-speaking Body contouring in Idaho",
    "description": "Offers body contouring treatments like CoolSculpting and CoolTone to reshape the body by reducing fat and tightening skin",
    "hours": "Mon-Fri 9AM-6PM",
    "services": [
      "Armenian-speaking Body contouring in Idaho consultation",
      "Professional service",
      "Quality guarantee"
    ],
    "social_links": {}
  },
  {
    "name": "truSculpt iD - Advanced Aesthetics",
    "address": "1300 N. 3rd St., Coeur d'Alene, ID 83814",
    "phone": "(208) 676-8346",
    "rating": 5.0,
    "reviews": 25,
    "website": "https://www.advancedaesthetics.com/",
    "category": "Armenian-speaking Body contouring in Idaho",
    "description": "Provides truSculpt iD, a non-surgical body-sculpting treatment that uses Monopolar Radiofrequency technology to target and eliminate stubborn fat",
    "hours": "Mon-Fri 9AM-6PM",
    "services": [
      "Armenian-speaking Body contouring in Idaho consultation",
      "Professional service",
      "Quality guarantee"
    ],
    "social_links": {}
  },
  {
    "name": "Eagle Body Sculpting",
    "address": "1770 E. Iron Eagle Dr., Suite 110, Eagle, ID 83616",
    "phone": "(208) 866-7868",
    "rating": 5.0,
    "reviews": 25,
    "website": "https://www.eaglebodysculpting.com/",
    "category": "Armenian-speaking Body contouring in Idaho",
    "description": "Offers face and body services including skin tightening, body sculpting, fat melting, and cellulite reduction using technologies like Exilis Elite and PHYSIQ",
    "hours": "Mon-Fri 9AM-6PM",
    "services": [
      "Armenian-speaking Body contouring in Idaho consultation",
      "Professional service",
      "Quality guarantee"
    ],
    "social_links": {}
  },
  {
    "name": "Kramer Plastic Surgery",
    "address": "851 E. Parkcenter Blvd., Boise, ID 83706",
    "phone": "(208) 322-7790",
    "rating": 4.9,
    "reviews": 25,
    "website": "https://www.kramerplasticsurgery.com/",
    "category": "Armenian-speaking Body contouring in Idaho",
    "description": "Specializes in personalized body contouring after weight loss surgery, offering procedures like liposuction to help patients achieve their desired physique",
    "hours": "Mon-Fri 9AM-6PM",
    "services": [
      "Armenian-speaking Body contouring in Idaho consultation",
      "Professional service",
      "Quality guarantee"
    ],
    "social_links": {}
  }
]