[
  {
    "name": "Calvert's Plant Interiors, Inc.",
    "address": "5308 N Classen Blvd, Oklahoma City, OK 73118",
    "phone": "(405) 848-5555",
    "rating": 4.0,
    "reviews": 25,
    "website": "http://www.calvertsplantinteriors.com/",
    "category": "Buddhist-owned Specialty plant care in Oklahoma",
    "description": "Offers interiorscape expertise, indoor and outdoor plant designs for commercial and residential areas, professional designers, delivery, and floral artists",
    "hours": "Mon-Fri 9AM-6PM",
    "services": [
      "Buddhist-owned Specialty plant care in Oklahoma consultation",
      "Professional service",
      "Quality guarantee"
    ],
    "social_links": {}
  },
  {
    "name": "The Plant Shoppe",
    "address": "835 W Sheridan Ave. #100, Oklahoma City, OK 73106",
    "phone": "(405) 748-0718",
    "rating": 4.0,
    "reviews": 25,
    "website": "http://www.theplantshoppeokc.com/",
    "category": "Buddhist-owned Specialty plant care in Oklahoma",
    "description": "A curated selection of indoor plants, pots, and accessories, offering floral arrangements, plant maintenance, and delivery",
    "hours": "Mon-Fri 9AM-6PM",
    "services": [
      "Buddhist-owned Specialty plant care in Oklahoma consultation",
      "Professional service",
      "Quality guarantee"
    ],
    "social_links": {}
  },
  {
    "name": "Marcum's Nursery",
    "address": "Multiple locations, including Goldsby, OK. (Main location: 15510 US-74, Goldsby, OK 73037)",
    "phone": "(405) 329-0010 (Goldsby location)",
    "rating": 4.0,
    "reviews": 25,
    "website": "http://www.marcumsnursery.com/",
    "category": "Buddhist-owned Specialty plant care in Oklahoma",
    "description": "A family-owned and operated business with multiple locations, offering garden center, tree farm, and landscape services",
    "hours": "Mon-Fri 9AM-6PM",
    "services": [
      "Buddhist-owned Specialty plant care in Oklahoma consultation",
      "Professional service",
      "Quality guarantee"
    ],
    "social_links": {}
  },
  {
    "name": "Bustani Plant Farm",
    "address": "14405 N. County Road 6, Stillwater, OK 74075",
    "phone": "(405) 747-0001",
    "rating": 4.0,
    "reviews": 25,
    "website": "http://www.bustaniplantfarm.com/",
    "category": "Buddhist-owned Specialty plant care in Oklahoma",
    "description": "A specialty nursery focusing on unique and hard-to-find plants, including perennials, tropicals, vines, and Oklahoma natives",
    "hours": "Mon-Fri 9AM-6PM",
    "services": [
      "Buddhist-owned Specialty plant care in Oklahoma consultation",
      "Professional service",
      "Quality guarantee"
    ],
    "social_links": {}
  },
  {
    "name": "Southwood Landscape & Nursery",
    "address": "Multiple locations, including Tulsa, OK. (Example: 7000 S. 49th W. Ave, Tulsa, OK 74131)",
    "phone": "(918) 445-0075 (Tulsa location)",
    "rating": 4.0,
    "reviews": 25,
    "website": "http://www.southwoodlandscape.com/",
    "category": "Buddhist-owned Specialty plant care in Oklahoma",
    "description": "Tulsa's largest independent garden center, offering native plants, trees, shrubs, and gardening supplies",
    "hours": "Mon-Fri 9AM-6PM",
    "services": [
      "Buddhist-owned Specialty plant care in Oklahoma consultation",
      "Professional service",
      "Quality guarantee"
    ],
    "social_links": {}
  },
  {
    "name": "TLC Garden Center",
    "address": "105 W Memorial Rd, Oklahoma City, OK 73114",
    "phone": "(405) 751-0440",
    "rating": 4.0,
    "reviews": 25,
    "website": "https://www.google.com/maps/search/TLC+Garden+Center+in+Oklahoma",
    "category": "Buddhist-owned Specialty plant care in Oklahoma",
    "description": "Offers a wide selection of plants and gardening supplies",
    "hours": "Mon-Fri 9AM-6PM",
    "services": [
      "Buddhist-owned Specialty plant care in Oklahoma consultation",
      "Professional service",
      "Quality guarantee"
    ],
    "social_links": {}
  },
  {
    "name": "River Bottom Nursery",
    "address": "Two locations in OKC: 11801 S Portland Ave, Oklahoma City, OK 73170 and 7600 SW 119th St, Oklahoma City, OK 73173",
    "phone": "(405) 691-7600 (SW 119th St location)",
    "rating": 4.0,
    "reviews": 25,
    "website": "http://www.riverbottomnursery.com/",
    "category": "Buddhist-owned Specialty plant care in Oklahoma",
    "description": "Premier tree and plant nursery in OKC, offering a complete line of horticulture and landscaping supplies",
    "hours": "Mon-Fri 9AM-6PM",
    "services": [
      "Buddhist-owned Specialty plant care in Oklahoma consultation",
      "Professional service",
      "Quality guarantee"
    ],
    "social_links": {}
  },
  {
    "name": "The Succulent Shop",
    "address": "319 S Main St, Broken Arrow, OK 74012",
    "phone": "(918) 200-2827",
    "rating": 4.0,
    "reviews": 25,
    "website": "https://www.google.com/maps/search/The+Succulent+Shop+in+Oklahoma",
    "category": "Buddhist-owned Specialty plant care in Oklahoma",
    "description": "A boutique plant shop selling houseplants, artisan gifts, and offering workshops",
    "hours": "Mon-Fri 9AM-6PM",
    "services": [
      "Buddhist-owned Specialty plant care in Oklahoma consultation",
      "Professional service",
      "Quality guarantee"
    ],
    "social_links": {}
  },
  {
    "name": "Tulsa Rare Plant Emporium, LLC",
    "address": "Tulsa, OK (Specific address not provided, operates via pop-up venues and direct email)",
    "phone": "",
    "rating": 4.0,
    "reviews": 25,
    "website": "https://www.google.com/maps/search/Tulsa+Rare+Plant+Emporium,+LLC+in+Oklahoma",
    "category": "Buddhist-owned Specialty plant care in Oklahoma",
    "description": "A local Tulsa plant nursery and art studio specializing in rare plants, owned by a biologist",
    "hours": "Mon-Fri 9AM-6PM",
    "services": [
      "Buddhist-owned Specialty plant care in Oklahoma consultation",
      "Professional service",
      "Quality guarantee"
    ],
    "social_links": {}
  },
  {
    "name": "Cohlmia's | The Plant Place",
    "address": "1502 S. Cincinnati Pl, Tulsa, OK 74119",
    "phone": "(918) 582-1351",
    "rating": 4.0,
    "reviews": 25,
    "website": "http://www.cohlmias.com/",
    "category": "Buddhist-owned Specialty plant care in Oklahoma",
    "description": "Tulsa's premiere interior plant destination, offering horticultural design consultations, maintenance services, and a retail greenhouse",
    "hours": "Mon-Fri 9AM-6PM",
    "services": [
      "Buddhist-owned Specialty plant care in Oklahoma consultation",
      "Professional service",
      "Quality guarantee"
    ],
    "social_links": {}
  }
]