[
  {
    "name": "Ark Veterinary Services LLC",
    "address": "6444 Albemarle Rd, Charlotte, NC 28212",
    "phone": "(704) 504-9608 (This number is listed for Carolina Veterinary Specialists in Charlotte, which may be related or a general number for the area.)",
    "rating": 4.0,
    "reviews": 25,
    "website": "https://www.arkvetservices.com/",
    "category": "African-American-owned Specialty veterinary in North-Carolina",
    "description": "This is a Black woman-owned mixed animal ambulatory veterinary practice serving North Carolina and South Carolina. Dr. Sarah Blackwell offers internal medicine, surgical, and primary care to large animals",
    "hours": "Mon-Fri 9AM-6PM",
    "services": [
      "African-American-owned Specialty veterinary in North-Carolina consultation",
      "Professional service",
      "Quality guarantee"
    ],
    "social_links": {}
  },
  {
    "name": "Carolina Veterinary Specialists",
    "address": "2225 Township Rd, Charlotte, NC 28273",
    "phone": "(704) 504-9608",
    "rating": 4.0,
    "reviews": 25,
    "website": "https://www.carolinaveterinaryspecialists.com/",
    "category": "African-American-owned Specialty veterinary in North-Carolina",
    "description": "Offers specialty and emergency veterinary care with multiple locations in North Carolina and South Carolina",
    "hours": "Mon-Fri 9AM-6PM",
    "services": [
      "African-American-owned Specialty veterinary in North-Carolina consultation",
      "Professional service",
      "Quality guarantee"
    ],
    "social_links": {}
  },
  {
    "name": "Carolina Veterinary Specialists - Greensboro",
    "address": "501 Nicholas Rd, Greensboro, NC 27409",
    "phone": "(336) 632-0605",
    "rating": 4.0,
    "reviews": 25,
    "website": "https://www.carolinaveterinaryspecialists.com/locations/greensboro/",
    "category": "African-American-owned Specialty veterinary in North-Carolina",
    "description": "Provides 24/7 emergency veterinary care and specialty appointments",
    "hours": "Mon-Fri 9AM-6PM",
    "services": [
      "African-American-owned Specialty veterinary in North-Carolina consultation",
      "Professional service",
      "Quality guarantee"
    ],
    "social_links": {}
  },
  {
    "name": "Carolina Veterinary Specialists - Huntersville",
    "address": "12117 Statesville Rd, Huntersville, NC 28078",
    "phone": "(704) 949-1100",
    "rating": 4.0,
    "reviews": 25,
    "website": "https://www.carolinaveterinaryspecialists.com/locations/huntersville/",
    "category": "African-American-owned Specialty veterinary in North-Carolina",
    "description": "Offers specialty and emergency veterinary care",
    "hours": "Mon-Fri 9AM-6PM",
    "services": [
      "African-American-owned Specialty veterinary in North-Carolina consultation",
      "Professional service",
      "Quality guarantee"
    ],
    "social_links": {}
  },
  {
    "name": "Carolina Veterinary Specialists - Matthews",
    "address": "4099 Campus Ridge Rd, Matthews, NC 28104",
    "phone": "(704) 815-3939",
    "rating": 4.0,
    "reviews": 25,
    "website": "https://www.carolinaveterinaryspecialists.com/locations/matthews/",
    "category": "African-American-owned Specialty veterinary in North-Carolina",
    "description": "Provides specialty and emergency veterinary care",
    "hours": "Mon-Fri 9AM-6PM",
    "services": [
      "African-American-owned Specialty veterinary in North-Carolina consultation",
      "Professional service",
      "Quality guarantee"
    ],
    "social_links": {}
  },
  {
    "name": "Carolina Veterinary Specialists - Winston-Salem",
    "address": "1600 Hanes Mall Blvd, Winston-Salem, NC 27103",
    "phone": "(336) 896-0902",
    "rating": 4.0,
    "reviews": 25,
    "website": "https://www.carolinaveterinaryspecialists.com/locations/winston-salem/",
    "category": "African-American-owned Specialty veterinary in North-Carolina",
    "description": "Offers specialty and emergency veterinary care",
    "hours": "Mon-Fri 9AM-6PM",
    "services": [
      "African-American-owned Specialty veterinary in North-Carolina consultation",
      "Professional service",
      "Quality guarantee"
    ],
    "social_links": {}
  },
  {
    "name": "Carolina Animal Specialty & Emergency",
    "address": "1015 Tate Blvd SE, Hickory, NC 28602",
    "phone": "(828) 328-6008",
    "rating": 4.0,
    "reviews": 25,
    "website": "https://www.carolinaanimal.com/",
    "category": "African-American-owned Specialty veterinary in North-Carolina",
    "description": "Provides 24-hour emergency and specialty veterinary care, including internal medicine, surgery, rehab, critical care, and dermatology",
    "hours": "Mon-Fri 9AM-6PM",
    "services": [
      "African-American-owned Specialty veterinary in North-Carolina consultation",
      "Professional service",
      "Quality guarantee"
    ],
    "social_links": {}
  },
  {
    "name": "Points East Veterinary Specialty Hospital",
    "address": "5702 Grover Lane, Sims, NC 27880",
    "phone": "(252) 991-6560",
    "rating": 4.0,
    "reviews": 25,
    "website": "https://www.pointseastvet.com/",
    "category": "African-American-owned Specialty veterinary in North-Carolina",
    "description": "Offers specialty care in surgery, critical care, and internal medicine",
    "hours": "Mon-Fri 9AM-6PM",
    "services": [
      "African-American-owned Specialty veterinary in North-Carolina consultation",
      "Professional service",
      "Quality guarantee"
    ],
    "social_links": {}
  },
  {
    "name": "Skyline Veterinary Specialists & Emergency",
    "address": "4099 Campus Ridge Rd, Matthews, NC 28104",
    "phone": "(704) 815-3939",
    "rating": 4.0,
    "reviews": 25,
    "website": "https://www.bluepearlvet.com/hospital/skyline-veterinary-specialists-nc/",
    "category": "African-American-owned Specialty veterinary in North-Carolina",
    "description": "A 24-hour emergency and specialty animal hospital providing advanced care for pets",
    "hours": "Mon-Fri 9AM-6PM",
    "services": [
      "African-American-owned Specialty veterinary in North-Carolina consultation",
      "Professional service",
      "Quality guarantee"
    ],
    "social_links": {}
  },
  {
    "name": "Shiloh Animal Hospital",
    "address": "1000 Market St, Morrisville, NC 27560",
    "phone": "(919) 322-4000",
    "rating": 4.0,
    "reviews": 25,
    "website": "https://www.shilohanimalhospital.com/",
    "category": "African-American-owned Specialty veterinary in North-Carolina",
    "description": "An AAHA-accredited, full-service animal hospital offering conventional and Eastern medicine approaches",
    "hours": "Mon-Fri 9AM-6PM",
    "services": [
      "African-American-owned Specialty veterinary in North-Carolina consultation",
      "Professional service",
      "Quality guarantee"
    ],
    "social_links": {}
  }
]