[
  {
    "name": "Reliant Medical Group - General Surgery",
    "address": "Multiple locations including Worcester, Leominster, Milford, Southborough, and Shrewsbury, MA",
    "phone": "1 (800) 283-2556",
    "rating": 4.0,
    "reviews": 25,
    "website": "https://www.reliantmedicalgroup.org/services/general-surgery/",
    "category": "Bengali-speaking General surgery in Massachusetts",
    "description": "Offers a broad range of general surgery services, including breast cancer surgery, hernia repair, and bariatric surgery. They have staff who speak Bengali",
    "hours": "Mon-Fri 9AM-6PM",
    "services": [
      "Bengali-speaking General surgery in Massachusetts consultation",
      "Professional service",
      "Quality guarantee"
    ],
    "social_links": {}
  },
  {
    "name": "UMass Memorial Health - General Surgery",
    "address": "UMass Memorial Medical Center, 55 Lake Ave N, Worcester, MA 01655",
    "phone": "(774) 366-1402 (for Dr. Andrea Chiaramonte, a general surgeon at UMass Memorial)",
    "rating": 4.0,
    "reviews": 25,
    "website": "https://www.umassmemorial.org/services/surgery/general-surgery",
    "category": "Bengali-speaking General surgery in Massachusetts",
    "description": "Provides comprehensive patient-centered care for a wide spectrum of complex conditions, utilizing minimally invasive techniques",
    "hours": "Mon-Fri 9AM-6PM",
    "services": [
      "Bengali-speaking General surgery in Massachusetts consultation",
      "Professional service",
      "Quality guarantee"
    ],
    "social_links": {}
  },
  {
    "name": "Massachusetts General Hospital - Department of Surgery",
    "address": "55 Fruit St, Boston, MA 02114",
    "phone": "(617) 726-2000 (Main Hospital Number)",
    "rating": 4.0,
    "reviews": 25,
    "website": "https://www.massgeneral.org/surgery/",
    "category": "Bengali-speaking General surgery in Massachusetts",
    "description": "Offers a wide range of surgical specialties with a large team of experienced surgeons. They have a diverse staff that includes Bengali speakers",
    "hours": "Mon-Fri 9AM-6PM",
    "services": [
      "Bengali-speaking General surgery in Massachusetts consultation",
      "Professional service",
      "Quality guarantee"
    ],
    "social_links": {}
  },
  {
    "name": "Beth Israel Deaconess Medical Center - General Surgery",
    "address": "330 Brookline Avenue, Shapiro Clinical Building, Boston, MA 02215",
    "phone": "(617) 632-1010",
    "rating": 4.0,
    "reviews": 25,
    "website": "https://www.bidmc.org/medical-services/surgery/general-surgery",
    "category": "Bengali-speaking General surgery in Massachusetts",
    "description": "Features surgical specialists in weight loss, endocrine, and general surgery, with a commitment to advanced techniques",
    "hours": "Mon-Fri 9AM-6PM",
    "services": [
      "Bengali-speaking General surgery in Massachusetts consultation",
      "Professional service",
      "Quality guarantee"
    ],
    "social_links": {}
  },
  {
    "name": "Tufts Medical Center - General Surgery",
    "address": "860 Washington Street, South Building, 4th floor, Boston, MA 02111",
    "phone": "(617) 636-5000 (Tufts Medical Center Main Number)",
    "rating": 4.0,
    "reviews": 25,
    "website": "https://www.tuftsmedicine.org/find-a-doctor/specialties/general-surgery",
    "category": "Bengali-speaking General surgery in Massachusetts",
    "description": "Offers a comprehensive range of general surgery services, including anorectal surgery, breast surgery, and colon and rectal surgery",
    "hours": "Mon-Fri 9AM-6PM",
    "services": [
      "Bengali-speaking General surgery in Massachusetts consultation",
      "Professional service",
      "Quality guarantee"
    ],
    "social_links": {}
  },
  {
    "name": "Baystate Health - General Surgery",
    "address": "Multiple locations, including Baystate Medical Practices Inc. at 280 Chestnut St, Suite 2, Springfield, MA",
    "phone": "(413) 794-7020 (for Neal E. Seymour, MD)",
    "rating": 4.0,
    "reviews": 25,
    "website": "https://www.baystatehealth.org/services/general-surgery",
    "category": "Bengali-speaking General surgery in Massachusetts",
    "description": "Skilled general surgeons diagnose and operate on various problems, including appendicitis, hernias, and gallbladder issues",
    "hours": "Mon-Fri 9AM-6PM",
    "services": [
      "Bengali-speaking General surgery in Massachusetts consultation",
      "Professional service",
      "Quality guarantee"
    ],
    "social_links": {}
  },
  {
    "name": "Cambridge Health Alliance - General Surgery",
    "address": "Multiple locations, including Cambridge Hospital and Somerville Hospital",
    "phone": "(617) 665-1000 (Cambridge Hospital Main Number)",
    "rating": 4.0,
    "reviews": 25,
    "website": "https://www.challiance.org/services/general-surgery",
    "category": "Bengali-speaking General surgery in Massachusetts",
    "description": "Provides comprehensive surgical care with a diverse staff that includes Bengali speakers",
    "hours": "Mon-Fri 9AM-6PM",
    "services": [
      "Bengali-speaking General surgery in Massachusetts consultation",
      "Professional service",
      "Quality guarantee"
    ],
    "social_links": {}
  },
  {
    "name": "Anna Jaques Hospital - General Surgery",
    "address": "25 Highland St, Newburyport, MA 01950",
    "phone": "(978) 463-1000",
    "rating": 4.0,
    "reviews": 25,
    "website": "https://www.ajh.org/services/general-surgery",
    "category": "Bengali-speaking General surgery in Massachusetts",
    "description": "General surgeons care for a wide range of common and complex conditions, using minimally invasive techniques",
    "hours": "Mon-Fri 9AM-6PM",
    "services": [
      "Bengali-speaking General surgery in Massachusetts consultation",
      "Professional service",
      "Quality guarantee"
    ],
    "social_links": {}
  },
  {
    "name": "South Shore Health - General Surgery",
    "address": "Multiple locations, including South Shore Hospital, 55 Fogg Rd, South Weymouth, MA 02190",
    "phone": "(781) 624-8000 (South Shore Hospital Main Number)",
    "rating": 4.0,
    "reviews": 25,
    "website": "https://www.southshorehealth.org/services/general-surgery",
    "category": "Bengali-speaking General surgery in Massachusetts",
    "description": "General surgeons treat a wide variety of medical conditions and injuries, covering diagnosis, treatment, and prevention",
    "hours": "Mon-Fri 9AM-6PM",
    "services": [
      "Bengali-speaking General surgery in Massachusetts consultation",
      "Professional service",
      "Quality guarantee"
    ],
    "social_links": {}
  },
  {
    "name": "Milford Regional Medical Center - General Surgery",
    "address": "145 Main St, Milford, MA 01757",
    "phone": "(508) 473-1000",
    "rating": 4.0,
    "reviews": 25,
    "website": "https://www.milfordregional.org/services/general-surgery",
    "category": "Bengali-speaking General surgery in Massachusetts",
    "description": "General surgeons perform a wide range of procedures, often utilizing minimally invasive laparoscopic techniques",
    "hours": "Mon-Fri 9AM-6PM",
    "services": [
      "Bengali-speaking General surgery in Massachusetts consultation",
      "Professional service",
      "Quality guarantee"
    ],
    "social_links": {}
  }
]