[
  {
    "name": "Mid-Iowa Paintless Dent Repair",
    "address": "Waterloo, IA",
    "phone": "319-427-1209",
    "rating": 4.0,
    "reviews": 25,
    "website": "https://www.google.com/maps/search/Mid-Iowa+Paintless+Dent+Repair+in+Iowa",
    "category": "African-American-owned Dent repair in Iowa",
    "description": "Specializes in paintless dent repair for hail damage and door dings, offering affordable and fast service",
    "hours": "Mon-Fri 9AM-6PM",
    "services": [
      "African-American-owned Dent repair in Iowa consultation",
      "Professional service",
      "Quality guarantee"
    ],
    "social_links": {}
  },
  {
    "name": "Elite Dent Repair",
    "address": "Hiawatha, IA",
    "phone": "(319) 533-3985",
    "rating": 4.0,
    "reviews": 25,
    "website": "https://www.google.com/maps/search/Elite+Dent+Repair+in+Iowa",
    "category": "African-American-owned Dent repair in Iowa",
    "description": "Offers paintless dent repair for dings, dents, hail damage, and body creases, with nearly 20 years of experience",
    "hours": "Mon-Fri 9AM-6PM",
    "services": [
      "African-American-owned Dent repair in Iowa consultation",
      "Professional service",
      "Quality guarantee"
    ],
    "social_links": {}
  },
  {
    "name": "DentTek",
    "address": "Cedar Falls, IA",
    "phone": "",
    "rating": 4.0,
    "reviews": 25,
    "website": "https://www.google.com/maps/search/DentTek+in+Iowa",
    "category": "African-American-owned Dent repair in Iowa",
    "description": "Specializes in paintless dent removal for door dings and hail damage, serving Cedar Falls, Waterloo, and surrounding areas up to 75 miles. Offers mobile services",
    "hours": "Mon-Fri 9AM-6PM",
    "services": [
      "African-American-owned Dent repair in Iowa consultation",
      "Professional service",
      "Quality guarantee"
    ],
    "social_links": {}
  },
  {
    "name": "Premier Dent Repair",
    "address": "Davenport, IA",
    "phone": "",
    "rating": 4.0,
    "reviews": 25,
    "website": "https://www.google.com/maps/search/Premier+Dent+Repair+in+Iowa",
    "category": "African-American-owned Dent repair in Iowa",
    "description": "Provides paintless dent repair for door dings, creases, and hail damage since 2008, working with all insurance companies",
    "hours": "Mon-Fri 9AM-6PM",
    "services": [
      "African-American-owned Dent repair in Iowa consultation",
      "Professional service",
      "Quality guarantee"
    ],
    "social_links": {}
  },
  {
    "name": "Details Garage Pros",
    "address": "Ankeny, IA",
    "phone": "(515) 206-8813",
    "rating": 4.5,
    "reviews": 25,
    "website": "https://www.google.com/maps/search/Details+Garage+Pros+in+Iowa",
    "category": "African-American-owned Dent repair in Iowa",
    "description": "Offers paintless dent repair for hail damage, fender benders, and door dings, with over a decade of experience",
    "hours": "Mon-Fri 9AM-6PM",
    "services": [
      "African-American-owned Dent repair in Iowa consultation",
      "Professional service",
      "Quality guarantee"
    ],
    "social_links": {}
  },
  {
    "name": "Rocky's Body & Detail Shop",
    "address": "Ottumwa, IA",
    "phone": "641-684-5547",
    "rating": 4.0,
    "reviews": 25,
    "website": "https://www.google.com/maps/search/Rocky's+Body+&+Detail+Shop+in+Iowa",
    "category": "African-American-owned Dent repair in Iowa",
    "description": "Specializes in paintless dent repair (PDR) for hail damage, minor accidents, and parking lot mishaps, aiming to restore vehicles efficiently and cost-effectively",
    "hours": "Mon-Fri 9AM-6PM",
    "services": [
      "African-American-owned Dent repair in Iowa consultation",
      "Professional service",
      "Quality guarantee"
    ],
    "social_links": {}
  },
  {
    "name": "New Life Dent Repair (Dent Dan)",
    "address": "1479 NE 69th Pl #81, Ankeny, IA 50021 (Servicing Des Moines and Surrounding Cities)",
    "phone": "515-314-4290",
    "rating": 4.0,
    "reviews": 25,
    "website": "https://www.google.com/maps/search/New+Life+Dent+Repair+(Dent+Dan)+in+Iowa",
    "category": "African-American-owned Dent repair in Iowa",
    "description": "Provides expert paintless dent repair (PDR) for vehicles in Des Moines and surrounding areas, focusing on restoring cars to their original condition without paint or fillers",
    "hours": "Mon-Fri 9AM-6PM",
    "services": [
      "African-American-owned Dent repair in Iowa consultation",
      "Professional service",
      "Quality guarantee"
    ],
    "social_links": {}
  },
  {
    "name": "Car Crafters",
    "address": "2101 7th Ave, Des Moines, IA 50314",
    "phone": "(515) 288-5555",
    "rating": 4.7,
    "reviews": 25,
    "website": "https://www.carcraftersia.com/",
    "category": "African-American-owned Dent repair in Iowa",
    "description": "Offers a wide range of auto body services including dent repair, collision repair, and custom painting. They are known for their quality workmanship and customer service",
    "hours": "Mon-Fri 9AM-6PM",
    "services": [
      "African-American-owned Dent repair in Iowa consultation",
      "Professional service",
      "Quality guarantee"
    ],
    "social_links": {}
  },
  {
    "name": "Auto Body Professionals",
    "address": "1013 SE 14th St, Des Moines, IA 50315",
    "phone": "(515) 288-3200",
    "rating": 4.6,
    "reviews": 25,
    "website": "https://www.autobodyprofessionals.net/",
    "category": "African-American-owned Dent repair in Iowa",
    "description": "Provides comprehensive auto body repair services, including dent removal, frame straightening, and paint matching, with a focus on restoring vehicles to pre-accident condition",
    "hours": "Mon-Fri 9AM-6PM",
    "services": [
      "African-American-owned Dent repair in Iowa consultation",
      "Professional service",
      "Quality guarantee"
    ],
    "social_links": {}
  },
  {
    "name": "Hometown Auto Body",
    "address": "200 SE 30th St, Ankeny, IA 50021",
    "phone": "(515) 964-4242",
    "rating": 4.5,
    "reviews": 25,
    "website": "https://www.hometownautobodyankeny.com/",
    "category": "African-American-owned Dent repair in Iowa",
    "description": "A family-owned and operated auto body shop specializing in collision repair, dent removal, and painting services, committed to providing honest and reliable service",
    "hours": "Mon-Fri 9AM-6PM",
    "services": [
      "African-American-owned Dent repair in Iowa consultation",
      "Professional service",
      "Quality guarantee"
    ],
    "social_links": {}
  }
]