[
  {
    "name": "Aerials Gymnastics & Sports Conditioning",
    "address": "136 Day Street, Newington, CT 06111",
    "phone": "860-856-1166",
    "rating": 4.0,
    "reviews": 25,
    "website": "https://www.google.com/maps/search/Aerials+Gymnastics+&+Sports+Conditioning+in+Connecticut",
    "category": "Chinese-speaking Gymnastics coaching in Connecticut",
    "description": "Offers gymnastics and sports conditioning programs",
    "hours": "Mon-Fri 9AM-6PM",
    "services": [
      "Chinese-speaking Gymnastics coaching in Connecticut consultation",
      "Professional service",
      "Quality guarantee"
    ],
    "social_links": {}
  },
  {
    "name": "CATS Gymnastics",
    "address": "1701 Highland Ave, Unit 2, Cheshire, CT 06410",
    "phone": "203-271-0279",
    "rating": 4.0,
    "reviews": 25,
    "website": "https://www.google.com/maps/search/CATS+Gymnastics+in+Connecticut",
    "category": "Chinese-speaking Gymnastics coaching in Connecticut",
    "description": "Provides gymnastics classes and programs",
    "hours": "Mon-Fri 9AM-6PM",
    "services": [
      "Chinese-speaking Gymnastics coaching in Connecticut consultation",
      "Professional service",
      "Quality guarantee"
    ],
    "social_links": {}
  },
  {
    "name": "Darien YMCA",
    "address": "2420 Post Rd, Darien CT 06820",
    "phone": "203-655-8228 ext. 1314",
    "rating": 4.0,
    "reviews": 25,
    "website": "https://www.google.com/maps/search/Darien+YMCA+in+Connecticut",
    "category": "Chinese-speaking Gymnastics coaching in Connecticut",
    "description": "Offers gymnastics programs through their YMCA facility",
    "hours": "Mon-Fri 9AM-6PM",
    "services": [
      "Chinese-speaking Gymnastics coaching in Connecticut consultation",
      "Professional service",
      "Quality guarantee"
    ],
    "social_links": {}
  },
  {
    "name": "Farmington Valley YMCA",
    "address": "97 Salmon Brook St, Granby, CT 06035",
    "phone": "860-653-5524",
    "rating": 4.0,
    "reviews": 25,
    "website": "https://www.google.com/maps/search/Farmington+Valley+YMCA+in+Connecticut",
    "category": "Chinese-speaking Gymnastics coaching in Connecticut",
    "description": "Provides gymnastics and sports programs",
    "hours": "Mon-Fri 9AM-6PM",
    "services": [
      "Chinese-speaking Gymnastics coaching in Connecticut consultation",
      "Professional service",
      "Quality guarantee"
    ],
    "social_links": {}
  },
  {
    "name": "Rhythmic Angels Gymnastics",
    "address": "15 Executive Dr., Farmington, CT",
    "phone": "",
    "rating": 4.0,
    "reviews": 25,
    "website": "https://www.google.com/maps/search/Rhythmic+Angels+Gymnastics+in+Connecticut",
    "category": "Chinese-speaking Gymnastics coaching in Connecticut",
    "description": "Offers rhythmic gymnastics classes for girls, focusing on coordination, flexibility, and strength",
    "hours": "Mon-Fri 9AM-6PM",
    "services": [
      "Chinese-speaking Gymnastics coaching in Connecticut consultation",
      "Professional service",
      "Quality guarantee"
    ],
    "social_links": {}
  },
  {
    "name": "Gymnastics Training Center",
    "address": "520 Hopmeadow Street, Simsbury, CT 06070",
    "phone": "860-658-7340",
    "rating": 4.0,
    "reviews": 25,
    "website": "https://www.google.com/maps/search/Gymnastics+Training+Center+in+Connecticut",
    "category": "Chinese-speaking Gymnastics coaching in Connecticut",
    "description": "One of Connecticut's oldest gymnastics programs, offering non-competitive and competitive classes",
    "hours": "Mon-Fri 9AM-6PM",
    "services": [
      "Chinese-speaking Gymnastics coaching in Connecticut consultation",
      "Professional service",
      "Quality guarantee"
    ],
    "social_links": {}
  },
  {
    "name": "Gymnastics Express Too",
    "address": "248 Eastern Blvd, Glastonbury, CT 06033",
    "phone": "860-659-2200",
    "rating": 4.0,
    "reviews": 25,
    "website": "https://www.google.com/maps/search/Gymnastics+Express+Too+in+Connecticut",
    "category": "Chinese-speaking Gymnastics coaching in Connecticut",
    "description": "Offers gymnastics classes for kids",
    "hours": "Mon-Fri 9AM-6PM",
    "services": [
      "Chinese-speaking Gymnastics coaching in Connecticut consultation",
      "Professional service",
      "Quality guarantee"
    ],
    "social_links": {}
  },
  {
    "name": "New Era Gymnastics",
    "address": "850 & 1180 Sherman Ave, Hamden, CT",
    "phone": "203-281-1826 (Office)",
    "rating": 4.0,
    "reviews": 25,
    "website": "https://www.google.com/maps/search/New+Era+Gymnastics+in+Connecticut",
    "category": "Chinese-speaking Gymnastics coaching in Connecticut",
    "description": "Provides gymnastics classes, tumbling, and trampoline programs for various age groups",
    "hours": "Mon-Fri 9AM-6PM",
    "services": [
      "Chinese-speaking Gymnastics coaching in Connecticut consultation",
      "Professional service",
      "Quality guarantee"
    ],
    "social_links": {}
  },
  {
    "name": "Connecticut Gymnastics Academy",
    "address": "51 Pent Highway, Wallingford, CT 06492",
    "phone": "203-269-7464",
    "rating": 4.0,
    "reviews": 25,
    "website": "https://www.google.com/maps/search/Connecticut+Gymnastics+Academy+in+Connecticut",
    "category": "Chinese-speaking Gymnastics coaching in Connecticut",
    "description": "Offers gymnastics and cheerleading classes",
    "hours": "Mon-Fri 9AM-6PM",
    "services": [
      "Chinese-speaking Gymnastics coaching in Connecticut consultation",
      "Professional service",
      "Quality guarantee"
    ],
    "social_links": {}
  },
  {
    "name": "Glastonbury Gymnastics",
    "address": "Glastonbury, CT",
    "phone": "",
    "rating": 4.0,
    "reviews": 25,
    "website": "https://www.google.com/maps/search/Glastonbury+Gymnastics+in+Connecticut",
    "category": "Chinese-speaking Gymnastics coaching in Connecticut",
    "description": "Offers preschool, recreational, and competitive gymnastics programs",
    "hours": "Mon-Fri 9AM-6PM",
    "services": [
      "Chinese-speaking Gymnastics coaching in Connecticut consultation",
      "Professional service",
      "Quality guarantee"
    ],
    "social_links": {}
  }
]