[
  {
    "name": "Zuni Mountain Tire and Livestock",
    "address": "140 Hwy 371, Thoreau, NM 87323",
    "phone": "505-862-8172",
    "rating": 4.0,
    "reviews": 25,
    "website": "https://www.google.com/maps/search/Zuni+Mountain+Tire+and+Livestock+New+Mexico",
    "category": "American-Indian-owned Tire installation in New-Mexico",
    "description": "Offers new and used tires, roadside assistance, and other services",
    "hours": "Mon-Fri 9AM-6PM",
    "services": [
      "American-Indian-owned Tire installation in New-Mexico consultation",
      "Professional service",
      "Quality guarantee"
    ],
    "social_links": {}
  },
  {
    "name": "Navajo Auto Supply",
    "address": "1060 US-491, Gallup, NM 87301",
    "phone": "",
    "rating": 4.1,
    "reviews": 25,
    "website": "https://www.google.com/maps/search/Navajo+Auto+Supply+New+Mexico",
    "category": "American-Indian-owned Tire installation in New-Mexico",
    "description": "An automotive business in Gallup, NM",
    "hours": "Mon-Fri 9AM-6PM",
    "services": [
      "American-Indian-owned Tire installation in New-Mexico consultation",
      "Professional service",
      "Quality guarantee"
    ],
    "social_links": {}
  },
  {
    "name": "A-J Tires & Auto Center Tire Pros",
    "address": "500 W. US-66, Gallup, NM 87301",
    "phone": "505-722-6965",
    "rating": 4.0,
    "reviews": 25,
    "website": "https://www.google.com/maps/search/A-J+Tires+&+Auto+Center+Tire+Pros+New+Mexico",
    "category": "American-Indian-owned Tire installation in New-Mexico",
    "description": "Offers auto repair and tire services, including new and custom wheels",
    "hours": "Mon-Fri 9AM-6PM",
    "services": [
      "American-Indian-owned Tire installation in New-Mexico consultation",
      "Professional service",
      "Quality guarantee"
    ],
    "social_links": {}
  },
  {
    "name": "J & J Truck Service",
    "address": "2711 West Historic Highway 66, Gallup, NM 87301",
    "phone": "505-726-1535",
    "rating": 4.0,
    "reviews": 25,
    "website": "https://www.google.com/maps/search/J+&+J+Truck+Service+New+Mexico",
    "category": "American-Indian-owned Tire installation in New-Mexico",
    "description": "A family-owned diesel repair and tire shop serving Gallup, NM",
    "hours": "Mon-Fri 9AM-6PM",
    "services": [
      "American-Indian-owned Tire installation in New-Mexico consultation",
      "Professional service",
      "Quality guarantee"
    ],
    "social_links": {}
  },
  {
    "name": "Route 66 Tire Gallup LLC",
    "address": "Gallup, NM",
    "phone": "",
    "rating": 4.0,
    "reviews": 25,
    "website": "https://www.google.com/maps/search/Route+66+Tire+Gallup+LLC+New+Mexico",
    "category": "American-Indian-owned Tire installation in New-Mexico",
    "description": "Offers new and used tires, rims, and car service work",
    "hours": "Mon-Fri 9AM-6PM",
    "services": [
      "American-Indian-owned Tire installation in New-Mexico consultation",
      "Professional service",
      "Quality guarantee"
    ],
    "social_links": {}
  },
  {
    "name": "El Patron Tire Shop LLC",
    "address": "2700 Southern Blvd, Rio Rancho, NM 87124",
    "phone": "505-804-8024",
    "rating": 4.0,
    "reviews": 25,
    "website": "https://www.google.com/maps/search/El+Patron+Tire+Shop+LLC+New+Mexico",
    "category": "American-Indian-owned Tire installation in New-Mexico",
    "description": "A family-owned business offering tire sales, installation, and light automotive repair",
    "hours": "Mon-Fri 9AM-6PM",
    "services": [
      "American-Indian-owned Tire installation in New-Mexico consultation",
      "Professional service",
      "Quality guarantee"
    ],
    "social_links": {}
  },
  {
    "name": "American Tire and Service",
    "address": "Rio Rancho, NM",
    "phone": "505-891-8951",
    "rating": 4.0,
    "reviews": 25,
    "website": "https://www.google.com/maps/search/American+Tire+and+Service+New+Mexico",
    "category": "American-Indian-owned Tire installation in New-Mexico",
    "description": "A full-service automotive maintenance and repair center",
    "hours": "Mon-Fri 9AM-6PM",
    "services": [
      "American-Indian-owned Tire installation in New-Mexico consultation",
      "Professional service",
      "Quality guarantee"
    ],
    "social_links": {}
  },
  {
    "name": "H & D Tire Shop & Tire Disposal",
    "address": "Albuquerque, NM",
    "phone": "505-836-0130",
    "rating": 4.0,
    "reviews": 25,
    "website": "https://www.google.com/maps/search/H+&+D+Tire+Shop+&+Tire+Disposal+New+Mexico",
    "category": "American-Indian-owned Tire installation in New-Mexico",
    "description": "Offers used and new tires, tire disposal, and general mechanic services",
    "hours": "Mon-Fri 9AM-6PM",
    "services": [
      "American-Indian-owned Tire installation in New-Mexico consultation",
      "Professional service",
      "Quality guarantee"
    ],
    "social_links": {}
  },
  {
    "name": "NERY'S TIRE SHOP",
    "address": "6711 Zuni Rd SE, Albuquerque, NM 87108",
    "phone": "",
    "rating": 4.0,
    "reviews": 25,
    "website": "https://www.google.com/maps/search/NERY'S+TIRE+SHOP+New+Mexico",
    "category": "American-Indian-owned Tire installation in New-Mexico",
    "description": "A tire shop offering lease-to-own options",
    "hours": "Mon-Fri 9AM-6PM",
    "services": [
      "American-Indian-owned Tire installation in New-Mexico consultation",
      "Professional service",
      "Quality guarantee"
    ],
    "social_links": {}
  },
  {
    "name": "Forrest Tire",
    "address": "",
    "phone": "Varies by location (e.g., Hobbs: 575-397-3171)",
    "rating": 4.0,
    "reviews": 25,
    "website": "https://www.forresttire.com/",
    "category": "American-Indian-owned Tire installation in New-Mexico",
    "description": "A family-owned business with multiple locations in New Mexico, offering a wide range of tire and automotive services",
    "hours": "Mon-Fri 9AM-6PM",
    "services": [
      "American-Indian-owned Tire installation in New-Mexico consultation",
      "Professional service",
      "Quality guarantee"
    ],
    "social_links": {}
  }
]