[
  {
    "name": "Cahill IP, PLLC",
    "address": "Louisville, KY (Specific address not publicly available)",
    "phone": "(502) 451-7000",
    "rating": 4.0,
    "reviews": 25,
    "website": "https://www.cahillip.com/",
    "category": "Black-owned Patent law in Kentucky",
    "description": "Cahill IP, PLLC is an intellectual property law firm recognized globally. It was the first Kentucky firm to qualify for membership in the National Association of Minority and Women Owned Law Firms (NAMWOLF)",
    "hours": "Mon-Fri 9AM-6PM",
    "services": [
      "Black-owned Patent law in Kentucky consultation",
      "Professional service",
      "Quality guarantee"
    ],
    "social_links": {}
  },
  {
    "name": "Business Patent Law, PLLC",
    "address": "Lexington, KY (Specific address not publicly available)",
    "phone": "(859) 239-8999",
    "rating": 4.0,
    "reviews": 25,
    "website": "https://www.businesspatentlaw.com/",
    "category": "Black-owned Patent law in Kentucky",
    "description": "This firm serves Lexington, Louisville, and surrounding areas, focusing on patent law",
    "hours": "Mon-Fri 9AM-6PM",
    "services": [
      "Black-owned Patent law in Kentucky consultation",
      "Professional service",
      "Quality guarantee"
    ],
    "social_links": {}
  },
  {
    "name": "Carrithers Law Office, PLLC",
    "address": "Louisville and Bardstown, KY (Specific addresses not publicly available)",
    "phone": "(502) 452-1233",
    "rating": 4.0,
    "reviews": 25,
    "website": "https://www.carritherslaw.com/",
    "category": "Black-owned Patent law in Kentucky",
    "description": "Carrithers Law Office, PLLC provides trademark, patent, and copyright legal advice to individuals and businesses in Kentucky and throughout the United States",
    "hours": "Mon-Fri 9AM-6PM",
    "services": [
      "Black-owned Patent law in Kentucky consultation",
      "Professional service",
      "Quality guarantee"
    ],
    "social_links": {}
  },
  {
    "name": "McBrayer PLLC",
    "address": "Lexington, KY (Specific address not publicly available)",
    "phone": "(800) 544-1105",
    "rating": 4.0,
    "reviews": 25,
    "website": "https://www.mcbrayerfirm.com/",
    "category": "Black-owned Patent law in Kentucky",
    "description": "McBrayer's intellectual property team provides client-centered legal services across the continent and globe, with expertise in trademark and copyright protection, licensing, trade secrets, and data privacy",
    "hours": "Mon-Fri 9AM-6PM",
    "services": [
      "Black-owned Patent law in Kentucky consultation",
      "Professional service",
      "Quality guarantee"
    ],
    "social_links": {}
  },
  {
    "name": "Duncan, Galloway, Greenwald PLLC",
    "address": "Louisville, KY (Specific address not publicly available)",
    "phone": "(502) 583-1600",
    "rating": 4.0,
    "reviews": 25,
    "website": "https://www.dgglaw.com/",
    "category": "Black-owned Patent law in Kentucky",
    "description": "This firm offers intellectual property law services, including patents, trademarks, and copyrights, with a team of registered patent attorneys and agents who are engineers",
    "hours": "Mon-Fri 9AM-6PM",
    "services": [
      "Black-owned Patent law in Kentucky consultation",
      "Professional service",
      "Quality guarantee"
    ],
    "social_links": {}
  },
  {
    "name": "Marcum Tennyson",
    "address": "Paducah, KY (Specific address not publicly available)",
    "phone": "(270) 534-5135",
    "rating": 4.0,
    "reviews": 25,
    "website": "https://www.marcumtennyson.com/",
    "category": "Black-owned Patent law in Kentucky",
    "description": "Julie A. Tennyson is a registered patent attorney with experience in patents, trademarks, copyrights, and trade secrets, representing clients nationwide",
    "hours": "Mon-Fri 9AM-6PM",
    "services": [
      "Black-owned Patent law in Kentucky consultation",
      "Professional service",
      "Quality guarantee"
    ],
    "social_links": {}
  },
  {
    "name": "Stites & Harbison, PLLC",
    "address": "Louisville, KY (Specific address not publicly available)",
    "phone": "(502) 587-3400",
    "rating": 4.0,
    "reviews": 25,
    "website": "https://www.stites.com/",
    "category": "Black-owned Patent law in Kentucky",
    "description": "Donovan Gibbs II, part of the Intellectual Property & Technology group, focuses on counseling clients in litigation and transactional matters involving intellectual property, including trademarks and copyrights",
    "hours": "Mon-Fri 9AM-6PM",
    "services": [
      "Black-owned Patent law in Kentucky consultation",
      "Professional service",
      "Quality guarantee"
    ],
    "social_links": {}
  },
  {
    "name": "Frost Brown Todd",
    "address": "Louisville, KY (Specific address not publicly available)",
    "phone": "(502) 589-5400",
    "rating": 4.0,
    "reviews": 25,
    "website": "https://www.frostbrowntodd.com/",
    "category": "Black-owned Patent law in Kentucky",
    "description": "This firm has a full-service intellectual property group with over 50 professionals, offering strategies for protecting and profiting from IP assets, including patents, trade secrets, trademarks, and copyrights",
    "hours": "Mon-Fri 9AM-6PM",
    "services": [
      "Black-owned Patent law in Kentucky consultation",
      "Professional service",
      "Quality guarantee"
    ],
    "social_links": {}
  },
  {
    "name": "Tibbs Law Office",
    "address": "Louisville, KY (Specific address not publicly available)",
    "phone": "(502) 457-1777",
    "rating": 4.29,
    "reviews": 25,
    "website": "https://tibbslawoffice.com/",
    "category": "Black-owned Patent law in Kentucky",
    "description": "While primarily focused on criminal defense, family law, and personal injury, Krsna Tibbs has a strong legal background and has been practicing in Louisville for over 20 years",
    "hours": "Mon-Fri 9AM-6PM",
    "services": [
      "Black-owned Patent law in Kentucky consultation",
      "Professional service",
      "Quality guarantee"
    ],
    "social_links": {}
  },
  {
    "name": "Gordon Rees Scully Mansukhani, LLP",
    "address": "Louisville, KY (Specific address not publicly available)",
    "phone": "(502) 587-1000",
    "rating": 4.0,
    "reviews": 25,
    "website": "https://www.grsm.com/",
    "category": "Black-owned Patent law in Kentucky",
    "description": "This firm has offices and attorneys in all 50 states, providing comprehensive litigation and legal services, including intellectual property law",
    "hours": "Mon-Fri 9AM-6PM",
    "services": [
      "Black-owned Patent law in Kentucky consultation",
      "Professional service",
      "Quality guarantee"
    ],
    "social_links": {}
  }
]