[
  {
    "name": "Planet Fitness",
    "address": "4 Orchard View Dr, Londonderry, NH 03053",
    "phone": "(603) 434-6565",
    "rating": 4.0,
    "reviews": 25,
    "website": "https://www.planetfitness.com/gyms/londonderry-nh/4-orchard-view-dr",
    "category": "Arabic-speaking Gyms in New-Hampshire",
    "description": "A large fitness center chain offering a \"Judgement Free Zone\" with various equipment and classes",
    "hours": "Mon-Fri 9AM-6PM",
    "services": [
      "Arabic-speaking Gyms in New-Hampshire consultation",
      "Professional service",
      "Quality guarantee"
    ],
    "social_links": {}
  },
  {
    "name": "Planet Fitness",
    "address": "92 Cluff Crossing Rd, Salem, NH 03079",
    "phone": "(603) 894-4800",
    "rating": 4.0,
    "reviews": 25,
    "website": "https://www.planetfitness.com/gyms/salem-nh/92-cluff-crossing-rd",
    "category": "Arabic-speaking Gyms in New-Hampshire",
    "description": "Another branch of Planet Fitness, providing a welcoming environment for all fitness levels",
    "hours": "Mon-Fri 9AM-6PM",
    "services": [
      "Arabic-speaking Gyms in New-Hampshire consultation",
      "Professional service",
      "Quality guarantee"
    ],
    "social_links": {}
  },
  {
    "name": "Planet Fitness",
    "address": "306 N Main St, Rochester, NH 03867",
    "phone": "(603) 332-0001",
    "rating": 4.0,
    "reviews": 25,
    "website": "https://www.planetfitness.com/gyms/rochester-nh/306-n-main-st",
    "category": "Arabic-speaking Gyms in New-Hampshire",
    "description": "Planet Fitness in Rochester offers a clean and friendly atmosphere with a wide range of fitness equipment",
    "hours": "Mon-Fri 9AM-6PM",
    "services": [
      "Arabic-speaking Gyms in New-Hampshire consultation",
      "Professional service",
      "Quality guarantee"
    ],
    "social_links": {}
  },
  {
    "name": "Planet Fitness",
    "address": "713 Huse Rd, Manchester, NH 03103",
    "phone": "(603) 622-0001",
    "rating": 4.0,
    "reviews": 25,
    "website": "https://www.planetfitness.com/gyms/manchester-huse-rd-nh/713-huse-rd",
    "category": "Arabic-speaking Gyms in New-Hampshire",
    "description": "This Manchester location of Planet Fitness provides a judgment-free environment for members",
    "hours": "Mon-Fri 9AM-6PM",
    "services": [
      "Arabic-speaking Gyms in New-Hampshire consultation",
      "Professional service",
      "Quality guarantee"
    ],
    "social_links": {}
  },
  {
    "name": "The Workout Club NH",
    "address": "Multiple locations including Salem and Londonderry. For Salem: 550 S Broadway, Salem, NH 03079. For Londonderry: 14 Nashua Rd, Londonderry, NH 03053",
    "phone": "(603) 894-4800",
    "rating": 4.0,
    "reviews": 25,
    "website": "https://www.theworkoutclubnh.com/",
    "category": "Arabic-speaking Gyms in New-Hampshire",
    "description": "Offers a comprehensive fitness experience with amenities like pools, group fitness classes, and childcare",
    "hours": "Mon-Fri 9AM-6PM",
    "services": [
      "Arabic-speaking Gyms in New-Hampshire consultation",
      "Professional service",
      "Quality guarantee"
    ],
    "social_links": {}
  },
  {
    "name": "FITLAB Fitness Club",
    "address": "Multiple locations including Nashua, Milford, and Merrimack. For Nashua: 522 Amherst St, Nashua, NH 03063. For Merrimack: 515 Daniel Webster Hwy, Merrimack, NH 03054",
    "phone": "(603) 883-3485 (Nashua), (603) 429-4653 (Merrimack)",
    "rating": 4.0,
    "reviews": 25,
    "website": "https://fitlabfitness.com/",
    "category": "Arabic-speaking Gyms in New-Hampshire",
    "description": "Provides a variety of fitness classes, personal training, and a juice bar across its New Hampshire locations",
    "hours": "Mon-Fri 9AM-6PM",
    "services": [
      "Arabic-speaking Gyms in New-Hampshire consultation",
      "Professional service",
      "Quality guarantee"
    ],
    "social_links": {}
  },
  {
    "name": "Best Fitness",
    "address": "200 Daniel Webster Hwy, Nashua, NH 03060",
    "phone": "(603) 880-0001",
    "rating": 4.0,
    "reviews": 25,
    "website": "https://www.bestfitness.net/locations/nashua-nh/",
    "category": "Arabic-speaking Gyms in New-Hampshire",
    "description": "A gym offering a wide range of equipment, group fitness classes, and personal training services",
    "hours": "Mon-Fri 9AM-6PM",
    "services": [
      "Arabic-speaking Gyms in New-Hampshire consultation",
      "Professional service",
      "Quality guarantee"
    ],
    "social_links": {}
  },
  {
    "name": "Valid Fitness",
    "address": "140 State St, Hudson, NH 03051",
    "phone": "(603) 880-0001",
    "rating": 4.0,
    "reviews": 25,
    "website": "https://www.validfitness.com/",
    "category": "Arabic-speaking Gyms in New-Hampshire",
    "description": "Described as the #1 gym in Hudson, NH, offering personal training and a clean facility",
    "hours": "Mon-Fri 9AM-6PM",
    "services": [
      "Arabic-speaking Gyms in New-Hampshire consultation",
      "Professional service",
      "Quality guarantee"
    ],
    "social_links": {}
  },
  {
    "name": "LFG Fitness",
    "address": "140 State St, Hudson, NH 03051",
    "phone": "(603) 880-0001",
    "rating": 4.0,
    "reviews": 25,
    "website": "https://www.lfgfitness.com/",
    "category": "Arabic-speaking Gyms in New-Hampshire",
    "description": "A gym in Salem, NH, specializing in boxing, strength training, and group classes",
    "hours": "Mon-Fri 9AM-6PM",
    "services": [
      "Arabic-speaking Gyms in New-Hampshire consultation",
      "Professional service",
      "Quality guarantee"
    ],
    "social_links": {}
  },
  {
    "name": "Athletic Instinct",
    "address": "27 Hancock St #3, Rochester, NH 03867",
    "phone": "(603) 330-3000",
    "rating": 4.0,
    "reviews": 25,
    "website": "https://www.athleticinstinct.com/",
    "category": "Arabic-speaking Gyms in New-Hampshire",
    "description": "Offers strength and conditioning, HIIT workouts, and personal training in Rochester, NH",
    "hours": "Mon-Fri 9AM-6PM",
    "services": [
      "Arabic-speaking Gyms in New-Hampshire consultation",
      "Professional service",
      "Quality guarantee"
    ],
    "social_links": {}
  }
]