[
  {
    "name": "Excel Driving School",
    "address": "Honolulu, Hawaii",
    "phone": "",
    "rating": 4.0,
    "reviews": 25,
    "website": "https://www.google.com/maps/search/Excel+Driving+School+in+Hawaii",
    "category": "Chinese-American-owned Driving instruction in Hawaii",
    "description": "Offers teen and adult driving programs with classroom and behind-the-wheel instruction",
    "hours": "Mon-Fri 9AM-6PM",
    "services": [
      "Chinese-American-owned Driving instruction in Hawaii consultation",
      "Professional service",
      "Quality guarantee"
    ],
    "social_links": {}
  },
  {
    "name": "Hawaii Driving Institute (HDI)",
    "address": "99-165 Moanalua Rd, Ste 101, Aiea, HI 96701",
    "phone": "(808) 488-0001",
    "rating": 4.0,
    "reviews": 25,
    "website": "https://www.google.com/maps/search/Hawaii+Driving+Institute+(HDI)+in+Hawaii",
    "category": "Chinese-American-owned Driving instruction in Hawaii",
    "description": "Offers driver education for teens and adults, including classroom and behind-the-wheel instruction",
    "hours": "Mon-Fri 9AM-6PM",
    "services": [
      "Chinese-American-owned Driving instruction in Hawaii consultation",
      "Professional service",
      "Quality guarantee"
    ],
    "social_links": {}
  },
  {
    "name": "Waipahu Driving School",
    "address": "Waipahu, HI 96797",
    "phone": "",
    "rating": 4.0,
    "reviews": 25,
    "website": "https://www.google.com/maps/search/Waipahu+Driving+School+in+Hawaii",
    "category": "Chinese-American-owned Driving instruction in Hawaii",
    "description": "Provides customized driving classes for teens and adults, focusing on practical driving and classroom learning",
    "hours": "Mon-Fri 9AM-6PM",
    "services": [
      "Chinese-American-owned Driving instruction in Hawaii consultation",
      "Professional service",
      "Quality guarantee"
    ],
    "social_links": {}
  },
  {
    "name": "Drivers Ed 101",
    "address": "94-1210 Waipio St, Waipahu, HI 96786",
    "phone": "(808) 383-9242",
    "rating": 4.0,
    "reviews": 25,
    "website": "https://www.google.com/maps/search/Drivers+Ed+101+in+Hawaii",
    "category": "Chinese-American-owned Driving instruction in Hawaii",
    "description": "Offers licensed and certified instructors for both classroom and behind-the-wheel driving lessons for teens and adults",
    "hours": "Mon-Fri 9AM-6PM",
    "services": [
      "Chinese-American-owned Driving instruction in Hawaii consultation",
      "Professional service",
      "Quality guarantee"
    ],
    "social_links": {}
  },
  {
    "name": "Rojo Gerry Driving School",
    "address": "4531 Likini St, Honolulu, HI 96818",
    "phone": "(808) 422-1825",
    "rating": 4.0,
    "reviews": 25,
    "website": "https://www.google.com/maps/search/Rojo+Gerry+Driving+School+in+Hawaii",
    "category": "Chinese-American-owned Driving instruction in Hawaii",
    "description": "Provides driving instruction",
    "hours": "Mon-Fri 9AM-6PM",
    "services": [
      "Chinese-American-owned Driving instruction in Hawaii consultation",
      "Professional service",
      "Quality guarantee"
    ],
    "social_links": {}
  },
  {
    "name": "FSN Driving School",
    "address": "94-210 Hanawai Cir, Waipahu, HI 96797",
    "phone": "(808) 677-1473",
    "rating": 4.0,
    "reviews": 25,
    "website": "https://www.google.com/maps/search/FSN+Driving+School+in+Hawaii",
    "category": "Chinese-American-owned Driving instruction in Hawaii",
    "description": "Offers driving lessons",
    "hours": "Mon-Fri 9AM-6PM",
    "services": [
      "Chinese-American-owned Driving instruction in Hawaii consultation",
      "Professional service",
      "Quality guarantee"
    ],
    "social_links": {}
  },
  {
    "name": "Anchetta Driving",
    "address": "Waipahu, HI 96797",
    "phone": "(808) 230-0948",
    "rating": 4.0,
    "reviews": 25,
    "website": "https://www.google.com/maps/search/Anchetta+Driving+in+Hawaii",
    "category": "Chinese-American-owned Driving instruction in Hawaii",
    "description": "Offers driving lessons",
    "hours": "Mon-Fri 9AM-6PM",
    "services": [
      "Chinese-American-owned Driving instruction in Hawaii consultation",
      "Professional service",
      "Quality guarantee"
    ],
    "social_links": {}
  },
  {
    "name": "Keku's Driving Academy",
    "address": "Pearl City, HI 96782",
    "phone": "",
    "rating": 4.0,
    "reviews": 25,
    "website": "https://www.google.com/maps/search/Keku's+Driving+Academy+in+Hawaii",
    "category": "Chinese-American-owned Driving instruction in Hawaii",
    "description": "Provides instruction on defensive driving, state laws, and accident avoidance",
    "hours": "Mon-Fri 9AM-6PM",
    "services": [
      "Chinese-American-owned Driving instruction in Hawaii consultation",
      "Professional service",
      "Quality guarantee"
    ],
    "social_links": {}
  },
  {
    "name": "Gomes Driver's Ed School",
    "address": "47-130 Wailehua Rd, Kaneohe, HI 96744",
    "phone": "(808) 239-6755",
    "rating": 4.0,
    "reviews": 25,
    "website": "https://www.google.com/maps/search/Gomes+Driver's+Ed+School+in+Hawaii",
    "category": "Chinese-American-owned Driving instruction in Hawaii",
    "description": "Offers classroom and behind-the-wheel driving lessons for all ages",
    "hours": "Mon-Fri 9AM-6PM",
    "services": [
      "Chinese-American-owned Driving instruction in Hawaii consultation",
      "Professional service",
      "Quality guarantee"
    ],
    "social_links": {}
  },
  {
    "name": "Wong Way Driving Academy",
    "address": "Honolulu, HI 96820",
    "phone": "(808) 672-2947",
    "rating": 4.0,
    "reviews": 25,
    "website": "https://www.google.com/maps/search/Wong+Way+Driving+Academy+in+Hawaii",
    "category": "Chinese-American-owned Driving instruction in Hawaii",
    "description": "Focuses on educating students on becoming safe drivers",
    "hours": "Mon-Fri 9AM-6PM",
    "services": [
      "Chinese-American-owned Driving instruction in Hawaii consultation",
      "Professional service",
      "Quality guarantee"
    ],
    "social_links": {}
  }
]