[
  {
    "name": "Ruth NJ's Art Store",
    "address": "Not specified, but serves Nevada",
    "phone": "",
    "rating": 4.0,
    "reviews": 25,
    "website": "https://www.ruthnjart.com/",
    "category": "African-American-owned Framing in Nevada",
    "description": "Offers African art prints and custom framing services with free shipping within Nevada",
    "hours": "Mon-Fri 9AM-6PM",
    "services": [
      "African-American-owned Framing in Nevada consultation",
      "Professional service",
      "Quality guarantee"
    ],
    "social_links": {}
  },
  {
    "name": "Elite Art & Framing",
    "address": "3111 S Valley View, Suite M-104, Las Vegas, NV 89102",
    "phone": "(702) 435-0044",
    "rating": 4.0,
    "reviews": 25,
    "website": "https://eliteartandframing.com/",
    "category": "African-American-owned Framing in Nevada",
    "description": "A family-owned and operated custom art and picture framing shop in Las Vegas, specializing in framing memories, images, and memorabilia. They serve the greater Las Vegas area and offer consulting services",
    "hours": "Mon-Fri 9AM-6PM",
    "services": [
      "African-American-owned Framing in Nevada consultation",
      "Professional service",
      "Quality guarantee"
    ],
    "social_links": {}
  },
  {
    "name": "Beyond Reality Framing and Gallery",
    "address": "Located upstairs at The Arts Factory, 101 E Charleston Blvd, Las Vegas, NV 89104",
    "phone": "(702) 381-3141",
    "rating": 4.0,
    "reviews": 25,
    "website": "https://www.beyondrealityframing.com/",
    "category": "African-American-owned Framing in Nevada",
    "description": "Offers affordable custom picture framing in the downtown Las Vegas arts district, specializing in unique framing for art, photography, and prints",
    "hours": "Mon-Fri 9AM-6PM",
    "services": [
      "African-American-owned Framing in Nevada consultation",
      "Professional service",
      "Quality guarantee"
    ],
    "social_links": {}
  },
  {
    "name": "FastFrame Carson City",
    "address": "931 Jacks Valley Road, STE E, Carson City, NV 89705",
    "phone": "(775) 267-1625",
    "rating": 4.0,
    "reviews": 25,
    "website": "https://www.fastframe.com/carson-city",
    "category": "African-American-owned Framing in Nevada",
    "description": "Locally owned and operated custom picture framing shop offering a wide range of services for art, photos, memorabilia, and more",
    "hours": "Mon-Fri 9AM-6PM",
    "services": [
      "African-American-owned Framing in Nevada consultation",
      "Professional service",
      "Quality guarantee"
    ],
    "social_links": {}
  },
  {
    "name": "The Frame Shop",
    "address": "Not specified, but serves Reno and Sparks",
    "phone": "",
    "rating": 4.0,
    "reviews": 25,
    "website": "https://www.frameshopreno.com/",
    "category": "African-American-owned Framing in Nevada",
    "description": "Reno's custom picture framing expert, offering a wide selection of frames and mats, with all artwork framed on premises",
    "hours": "Mon-Fri 9AM-6PM",
    "services": [
      "African-American-owned Framing in Nevada consultation",
      "Professional service",
      "Quality guarantee"
    ],
    "social_links": {}
  },
  {
    "name": "Picture Perfect",
    "address": "850 E. Patriot Blvd., Suite G, Reno, NV 89511",
    "phone": "(775) 853-6551",
    "rating": 4.0,
    "reviews": 25,
    "website": "https://pictureperfectreno.com/",
    "category": "African-American-owned Framing in Nevada",
    "description": "A leading custom frame shop in Reno, NV, with over 40 years of combined experience offering a vast selection of frames and free consultations",
    "hours": "Mon-Fri 9AM-6PM",
    "services": [
      "African-American-owned Framing in Nevada consultation",
      "Professional service",
      "Quality guarantee"
    ],
    "social_links": {}
  },
  {
    "name": "The Framery of Reno",
    "address": "Not specified, but located in Reno, Nevada",
    "phone": "",
    "rating": 4.0,
    "reviews": 25,
    "website": "https://www.theframeryreno.com/",
    "category": "African-American-owned Framing in Nevada",
    "description": "Offers custom picture framing in Reno, Nevada, for various items including shadowboxes, photography, sports memorabilia, and more",
    "hours": "Mon-Fri 9AM-6PM",
    "services": [
      "African-American-owned Framing in Nevada consultation",
      "Professional service",
      "Quality guarantee"
    ],
    "social_links": {}
  },
  {
    "name": "Sierra Custom Picture Framing",
    "address": "1210 N. Carson Street, Carson City, NV 89701",
    "phone": "(775) 883-5411",
    "rating": 4.0,
    "reviews": 25,
    "website": "https://www.sierracustomframing.com/",
    "category": "African-American-owned Framing in Nevada",
    "description": "Offers custom picture framing services in Carson City, NV, with a focus on personalized service and supporting small businesses",
    "hours": "Mon-Fri 9AM-6PM",
    "services": [
      "African-American-owned Framing in Nevada consultation",
      "Professional service",
      "Quality guarantee"
    ],
    "social_links": {}
  },
  {
    "name": "Art at Your Door Gallery II",
    "address": "4730 S. Eastern Ave., Suite 10, Las Vegas, NV 89119",
    "phone": "(702) 256-7278",
    "rating": 4.0,
    "reviews": 25,
    "website": "https://www.artatyourdoor.com/",
    "category": "African-American-owned Framing in Nevada",
    "description": "Provides custom picture framing services in Las Vegas, offering a wide selection of frames and expert design",
    "hours": "Mon-Fri 9AM-6PM",
    "services": [
      "African-American-owned Framing in Nevada consultation",
      "Professional service",
      "Quality guarantee"
    ],
    "social_links": {}
  },
  {
    "name": "Monster Framing",
    "address": "1371 Raiders Way Suite #140, Henderson, NV 89052",
    "phone": "",
    "rating": 4.0,
    "reviews": 25,
    "website": "https://monsterframing.com/",
    "category": "African-American-owned Framing in Nevada",
    "description": "Specializes in custom picture framing, with a slogan \"Preserve the Game. Frame the Glory.\"",
    "hours": "Mon-Fri 9AM-6PM",
    "services": [
      "African-American-owned Framing in Nevada consultation",
      "Professional service",
      "Quality guarantee"
    ],
    "social_links": {}
  }
]