[
  {
    "name": "Shear Envy Salon",
    "address": "1006 N Gloster St, Tupelo, MS 38804",
    "phone": "(662) 844-2477",
    "rating": 4.0,
    "reviews": 25,
    "website": "https://www.shearenvytupelo.com/",
    "category": "Central-American-owned Hair extensions in Mississippi",
    "description": "Offers a full range of hair services including cuts, color, and hair extensions. Known for modern styles and excellent customer service",
    "hours": "Mon-Fri 9AM-6PM",
    "services": [
      "Central-American-owned Hair extensions in Mississippi consultation",
      "Professional service",
      "Quality guarantee"
    ],
    "social_links": {}
  },
  {
    "name": "Lavish Hair Studio LLC",
    "address": "1017 Highland Colony Pkwy, Ridgeland, MS 39157",
    "phone": "(601) 707-4010",
    "rating": 4.0,
    "reviews": 25,
    "website": "https://lavishhairstudio.com/",
    "category": "Central-American-owned Hair extensions in Mississippi",
    "description": "Provides a world-class hair care experience with talented stylists specializing in various hair types and extensions",
    "hours": "Mon-Fri 9AM-6PM",
    "services": [
      "Central-American-owned Hair extensions in Mississippi consultation",
      "Professional service",
      "Quality guarantee"
    ],
    "social_links": {}
  },
  {
    "name": "Canvas Salon",
    "address": "1000 Broadway Dr, Hattiesburg, MS 39402",
    "phone": "(601) 582-0000",
    "rating": 4.0,
    "reviews": 25,
    "website": "https://www.canvashair.com/",
    "category": "Central-American-owned Hair extensions in Mississippi",
    "description": "Specializes in various hair extension methods including hand-tied, tape-in, and K-tips, offering customized experiences",
    "hours": "Mon-Fri 9AM-6PM",
    "services": [
      "Central-American-owned Hair extensions in Mississippi consultation",
      "Professional service",
      "Quality guarantee"
    ],
    "social_links": {}
  },
  {
    "name": "Baylea Joanne",
    "address": "1000 Broadway Dr, Hattiesburg, MS 39402 (also has a location in Madison)",
    "phone": "(601) 582-0000",
    "rating": 4.0,
    "reviews": 25,
    "website": "https://www.bayleajoanne.com/",
    "category": "Central-American-owned Hair extensions in Mississippi",
    "description": "A Mississippi-based stylist specializing in hand-tied and tape-in extensions, as well as lived-in blondes, with a focus on hair health",
    "hours": "Mon-Fri 9AM-6PM",
    "services": [
      "Central-American-owned Hair extensions in Mississippi consultation",
      "Professional service",
      "Quality guarantee"
    ],
    "social_links": {}
  },
  {
    "name": "Barnette's Salon",
    "address": "1155 Banner Hall Rd, Jackson, MS 39209 (also has a location in Ridgeland)",
    "phone": "(601) 956-7000",
    "rating": 4.0,
    "reviews": 25,
    "website": "https://barnettessalon.com/",
    "category": "Central-American-owned Hair extensions in Mississippi",
    "description": "Offers hair extensions using 100% human hair with various methods like K-Tips, I-Tips, and Tape Ins, focusing on protecting natural hair integrity",
    "hours": "Mon-Fri 9AM-6PM",
    "services": [
      "Central-American-owned Hair extensions in Mississippi consultation",
      "Professional service",
      "Quality guarantee"
    ],
    "social_links": {}
  },
  {
    "name": "The Glossary Salon",
    "address": "1000 Broadway Dr, Hattiesburg, MS 39402",
    "phone": "(601) 582-0000",
    "rating": 4.0,
    "reviews": 25,
    "website": "https://www.theglossarysalon.com/",
    "category": "Central-American-owned Hair extensions in Mississippi",
    "description": "Specializes in hand-tied extensions, offering custom blending and coloring services",
    "hours": "Mon-Fri 9AM-6PM",
    "services": [
      "Central-American-owned Hair extensions in Mississippi consultation",
      "Professional service",
      "Quality guarantee"
    ],
    "social_links": {}
  },
  {
    "name": "Didan African Braids",
    "address": "1017 Highland Colony Pkwy, Ridgeland, MS 39157",
    "phone": "(601) 707-4010",
    "rating": 4.0,
    "reviews": 25,
    "website": "https://didanafricanbraids.com/",
    "category": "Central-American-owned Hair extensions in Mississippi",
    "description": "A beauty salon with over 20 years of experience in African hair braiding, micro braids, and wig installations",
    "hours": "Mon-Fri 9AM-6PM",
    "services": [
      "Central-American-owned Hair extensions in Mississippi consultation",
      "Professional service",
      "Quality guarantee"
    ],
    "social_links": {}
  },
  {
    "name": "Sah African Hair Braiding Salon",
    "address": "1017 Highland Colony Pkwy, Ridgeland, MS 39157",
    "phone": "(601) 345-0804",
    "rating": 4.0,
    "reviews": 25,
    "website": "https://sah-african-hair-braiding-salon.business.site/",
    "category": "Central-American-owned Hair extensions in Mississippi",
    "description": "Specializes in premium wigs, braiding, and weaving, with over 20 years of experience in hair braiding and wig installations",
    "hours": "Mon-Fri 9AM-6PM",
    "services": [
      "Central-American-owned Hair extensions in Mississippi consultation",
      "Professional service",
      "Quality guarantee"
    ],
    "social_links": {}
  },
  {
    "name": "Haute Hair Salon",
    "address": "1000 Broadway Dr, Hattiesburg, MS 39402",
    "phone": "(601) 582-0000",
    "rating": 4.0,
    "reviews": 25,
    "website": "https://hautehairsalon.com/",
    "category": "Central-American-owned Hair extensions in Mississippi",
    "description": "A full hair suite emphasizing natural and relaxed hair, located in the Jackson Metro Area",
    "hours": "Mon-Fri 9AM-6PM",
    "services": [
      "Central-American-owned Hair extensions in Mississippi consultation",
      "Professional service",
      "Quality guarantee"
    ],
    "social_links": {}
  },
  {
    "name": "LaBella's Salon",
    "address": "16094 Landon Road, Gulfport, MS 39503",
    "phone": "(228) 206-1111",
    "rating": 4.0,
    "reviews": 25,
    "website": "https://www.labellassalon.com/",
    "category": "Central-American-owned Hair extensions in Mississippi",
    "description": "Gulfport's premier salon offering expert styling, barbering, and natural hair services in a welcoming environment",
    "hours": "Mon-Fri 9AM-6PM",
    "services": [
      "Central-American-owned Hair extensions in Mississippi consultation",
      "Professional service",
      "Quality guarantee"
    ],
    "social_links": {}
  }
]