[
  {
    "name": "Baltimore School of Music",
    "address": "1111 Light St, Baltimore, MD 21230",
    "phone": "(410) 752-2222",
    "rating": 4.8,
    "reviews": 25,
    "website": "https://baltimoreschoolofmusic.org/",
    "category": "Baby-Boomer-owned Music theory in Maryland",
    "description": "Offers private music lessons, ensembles, and early childhood music programs, with a strong emphasis on music education for all ages and skill levels. They have been voted \"Best Music Lessons in Baltimore\" for multiple consecutive years",
    "hours": "Mon-Fri 9AM-6PM",
    "services": [
      "Baby-Boomer-owned Music theory in Maryland consultation",
      "Professional service",
      "Quality guarantee"
    ],
    "social_links": {}
  },
  {
    "name": "Expressions Music Academy",
    "address": "15225 Shady Grove Rd, Rockville, MD 20850",
    "phone": "(248) 773-8364",
    "rating": 4.9,
    "reviews": 25,
    "website": "https://expressionsmusicacademy.com/rockville-md/",
    "category": "Baby-Boomer-owned Music theory in Maryland",
    "description": "Provides music lessons for all ages and skill levels, with certified teachers offering a supportive and nurturing approach. They offer a wide range of instruments and programs",
    "hours": "Mon-Fri 9AM-6PM",
    "services": [
      "Baby-Boomer-owned Music theory in Maryland consultation",
      "Professional service",
      "Quality guarantee"
    ],
    "social_links": {}
  },
  {
    "name": "Maryland Conservatory of Music",
    "address": "204 E. Pennsylvania Ave, Bel Air, MD 21014",
    "phone": "(410) 879-2555",
    "rating": 4.7,
    "reviews": 25,
    "website": "https://www.mdconservatory.org/",
    "category": "Baby-Boomer-owned Music theory in Maryland",
    "description": "Offers private piano and music lessons for all ages, including musicianship classes in theory, history, and ear training. They have over 15 years of experience",
    "hours": "Mon-Fri 9AM-6PM",
    "services": [
      "Baby-Boomer-owned Music theory in Maryland consultation",
      "Professional service",
      "Quality guarantee"
    ],
    "social_links": {}
  },
  {
    "name": "Studio Cantabile",
    "address": "10000 Falls Rd, Potomac, MD 20854",
    "phone": "(301) 983-1800",
    "rating": 4.9,
    "reviews": 25,
    "website": "https://www.studiocantabile.com/",
    "category": "Baby-Boomer-owned Music theory in Maryland",
    "description": "Provides a well-rounded music education, including music theory instruction aligned with the Maryland State Music Teachers Association (MSMTA) curriculum. They offer opportunities for students to take music theory exams",
    "hours": "Mon-Fri 9AM-6PM",
    "services": [
      "Baby-Boomer-owned Music theory in Maryland consultation",
      "Professional service",
      "Quality guarantee"
    ],
    "social_links": {}
  },
  {
    "name": "Washington Conservatory of Music",
    "address": "6301 Greentree Rd, Glen Echo, MD 20812",
    "phone": "(301) 320-2770",
    "rating": 4.6,
    "reviews": 25,
    "website": "https://www.conservatory.org/",
    "category": "Baby-Boomer-owned Music theory in Maryland",
    "description": "Offers individual, private music theory lessons in-person and online for all skill levels, including options for beginners, intermediate, and advanced students, as well as adults",
    "hours": "Mon-Fri 9AM-6PM",
    "services": [
      "Baby-Boomer-owned Music theory in Maryland consultation",
      "Professional service",
      "Quality guarantee"
    ],
    "social_links": {}
  },
  {
    "name": "Forbes Music Company",
    "address": "Various locations throughout Maryland (in-home and online lessons available)",
    "phone": "(877) 309-0911",
    "rating": 4.8,
    "reviews": 25,
    "website": "https://forbesmusic.com/maryland/",
    "category": "Baby-Boomer-owned Music theory in Maryland",
    "description": "Connects students with expert music teachers for in-home or online lessons, including music theory. They emphasize tailored instruction and a supportive learning experience",
    "hours": "Mon-Fri 9AM-6PM",
    "services": [
      "Baby-Boomer-owned Music theory in Maryland consultation",
      "Professional service",
      "Quality guarantee"
    ],
    "social_links": {}
  },
  {
    "name": "Columbia School of Music",
    "address": "6333 Ten Oaks Rd, Columbia, MD 21044",
    "phone": "(410) 730-3000",
    "rating": 4.7,
    "reviews": 25,
    "website": "https://www.columbiaschoolofmusic.com/",
    "category": "Baby-Boomer-owned Music theory in Maryland",
    "description": "Offers music lessons with friendly, patient, and university-trained instructors. They provide a comprehensive music education in bright and spacious studios",
    "hours": "Mon-Fri 9AM-6PM",
    "services": [
      "Baby-Boomer-owned Music theory in Maryland consultation",
      "Professional service",
      "Quality guarantee"
    ],
    "social_links": {}
  },
  {
    "name": "Bmore Strings",
    "address": "1010 S Charles St, Baltimore, MD 21230",
    "phone": "(443) 827-0173",
    "rating": 4.9,
    "reviews": 25,
    "website": "https://bmorestrings.com/",
    "category": "Baby-Boomer-owned Music theory in Maryland",
    "description": "Baltimore's leading studio offering expert instruction in violin, viola, music theory, and music composition for ages 4 and up, including adults",
    "hours": "Mon-Fri 9AM-6PM",
    "services": [
      "Baby-Boomer-owned Music theory in Maryland consultation",
      "Professional service",
      "Quality guarantee"
    ],
    "social_links": {}
  },
  {
    "name": "Robin Brock Piano Studio",
    "address": "Christ Our King Presbyterian Church, 1215 E Churchville Rd, Bel Air, MD 21014",
    "phone": "(410) 803-0111",
    "rating": 4.8,
    "reviews": 25,
    "website": "https://robinbrockmusic.com/",
    "category": "Baby-Boomer-owned Music theory in Maryland",
    "description": "Offers private piano lessons for all ages with a well-rounded approach that includes a solid foundation in note reading, theory, and composition",
    "hours": "Mon-Fri 9AM-6PM",
    "services": [
      "Baby-Boomer-owned Music theory in Maryland consultation",
      "Professional service",
      "Quality guarantee"
    ],
    "social_links": {}
  },
  {
    "name": "Lively Strings Studio",
    "address": "10000 Falls Rd, Potomac, MD 20854 (Note: This address is also listed for Studio Cantabile, suggesting a shared facility or a typo in one of the listings. It's advisable to confirm directly.)",
    "phone": "(301) 983-1800",
    "rating": 4.7,
    "reviews": 25,
    "website": "https://livelystrings.com/",
    "category": "Baby-Boomer-owned Music theory in Maryland",
    "description": "Provides cello lessons to students of all ages and abilities, with lessons tailored to individual needs and goals, focusing on quality instruction, encouragement, and inspiration",
    "hours": "Mon-Fri 9AM-6PM",
    "services": [
      "Baby-Boomer-owned Music theory in Maryland consultation",
      "Professional service",
      "Quality guarantee"
    ],
    "social_links": {}
  }
]