[
  {
    "name": "South Alabama Smiles",
    "address": "4732 Airport Blvd Suite B, Mobile, AL 36608",
    "phone": "(251) 206-6339",
    "rating": 4.0,
    "reviews": 25,
    "website": "https://www.soalsmiles.com/",
    "category": "Black-owned Periodontics in Alabama",
    "description": "A family and cosmetic dentistry practice providing compassionate dental care for all ages",
    "hours": "Mon-Fri 9AM-6PM",
    "services": [
      "Black-owned Periodontics in Alabama consultation",
      "Professional service",
      "Quality guarantee"
    ],
    "social_links": {}
  },
  {
    "name": "Auburn Periodontics & Implant Dentistry",
    "address": "670 N. College Street, Suite D, Auburn, AL 36830",
    "phone": "(334) 209-1352",
    "rating": 4.0,
    "reviews": 25,
    "website": "https://www.auperio.com/",
    "category": "Black-owned Periodontics in Alabama",
    "description": "Offers a variety of surgical services for the treatment of periodontal issues, including dental implants and gum grafting",
    "hours": "Mon-Fri 9AM-6PM",
    "services": [
      "Black-owned Periodontics in Alabama consultation",
      "Professional service",
      "Quality guarantee"
    ],
    "social_links": {}
  },
  {
    "name": "Dothan Periodontics and Implants",
    "address": "103 Medical Drive, Dothan, AL 36303",
    "phone": "(334) 793-7232",
    "rating": 4.0,
    "reviews": 25,
    "website": "http://www.dothanperio.com/",
    "category": "Black-owned Periodontics in Alabama",
    "description": "Committed to providing quality healthcare and a comfortable treatment experience for all dental needs, including periodontics and implants",
    "hours": "Mon-Fri 9AM-6PM",
    "services": [
      "Black-owned Periodontics in Alabama consultation",
      "Professional service",
      "Quality guarantee"
    ],
    "social_links": {}
  },
  {
    "name": "Jason B. Simmons Periodontics DMD",
    "address": "2900 Dauphin St, Mobile, AL 36607",
    "phone": "(251) 471-1000",
    "rating": 4.0,
    "reviews": 25,
    "website": "https://www.simmonsperio.com/",
    "category": "Black-owned Periodontics in Alabama",
    "description": "Specializes in periodontics, including periodontal disease diagnosis and treatment, bone grafts, and dental implants",
    "hours": "Mon-Fri 9AM-6PM",
    "services": [
      "Black-owned Periodontics in Alabama consultation",
      "Professional service",
      "Quality guarantee"
    ],
    "social_links": {}
  },
  {
    "name": "Kyle H. Trammell, DMD",
    "address": "1554 E Trinity Blvd, Montgomery, AL 36106",
    "phone": "(334) 277-2100",
    "rating": 4.0,
    "reviews": 25,
    "website": "https://trammellperio.com/",
    "category": "Black-owned Periodontics in Alabama",
    "description": "Offers advanced training in dental implants, treatment of periodontal disease, bone regeneration, and soft tissue grafting",
    "hours": "Mon-Fri 9AM-6PM",
    "services": [
      "Black-owned Periodontics in Alabama consultation",
      "Professional service",
      "Quality guarantee"
    ],
    "social_links": {}
  },
  {
    "name": "Steve Davis, DMD",
    "address": "1055 W. South Blvd, Montgomery, AL 36105",
    "phone": "(334) 277-2100",
    "rating": 4.0,
    "reviews": 25,
    "website": "https://www.stevedavisdmd.com/",
    "category": "Black-owned Periodontics in Alabama",
    "description": "A periodontist with over 25 years of experience, specializing in minimally invasive treatments for gum disease",
    "hours": "Mon-Fri 9AM-6PM",
    "services": [
      "Black-owned Periodontics in Alabama consultation",
      "Professional service",
      "Quality guarantee"
    ],
    "social_links": {}
  },
  {
    "name": "Donald Thompson DMD",
    "address": "2000 Southbridge Pkwy, Suite 100, Birmingham, AL 35209",
    "phone": "(205) 437-0777",
    "rating": 4.0,
    "reviews": 25,
    "website": "https://www.donaldthompsondmd.com/",
    "category": "Black-owned Periodontics in Alabama",
    "description": "Provides complete periodontal services, including gum disease treatment, grafts, and dental implants, with nearly 30 years of practice experience",
    "hours": "Mon-Fri 9AM-6PM",
    "services": [
      "Black-owned Periodontics in Alabama consultation",
      "Professional service",
      "Quality guarantee"
    ],
    "social_links": {}
  },
  {
    "name": "Steel City Implants and Periodontics",
    "address": "1310 Alford Avenue, Birmingham, AL 35226",
    "phone": "(205) 823-3461",
    "rating": 4.0,
    "reviews": 25,
    "website": "https://www.steelcityperio.com/",
    "category": "Black-owned Periodontics in Alabama",
    "description": "Specializes in advanced diagnostics and treatment of periodontal and oral disorders, including dental implants and gum grafting",
    "hours": "Mon-Fri 9AM-6PM",
    "services": [
      "Black-owned Periodontics in Alabama consultation",
      "Professional service",
      "Quality guarantee"
    ],
    "social_links": {}
  },
  {
    "name": "Kevin Sims Periodontal Maintenance & Implant Dentistry",
    "address": "1000 Urban Center Drive, Suite 100, Birmingham, AL 35242",
    "phone": "(205) 980-1234",
    "rating": 4.0,
    "reviews": 25,
    "website": "https://www.drkevinsims.com/",
    "category": "Black-owned Periodontics in Alabama",
    "description": "Provides compassionate specialty care in periodontal disease treatment, dental implants, and preventative cleanings",
    "hours": "Mon-Fri 9AM-6PM",
    "services": [
      "Black-owned Periodontics in Alabama consultation",
      "Professional service",
      "Quality guarantee"
    ],
    "social_links": {}
  },
  {
    "name": "Coastal Periodontics & Implant Dentistry",
    "address": "505 Georgian Dr, Mobile, AL 36608",
    "phone": "(251) 800-9148",
    "rating": 4.0,
    "reviews": 25,
    "website": "https://www.coastalperio.com/",
    "category": "Black-owned Periodontics in Alabama",
    "description": "Offers laser treatment, dental implants, and gum grafting to patients in Mobile, AL, with a commitment to personalized care",
    "hours": "Mon-Fri 9AM-6PM",
    "services": [
      "Black-owned Periodontics in Alabama consultation",
      "Professional service",
      "Quality guarantee"
    ],
    "social_links": {}
  }
]