[
  {
    "name": "AROCON Roofing & Construction",
    "address": "Multiple locations, including in Virginia",
    "phone": "(877) 503-2939",
    "rating": 4.5,
    "reviews": 25,
    "website": "https://arocon.com/",
    "category": "Bengali-speaking Roofing replacement in Virginia",
    "description": "AROCON offers a wide range of roofing and construction services, focusing on quality workmanship and customer satisfaction. They serve Maryland and Virginia",
    "hours": "Mon-Fri 9AM-6PM",
    "services": [
      "Bengali-speaking Roofing replacement in Virginia consultation",
      "Professional service",
      "Quality guarantee"
    ],
    "social_links": {}
  },
  {
    "name": "Exterior Medics",
    "address": "Springfield, VA",
    "phone": "(703) 595-7031",
    "rating": 4.7,
    "reviews": 25,
    "website": "https://www.exterioremedics.com/",
    "category": "Bengali-speaking Roofing replacement in Virginia",
    "description": "Exterior Medics is a top-rated roofing company in Northern Virginia, specializing in roof replacement, repair, and other exterior home improvement services",
    "hours": "Mon-Fri 9AM-6PM",
    "services": [
      "Bengali-speaking Roofing replacement in Virginia consultation",
      "Professional service",
      "Quality guarantee"
    ],
    "social_links": {}
  },
  {
    "name": "Style Roofing, Inc.",
    "address": "Multiple locations in Northern Virginia",
    "phone": "(703) 672-2262",
    "rating": 4.5,
    "reviews": 25,
    "website": "https://styleroofing.com/",
    "category": "Bengali-speaking Roofing replacement in Virginia",
    "description": "Style Roofing has been serving Northern Virginia since 1992, providing quality roof replacement and other exterior services with a focus on customer satisfaction",
    "hours": "Mon-Fri 9AM-6PM",
    "services": [
      "Bengali-speaking Roofing replacement in Virginia consultation",
      "Professional service",
      "Quality guarantee"
    ],
    "social_links": {}
  },
  {
    "name": "DryHome Roofing & Siding, Inc.",
    "address": "Multiple locations in Northern Virginia",
    "phone": "(301) 302-1000",
    "rating": 4.5,
    "reviews": 25,
    "website": "https://www.dryhome.com/",
    "category": "Bengali-speaking Roofing replacement in Virginia",
    "description": "DryHome offers roof replacement, repair, and skylight installation services with a commitment to professional workmanship and customer care",
    "hours": "Mon-Fri 9AM-6PM",
    "services": [
      "Bengali-speaking Roofing replacement in Virginia consultation",
      "Professional service",
      "Quality guarantee"
    ],
    "social_links": {}
  },
  {
    "name": "Mark Meredith LLC",
    "address": "Alexandria, Burke, and Fairfax, Virginia",
    "phone": "(703) 795-1117",
    "rating": 4.8,
    "reviews": 25,
    "website": "https://markmeredithllc.com/",
    "category": "Bengali-speaking Roofing replacement in Virginia",
    "description": "Mark Meredith LLC is a full-service contractor with over 40 years of experience, offering top-quality construction and renovation services, including roofing",
    "hours": "Mon-Fri 9AM-6PM",
    "services": [
      "Bengali-speaking Roofing replacement in Virginia consultation",
      "Professional service",
      "Quality guarantee"
    ],
    "social_links": {}
  },
  {
    "name": "Best Roofing Of Virginia",
    "address": "Virginia Beach, VA",
    "phone": "(757) 481-8200",
    "rating": 5.0,
    "reviews": 25,
    "website": "https://bestroofingofvirginia.com/",
    "category": "Bengali-speaking Roofing replacement in Virginia",
    "description": "Best Roofing of Virginia has been serving the Hampton Roads area since 1997, specializing in residential and commercial roofing projects with a strong reputation for quality",
    "hours": "Mon-Fri 9AM-6PM",
    "services": [
      "Bengali-speaking Roofing replacement in Virginia consultation",
      "Professional service",
      "Quality guarantee"
    ],
    "social_links": {}
  },
  {
    "name": "Roof.net",
    "address": "Northern Virginia",
    "phone": "(703) 303-8546",
    "rating": 4.7,
    "reviews": 25,
    "website": "https://roof.net/",
    "category": "Bengali-speaking Roofing replacement in Virginia",
    "description": "Roof.net offers comprehensive roof replacement and repair solutions in Northern Virginia, with over 41 years of experience and a commitment to customer satisfaction",
    "hours": "Mon-Fri 9AM-6PM",
    "services": [
      "Bengali-speaking Roofing replacement in Virginia consultation",
      "Professional service",
      "Quality guarantee"
    ],
    "social_links": {}
  },
  {
    "name": "Shanco Companies LLC",
    "address": "Gaithersburg, MD (serves Northern Virginia)",
    "phone": "(301) 208-0848",
    "rating": 4.9,
    "reviews": 25,
    "website": "https://www.shancocompanies.com/",
    "category": "Bengali-speaking Roofing replacement in Virginia",
    "description": "Shanco Companies provides a range of exterior remodeling services, including roofing, siding, and windows, with a focus on quality and customer service",
    "hours": "Mon-Fri 9AM-6PM",
    "services": [
      "Bengali-speaking Roofing replacement in Virginia consultation",
      "Professional service",
      "Quality guarantee"
    ],
    "social_links": {}
  },
  {
    "name": "Augustine Roofing",
    "address": "Sterling, VA",
    "phone": "(804) 548-3836",
    "rating": 4.9,
    "reviews": 25,
    "website": "https://augustineroofing.com/",
    "category": "Bengali-speaking Roofing replacement in Virginia",
    "description": "Augustine Roofing offers expert roofing services, including replacement and repair, with a strong emphasis on quality craftsmanship and customer satisfaction",
    "hours": "Mon-Fri 9AM-6PM",
    "services": [
      "Bengali-speaking Roofing replacement in Virginia consultation",
      "Professional service",
      "Quality guarantee"
    ],
    "social_links": {}
  },
  {
    "name": "Low Cost Roofing LLC",
    "address": "Falls Church, VA",
    "phone": "(703) 595-7031",
    "rating": 4.5,
    "reviews": 25,
    "website": "https://lowcostroofingllc.com/",
    "category": "Bengali-speaking Roofing replacement in Virginia",
    "description": "Low Cost Roofing LLC is a family-owned business providing high-quality roofing services for residential and commercial needs in DC, Maryland, and Virginia",
    "hours": "Mon-Fri 9AM-6PM",
    "services": [
      "Bengali-speaking Roofing replacement in Virginia consultation",
      "Professional service",
      "Quality guarantee"
    ],
    "social_links": {}
  }
]