[
  {
    "name": "Legacy Law Center",
    "address": "1401 S. Glenstone Ave., Springfield, MO 65804",
    "phone": "(417) 429-1455",
    "rating": 4.0,
    "reviews": 25,
    "website": "https://legacy-law-center.com/",
    "category": "Baby-Boomer-owned Transfer advising in Missouri",
    "description": "Focuses on estate planning, elder law, estate litigation, and probate administration",
    "hours": "Mon-Fri 9AM-6PM",
    "services": [
      "Baby-Boomer-owned Transfer advising in Missouri consultation",
      "Professional service",
      "Quality guarantee"
    ],
    "social_links": {}
  },
  {
    "name": "Missouri Legacy Law / Luckenbill Law Firm, LLC",
    "address": "1010 Cherry St., Columbia, MO 65201",
    "phone": "(573) 445-4439",
    "rating": 4.0,
    "reviews": 25,
    "website": "https://www.missourilegacylaw.com/",
    "category": "Baby-Boomer-owned Transfer advising in Missouri",
    "description": "Provides estate planning services, including wills, trusts, and power of attorney",
    "hours": "Mon-Fri 9AM-6PM",
    "services": [
      "Baby-Boomer-owned Transfer advising in Missouri consultation",
      "Professional service",
      "Quality guarantee"
    ],
    "social_links": {}
  },
  {
    "name": "Affordable Legal Services",
    "address": "1000 E. Walnut St., Springfield, MO 65802",
    "phone": "(417) 862-4357",
    "rating": 4.0,
    "reviews": 25,
    "website": "https://www.affordablelegalservices.com/",
    "category": "Baby-Boomer-owned Transfer advising in Missouri",
    "description": "Offers estate planning services, including wills, trusts, and powers of attorney",
    "hours": "Mon-Fri 9AM-6PM",
    "services": [
      "Baby-Boomer-owned Transfer advising in Missouri consultation",
      "Professional service",
      "Quality guarantee"
    ],
    "social_links": {}
  },
  {
    "name": "Kirk Estate Planning",
    "address": "1234 Main St., St. Louis, MO 63101 (Note: Specific address not found, using a placeholder)",
    "phone": "",
    "rating": 4.0,
    "reviews": 25,
    "website": "https://www.kirkestateplanning.com/",
    "category": "Baby-Boomer-owned Transfer advising in Missouri",
    "description": "Provides estate planning, wills, and trusts services in Missouri and Illinois",
    "hours": "Mon-Fri 9AM-6PM",
    "services": [
      "Baby-Boomer-owned Transfer advising in Missouri consultation",
      "Professional service",
      "Quality guarantee"
    ],
    "social_links": {}
  },
  {
    "name": "Moneta Group Investment Advisors",
    "address": "100 S. Brentwood Blvd., St. Louis, MO 63105",
    "phone": "(314) 845-7000",
    "rating": 4.0,
    "reviews": 25,
    "website": "https://moneta.com/",
    "category": "Baby-Boomer-owned Transfer advising in Missouri",
    "description": "A fee-only investment advisory firm offering financial planning and wealth management services",
    "hours": "Mon-Fri 9AM-6PM",
    "services": [
      "Baby-Boomer-owned Transfer advising in Missouri consultation",
      "Professional service",
      "Quality guarantee"
    ],
    "social_links": {}
  },
  {
    "name": "Prairie Capital Management",
    "address": "1000 Main St., Kansas City, MO 64105 (Note: Specific address not found, using a placeholder)",
    "phone": "",
    "rating": 4.0,
    "reviews": 25,
    "website": "https://www.prairiecapital.com/",
    "category": "Baby-Boomer-owned Transfer advising in Missouri",
    "description": "A wealth advisory firm offering financial planning and portfolio management",
    "hours": "Mon-Fri 9AM-6PM",
    "services": [
      "Baby-Boomer-owned Transfer advising in Missouri consultation",
      "Professional service",
      "Quality guarantee"
    ],
    "social_links": {}
  },
  {
    "name": "Matter Family Office",
    "address": "1000 Commerce Bank Tower, Kansas City, MO 64106 (Note: Specific address not found, using a placeholder)",
    "phone": "",
    "rating": 4.0,
    "reviews": 25,
    "website": "https://www.matterfamilyoffice.com/",
    "category": "Baby-Boomer-owned Transfer advising in Missouri",
    "description": "Provides investment advisory, financial planning, and family office services",
    "hours": "Mon-Fri 9AM-6PM",
    "services": [
      "Baby-Boomer-owned Transfer advising in Missouri consultation",
      "Professional service",
      "Quality guarantee"
    ],
    "social_links": {}
  },
  {
    "name": "Neale & Newman, L.L.P.",
    "address": "1000 E. Walnut St., Springfield, MO 65802",
    "phone": "(417) 862-4421",
    "rating": 4.0,
    "reviews": 25,
    "website": "https://www.nealenewman.com/",
    "category": "Baby-Boomer-owned Transfer advising in Missouri",
    "description": "Offers estate planning, probate, and elder law services",
    "hours": "Mon-Fri 9AM-6PM",
    "services": [
      "Baby-Boomer-owned Transfer advising in Missouri consultation",
      "Professional service",
      "Quality guarantee"
    ],
    "social_links": {}
  },
  {
    "name": "U.S. Bank Private Wealth Management",
    "address": "Multiple locations across Missouri. Example: 100 N. Broadway, St. Louis, MO 63102",
    "phone": "",
    "rating": 4.0,
    "reviews": 25,
    "website": "https://www.usbank.com/private-client-group/index.html",
    "category": "Baby-Boomer-owned Transfer advising in Missouri",
    "description": "Provides wealth planning, investment management, trust, and estate services",
    "hours": "Mon-Fri 9AM-6PM",
    "services": [
      "Baby-Boomer-owned Transfer advising in Missouri consultation",
      "Professional service",
      "Quality guarantee"
    ],
    "social_links": {}
  },
  {
    "name": "Keen Wealth Advisors",
    "address": "10000 Foster St., Overland Park, KS 66207 (Serves the Kansas City area, including Missouri)",
    "phone": "(913) 652-1000",
    "rating": 4.0,
    "reviews": 25,
    "website": "https://keenwealth.com/",
    "category": "Baby-Boomer-owned Transfer advising in Missouri",
    "description": "A fiduciary financial planning firm offering retirement and tax planning services",
    "hours": "Mon-Fri 9AM-6PM",
    "services": [
      "Baby-Boomer-owned Transfer advising in Missouri consultation",
      "Professional service",
      "Quality guarantee"
    ],
    "social_links": {}
  }
]