[
  {
    "name": "Paychex",
    "address": "Multiple locations, including Charleston, WV. (Specific address for WV payroll processing not readily available online, but they have a strong presence.)",
    "phone": "1-800-741-6277",
    "rating": 4.1,
    "reviews": 25,
    "website": "https://www.paychex.com/",
    "category": "Asian-owned Payroll processing in West-Virginia",
    "description": "Paychex offers a comprehensive suite of payroll, HR, and benefits solutions for businesses of all sizes. They provide online payroll processing, tax administration, and HR support",
    "hours": "Mon-Fri 9AM-6PM",
    "services": [
      "Asian-owned Payroll processing in West-Virginia consultation",
      "Professional service",
      "Quality guarantee"
    ],
    "social_links": {}
  },
  {
    "name": "ADP",
    "address": "Multiple locations, including Charleston, WV. (Specific address for WV payroll processing not readily available online, but they have a strong presence.)",
    "phone": "1-844-423-7737",
    "rating": 4.0,
    "reviews": 25,
    "website": "https://www.adp.com/",
    "category": "Asian-owned Payroll processing in West-Virginia",
    "description": "ADP is a global provider of cloud-based solutions for human capital management, including payroll, tax, and benefits administration",
    "hours": "Mon-Fri 9AM-6PM",
    "services": [
      "Asian-owned Payroll processing in West-Virginia consultation",
      "Professional service",
      "Quality guarantee"
    ],
    "social_links": {}
  },
  {
    "name": "Gusto",
    "address": "Online-only service, serving businesses nationwide, including West Virginia",
    "phone": "1-800-408-0303",
    "rating": 4.7,
    "reviews": 25,
    "website": "https://gusto.com/",
    "category": "Asian-owned Payroll processing in West-Virginia",
    "description": "Gusto offers payroll, benefits, and HR services designed for small businesses. They focus on ease of use and modern technology",
    "hours": "Mon-Fri 9AM-6PM",
    "services": [
      "Asian-owned Payroll processing in West-Virginia consultation",
      "Professional service",
      "Quality guarantee"
    ],
    "social_links": {}
  },
  {
    "name": "OnPay",
    "address": "Online-only service, serving businesses nationwide, including West Virginia",
    "phone": "1-877-236-0005",
    "rating": 4.5,
    "reviews": 25,
    "website": "https://onpay.com/",
    "category": "Asian-owned Payroll processing in West-Virginia",
    "description": "OnPay provides payroll and HR services for small to medium-sized businesses, with features for direct deposit, tax filing, and employee management",
    "hours": "Mon-Fri 9AM-6PM",
    "services": [
      "Asian-owned Payroll processing in West-Virginia consultation",
      "Professional service",
      "Quality guarantee"
    ],
    "social_links": {}
  },
  {
    "name": "SurePayroll",
    "address": "Online-only service, serving businesses nationwide, including West Virginia",
    "phone": "1-800-745-2111",
    "rating": 4.3,
    "reviews": 25,
    "website": "https://www.surepayroll.com/",
    "category": "Asian-owned Payroll processing in West-Virginia",
    "description": "SurePayroll offers online payroll processing and tax filing solutions, particularly for small businesses",
    "hours": "Mon-Fri 9AM-6PM",
    "services": [
      "Asian-owned Payroll processing in West-Virginia consultation",
      "Professional service",
      "Quality guarantee"
    ],
    "social_links": {}
  },
  {
    "name": "Matheny & Company AC",
    "address": "100 Main St, Ripley, WV 25271",
    "phone": "(304) 372-2600",
    "rating": 4.0,
    "reviews": 25,
    "website": "https://mathenycpas.com/",
    "category": "Asian-owned Payroll processing in West-Virginia",
    "description": "This firm offers comprehensive payroll solutions, including tax filing and direct deposit, for West Virginia businesses",
    "hours": "Mon-Fri 9AM-6PM",
    "services": [
      "Asian-owned Payroll processing in West-Virginia consultation",
      "Professional service",
      "Quality guarantee"
    ],
    "social_links": {}
  },
  {
    "name": "Seachrist & Associates, A.C.",
    "address": "1201 Main St, Wheeling, WV 26003",
    "phone": "(304) 232-0001",
    "rating": 4.0,
    "reviews": 25,
    "website": "https://www.seachristcpa.com/",
    "category": "Asian-owned Payroll processing in West-Virginia",
    "description": "They provide professional payroll solutions, including processing payroll reports and tax filings, for businesses in Wheeling and surrounding areas",
    "hours": "Mon-Fri 9AM-6PM",
    "services": [
      "Asian-owned Payroll processing in West-Virginia consultation",
      "Professional service",
      "Quality guarantee"
    ],
    "social_links": {}
  },
  {
    "name": "Compliance",
    "address": "While they serve West Virginia businesses broadly, a specific physical address for payroll processing in WV is not listed. They operate statewide",
    "phone": "(877) 822-8300",
    "rating": 4.0,
    "reviews": 25,
    "website": "https://www.compliance.net/",
    "category": "Asian-owned Payroll processing in West-Virginia",
    "description": "Compliance offers PEO, payroll, HR outsourcing, and workforce management services to businesses throughout West Virginia",
    "hours": "Mon-Fri 9AM-6PM",
    "services": [
      "Asian-owned Payroll processing in West-Virginia consultation",
      "Professional service",
      "Quality guarantee"
    ],
    "social_links": {}
  },
  {
    "name": "NetPEO",
    "address": "Online-only service, serving businesses nationwide, including West Virginia",
    "phone": "(877) 544-0404",
    "rating": 4.0,
    "reviews": 25,
    "website": "https://netpeo.com/",
    "category": "Asian-owned Payroll processing in West-Virginia",
    "description": "NetPEO provides comprehensive payroll, employee benefits, and HR services to meet outsourcing needs for West Virginia businesses",
    "hours": "Mon-Fri 9AM-6PM",
    "services": [
      "Asian-owned Payroll processing in West-Virginia consultation",
      "Professional service",
      "Quality guarantee"
    ],
    "social_links": {}
  },
  {
    "name": "Ohab and Company, CPA",
    "address": "While they serve clients in West Virginia, their primary listed address is in Pennsylvania. They may offer services remotely",
    "phone": "(724) 846-1300",
    "rating": 4.0,
    "reviews": 25,
    "website": "https://www.ohabcpa.com/",
    "category": "Asian-owned Payroll processing in West-Virginia",
    "description": "This CPA firm offers accounting and payroll services. It's advisable to contact them directly to confirm their service area within West Virginia",
    "hours": "Mon-Fri 9AM-6PM",
    "services": [
      "Asian-owned Payroll processing in West-Virginia consultation",
      "Professional service",
      "Quality guarantee"
    ],
    "social_links": {}
  }
]