[
  {
    "name": "Delmarva Animal Emergency Center",
    "address": "1482 E Lebanon Rd, Dover, DE 19901",
    "phone": "(302) 697-0850",
    "rating": 4.0,
    "reviews": 25,
    "website": "https://www.google.com/maps/search/Delmarva+Animal+Emergency+Center+in+Delaware",
    "category": "Arabic-speaking Emergency veterinary in Delaware",
    "description": "A full-service animal hospital that welcomes both emergencies and routine care",
    "hours": "Mon-Fri 9AM-6PM",
    "services": [
      "Arabic-speaking Emergency veterinary in Delaware consultation",
      "Professional service",
      "Quality guarantee"
    ],
    "social_links": {}
  },
  {
    "name": "Cove Pet Care",
    "address": "Information not available in search results",
    "phone": "",
    "rating": 4.0,
    "reviews": 25,
    "website": "https://www.google.com/maps/search/Cove+Pet+Care+in+Delaware",
    "category": "Arabic-speaking Emergency veterinary in Delaware",
    "description": "Offers 24/7 emergency veterinary care, specialty services, and advanced treatments",
    "hours": "Mon-Fri 9AM-6PM",
    "services": [
      "Arabic-speaking Emergency veterinary in Delaware consultation",
      "Professional service",
      "Quality guarantee"
    ],
    "social_links": {}
  },
  {
    "name": "VidaVet Veterinary Urgent Care",
    "address": "300 South Ridge Avenue, Middletown, DE 19709",
    "phone": "(302) 676-8432",
    "rating": 4.0,
    "reviews": 25,
    "website": "https://www.google.com/maps/search/VidaVet+Veterinary+Urgent+Care+in+Delaware",
    "category": "Arabic-speaking Emergency veterinary in Delaware",
    "description": "Provides urgent care for pets when they cannot wait to see their primary care veterinarian, bridging the gap for immediate needs",
    "hours": "Mon-Fri 9AM-6PM",
    "services": [
      "Arabic-speaking Emergency veterinary in Delaware consultation",
      "Professional service",
      "Quality guarantee"
    ],
    "social_links": {}
  },
  {
    "name": "BluePearl Pet Hospital Christiana",
    "address": "106 Geoffrey Drive, Newark, DE 19713",
    "phone": "(302) 322-6933",
    "rating": 4.0,
    "reviews": 25,
    "website": "https://www.google.com/maps/search/BluePearl+Pet+Hospital+Christiana+in+Delaware",
    "category": "Arabic-speaking Emergency veterinary in Delaware",
    "description": "A 24-hour emergency vet hospital providing expert care for pet emergencies and also offering specialty services",
    "hours": "Mon-Fri 9AM-6PM",
    "services": [
      "Arabic-speaking Emergency veterinary in Delaware consultation",
      "Professional service",
      "Quality guarantee"
    ],
    "social_links": {}
  },
  {
    "name": "Windcrest Animal Hospital",
    "address": "Information not available in search results. (Serves Wilmington, DE)",
    "phone": "302-998-2995",
    "rating": 4.0,
    "reviews": 25,
    "website": "https://www.google.com/maps/search/Windcrest+Animal+Hospital+in+Delaware",
    "category": "Arabic-speaking Emergency veterinary in Delaware",
    "description": "Offers a 24/7 pet emergency room and a dedicated team of emergency veterinarians and nurses",
    "hours": "Mon-Fri 9AM-6PM",
    "services": [
      "Arabic-speaking Emergency veterinary in Delaware consultation",
      "Professional service",
      "Quality guarantee"
    ],
    "social_links": {}
  },
  {
    "name": "First State Urgent Veterinary",
    "address": "Information not available in search results. (Serves Wilmington and Newark, DE)",
    "phone": "(302) 609-0011",
    "rating": 4.0,
    "reviews": 25,
    "website": "https://www.google.com/maps/search/First+State+Urgent+Veterinary+in+Delaware",
    "category": "Arabic-speaking Emergency veterinary in Delaware",
    "description": "Provides convenient, accessible pet care on demand with walk-in services",
    "hours": "Mon-Fri 9AM-6PM",
    "services": [
      "Arabic-speaking Emergency veterinary in Delaware consultation",
      "Professional service",
      "Quality guarantee"
    ],
    "social_links": {}
  },
  {
    "name": "Coastal Veterinary",
    "address": "Information not available in search results. (Serves Selbyville area)",
    "phone": "302-524-8550",
    "rating": 4.0,
    "reviews": 25,
    "website": "https://www.google.com/maps/search/Coastal+Veterinary+in+Delaware",
    "category": "Arabic-speaking Emergency veterinary in Delaware",
    "description": "Offers exceptional veterinary care with a focus on small animal emergency care",
    "hours": "Mon-Fri 9AM-6PM",
    "services": [
      "Arabic-speaking Emergency veterinary in Delaware consultation",
      "Professional service",
      "Quality guarantee"
    ],
    "social_links": {}
  },
  {
    "name": "Precious Paws Animal Hospital",
    "address": "118 Atlantic Ave. Suite 101, Ocean View, DE 19970",
    "phone": "302-539-2273",
    "rating": 4.0,
    "reviews": 25,
    "website": "https://www.google.com/maps/search/Precious+Paws+Animal+Hospital+in+Delaware",
    "category": "Arabic-speaking Emergency veterinary in Delaware",
    "description": "A full-service animal hospital that handles emergency cases as well as less urgent medical, surgical, and dental issues",
    "hours": "Mon-Fri 9AM-6PM",
    "services": [
      "Arabic-speaking Emergency veterinary in Delaware consultation",
      "Professional service",
      "Quality guarantee"
    ],
    "social_links": {}
  },
  {
    "name": "Lantana Veterinary Center",
    "address": "306 Lantana Drive, Hockessin DE, 19707",
    "phone": "(302)234-3275",
    "rating": 4.0,
    "reviews": 25,
    "website": "https://www.google.com/maps/search/Lantana+Veterinary+Center+in+Delaware",
    "category": "Arabic-speaking Emergency veterinary in Delaware",
    "description": "Provides high-quality, personalized service with specialized areas of treatment",
    "hours": "Mon-Fri 9AM-6PM",
    "services": [
      "Arabic-speaking Emergency veterinary in Delaware consultation",
      "Professional service",
      "Quality guarantee"
    ],
    "social_links": {}
  },
  {
    "name": "Middletown Veterinary Hospital",
    "address": "Information not available in search results. (Located in Middletown, DE)",
    "phone": "",
    "rating": 4.0,
    "reviews": 25,
    "website": "https://www.google.com/maps/search/Middletown+Veterinary+Hospital+in+Delaware",
    "category": "Arabic-speaking Emergency veterinary in Delaware",
    "description": "Offers services for Avian & Exotic pets, and also provides general veterinary care",
    "hours": "Mon-Fri 9AM-6PM",
    "services": [
      "Arabic-speaking Emergency veterinary in Delaware consultation",
      "Professional service",
      "Quality guarantee"
    ],
    "social_links": {}
  }
]