[
  {
    "name": "Shelton Family Dental",
    "address": "2600 N Charles St Suite 101, Baltimore, MD 21218",
    "phone": "(410) 243-3714",
    "rating": 4.0,
    "reviews": 25,
    "website": "https://www.google.com/maps/search/Shelton+Family+Dental+in+Maryland",
    "category": "African-American-owned Dentists in Maryland",
    "description": "A family-owned practice serving Baltimore since 1976, led by Dr. Benjamin Shelton and Dr. Cohloe-Shai Shelton",
    "hours": "Mon-Fri 9AM-6PM",
    "services": [
      "African-American-owned Dentists in Maryland consultation",
      "Professional service",
      "Quality guarantee"
    ],
    "social_links": {}
  },
  {
    "name": "Advanced Dental Care of Baltimore",
    "address": "6221 Harford Rd, Baltimore, MD 21214",
    "phone": "(410) 844-0632",
    "rating": 4.0,
    "reviews": 25,
    "website": "https://www.google.com/maps/search/Advanced+Dental+Care+of+Baltimore+in+Maryland",
    "category": "African-American-owned Dentists in Maryland",
    "description": "Led by Dr. Awofolu, this practice offers implants, Invisalign, cosmetic dentistry, and comprehensive family services",
    "hours": "Mon-Fri 9AM-6PM",
    "services": [
      "African-American-owned Dentists in Maryland consultation",
      "Professional service",
      "Quality guarantee"
    ],
    "social_links": {}
  },
  {
    "name": "Perkins Dental Care",
    "address": "1001 Eastern Ave, Baltimore, MD 21202",
    "phone": "(410) 685-2850",
    "rating": 4.0,
    "reviews": 25,
    "website": "https://www.google.com/maps/search/Perkins+Dental+Care+in+Maryland",
    "category": "African-American-owned Dentists in Maryland",
    "description": "This practice serves patients of all ages with family and cosmetic dentistry, utilizing advanced dental technology",
    "hours": "Mon-Fri 9AM-6PM",
    "services": [
      "African-American-owned Dentists in Maryland consultation",
      "Professional service",
      "Quality guarantee"
    ],
    "social_links": {}
  },
  {
    "name": "Hackley DDS, LLC",
    "address": "15245 National Pike, Hagerstown, MD 21740 (Note: While the search results mention Rockville, the address provided in a related search is for Hagerstown. Further verification may be needed for Rockville-specific location.)",
    "phone": "301-917-3964",
    "rating": 4.9,
    "reviews": 25,
    "website": "https://www.google.com/maps/search/Hackley+DDS,+LLC+in+Maryland",
    "category": "African-American-owned Dentists in Maryland",
    "description": "Dr. Rochelle E. Hackley-Harris, an African-American dentist, has been practicing for over 23 years, focusing on patient experience and offering general and cosmetic services",
    "hours": "Mon-Fri 9AM-6PM",
    "services": [
      "African-American-owned Dentists in Maryland consultation",
      "Professional service",
      "Quality guarantee"
    ],
    "social_links": {}
  },
  {
    "name": "Avie Oral Surgery Group",
    "address": "Odenton, MD (Specific street address not provided in search results, but serves surrounding counties including Anne Arundel, Howard, Baltimore, and Prince George's.)",
    "phone": "443-741-0696",
    "rating": 4.0,
    "reviews": 25,
    "website": "https://www.google.com/maps/search/Avie+Oral+Surgery+Group+in+Maryland",
    "category": "African-American-owned Dentists in Maryland",
    "description": "A black and female-owned Oral and Maxillofacial Surgery office performing extractions, sedation, dental implants, and other procedures",
    "hours": "Mon-Fri 9AM-6PM",
    "services": [
      "African-American-owned Dentists in Maryland consultation",
      "Professional service",
      "Quality guarantee"
    ],
    "social_links": {}
  },
  {
    "name": "Edward H. Chappelle Jr., DDS",
    "address": "Bowie, MD (Specific street address not provided in search results.)",
    "phone": "",
    "rating": 4.0,
    "reviews": 25,
    "website": "https://www.google.com/maps/search/Edward+H.+Chappelle+Jr.,+DDS+in+Maryland",
    "category": "African-American-owned Dentists in Maryland",
    "description": "This practice offers top-notch dental care in Bowie, MD, including emergency dental care, dental whitening, and Invisalign",
    "hours": "Mon-Fri 9AM-6PM",
    "services": [
      "African-American-owned Dentists in Maryland consultation",
      "Professional service",
      "Quality guarantee"
    ],
    "social_links": {}
  },
  {
    "name": "Smile N Style Dental",
    "address": "4 McCain Dr Suite 3, Frederick, MD 21703",
    "phone": "301-696-1016",
    "rating": 4.0,
    "reviews": 25,
    "website": "https://www.google.com/maps/search/Smile+N+Style+Dental+in+Maryland",
    "category": "African-American-owned Dentists in Maryland",
    "description": "Dr. Vallerie B. Kee practices at this location in Frederick, MD",
    "hours": "Mon-Fri 9AM-6PM",
    "services": [
      "African-American-owned Dentists in Maryland consultation",
      "Professional service",
      "Quality guarantee"
    ],
    "social_links": {}
  },
  {
    "name": "Terrace Dental Group",
    "address": "84 Thomas Johnson Ct, Frederick, MD 21704",
    "phone": "301-662-9133",
    "rating": 4.0,
    "reviews": 25,
    "website": "https://www.google.com/maps/search/Terrace+Dental+Group+in+Maryland",
    "category": "African-American-owned Dentists in Maryland",
    "description": "Dr. Ekpa Eyoma practices at this location in Frederick, MD",
    "hours": "Mon-Fri 9AM-6PM",
    "services": [
      "African-American-owned Dentists in Maryland consultation",
      "Professional service",
      "Quality guarantee"
    ],
    "social_links": {}
  },
  {
    "name": "Black David K DDS (Forestream Dental Care)",
    "address": "903 Russell Avenue #201, Gaithersburg, MD 20879",
    "phone": "301-740-8488",
    "rating": 4.0,
    "reviews": 25,
    "website": "https://www.google.com/maps/search/Black+David+K+DDS+(Forestream+Dental+Care)+in+Maryland",
    "category": "African-American-owned Dentists in Maryland",
    "description": "This practice in Gaithersburg, MD, offers general dentistry services",
    "hours": "Mon-Fri 9AM-6PM",
    "services": [
      "African-American-owned Dentists in Maryland consultation",
      "Professional service",
      "Quality guarantee"
    ],
    "social_links": {}
  },
  {
    "name": "Winfrey Dental Aesthetics",
    "address": "Laurel, MD (Specific street address not provided in search results.)",
    "phone": "301-483-6767",
    "rating": 4.0,
    "reviews": 25,
    "website": "https://www.google.com/maps/search/Winfrey+Dental+Aesthetics+in+Maryland",
    "category": "African-American-owned Dentists in Maryland",
    "description": "Dr. Tiffanie Winfrey practices General & Cosmetic Dentistry in Laurel, MD, aiming to provide exceptional dental care in a comfortable environment",
    "hours": "Mon-Fri 9AM-6PM",
    "services": [
      "African-American-owned Dentists in Maryland consultation",
      "Professional service",
      "Quality guarantee"
    ],
    "social_links": {}
  }
]