[
  {
    "name": "Peterson Automotive",
    "address": "13317 NE Fourth Plain Road, Vancouver, WA 98682",
    "phone": "360-326-8592",
    "rating": 4.0,
    "reviews": 25,
    "website": "https://www.google.com/maps/search/Peterson+Automotive+in+Washington",
    "category": "Asian-owned Engine rebuilding in Washington",
    "description": "Full-service auto repair and preventative maintenance facility specializing in Asian vehicles",
    "hours": "Mon-Fri 9AM-6PM",
    "services": [
      "Asian-owned Engine rebuilding in Washington consultation",
      "Professional service",
      "Quality guarantee"
    ],
    "social_links": {}
  },
  {
    "name": "Acme Auto Electric & Repair",
    "address": "Not specified in search results. (Located in Seattle, WA)",
    "phone": "206-523-2133",
    "rating": 4.0,
    "reviews": 25,
    "website": "https://www.google.com/maps/search/Acme+Auto+Electric+&+Repair+in+Washington",
    "category": "Asian-owned Engine rebuilding in Washington",
    "description": "Full-service auto repair and preventative maintenance facility specializing in Asian vehicles",
    "hours": "Mon-Fri 9AM-6PM",
    "services": [
      "Asian-owned Engine rebuilding in Washington consultation",
      "Professional service",
      "Quality guarantee"
    ],
    "social_links": {}
  },
  {
    "name": "Hawk's Asian Auto Repair",
    "address": "Not specified in search results. (Located in Tacoma, WA)",
    "phone": "",
    "rating": 4.0,
    "reviews": 25,
    "website": "https://www.google.com/maps/search/Hawk's+Asian+Auto+Repair+in+Washington",
    "category": "Asian-owned Engine rebuilding in Washington",
    "description": "Specializes in Infiniti repair and service in Tacoma, WA",
    "hours": "Mon-Fri 9AM-6PM",
    "services": [
      "Asian-owned Engine rebuilding in Washington consultation",
      "Professional service",
      "Quality guarantee"
    ],
    "social_links": {}
  },
  {
    "name": "Casey's Independent Auto Repair",
    "address": "11610 NE 65th Street, Vancouver, WA 98662",
    "phone": "360-253-7111",
    "rating": 4.6,
    "reviews": 25,
    "website": "https://www.google.com/maps/search/Casey's+Independent+Auto+Repair+in+Washington",
    "category": "Asian-owned Engine rebuilding in Washington",
    "description": "Specializes in repairing Asian and Japanese cars, including engine repair and service",
    "hours": "Mon-Fri 9AM-6PM",
    "services": [
      "Asian-owned Engine rebuilding in Washington consultation",
      "Professional service",
      "Quality guarantee"
    ],
    "social_links": {}
  },
  {
    "name": "No. 1 Japanese Auto Repair",
    "address": "Not specified in search results. (Located in Seattle, WA)",
    "phone": "206-782-0711",
    "rating": 4.0,
    "reviews": 25,
    "website": "https://www.google.com/maps/search/No.+1+Japanese+Auto+Repair+in+Washington",
    "category": "Asian-owned Engine rebuilding in Washington",
    "description": "A family-owned shop specializing in Asian import vehicle service and repair, including engine repairs",
    "hours": "Mon-Fri 9AM-6PM",
    "services": [
      "Asian-owned Engine rebuilding in Washington consultation",
      "Professional service",
      "Quality guarantee"
    ],
    "social_links": {}
  },
  {
    "name": "All Modern Automotive",
    "address": "15105 Highway 99, Suite A, Lynnwood, WA 98087",
    "phone": "425-510-4133",
    "rating": 4.0,
    "reviews": 25,
    "website": "https://www.google.com/maps/search/All+Modern+Automotive+in+Washington",
    "category": "Asian-owned Engine rebuilding in Washington",
    "description": "Provides auto repair services for a variety of Asian vehicles, with over 30 years of combined expertise",
    "hours": "Mon-Fri 9AM-6PM",
    "services": [
      "Asian-owned Engine rebuilding in Washington consultation",
      "Professional service",
      "Quality guarantee"
    ],
    "social_links": {}
  },
  {
    "name": "Walker's Automotive",
    "address": "Not specified in search results. (Located in Spokane Valley, WA)",
    "phone": "509-922-0468",
    "rating": 4.0,
    "reviews": 25,
    "website": "https://www.google.com/maps/search/Walker's+Automotive+in+Washington",
    "category": "Asian-owned Engine rebuilding in Washington",
    "description": "Full-service auto repair and preventative maintenance facility specializing in Asian vehicles, including engine maintenance",
    "hours": "Mon-Fri 9AM-6PM",
    "services": [
      "Asian-owned Engine rebuilding in Washington consultation",
      "Professional service",
      "Quality guarantee"
    ],
    "social_links": {}
  },
  {
    "name": "A-1 Automotive",
    "address": "(Vancouver, WA location) 360-558-3502 (Phone number provided for Vancouver location)",
    "phone": "360-558-3502",
    "rating": 4.0,
    "reviews": 25,
    "website": "https://www.google.com/maps/search/A-1+Automotive+in+Washington",
    "category": "Asian-owned Engine rebuilding in Washington",
    "description": "Offers Asian, European, and domestic auto repair, including engine repair",
    "hours": "Mon-Fri 9AM-6PM",
    "services": [
      "Asian-owned Engine rebuilding in Washington consultation",
      "Professional service",
      "Quality guarantee"
    ],
    "social_links": {}
  },
  {
    "name": "High Road Automotive",
    "address": "1531 Leary Way NW, Seattle, WA 98107",
    "phone": "206-789-7521",
    "rating": 4.0,
    "reviews": 25,
    "website": "https://www.google.com/maps/search/High+Road+Automotive+in+Washington",
    "category": "Asian-owned Engine rebuilding in Washington",
    "description": "Provides services for Asian vehicles, including engine repair",
    "hours": "Mon-Fri 9AM-6PM",
    "services": [
      "Asian-owned Engine rebuilding in Washington consultation",
      "Professional service",
      "Quality guarantee"
    ],
    "social_links": {}
  },
  {
    "name": "Asian Engine Parts",
    "address": "3836 Williamson Way, Bellingham, WA 98226",
    "phone": "360-733-2479",
    "rating": 5.0,
    "reviews": 25,
    "website": "https://www.google.com/maps/search/Asian+Engine+Parts+in+Washington",
    "category": "Asian-owned Engine rebuilding in Washington",
    "description": "Specializes in engine parts and has a history in engine remanufacturing",
    "hours": "Mon-Fri 9AM-6PM",
    "services": [
      "Asian-owned Engine rebuilding in Washington consultation",
      "Professional service",
      "Quality guarantee"
    ],
    "social_links": {}
  }
]