[
  {
    "name": "Idaho Center for Integrative Medicine",
    "address": "122 9th St S, Boise, ID 83702",
    "phone": "(208) 331-1177",
    "rating": 4.8,
    "reviews": 25,
    "website": "https://idahointegrativemedicine.com/",
    "category": "Buddhist-owned Integrative medicine in Idaho",
    "description": "Offers a patient-focused approach combining conventional medicine with evidence-based alternative therapies to treat the whole person",
    "hours": "Mon-Fri 9AM-6PM",
    "services": [
      "Buddhist-owned Integrative medicine in Idaho consultation",
      "Professional service",
      "Quality guarantee"
    ],
    "social_links": {}
  },
  {
    "name": "Beacon Integrative Medical Center",
    "address": "203 W 2nd S, Rexburg, ID 83440",
    "phone": "(208) 356-5111",
    "rating": 4.7,
    "reviews": 25,
    "website": "https://www.beaconmedicalidaho.com/",
    "category": "Buddhist-owned Integrative medicine in Idaho",
    "description": "Provides a range of healthcare options, including natural, modern medical, or blended approaches, with a focus on holistic medicine",
    "hours": "Mon-Fri 9AM-6PM",
    "services": [
      "Buddhist-owned Integrative medicine in Idaho consultation",
      "Professional service",
      "Quality guarantee"
    ],
    "social_links": {}
  },
  {
    "name": "Root Cause Integrative Medicine",
    "address": "1450 W Broadway St, Idaho Falls, ID 83402",
    "phone": "(208) 557-0123",
    "rating": 4.9,
    "reviews": 25,
    "website": "https://www.rootcauseidaho.com/",
    "category": "Buddhist-owned Integrative medicine in Idaho",
    "description": "Focuses on a holistic approach to wellness, partnering with patients to achieve sustainable health by targeting the underlying causes of illness",
    "hours": "Mon-Fri 9AM-6PM",
    "services": [
      "Buddhist-owned Integrative medicine in Idaho consultation",
      "Professional service",
      "Quality guarantee"
    ],
    "social_links": {}
  },
  {
    "name": "Naturopathic Medicine of Idaho",
    "address": "1050 S Progress Ave Suite 100, Meridian, ID 83642",
    "phone": "(208) 391-5043",
    "rating": 4.8,
    "reviews": 25,
    "website": "https://www.naturopathicmedicineofidaho.com/",
    "category": "Buddhist-owned Integrative medicine in Idaho",
    "description": "Offers a personalized and integrated approach to healthcare, focusing on identifying the root cause of illness and promoting a lifestyle of prevention",
    "hours": "Mon-Fri 9AM-6PM",
    "services": [
      "Buddhist-owned Integrative medicine in Idaho consultation",
      "Professional service",
      "Quality guarantee"
    ],
    "social_links": {}
  },
  {
    "name": "Agape Integrative Medicine",
    "address": "10700 W. Overland Rd., Suite 120, Boise, ID 83709",
    "phone": "(208) 377-9000",
    "rating": 4.9,
    "reviews": 25,
    "website": "https://agapeim.com/",
    "category": "Buddhist-owned Integrative medicine in Idaho",
    "description": "Integrates functional medicine, chiropractic care, and acupuncture to identify and address the root causes of health challenges",
    "hours": "Mon-Fri 9AM-6PM",
    "services": [
      "Buddhist-owned Integrative medicine in Idaho consultation",
      "Professional service",
      "Quality guarantee"
    ],
    "social_links": {}
  },
  {
    "name": "The Healing Sanctuary",
    "address": "900 John Adams Pkwy, Idaho Falls, ID 83401",
    "phone": "(208) 557-0123",
    "rating": 4.9,
    "reviews": 25,
    "website": "https://www.thehealingsanctuary.com/",
    "category": "Buddhist-owned Integrative medicine in Idaho",
    "description": "A collaboration of healthcare practitioners integrating conventional, complementary, and alternative medicine to nurture intrinsic healing in the whole person",
    "hours": "Mon-Fri 9AM-6PM",
    "services": [
      "Buddhist-owned Integrative medicine in Idaho consultation",
      "Professional service",
      "Quality guarantee"
    ],
    "social_links": {}
  },
  {
    "name": "Functional Medicine of Idaho",
    "address": "122 9th St S, Boise, ID 83702",
    "phone": "(208) 331-1177",
    "rating": 4.8,
    "reviews": 25,
    "website": "https://www.functionalmedicineofidaho.com/",
    "category": "Buddhist-owned Integrative medicine in Idaho",
    "description": "Offers comprehensive, holistic healthcare with personalized solutions prioritizing overall well-being",
    "hours": "Mon-Fri 9AM-6PM",
    "services": [
      "Buddhist-owned Integrative medicine in Idaho consultation",
      "Professional service",
      "Quality guarantee"
    ],
    "social_links": {}
  },
  {
    "name": "North Idaho Integrative Medicine",
    "address": "9037 N Hess St, Hayden, ID 83835",
    "phone": "(208) 762-0000",
    "rating": 4.7,
    "reviews": 25,
    "website": "https://www.northidahoim.com/",
    "category": "Buddhist-owned Integrative medicine in Idaho",
    "description": "A family and veteran-owned business dedicated to providing exceptional service and top-quality medical products with a focus on community health",
    "hours": "Mon-Fri 9AM-6PM",
    "services": [
      "Buddhist-owned Integrative medicine in Idaho consultation",
      "Professional service",
      "Quality guarantee"
    ],
    "social_links": {}
  },
  {
    "name": "Red Mountain Natural Medicine",
    "address": "122 9th St S, Boise, ID 83702",
    "phone": "(208) 331-1177",
    "rating": 4.8,
    "reviews": 25,
    "website": "https://www.redmountainnaturalmedicine.com/",
    "category": "Buddhist-owned Integrative medicine in Idaho",
    "description": "Focuses on uncovering the \"true cause\" of chronic disease through a holistic, personalized approach to natural medicine",
    "hours": "Mon-Fri 9AM-6PM",
    "services": [
      "Buddhist-owned Integrative medicine in Idaho consultation",
      "Professional service",
      "Quality guarantee"
    ],
    "social_links": {}
  },
  {
    "name": "Mind and Body Medicine",
    "address": "10700 W Overland Rd Suite 120, Boise, ID 83709",
    "phone": "(208) 203-8403",
    "rating": 4.9,
    "reviews": 25,
    "website": "https://www.mindandbodymedicine.com/",
    "category": "Buddhist-owned Integrative medicine in Idaho",
    "description": "Offers integrative psychiatry and mental health care, combining conventional psychiatric care with complementary therapies for a holistic approach to well-being",
    "hours": "Mon-Fri 9AM-6PM",
    "services": [
      "Buddhist-owned Integrative medicine in Idaho consultation",
      "Professional service",
      "Quality guarantee"
    ],
    "social_links": {}
  }
]