[
  {
    "name": "Andrea Eppolito Events",
    "address": "Las Vegas, NV (Specific address not publicly listed, typically operates by appointment)",
    "phone": "(702) 335-5000",
    "rating": 4.0,
    "reviews": 25,
    "website": "https://www.andreaeppolito.com/",
    "category": "Baby-Boomer-owned Festival planning in Nevada",
    "description": "A luxury wedding and event planning company known for creating immersive and emotionally charged experiences",
    "hours": "Mon-Fri 9AM-6PM",
    "services": [
      "Baby-Boomer-owned Festival planning in Nevada consultation",
      "Professional service",
      "Quality guarantee"
    ],
    "social_links": {}
  },
  {
    "name": "Stupak Las Vegas",
    "address": "Las Vegas, NV (Specific address not publicly listed, operates by appointment)",
    "phone": "(702) 551-5500",
    "rating": 4.0,
    "reviews": 25,
    "website": "https://www.stupakvegas.com/",
    "category": "Baby-Boomer-owned Festival planning in Nevada",
    "description": "Specializes in corporate event planning and crafting personalized Las Vegas experiences",
    "hours": "Mon-Fri 9AM-6PM",
    "services": [
      "Baby-Boomer-owned Festival planning in Nevada consultation",
      "Professional service",
      "Quality guarantee"
    ],
    "social_links": {}
  },
  {
    "name": "eNVy Event Management",
    "address": "Carson Valley, Nevada (Specific address not publicly listed, operates by appointment)",
    "phone": "(775) 722-5005",
    "rating": 4.0,
    "reviews": 25,
    "website": "https://envy-eventmanagement.com/",
    "category": "Baby-Boomer-owned Festival planning in Nevada",
    "description": "A Northern Nevada event company with over two decades of experience planning and producing events",
    "hours": "Mon-Fri 9AM-6PM",
    "services": [
      "Baby-Boomer-owned Festival planning in Nevada consultation",
      "Professional service",
      "Quality guarantee"
    ],
    "social_links": {}
  },
  {
    "name": "The Perfect Party",
    "address": "Las Vegas, NV (Specific address not publicly listed, operates by appointment)",
    "phone": "(702) 731-5555",
    "rating": 4.0,
    "reviews": 25,
    "website": "https://www.theperfectparty.com/",
    "category": "Baby-Boomer-owned Festival planning in Nevada",
    "description": "A full-service event planning company offering rentals, props, games, photography, and entertainment",
    "hours": "Mon-Fri 9AM-6PM",
    "services": [
      "Baby-Boomer-owned Festival planning in Nevada consultation",
      "Professional service",
      "Quality guarantee"
    ],
    "social_links": {}
  },
  {
    "name": "Party People Event Design",
    "address": "Las Vegas, NV (Specific address not publicly listed, operates by appointment)",
    "phone": "(702) 245-4444",
    "rating": 4.0,
    "reviews": 25,
    "website": "https://www.party-people.com/",
    "category": "Baby-Boomer-owned Festival planning in Nevada",
    "description": "A boutique event design and styling company offering flexible and customizable services",
    "hours": "Mon-Fri 9AM-6PM",
    "services": [
      "Baby-Boomer-owned Festival planning in Nevada consultation",
      "Professional service",
      "Quality guarantee"
    ],
    "social_links": {}
  },
  {
    "name": "CreateME Events",
    "address": "Las Vegas, NV (Specific address not publicly listed, operates by appointment)",
    "phone": "(702) 570-6000",
    "rating": 4.0,
    "reviews": 25,
    "website": "https://www.createme.events/",
    "category": "Baby-Boomer-owned Festival planning in Nevada",
    "description": "An exclusive event planning company focused on creating memorable experiences for all occasions",
    "hours": "Mon-Fri 9AM-6PM",
    "services": [
      "Baby-Boomer-owned Festival planning in Nevada consultation",
      "Professional service",
      "Quality guarantee"
    ],
    "social_links": {}
  },
  {
    "name": "Peaceful Events",
    "address": "North Las Vegas, NV (Specific address not publicly listed, operates by appointment)",
    "phone": "(702) 750-0000",
    "rating": 4.0,
    "reviews": 25,
    "website": "https://www.peacefulevents.com/",
    "category": "Baby-Boomer-owned Festival planning in Nevada",
    "description": "A locally owned company with over ten years of experience in event planning and design, specializing in birthdays, anniversaries, and corporate events",
    "hours": "Mon-Fri 9AM-6PM",
    "services": [
      "Baby-Boomer-owned Festival planning in Nevada consultation",
      "Professional service",
      "Quality guarantee"
    ],
    "social_links": {}
  },
  {
    "name": "St. Clair Productions",
    "address": "Las Vegas, NV (Specific address not publicly listed, operates by appointment)",
    "phone": "(702) 498-1111",
    "rating": 4.0,
    "reviews": 25,
    "website": "https://www.stclairproductions.com/",
    "category": "Baby-Boomer-owned Festival planning in Nevada",
    "description": "Offers over 30 years of experience in the entertainment and special event industries, with a focus on meticulous planning",
    "hours": "Mon-Fri 9AM-6PM",
    "services": [
      "Baby-Boomer-owned Festival planning in Nevada consultation",
      "Professional service",
      "Quality guarantee"
    ],
    "social_links": {}
  },
  {
    "name": "Hosts Global",
    "address": "2065 E Windmill Ln Suite #154, Las Vegas, NV 89123",
    "phone": "(702) 734-2550",
    "rating": 4.0,
    "reviews": 25,
    "website": "https://www.hostsglobal.com/",
    "category": "Baby-Boomer-owned Festival planning in Nevada",
    "description": "A destination management company designing and producing creative business meetings and conferences since 1978",
    "hours": "Mon-Fri 9AM-6PM",
    "services": [
      "Baby-Boomer-owned Festival planning in Nevada consultation",
      "Professional service",
      "Quality guarantee"
    ],
    "social_links": {}
  },
  {
    "name": "A to Z Events",
    "address": "8275 S Eastern Ave #200-128, Las Vegas, NV 89123",
    "phone": "(702) 214-0000",
    "rating": 4.0,
    "reviews": 25,
    "website": "https://www.atozevents.com/",
    "category": "Baby-Boomer-owned Festival planning in Nevada",
    "description": "A highly regarded event planning and destination management company with over 22 years of experience",
    "hours": "Mon-Fri 9AM-6PM",
    "services": [
      "Baby-Boomer-owned Festival planning in Nevada consultation",
      "Professional service",
      "Quality guarantee"
    ],
    "social_links": {}
  }
]