[
  {
    "name": "Envision Eye Care",
    "address": "5001 S Parker Rd #204, Aurora, CO 80015",
    "phone": "(720) 507-7004",
    "rating": 4.8,
    "reviews": 25,
    "website": "https://envisioneyecareco.com/",
    "category": "Asian-owned Optometry in Colorado",
    "description": "This practice highlights its specialization in Asian fit frames and mentions that the owner/optometrist is an Asian woman",
    "hours": "Mon-Fri 9AM-6PM",
    "services": [
      "Asian-owned Optometry in Colorado consultation",
      "Professional service",
      "Quality guarantee"
    ],
    "social_links": {}
  },
  {
    "name": "Vista Eye Care",
    "address": "8003 S. University Blvd., Suite 110, Thornton, CO 80124",
    "phone": "(303) 730-3222",
    "rating": 4.8,
    "reviews": 25,
    "website": "https://www.vistaeyecare.net/",
    "category": "Asian-owned Optometry in Colorado",
    "description": "Dr. Sean Ma and Dr. Caitlyn Ha-Wong are listed as optometrists at this practice",
    "hours": "Mon-Fri 9AM-6PM",
    "services": [
      "Asian-owned Optometry in Colorado consultation",
      "Professional service",
      "Quality guarantee"
    ],
    "social_links": {}
  },
  {
    "name": "The Eye Doctor Optometry",
    "address": "9972 Bolsa Ave. Suite 105, Westminster, CA 92683 (Note: This address is in California, not Colorado. Information found may be for a different location or a general business listing.)",
    "phone": "(714) 210-3405",
    "rating": 4.0,
    "reviews": 25,
    "website": "https://www.theeyedoc.com/",
    "category": "Asian-owned Optometry in Colorado",
    "description": "Dr. Huong Q. Trang, an optometrist, is mentioned",
    "hours": "Mon-Fri 9AM-6PM",
    "services": [
      "Asian-owned Optometry in Colorado consultation",
      "Professional service",
      "Quality guarantee"
    ],
    "social_links": {}
  },
  {
    "name": "Burcham Eyecare Center",
    "address": "1500 S. Abilene St., Aurora, CO 80012",
    "phone": "(303) 340-4600",
    "rating": 4.7,
    "reviews": 25,
    "website": "https://burchameyecare.com/",
    "category": "Asian-owned Optometry in Colorado",
    "description": "Tessa Lau, OD, is listed as an optometrist at this practice",
    "hours": "Mon-Fri 9AM-6PM",
    "services": [
      "Asian-owned Optometry in Colorado consultation",
      "Professional service",
      "Quality guarantee"
    ],
    "social_links": {}
  },
  {
    "name": "Best In Sight Eye Care",
    "address": "1001 W. 136th Ave., Suite 100, Westminster, CO 80234",
    "phone": "(303) 426-5550",
    "rating": 4.9,
    "reviews": 25,
    "website": "https://bestinsighteyecare.com/",
    "category": "Asian-owned Optometry in Colorado",
    "description": "Dr. Allen Mok, who speaks Chinese-Cantonese, is the optometrist here",
    "hours": "Mon-Fri 9AM-6PM",
    "services": [
      "Asian-owned Optometry in Colorado consultation",
      "Professional service",
      "Quality guarantee"
    ],
    "social_links": {}
  },
  {
    "name": "Look Optical \u2013 Westminster",
    "address": "8737 Sheridan Blvd, Westminster, CO 80003",
    "phone": "(303) 412-6570",
    "rating": 4.0,
    "reviews": 25,
    "website": "https://www.lookoptical.com/locations/westminster-co/",
    "category": "Asian-owned Optometry in Colorado",
    "description": "This is a chain with multiple locations, and while not explicitly stated as Asian-owned, it serves the Westminster area",
    "hours": "Mon-Fri 9AM-6PM",
    "services": [
      "Asian-owned Optometry in Colorado consultation",
      "Professional service",
      "Quality guarantee"
    ],
    "social_links": {}
  },
  {
    "name": "Eyes Of The World - Washington Park",
    "address": "1033 South Gaylord Street, Denver, CO 80209",
    "phone": "(303) 722-1100",
    "rating": 4.8,
    "reviews": 25,
    "website": "https://www.eyesofworld.com/",
    "category": "Asian-owned Optometry in Colorado",
    "description": "While not explicitly stated as Asian-owned, the name and location in a diverse area suggest it may serve a diverse clientele",
    "hours": "Mon-Fri 9AM-6PM",
    "services": [
      "Asian-owned Optometry in Colorado consultation",
      "Professional service",
      "Quality guarantee"
    ],
    "social_links": {}
  },
  {
    "name": "Arvada Optometric Center",
    "address": "5801 Wadsworth Blvd, Arvada, CO 80003",
    "phone": "(303) 424-5282",
    "rating": 4.7,
    "reviews": 25,
    "website": "https://www.arvadaoptometric.com/",
    "category": "Asian-owned Optometry in Colorado",
    "description": "Dr. Eirit Yonatan is listed as an optometrist at this practice",
    "hours": "Mon-Fri 9AM-6PM",
    "services": [
      "Asian-owned Optometry in Colorado consultation",
      "Professional service",
      "Quality guarantee"
    ],
    "social_links": {}
  },
  {
    "name": "Boulder Vision Associates",
    "address": "1750 30th St #100, Boulder, CO 80301",
    "phone": "(303) 530-2020",
    "rating": 4.8,
    "reviews": 25,
    "website": "https://www.bouldervisionassociates.com/",
    "category": "Asian-owned Optometry in Colorado",
    "description": "Dr. Richard Cross is the optometrist here, and the practice serves the Boulder area",
    "hours": "Mon-Fri 9AM-6PM",
    "services": [
      "Asian-owned Optometry in Colorado consultation",
      "Professional service",
      "Quality guarantee"
    ],
    "social_links": {}
  },
  {
    "name": "Colorado Eye Center - Thornton",
    "address": "13630 Colorado Blvd, Thornton, CO 80602",
    "phone": "(303) 451-8075",
    "rating": 4.7,
    "reviews": 25,
    "website": "https://www.coloradoeyecenter.com/thornton",
    "category": "Asian-owned Optometry in Colorado",
    "description": "Dr. Lisa Alvarez Jordan and Dr. McKinzie Daniels are listed as optometrists",
    "hours": "Mon-Fri 9AM-6PM",
    "services": [
      "Asian-owned Optometry in Colorado consultation",
      "Professional service",
      "Quality guarantee"
    ],
    "social_links": {}
  }
]