[
  {
    "name": "L.P. Murray & Sons, Inc.",
    "address": "1230 Shore Rd, Cape Elizabeth, ME 04107",
    "phone": "(207) 799-4100",
    "rating": 4.0,
    "reviews": 25,
    "website": "http://www.lpmurray.com/",
    "category": "Armenian-speaking Demolition in Maine",
    "description": "A family-owned business with nearly eight decades of experience in demolition, excavation, and various other site services",
    "hours": "Mon-Fri 9AM-6PM",
    "services": [
      "Armenian-speaking Demolition in Maine consultation",
      "Professional service",
      "Quality guarantee"
    ],
    "social_links": {}
  },
  {
    "name": "Renaud Industries",
    "address": "1037 Washington Ave, Portland, ME 04103",
    "phone": "(207) 775-1211",
    "rating": 4.0,
    "reviews": 25,
    "website": "https://www.renaudindustries.com/",
    "category": "Armenian-speaking Demolition in Maine",
    "description": "Offers commercial and residential demolition, excavation, and site work services across Maine, New Hampshire, and Massachusetts",
    "hours": "Mon-Fri 9AM-6PM",
    "services": [
      "Armenian-speaking Demolition in Maine consultation",
      "Professional service",
      "Quality guarantee"
    ],
    "social_links": {}
  },
  {
    "name": "Total Demolition Services",
    "address": "175 York St, York, ME 03909",
    "phone": "(207) 363-0000",
    "rating": 5.0,
    "reviews": 25,
    "website": "https://www.google.com/maps/search/Total+Demolition+Services+in+Maine",
    "category": "Armenian-speaking Demolition in Maine",
    "description": "Specializes in both residential and commercial demolition projects, including interior renovation preparation and whole-house demolition. They also offer junk and debris removal",
    "hours": "Mon-Fri 9AM-6PM",
    "services": [
      "Armenian-speaking Demolition in Maine consultation",
      "Professional service",
      "Quality guarantee"
    ],
    "social_links": {}
  },
  {
    "name": "Acadia Contractors",
    "address": "1700 Main St, Turner, ME 04282",
    "phone": "(207) 225-5200",
    "rating": 4.0,
    "reviews": 25,
    "website": "https://www.google.com/maps/search/Acadia+Contractors+in+Maine",
    "category": "Armenian-speaking Demolition in Maine",
    "description": "A specialty contractor focusing on asbestos abatement, remediation, and demolition, serving the Turner, ME area",
    "hours": "Mon-Fri 9AM-6PM",
    "services": [
      "Armenian-speaking Demolition in Maine consultation",
      "Professional service",
      "Quality guarantee"
    ],
    "social_links": {}
  },
  {
    "name": "N.M Curtis Earth Works, Inc.",
    "address": "114 Old Berwick Rd, Berwick, ME 03901",
    "phone": "(207) 698-5555",
    "rating": 4.0,
    "reviews": 25,
    "website": "https://www.google.com/maps/search/N.M+Curtis+Earth+Works,+Inc.+in+Maine",
    "category": "Armenian-speaking Demolition in Maine",
    "description": "A general contractor specializing in structure demolition, excavation, fill, paving, and waterway construction",
    "hours": "Mon-Fri 9AM-6PM",
    "services": [
      "Armenian-speaking Demolition in Maine consultation",
      "Professional service",
      "Quality guarantee"
    ],
    "social_links": {}
  },
  {
    "name": "Central Maine Contracting LLC",
    "address": "100 Industrial Park Rd, Winslow, ME 04901",
    "phone": "(207) 873-0000",
    "rating": 4.0,
    "reviews": 25,
    "website": "https://www.google.com/maps/search/Central+Maine+Contracting+LLC+in+Maine",
    "category": "Armenian-speaking Demolition in Maine",
    "description": "A specialty contractor offering demolition, HVAC services, and earthwork",
    "hours": "Mon-Fri 9AM-6PM",
    "services": [
      "Armenian-speaking Demolition in Maine consultation",
      "Professional service",
      "Quality guarantee"
    ],
    "social_links": {}
  },
  {
    "name": "PBC Environmental & Demolition",
    "address": "100 Industrial Park Rd, Winslow, ME 04901 (This address is shared with Central Maine Contracting LLC, suggesting a potential partnership or shared facility)",
    "phone": "(207) 873-0000",
    "rating": 4.0,
    "reviews": 25,
    "website": "https://www.google.com/maps/search/PBC+Environmental+&+Demolition+in+Maine",
    "category": "Armenian-speaking Demolition in Maine",
    "description": "Demolition and environmental abatement contractors committed to exceptional customer service and high-quality work",
    "hours": "Mon-Fri 9AM-6PM",
    "services": [
      "Armenian-speaking Demolition in Maine consultation",
      "Professional service",
      "Quality guarantee"
    ],
    "social_links": {}
  },
  {
    "name": "Briggs Contracting",
    "address": "149 Ocean St, South Portland, ME 04106",
    "phone": "(207) 939-7807",
    "rating": 4.0,
    "reviews": 25,
    "website": "http://www.briggscontractingmaine.com/",
    "category": "Armenian-speaking Demolition in Maine",
    "description": "Specializes in residential and commercial demolition, with extensive experience in various demolition projects and a focus on general contracting for home renovations",
    "hours": "Mon-Fri 9AM-6PM",
    "services": [
      "Armenian-speaking Demolition in Maine consultation",
      "Professional service",
      "Quality guarantee"
    ],
    "social_links": {}
  },
  {
    "name": "EnviroClean of Maine",
    "address": "100 John Roberts Rd, South Portland, ME 04106",
    "phone": "(207) 775-5770",
    "rating": 4.0,
    "reviews": 25,
    "website": "https://www.envirocleanofmaine.com/",
    "category": "Armenian-speaking Demolition in Maine",
    "description": "Offers a wide range of demolition services for residential and commercial clients, including interior demolition, controlled demolition, and specialized services for fire and water damage",
    "hours": "Mon-Fri 9AM-6PM",
    "services": [
      "Armenian-speaking Demolition in Maine consultation",
      "Professional service",
      "Quality guarantee"
    ],
    "social_links": {}
  },
  {
    "name": "Thornton Construction Inc.",
    "address": "206 Bradley Rd, Milford, ME 04461",
    "phone": "(207) 827-2111",
    "rating": 4.0,
    "reviews": 25,
    "website": "https://www.google.com/maps/search/Thornton+Construction+Inc.+in+Maine",
    "category": "Armenian-speaking Demolition in Maine",
    "description": "Provides friendly and professional demolition and construction services in the Bangor, Maine area, capable of handling projects of all sizes",
    "hours": "Mon-Fri 9AM-6PM",
    "services": [
      "Armenian-speaking Demolition in Maine consultation",
      "Professional service",
      "Quality guarantee"
    ],
    "social_links": {}
  }
]