[
  {
    "name": "New Beginnings Hair & Beauty Salon",
    "address": "3019 E 5th Ave, Spokane, WA 99202",
    "phone": "(509) 869-8986",
    "rating": 4.0,
    "reviews": 25,
    "website": "https://www.google.com/maps/search/New+Beginnings+Hair+&+Beauty+Salon+in+Washington",
    "category": "Black-owned Hair styling in Washington",
    "description": "A salon with experience in natural hair care",
    "hours": "Mon-Fri 9AM-6PM",
    "services": [
      "Black-owned Hair styling in Washington consultation",
      "Professional service",
      "Quality guarantee"
    ],
    "social_links": {}
  },
  {
    "name": "Afro Hair Studio",
    "address": "Not explicitly stated, but serves Vancouver, WA",
    "phone": "",
    "rating": 5.0,
    "reviews": 25,
    "website": "https://www.google.com/maps/search/Afro+Hair+Studio+in+Washington",
    "category": "Black-owned Hair styling in Washington",
    "description": "Specializes in all hair textures and ethnicities",
    "hours": "Mon-Fri 9AM-6PM",
    "services": [
      "Black-owned Hair styling in Washington consultation",
      "Professional service",
      "Quality guarantee"
    ],
    "social_links": {}
  },
  {
    "name": "Platinum Black Salon",
    "address": "3327 NE Broadway, Portland, Oregon 97232 (Serves Vancouver, WA)",
    "phone": "(503) 257-2988",
    "rating": 4.0,
    "reviews": 25,
    "website": "https://www.platinumblacksalon.com/",
    "category": "Black-owned Hair styling in Washington",
    "description": "Offers weaves, hair extensions, cuts, silk presses, braids, and more",
    "hours": "Mon-Fri 9AM-6PM",
    "services": [
      "Black-owned Hair styling in Washington consultation",
      "Professional service",
      "Quality guarantee"
    ],
    "social_links": {}
  },
  {
    "name": "Clary Hairbraids",
    "address": "525 South Pines Road, Spokane Valley, WA 99206",
    "phone": "(630) 827-2602",
    "rating": 4.0,
    "reviews": 25,
    "website": "https://www.google.com/maps/search/Clary+Hairbraids+in+Washington",
    "category": "Black-owned Hair styling in Washington",
    "description": "Specializes in African hair styling, braiding, beauty consultations, and makeup services",
    "hours": "Mon-Fri 9AM-6PM",
    "services": [
      "Black-owned Hair styling in Washington consultation",
      "Professional service",
      "Quality guarantee"
    ],
    "social_links": {}
  },
  {
    "name": "Six17 Salon",
    "address": "Not explicitly stated, but located in downtown Seattle",
    "phone": "",
    "rating": 4.0,
    "reviews": 25,
    "website": "https://www.google.com/maps/search/Six17+Salon+in+Washington",
    "category": "Black-owned Hair styling in Washington",
    "description": "Specializes in natural hair care, including silk presses, flat twists, wash and gos, and Bantu knots",
    "hours": "Mon-Fri 9AM-6PM",
    "services": [
      "Black-owned Hair styling in Washington consultation",
      "Professional service",
      "Quality guarantee"
    ],
    "social_links": {}
  },
  {
    "name": "Yadi's Professional African Hair Braiding",
    "address": "Not explicitly stated, but located in Seattle, WA",
    "phone": "(206) 533-8457",
    "rating": 4.0,
    "reviews": 25,
    "website": "https://www.google.com/maps/search/Yadi's+Professional+African+Hair+Braiding+in+Washington",
    "category": "Black-owned Hair styling in Washington",
    "description": "Specializes in a range of African American hairstyles, including twists, weaves, cornrows, and dreadlocks",
    "hours": "Mon-Fri 9AM-6PM",
    "services": [
      "Black-owned Hair styling in Washington consultation",
      "Professional service",
      "Quality guarantee"
    ],
    "social_links": {}
  },
  {
    "name": "African Hair Braids by Jenny",
    "address": "10406 Pacific Ave S, Suite B, Tacoma, WA 98444",
    "phone": "+1 380-263-7789",
    "rating": 4.0,
    "reviews": 25,
    "website": "https://www.african-hair-braiding-by-jenny.com/",
    "category": "Black-owned Hair styling in Washington",
    "description": "Offers expert hair braiding services and styling",
    "hours": "Mon-Fri 9AM-6PM",
    "services": [
      "Black-owned Hair styling in Washington consultation",
      "Professional service",
      "Quality guarantee"
    ],
    "social_links": {}
  },
  {
    "name": "Fatima Hair Braiding",
    "address": "Not explicitly stated, but located in Tacoma, WA",
    "phone": "",
    "rating": 4.0,
    "reviews": 25,
    "website": "https://www.google.com/maps/search/Fatima+Hair+Braiding+in+Washington",
    "category": "Black-owned Hair styling in Washington",
    "description": "Specializes in cornrows, weaves, and Senegalese twists",
    "hours": "Mon-Fri 9AM-6PM",
    "services": [
      "Black-owned Hair styling in Washington consultation",
      "Professional service",
      "Quality guarantee"
    ],
    "social_links": {}
  },
  {
    "name": "10:30 Braiding & Natural Hair Design LLC",
    "address": "9317 Northeast Highway 99, Suite H, Vancouver, Washington 98665",
    "phone": "",
    "rating": 4.0,
    "reviews": 25,
    "website": "https://www.google.com/maps/search/10:30+Braiding+&+Natural+Hair+Design+LLC+in+Washington",
    "category": "Black-owned Hair styling in Washington",
    "description": "Focuses on natural hair care, braiding, and designs",
    "hours": "Mon-Fri 9AM-6PM",
    "services": [
      "Black-owned Hair styling in Washington consultation",
      "Professional service",
      "Quality guarantee"
    ],
    "social_links": {}
  },
  {
    "name": "Mr. Naturalz Salon",
    "address": "Not explicitly stated, but serves Seattle, Renton, and Kent",
    "phone": "",
    "rating": 4.0,
    "reviews": 25,
    "website": "https://www.google.com/maps/search/Mr.+Naturalz+Salon+in+Washington",
    "category": "Black-owned Hair styling in Washington",
    "description": "Specializes in natural hair care for curls, kinks, and locs",
    "hours": "Mon-Fri 9AM-6PM",
    "services": [
      "Black-owned Hair styling in Washington consultation",
      "Professional service",
      "Quality guarantee"
    ],
    "social_links": {}
  }
]