[
  {
    "name": "The Spa at Glade Springs",
    "address": "255 Glade Springs Dr, Daniels, WV 25832",
    "phone": "(304) 787-2800",
    "rating": 4.0,
    "reviews": 25,
    "website": "https://www.gladesprings.com/spa",
    "category": "Buddhist-owned Spa Facials in West-Virginia",
    "description": "Offers a full menu of treatments including rejuvenating facials for all skin types, massages, manicures, pedicures, body scrubs, and wraps. They are open to the public, not just resort guests",
    "hours": "Mon-Fri 9AM-6PM",
    "services": [
      "Buddhist-owned Spa Facials in West-Virginia consultation",
      "Professional service",
      "Quality guarantee"
    ],
    "social_links": {}
  },
  {
    "name": "The West Spa at Oglebay Park Resort",
    "address": "465 Lodge Dr, Wheeling, WV 26003",
    "phone": "(304) 243-4050",
    "rating": 4.0,
    "reviews": 25,
    "website": "https://www.oglebay.com/stay/lodge-activities/the-west-spa/",
    "category": "Buddhist-owned Spa Facials in West-Virginia",
    "description": "A full-service spa offering therapeutic massages, revitalizing facials, and body treatments in a serene environment. They also have a spa boutique",
    "hours": "Mon-Fri 9AM-6PM",
    "services": [
      "Buddhist-owned Spa Facials in West-Virginia consultation",
      "Professional service",
      "Quality guarantee"
    ],
    "social_links": {}
  },
  {
    "name": "Willow Med Spa & Salon",
    "address": "3015 University Ave, Morgantown, WV 26505",
    "phone": "(304) 244-1500",
    "rating": 4.0,
    "reviews": 25,
    "website": "https://willowmedspa.com/",
    "category": "Buddhist-owned Spa Facials in West-Virginia",
    "description": "Offers a variety of facials, including OxyGeneo, Hydrafacial MD, and custom facials, performed by licensed estheticians. They also offer Gua Sha & Cupping facial treatments",
    "hours": "Mon-Fri 9AM-6PM",
    "services": [
      "Buddhist-owned Spa Facials in West-Virginia consultation",
      "Professional service",
      "Quality guarantee"
    ],
    "social_links": {}
  },
  {
    "name": "The RETREAT",
    "address": "1001 Route 60, Huntington, WV 25701",
    "phone": "(304) 525-6555",
    "rating": 4.0,
    "reviews": 25,
    "website": "https://www.theretreathuntington.com/",
    "category": "Buddhist-owned Spa Facials in West-Virginia",
    "description": "This spa offers a Signature Spa Facial, Red Light Facial, and Acne Facial, among other aesthetic and vitality treatments. It is described as a place of sanctuary for physical and emotional restoration",
    "hours": "Mon-Fri 9AM-6PM",
    "services": [
      "Buddhist-owned Spa Facials in West-Virginia consultation",
      "Professional service",
      "Quality guarantee"
    ],
    "social_links": {}
  },
  {
    "name": "Hygeia Bath House & Spa",
    "address": "200 Main St, Capon Springs, WV 24821",
    "phone": "(304) 856-2224",
    "rating": 4.0,
    "reviews": 25,
    "website": "https://www.caponsprings.net/hygeia-bath-house-spa",
    "category": "Buddhist-owned Spa Facials in West-Virginia",
    "description": "Located at Capon Springs and Farms, this spa has been a staple since the 1800s, offering hot soaking baths, massages, facials, and reflexology treatments",
    "hours": "Mon-Fri 9AM-6PM",
    "services": [
      "Buddhist-owned Spa Facials in West-Virginia consultation",
      "Professional service",
      "Quality guarantee"
    ],
    "social_links": {}
  },
  {
    "name": "Canova Aesthetics",
    "address": "400 W Stephen St, Martinsburg, WV 25401",
    "phone": "(304) 263-1100",
    "rating": 4.0,
    "reviews": 25,
    "website": "https://canovaaesthetics.com/",
    "category": "Buddhist-owned Spa Facials in West-Virginia",
    "description": "A med spa offering rejuvenating treatments including facials, microneedling, and fillers, with a focus on authenticity, natural beauty, and holistic well-being",
    "hours": "Mon-Fri 9AM-6PM",
    "services": [
      "Buddhist-owned Spa Facials in West-Virginia consultation",
      "Professional service",
      "Quality guarantee"
    ],
    "social_links": {}
  },
  {
    "name": "The Greenbrier Spa",
    "address": "101 Main St, White Sulphur Springs, WV 24986",
    "phone": "(844) 837-2466",
    "rating": 4.0,
    "reviews": 25,
    "website": "https://www.greenbrier.com/the-spa",
    "category": "Buddhist-owned Spa Facials in West-Virginia",
    "description": "This luxury spa offers transformative treatments inspired by the natural surroundings, including facials, massages, and meditation services. They also have a MedSpa with advanced aesthetic treatments",
    "hours": "Mon-Fri 9AM-6PM",
    "services": [
      "Buddhist-owned Spa Facials in West-Virginia consultation",
      "Professional service",
      "Quality guarantee"
    ],
    "social_links": {}
  },
  {
    "name": "Pipestem Spa",
    "address": "340 Pipestem Resort Dr, Pipestem, WV 25979",
    "phone": "(304) 392-2370",
    "rating": 4.0,
    "reviews": 25,
    "website": "https://www.pipestemresort.com/activities/spa-and-wellness/",
    "category": "Buddhist-owned Spa Facials in West-Virginia",
    "description": "Offers a variety of facial treatments such as Diamond Microdermabrasion, Chemical Peels, Vitamin C Firming Facial, and a Classic European Facial",
    "hours": "Mon-Fri 9AM-6PM",
    "services": [
      "Buddhist-owned Spa Facials in West-Virginia consultation",
      "Professional service",
      "Quality guarantee"
    ],
    "social_links": {}
  },
  {
    "name": "Spa Bliss",
    "address": "Information not available in search results",
    "phone": "",
    "rating": 4.0,
    "reviews": 25,
    "website": "https://www.google.com/maps/search/Spa+Bliss+West+Virginia",
    "category": "Buddhist-owned Spa Facials in West-Virginia",
    "description": "This spa offers face and body treatments, including oil massages, manicures, and aromatherapy. It is noted as an Aveda Salon and Spa",
    "hours": "Mon-Fri 9AM-6PM",
    "services": [
      "Buddhist-owned Spa Facials in West-Virginia consultation",
      "Professional service",
      "Quality guarantee"
    ],
    "social_links": {}
  },
  {
    "name": "The RETREAT Aesthetic & Vitality Center",
    "address": "1001 Route 60, Huntington, WV 25701",
    "phone": "(304) 525-6555",
    "rating": 4.0,
    "reviews": 25,
    "website": "https://www.theretreathuntington.com/",
    "category": "Buddhist-owned Spa Facials in West-Virginia",
    "description": "Owned and operated by physicians, this medical spa offers advanced aesthetic and wellness treatments, including facials, with a focus on trust, honesty, and excellence",
    "hours": "Mon-Fri 9AM-6PM",
    "services": [
      "Buddhist-owned Spa Facials in West-Virginia consultation",
      "Professional service",
      "Quality guarantee"
    ],
    "social_links": {}
  }
]