[
  {
    "name": "Clark Electric LV, LLC",
    "address": "Las Vegas, NV (Specific address not readily available, but serves the Las Vegas area)",
    "phone": "(702) 551-0000",
    "rating": 4.9,
    "reviews": 25,
    "website": "https://www.clarkelectriclv.com/",
    "category": "Arabic-speaking Electrical wiring in Nevada",
    "description": "Offers a diverse range of electrical services, including repairs, installations, troubleshooting, lighting, panel upgrades, and EV charging stations. They emphasize a personalized approach and strive to exceed expectations",
    "hours": "Mon-Fri 9AM-6PM",
    "services": [
      "Arabic-speaking Electrical wiring in Nevada consultation",
      "Professional service",
      "Quality guarantee"
    ],
    "social_links": {}
  },
  {
    "name": "Fowler Electric",
    "address": "Las Vegas, NV (Serves Las Vegas and surrounding areas)",
    "phone": "(702) 871-7777",
    "rating": 4.8,
    "reviews": 25,
    "website": "https://fowler-electric.com/",
    "category": "Arabic-speaking Electrical wiring in Nevada",
    "description": "Provides experienced electrical services for homes and businesses, specializing in troubleshooting, installations, and wiring help. They have over 25 years of experience in the Las Vegas Valley",
    "hours": "Mon-Fri 9AM-6PM",
    "services": [
      "Arabic-speaking Electrical wiring in Nevada consultation",
      "Professional service",
      "Quality guarantee"
    ],
    "social_links": {}
  },
  {
    "name": "Southwest Electric LLC",
    "address": "921 American Pacific Drive, Henderson, NV 89014",
    "phone": "(702) 565-0511",
    "rating": 4.9,
    "reviews": 25,
    "website": "https://southwestelectricllc.com/",
    "category": "Arabic-speaking Electrical wiring in Nevada",
    "description": "A trusted electrical contractor with over 30 years of experience, offering a wide range of residential and commercial services including panel upgrades, lighting conversions, and surveillance system maintenance",
    "hours": "Mon-Fri 9AM-6PM",
    "services": [
      "Arabic-speaking Electrical wiring in Nevada consultation",
      "Professional service",
      "Quality guarantee"
    ],
    "social_links": {}
  },
  {
    "name": "Canyon Electric",
    "address": "Las Vegas, NV (Serves Las Vegas and surrounding areas)",
    "phone": "(702) 904-0230",
    "rating": 4.8,
    "reviews": 25,
    "website": "https://www.canyonelectric.com/",
    "category": "Arabic-speaking Electrical wiring in Nevada",
    "description": "A family-owned business with expertise in residential, commercial, and industrial electrical services, offering same-day service and 24/7 emergency response",
    "hours": "Mon-Fri 9AM-6PM",
    "services": [
      "Arabic-speaking Electrical wiring in Nevada consultation",
      "Professional service",
      "Quality guarantee"
    ],
    "social_links": {}
  },
  {
    "name": "Silver State Electric",
    "address": "Carson City, NV (Serves Carson Valley, Reno, Tahoe, and outlying areas)",
    "phone": "(775) 883-1000",
    "rating": 5.0,
    "reviews": 25,
    "website": "https://silverstateelectric.com/",
    "category": "Arabic-speaking Electrical wiring in Nevada",
    "description": "Established in 1996, specializing in service and repair, commercial, and industrial electrical work. They offer 24-hour emergency service and have extensive experience",
    "hours": "Mon-Fri 9AM-6PM",
    "services": [
      "Arabic-speaking Electrical wiring in Nevada consultation",
      "Professional service",
      "Quality guarantee"
    ],
    "social_links": {}
  },
  {
    "name": "Nieves Electric LLC",
    "address": "2012 West Sunset Road, Henderson, NV 89014",
    "phone": "(702) 565-0511",
    "rating": 4.8,
    "reviews": 25,
    "website": "https://nieveselectric.com/",
    "category": "Arabic-speaking Electrical wiring in Nevada",
    "description": "Provides personalized electrical services for retail, commercial, and residential customers, with over 10 years of experience in the Henderson metro area",
    "hours": "Mon-Fri 9AM-6PM",
    "services": [
      "Arabic-speaking Electrical wiring in Nevada consultation",
      "Professional service",
      "Quality guarantee"
    ],
    "social_links": {}
  },
  {
    "name": "Callidus Electric",
    "address": "Henderson, NV (Serves Henderson and Las Vegas areas)",
    "phone": "(702) 403-4562",
    "rating": 4.9,
    "reviews": 25,
    "website": "https://calliduselectric.com/",
    "category": "Arabic-speaking Electrical wiring in Nevada",
    "description": "A top-rated contractor known for professionalism, integrity, and customer service, offering residential and commercial electrical services",
    "hours": "Mon-Fri 9AM-6PM",
    "services": [
      "Arabic-speaking Electrical wiring in Nevada consultation",
      "Professional service",
      "Quality guarantee"
    ],
    "social_links": {}
  },
  {
    "name": "Cordan Electric LLC",
    "address": "Las Vegas, NV (Serves Southern Nevada)",
    "phone": "(702) 505-9555",
    "rating": 4.9,
    "reviews": 25,
    "website": "https://cordanelectric.com/",
    "category": "Arabic-speaking Electrical wiring in Nevada",
    "description": "A family, veteran, women, and minority-owned company with over 39 years of experience, specializing in residential, commercial, and green energy solutions",
    "hours": "Mon-Fri 9AM-6PM",
    "services": [
      "Arabic-speaking Electrical wiring in Nevada consultation",
      "Professional service",
      "Quality guarantee"
    ],
    "social_links": {}
  },
  {
    "name": "Battle Born Electric & Solar",
    "address": "Reno, NV (Serves the Reno-Tahoe area)",
    "phone": "(775) 378-6000",
    "rating": 4.89,
    "reviews": 25,
    "website": "https://battlebornelectric.com/",
    "category": "Arabic-speaking Electrical wiring in Nevada",
    "description": "A locally owned and operated business providing fast, reliable, and professional electrical and solar services, committed to quality work and customer satisfaction",
    "hours": "Mon-Fri 9AM-6PM",
    "services": [
      "Arabic-speaking Electrical wiring in Nevada consultation",
      "Professional service",
      "Quality guarantee"
    ],
    "social_links": {}
  },
  {
    "name": "The Electric Company",
    "address": "Reno, NV (Serves Reno/Sparks area)",
    "phone": "(775) 323-4444",
    "rating": 4.8,
    "reviews": 25,
    "website": "https://www.theelectriccompanyreno.com/",
    "category": "Arabic-speaking Electrical wiring in Nevada",
    "description": "An electrical contractor with 30 years of experience specializing in 24/7 emergency service, repair, lighting, and all areas of electrical work, offering upfront pricing",
    "hours": "Mon-Fri 9AM-6PM",
    "services": [
      "Arabic-speaking Electrical wiring in Nevada consultation",
      "Professional service",
      "Quality guarantee"
    ],
    "social_links": {}
  }
]