[
  {
    "name": "Wedlow Maintenance, INC",
    "address": "3432 N. Bruce St Suite #7, North Las Vegas NV 89030",
    "phone": "(702) 678-6902",
    "rating": 4.0,
    "reviews": 25,
    "website": "https://www.google.com/maps/search/Wedlow+Maintenance,+INC+in+Nevada",
    "category": "African-American-owned Trademark registration in Nevada",
    "description": "A maintenance company",
    "hours": "Mon-Fri 9AM-6PM",
    "services": [
      "African-American-owned Trademark registration in Nevada consultation",
      "Professional service",
      "Quality guarantee"
    ],
    "social_links": {}
  },
  {
    "name": "Foresight Business Group",
    "address": "300 S. 4th Street, Ste 600, Las Vegas NV 89101",
    "phone": "(702) 529-2920",
    "rating": 4.0,
    "reviews": 25,
    "website": "https://www.google.com/maps/search/Foresight+Business+Group+in+Nevada",
    "category": "African-American-owned Trademark registration in Nevada",
    "description": "A business consulting group",
    "hours": "Mon-Fri 9AM-6PM",
    "services": [
      "African-American-owned Trademark registration in Nevada consultation",
      "Professional service",
      "Quality guarantee"
    ],
    "social_links": {}
  },
  {
    "name": "Crawford Management Group",
    "address": "431 S 6th St, Las Vegas NV 89101",
    "phone": "(702) 382-5737",
    "rating": 4.0,
    "reviews": 25,
    "website": "https://www.google.com/maps/search/Crawford+Management+Group+in+Nevada",
    "category": "African-American-owned Trademark registration in Nevada",
    "description": "Offers tax preparation, payroll, and bookkeeping services",
    "hours": "Mon-Fri 9AM-6PM",
    "services": [
      "African-American-owned Trademark registration in Nevada consultation",
      "Professional service",
      "Quality guarantee"
    ],
    "social_links": {}
  },
  {
    "name": "Gritz Cafe",
    "address": "1911 Stella Lake Street #150, Las Vegas NV 89106",
    "phone": "(702) 255-4748",
    "rating": 4.0,
    "reviews": 25,
    "website": "https://www.google.com/maps/search/Gritz+Cafe+in+Nevada",
    "category": "African-American-owned Trademark registration in Nevada",
    "description": "A cafe",
    "hours": "Mon-Fri 9AM-6PM",
    "services": [
      "African-American-owned Trademark registration in Nevada consultation",
      "Professional service",
      "Quality guarantee"
    ],
    "social_links": {}
  },
  {
    "name": "G3 Electrical",
    "address": "1951 Stella Lake St., #34, Las Vegas NV 89106",
    "phone": "(702) 916-3355",
    "rating": 4.0,
    "reviews": 25,
    "website": "https://www.google.com/maps/search/G3+Electrical+in+Nevada",
    "category": "African-American-owned Trademark registration in Nevada",
    "description": "An electrical services company",
    "hours": "Mon-Fri 9AM-6PM",
    "services": [
      "African-American-owned Trademark registration in Nevada consultation",
      "Professional service",
      "Quality guarantee"
    ],
    "social_links": {}
  },
  {
    "name": "Queen Beez Beauty Supply",
    "address": "280 E. Lake Mead Pkwy #B, Henderson NV 89015",
    "phone": "(702) 844-8953",
    "rating": 4.0,
    "reviews": 25,
    "website": "https://www.google.com/maps/search/Queen+Beez+Beauty+Supply+in+Nevada",
    "category": "African-American-owned Trademark registration in Nevada",
    "description": "Offers hair care, beauty products, and accessories",
    "hours": "Mon-Fri 9AM-6PM",
    "services": [
      "African-American-owned Trademark registration in Nevada consultation",
      "Professional service",
      "Quality guarantee"
    ],
    "social_links": {}
  },
  {
    "name": "Sumnu Marketing",
    "address": "1951 Stella Lake Street Suite 7, Las Vegas NV 89106",
    "phone": "(702) 562-6397",
    "rating": 4.0,
    "reviews": 25,
    "website": "https://www.google.com/maps/search/Sumnu+Marketing+in+Nevada",
    "category": "African-American-owned Trademark registration in Nevada",
    "description": "Focuses on educating, engaging, and elevating small businesses in marketing",
    "hours": "Mon-Fri 9AM-6PM",
    "services": [
      "African-American-owned Trademark registration in Nevada consultation",
      "Professional service",
      "Quality guarantee"
    ],
    "social_links": {}
  },
  {
    "name": "The Beautiful Company | The Beautiful Event Center and The Beautiful Studio",
    "address": "850 S Durango Drive, Las Vegas NV 89145",
    "phone": "(725) 206-5122",
    "rating": 4.0,
    "reviews": 25,
    "website": "https://www.google.com/maps/search/The+Beautiful+Company+|+The+Beautiful+Event+Center+and+The+Beautiful+Studio+in+Nevada",
    "category": "African-American-owned Trademark registration in Nevada",
    "description": "Offers event center and studio services",
    "hours": "Mon-Fri 9AM-6PM",
    "services": [
      "African-American-owned Trademark registration in Nevada consultation",
      "Professional service",
      "Quality guarantee"
    ],
    "social_links": {}
  },
  {
    "name": "Clark Law Group",
    "address": "6655 W Sahara Ave, Ste. A114, Las Vegas NV 89146",
    "phone": "(702) 581-3559",
    "rating": 4.0,
    "reviews": 25,
    "website": "https://www.google.com/maps/search/Clark+Law+Group+in+Nevada",
    "category": "African-American-owned Trademark registration in Nevada",
    "description": "A law group",
    "hours": "Mon-Fri 9AM-6PM",
    "services": [
      "African-American-owned Trademark registration in Nevada consultation",
      "Professional service",
      "Quality guarantee"
    ],
    "social_links": {}
  },
  {
    "name": "Branch Benefits Consultants",
    "address": "4584 N. Rancho Dr, Las Vegas NV 89130",
    "phone": "(702) 646-2082",
    "rating": 4.0,
    "reviews": 25,
    "website": "https://www.google.com/maps/search/Branch+Benefits+Consultants+in+Nevada",
    "category": "African-American-owned Trademark registration in Nevada",
    "description": "Provides benefits consulting services",
    "hours": "Mon-Fri 9AM-6PM",
    "services": [
      "African-American-owned Trademark registration in Nevada consultation",
      "Professional service",
      "Quality guarantee"
    ],
    "social_links": {}
  }
]