[
  {
    "name": "St. Joseph School",
    "address": "90 Pickering Street, Needham, MA 02492",
    "phone": "(781) 444-2744",
    "rating": 4.0,
    "reviews": 25,
    "website": "https://www.stjosephneedham.org/",
    "category": "Catholic-owned Before school care in Massachusetts",
    "description": "Offers a Before Care Program from 7:15 AM to 8:00 AM, staffed by faculty",
    "hours": "Mon-Fri 9AM-6PM",
    "services": [
      "Catholic-owned Before school care in Massachusetts consultation",
      "Professional service",
      "Quality guarantee"
    ],
    "social_links": {}
  },
  {
    "name": "St. Francis of Assisi Academy",
    "address": "850 Washington Street, Braintree, MA 02184",
    "phone": "(781) 848-0842",
    "rating": 4.0,
    "reviews": 25,
    "website": "https://www.sfab.org/",
    "category": "Catholic-owned Before school care in Massachusetts",
    "description": "Offers a before and after school program onsite",
    "hours": "Mon-Fri 9AM-6PM",
    "services": [
      "Catholic-owned Before school care in Massachusetts consultation",
      "Professional service",
      "Quality guarantee"
    ],
    "social_links": {}
  },
  {
    "name": "Catholic Charities Boston (Yawkey Child Care Center)",
    "address": "185 Columbia Road, Dorchester, MA 02121",
    "phone": "(617) 506-6645",
    "rating": 4.0,
    "reviews": 25,
    "website": "https://ccab.org/childcare/yawkey-child-care-center/",
    "category": "Catholic-owned Before school care in Massachusetts",
    "description": "Offers a school-age program that operates Monday through Friday from 7:30 a.m. \u2013 5:30 p.m. when public schools are closed",
    "hours": "Mon-Fri 9AM-6PM",
    "services": [
      "Catholic-owned Before school care in Massachusetts consultation",
      "Professional service",
      "Quality guarantee"
    ],
    "social_links": {}
  },
  {
    "name": "Our Lady of the Assumption Catholic School",
    "address": "40 Grove Street, Lynnfield, MA 01940",
    "phone": "(781) 599-4422",
    "rating": 4.0,
    "reviews": 25,
    "website": "https://www.ola.school/",
    "category": "Catholic-owned Before school care in Massachusetts",
    "description": "Offers a Before School Care program starting at 6:45 a.m",
    "hours": "Mon-Fri 9AM-6PM",
    "services": [
      "Catholic-owned Before school care in Massachusetts consultation",
      "Professional service",
      "Quality guarantee"
    ],
    "social_links": {}
  },
  {
    "name": "St. Isidore Catholic School (Apple Valley Catholic Collaborative)",
    "address": "429 Great Rd, Stow, MA 01775",
    "phone": "",
    "rating": 4.0,
    "reviews": 25,
    "website": "https://www.applevalleycatholic.org/st-isidore-cares/",
    "category": "Catholic-owned Before school care in Massachusetts",
    "description": "Offers a program from 7:00 AM - 8:30 AM",
    "hours": "Mon-Fri 9AM-6PM",
    "services": [
      "Catholic-owned Before school care in Massachusetts consultation",
      "Professional service",
      "Quality guarantee"
    ],
    "social_links": {}
  },
  {
    "name": "Holy Name School",
    "address": "850 Pearce Street, Fall River, MA 02720",
    "phone": "(508) 674-9131",
    "rating": 4.0,
    "reviews": 25,
    "website": "https://www.hnsfr.org/",
    "category": "Catholic-owned Before school care in Massachusetts",
    "description": "Provides a safe environment before the school day begins",
    "hours": "Mon-Fri 9AM-6PM",
    "services": [
      "Catholic-owned Before school care in Massachusetts consultation",
      "Professional service",
      "Quality guarantee"
    ],
    "social_links": {}
  },
  {
    "name": "St. Mary's High School (Elementary Extended Day)",
    "address": "35 Tremont Street, Lynn, MA 01902",
    "phone": "(781) 595-7885",
    "rating": 4.0,
    "reviews": 25,
    "website": "https://www.stmaryslynn.com/",
    "category": "Catholic-owned Before school care in Massachusetts",
    "description": "Offers an Early Morning program from 7:00 a.m. - 7:30 a.m",
    "hours": "Mon-Fri 9AM-6PM",
    "services": [
      "Catholic-owned Before school care in Massachusetts consultation",
      "Professional service",
      "Quality guarantee"
    ],
    "social_links": {}
  },
  {
    "name": "St. Mary's of the Annunciation School",
    "address": "14 Otis Street, Danvers, MA 01923",
    "phone": "(978) 774-0707",
    "rating": 4.0,
    "reviews": 25,
    "website": "https://www.stmarys-danvers.org/",
    "category": "Catholic-owned Before school care in Massachusetts",
    "description": "Offers Before School care at $10 per child per day",
    "hours": "Mon-Fri 9AM-6PM",
    "services": [
      "Catholic-owned Before school care in Massachusetts consultation",
      "Professional service",
      "Quality guarantee"
    ],
    "social_links": {}
  },
  {
    "name": "Saints Francis & Clare of Assisi Catholic School",
    "address": "Information not available",
    "phone": "",
    "rating": 4.0,
    "reviews": 25,
    "website": "https://www.ss-fc.org/",
    "category": "Catholic-owned Before school care in Massachusetts",
    "description": "Offers Preschool Before School Care from 6:50 a.m. - 7:30 a.m. and care for K-8th grade",
    "hours": "Mon-Fri 9AM-6PM",
    "services": [
      "Catholic-owned Before school care in Massachusetts consultation",
      "Professional service",
      "Quality guarantee"
    ],
    "social_links": {}
  },
  {
    "name": "Annunciation Catholic School",
    "address": "Information not available",
    "phone": "",
    "rating": 4.0,
    "reviews": 25,
    "website": "https://www.google.com/maps/search/Annunciation+Catholic+School+in+Massachusetts",
    "category": "Catholic-owned Before school care in Massachusetts",
    "description": "Offers Before Care starting at 6:30 am, with drop-off ending at 7:40 am",
    "hours": "Mon-Fri 9AM-6PM",
    "services": [
      "Catholic-owned Before school care in Massachusetts consultation",
      "Professional service",
      "Quality guarantee"
    ],
    "social_links": {}
  }
]