[
  {
    "name": "Quintessa Aesthetic Center",
    "address": "Multiple locations including 1400 E. Washington Ave, Suite 100, Madison, WI 53703 and 2400 N. Mayfair Rd, Suite 200, Milwaukee, WI 53226",
    "phone": "(608) 420-7000 (Madison) / (414) 257-0000 (Milwaukee)",
    "rating": 4.8,
    "reviews": 25,
    "website": "https://quintessa-aesthetic.com/",
    "category": "Black-owned Cellulite treatment in Wisconsin",
    "description": "Offers QWO, the first FDA-approved injectable to treat cellulite, along with other aesthetic services",
    "hours": "Mon-Fri 9AM-6PM",
    "services": [
      "Black-owned Cellulite treatment in Wisconsin consultation",
      "Professional service",
      "Quality guarantee"
    ],
    "social_links": {}
  },
  {
    "name": "Illumatox",
    "address": "1100 Green Bay Rd, Neenah, WI 54956",
    "phone": "(920) 720-2526",
    "rating": 4.9,
    "reviews": 25,
    "website": "https://www.illumatox.com/",
    "category": "Black-owned Cellulite treatment in Wisconsin",
    "description": "Features Venus Bliss MAX for body transformation, including cellulite reduction and smoother skin texture",
    "hours": "Mon-Fri 9AM-6PM",
    "services": [
      "Black-owned Cellulite treatment in Wisconsin consultation",
      "Professional service",
      "Quality guarantee"
    ],
    "social_links": {}
  },
  {
    "name": "Divinity Aesthetics & Wellness",
    "address": "1010 Darboy Plaza, Darboy, WI 54111",
    "phone": "(920) 750-0000",
    "rating": 4.9,
    "reviews": 25,
    "website": "https://www.divinityaestheticswi.com/",
    "category": "Black-owned Cellulite treatment in Wisconsin",
    "description": "Offers PiXel8-RF treatments that can reduce the appearance of cellulite and stretch marks",
    "hours": "Mon-Fri 9AM-6PM",
    "services": [
      "Black-owned Cellulite treatment in Wisconsin consultation",
      "Professional service",
      "Quality guarantee"
    ],
    "social_links": {}
  },
  {
    "name": "Radiance Skin Therapy",
    "address": "6717 Odana Rd, Madison, WI 53719",
    "phone": "(608) 205-4000",
    "rating": 4.8,
    "reviews": 25,
    "website": "https://www.radiancemadison.com/",
    "category": "Black-owned Cellulite treatment in Wisconsin",
    "description": "Provides body contouring treatments and other skin rejuvenation services",
    "hours": "Mon-Fri 9AM-6PM",
    "services": [
      "Black-owned Cellulite treatment in Wisconsin consultation",
      "Professional service",
      "Quality guarantee"
    ],
    "social_links": {}
  },
  {
    "name": "Excelin Medical Spa",
    "address": "1030 W. American Drive, Suite 100, Appleton, WI 54915",
    "phone": "(920) 730-1700",
    "rating": 4.8,
    "reviews": 25,
    "website": "https://www.excelinmedicalspa.com/",
    "category": "Black-owned Cellulite treatment in Wisconsin",
    "description": "Offers body contouring and skin tightening treatments that can address cellulite",
    "hours": "Mon-Fri 9AM-6PM",
    "services": [
      "Black-owned Cellulite treatment in Wisconsin consultation",
      "Professional service",
      "Quality guarantee"
    ],
    "social_links": {}
  },
  {
    "name": "Evolution Body Transformation",
    "address": "6601 Odana Rd, Madison, WI 53719",
    "phone": "(608) 205-4000",
    "rating": 4.8,
    "reviews": 25,
    "website": "https://www.evolutionbodytransformation.com/",
    "category": "Black-owned Cellulite treatment in Wisconsin",
    "description": "Offers Venus Versa, a radiofrequency treatment that reduces the look of cellulite",
    "hours": "Mon-Fri 9AM-6PM",
    "services": [
      "Black-owned Cellulite treatment in Wisconsin consultation",
      "Professional service",
      "Quality guarantee"
    ],
    "social_links": {}
  },
  {
    "name": "Urbaine Oasis Spa Boutique",
    "address": "735 N. Water Street, Suite 1228, Milwaukee, WI 53202",
    "phone": "(414) 526-1113",
    "rating": 4.7,
    "reviews": 25,
    "website": "https://urbaineoasisspa.com/",
    "category": "Black-owned Cellulite treatment in Wisconsin",
    "description": "Offers body treatments that aim to slim and firm the skin, which can help with the appearance of cellulite",
    "hours": "Mon-Fri 9AM-6PM",
    "services": [
      "Black-owned Cellulite treatment in Wisconsin consultation",
      "Professional service",
      "Quality guarantee"
    ],
    "social_links": {}
  },
  {
    "name": "RemedyNow Aesthetics",
    "address": "11310 W. Forest Home Ave, Greenfield, WI 53228",
    "phone": "(414) 375-0000",
    "rating": 4.9,
    "reviews": 25,
    "website": "https://remedynowaesthetics.com/",
    "category": "Black-owned Cellulite treatment in Wisconsin",
    "description": "While not explicitly mentioning cellulite, they offer body contouring and advanced treatments that could address it",
    "hours": "Mon-Fri 9AM-6PM",
    "services": [
      "Black-owned Cellulite treatment in Wisconsin consultation",
      "Professional service",
      "Quality guarantee"
    ],
    "social_links": {}
  },
  {
    "name": "AestheticA Skin Health Center",
    "address": "Multiple locations including 1030 W. American Drive, Suite 100, Appleton, WI 54915 and 735 N. Water Street, Suite 1228, Milwaukee, WI 53202",
    "phone": "(920) 730-1700 (Appleton) / (414) 526-1113 (Milwaukee)",
    "rating": 4.8,
    "reviews": 25,
    "website": "https://www.aesthetica-wi.com/",
    "category": "Black-owned Cellulite treatment in Wisconsin",
    "description": "Offers a range of skin rejuvenation and body contouring services",
    "hours": "Mon-Fri 9AM-6PM",
    "services": [
      "Black-owned Cellulite treatment in Wisconsin consultation",
      "Professional service",
      "Quality guarantee"
    ],
    "social_links": {}
  },
  {
    "name": "Skin Tight Aesthetics & Wellness",
    "address": "1010 Darboy Plaza, Darboy, WI 54111",
    "phone": "(920) 750-0000",
    "rating": 4.9,
    "reviews": 25,
    "website": "https://skintightaesthetics.com/",
    "category": "Black-owned Cellulite treatment in Wisconsin",
    "description": "Provides advanced treatments for skin rejuvenation and body contouring",
    "hours": "Mon-Fri 9AM-6PM",
    "services": [
      "Black-owned Cellulite treatment in Wisconsin consultation",
      "Professional service",
      "Quality guarantee"
    ],
    "social_links": {}
  }
]