[
  {
    "name": "Gateway Auto Care",
    "address": "1200 1st Ave, Hudson, WI 54016",
    "phone": "(715) 386-8885",
    "rating": 4.9,
    "reviews": 25,
    "website": "https://www.gatewayautocare.com/",
    "category": "Asian-owned ABS repair in Wisconsin",
    "description": "Specializes in ABS wheel sensor replacement and other auto repairs",
    "hours": "Mon-Fri 9AM-6PM",
    "services": [
      "Asian-owned ABS repair in Wisconsin consultation",
      "Professional service",
      "Quality guarantee"
    ],
    "social_links": {}
  },
  {
    "name": "Centerway Auto Repair",
    "address": "1901 Centerway, Janesville, WI 53546",
    "phone": "(608) 754-1000",
    "rating": 4.0,
    "reviews": 25,
    "website": "https://www.centerwayauto.com/",
    "category": "Asian-owned ABS repair in Wisconsin",
    "description": "Offers expert brake repair services, including ABS system repair, diagnostics, and replacement of faulty components",
    "hours": "Mon-Fri 9AM-6PM",
    "services": [
      "Asian-owned ABS repair in Wisconsin consultation",
      "Professional service",
      "Quality guarantee"
    ],
    "social_links": {}
  },
  {
    "name": "Riteway Automotive",
    "address": "711 N 13th Street, Sheboygan, WI 53081",
    "phone": "(920) 451-0270",
    "rating": 4.0,
    "reviews": 25,
    "website": "https://www.ritewayautomotivewi.com/",
    "category": "Asian-owned ABS repair in Wisconsin",
    "description": "Specializes in full-service auto repair and preventative maintenance for Asian vehicles",
    "hours": "Mon-Fri 9AM-6PM",
    "services": [
      "Asian-owned ABS repair in Wisconsin consultation",
      "Professional service",
      "Quality guarantee"
    ],
    "social_links": {}
  },
  {
    "name": "Manyo Motors",
    "address": "4035 N Green Bay Ave, Milwaukee, WI 53209",
    "phone": "(414) 312-8611",
    "rating": 4.8,
    "reviews": 25,
    "website": "https://www.manyomotors.com/",
    "category": "Asian-owned ABS repair in Wisconsin",
    "description": "A full-service auto repair and preventative maintenance facility specializing in Asian vehicles",
    "hours": "Mon-Fri 9AM-6PM",
    "services": [
      "Asian-owned ABS repair in Wisconsin consultation",
      "Professional service",
      "Quality guarantee"
    ],
    "social_links": {}
  },
  {
    "name": "Durand Automotive",
    "address": "1623 Durand Ave, Racine, WI 53403",
    "phone": "(262) 632-2625",
    "rating": 4.0,
    "reviews": 25,
    "website": "https://www.durandautomotive.com/",
    "category": "Asian-owned ABS repair in Wisconsin",
    "description": "Specializes in top-quality repair and maintenance services for Asian vehicles",
    "hours": "Mon-Fri 9AM-6PM",
    "services": [
      "Asian-owned ABS repair in Wisconsin consultation",
      "Professional service",
      "Quality guarantee"
    ],
    "social_links": {}
  },
  {
    "name": "Silver Lake Auto & Tire Centers",
    "address": "Multiple locations including 36355 E Wisconsin Ave, Oconomowoc, WI 53066; 30620 County Rd VV, Hartland, WI 53029; 17495 W. Capitol Dr, Suite B, Brookfield, WI 53045; S73W16610 W Janesville Rd, Muskego, WI 53150; 15650 W National Ave, New Berlin, WI 53151; 1235 Dakota Dr Unit M, Grafton, WI 53024",
    "phone": "(262) 567-0284 (Oconomowoc), (262) 966-7522 (Hartland), (262) 804-9969 (Brookfield), (414) 422-1100 (Muskego), (262) 510-2012 (New Berlin), (262) 910-1070 (Grafton)",
    "rating": 4.0,
    "reviews": 25,
    "website": "https://silverlakeauto.com/",
    "category": "Asian-owned ABS repair in Wisconsin",
    "description": "Offers a wide range of auto repair and maintenance services, with ASE-certified technicians",
    "hours": "Mon-Fri 9AM-6PM",
    "services": [
      "Asian-owned ABS repair in Wisconsin consultation",
      "Professional service",
      "Quality guarantee"
    ],
    "social_links": {}
  },
  {
    "name": "Auto Clinic of Green Bay",
    "address": "1245 W Mason St, Green Bay, WI 54303",
    "phone": "(920) 499-4000",
    "rating": 4.7,
    "reviews": 25,
    "website": "https://www.autoclinicofgreenbay.com/",
    "category": "Asian-owned ABS repair in Wisconsin",
    "description": "A full-service auto repair facility offering quality, competitively priced repairs for all makes and models",
    "hours": "Mon-Fri 9AM-6PM",
    "services": [
      "Asian-owned ABS repair in Wisconsin consultation",
      "Professional service",
      "Quality guarantee"
    ],
    "social_links": {}
  },
  {
    "name": "Tech Way Auto Of Milwaukee",
    "address": "5757 S 108th St, Greenfield, WI 53228",
    "phone": "(414) 529-1000",
    "rating": 4.8,
    "reviews": 25,
    "website": "https://www.techwayauto.com/",
    "category": "Asian-owned ABS repair in Wisconsin",
    "description": "Provides a range of auto repair services with a focus on customer satisfaction and fair pricing",
    "hours": "Mon-Fri 9AM-6PM",
    "services": [
      "Asian-owned ABS repair in Wisconsin consultation",
      "Professional service",
      "Quality guarantee"
    ],
    "social_links": {}
  },
  {
    "name": "REIS Auto",
    "address": "4727 S 108th St, Greenfield, WI 53228",
    "phone": "(414) 529-7777",
    "rating": 4.9,
    "reviews": 25,
    "website": "https://reisauto.com/",
    "category": "Asian-owned ABS repair in Wisconsin",
    "description": "Offers comprehensive auto repair services, including handling warranty work efficiently",
    "hours": "Mon-Fri 9AM-6PM",
    "services": [
      "Asian-owned ABS repair in Wisconsin consultation",
      "Professional service",
      "Quality guarantee"
    ],
    "social_links": {}
  },
  {
    "name": "DK Auto Repair & Towing",
    "address": "1001 E John Ave, Columbus, WI 53925",
    "phone": "(608) 684-6699",
    "rating": 4.0,
    "reviews": 25,
    "website": "https://www.dkautorepair.com/",
    "category": "Asian-owned ABS repair in Wisconsin",
    "description": "A local auto repair shop serving Dane, Columbia, Dodge & Juneau Counties with experience and ASE certifications",
    "hours": "Mon-Fri 9AM-6PM",
    "services": [
      "Asian-owned ABS repair in Wisconsin consultation",
      "Professional service",
      "Quality guarantee"
    ],
    "social_links": {}
  }
]