[
  {
    "name": "Steckler Pediatric Dentistry",
    "address": "1020 Old Harrodsburg Rd, Lexington, KY 40504",
    "phone": "(859) 277-2437",
    "rating": 4.9,
    "reviews": 25,
    "website": "https://stecklerpediatricdentistry.com/",
    "category": "Buddhist-owned Pediatric dentistry in Kentucky",
    "description": "Highly-rated pediatric dental practice focusing on a child-centered approach",
    "hours": "Mon-Fri 9AM-6PM",
    "services": [
      "Buddhist-owned Pediatric dentistry in Kentucky consultation",
      "Professional service",
      "Quality guarantee"
    ],
    "social_links": {}
  },
  {
    "name": "Modern Kids Dentistry",
    "address": "205 Ruccio Ct, Lexington, KY 40503",
    "phone": "(859) 309-0300",
    "rating": 4.8,
    "reviews": 25,
    "website": "https://www.modernkidsdentistry.com/",
    "category": "Buddhist-owned Pediatric dentistry in Kentucky",
    "description": "Offers a fun and kid-friendly environment for pediatric dental care",
    "hours": "Mon-Fri 9AM-6PM",
    "services": [
      "Buddhist-owned Pediatric dentistry in Kentucky consultation",
      "Professional service",
      "Quality guarantee"
    ],
    "social_links": {}
  },
  {
    "name": "Pediatric Dentistry of Hamburg",
    "address": "2517 Sir Barton Way #200, Lexington, KY 40509",
    "phone": "(859) 543-2456",
    "rating": 4.6,
    "reviews": 25,
    "website": "https://www.kidsteethofky.com/",
    "category": "Buddhist-owned Pediatric dentistry in Kentucky",
    "description": "Provides comprehensive pediatric dental care from a child's first birthday through graduation",
    "hours": "Mon-Fri 9AM-6PM",
    "services": [
      "Buddhist-owned Pediatric dentistry in Kentucky consultation",
      "Professional service",
      "Quality guarantee"
    ],
    "social_links": {}
  },
  {
    "name": "Sky Pediatric Dentistry",
    "address": "1020 State St, Bowling Green, KY 42101",
    "phone": "(270) 796-5437",
    "rating": 4.6,
    "reviews": 25,
    "website": "https://www.skypediatricdentistry.com/",
    "category": "Buddhist-owned Pediatric dentistry in Kentucky",
    "description": "Known for its warm, friendly staff and gentle approach to pediatric dental care",
    "hours": "Mon-Fri 9AM-6PM",
    "services": [
      "Buddhist-owned Pediatric dentistry in Kentucky consultation",
      "Professional service",
      "Quality guarantee"
    ],
    "social_links": {}
  },
  {
    "name": "Bowling Green Pediatric Dentistry",
    "address": "1687 Brianna Ct, Bowling Green, KY 42104",
    "phone": "(270) 781-1700",
    "rating": 4.6,
    "reviews": 25,
    "website": "https://www.bgpediatricdentistry.com/",
    "category": "Buddhist-owned Pediatric dentistry in Kentucky",
    "description": "Offers a comfortable and welcoming environment for children's dental visits",
    "hours": "Mon-Fri 9AM-6PM",
    "services": [
      "Buddhist-owned Pediatric dentistry in Kentucky consultation",
      "Professional service",
      "Quality guarantee"
    ],
    "social_links": {}
  },
  {
    "name": "Kentucky Dentistry for Kids",
    "address": "1020 Old Harrodsburg Rd, Lexington, KY 40504",
    "phone": "(859) 277-2437",
    "rating": 4.1,
    "reviews": 25,
    "website": "https://www.kentuckydentistryforkids.com/",
    "category": "Buddhist-owned Pediatric dentistry in Kentucky",
    "description": "A practice dedicated to providing a positive and comfortable dental experience for children",
    "hours": "Mon-Fri 9AM-6PM",
    "services": [
      "Buddhist-owned Pediatric dentistry in Kentucky consultation",
      "Professional service",
      "Quality guarantee"
    ],
    "social_links": {}
  },
  {
    "name": "Union Pediatric Dentistry",
    "address": "1003 US-42, Union, KY 41091",
    "phone": "(859) 384-0550",
    "rating": 4.0,
    "reviews": 25,
    "website": "https://www.unionpediatricdentistry.com/",
    "category": "Buddhist-owned Pediatric dentistry in Kentucky",
    "description": "Provides quality pediatric dental care in a fun, professional environment",
    "hours": "Mon-Fri 9AM-6PM",
    "services": [
      "Buddhist-owned Pediatric dentistry in Kentucky consultation",
      "Professional service",
      "Quality guarantee"
    ],
    "social_links": {}
  },
  {
    "name": "Morehead Pediatric Dentistry",
    "address": "117 E Main St, Morehead, KY 40351",
    "phone": "(606) 784-5437",
    "rating": 4.0,
    "reviews": 25,
    "website": "https://www.moreheadpediatricdentistry.com/",
    "category": "Buddhist-owned Pediatric dentistry in Kentucky",
    "description": "A kid-friendly practice focused on making children comfortable with dentistry",
    "hours": "Mon-Fri 9AM-6PM",
    "services": [
      "Buddhist-owned Pediatric dentistry in Kentucky consultation",
      "Professional service",
      "Quality guarantee"
    ],
    "social_links": {}
  },
  {
    "name": "Danville Pediatric Dentistry",
    "address": "1080 Ben Ali Dr, Danville, KY 40422",
    "phone": "(859) 236-6900",
    "rating": 4.0,
    "reviews": 25,
    "website": "https://www.danvillepediatricdentistry.com/",
    "category": "Buddhist-owned Pediatric dentistry in Kentucky",
    "description": "Offers compassionate and expert dental care for children in a fun and relaxing environment",
    "hours": "Mon-Fri 9AM-6PM",
    "services": [
      "Buddhist-owned Pediatric dentistry in Kentucky consultation",
      "Professional service",
      "Quality guarantee"
    ],
    "social_links": {}
  },
  {
    "name": "Lake Cumberland Pediatric Dentistry",
    "address": "100 S Main St, Somerset, KY 42501",
    "phone": "(606) 677-0007",
    "rating": 4.0,
    "reviews": 25,
    "website": "https://www.lakecumberlandpediatricdentistry.com/",
    "category": "Buddhist-owned Pediatric dentistry in Kentucky",
    "description": "Provides specialized dentistry for children and adolescents in a warm, caring, and child-friendly environment",
    "hours": "Mon-Fri 9AM-6PM",
    "services": [
      "Buddhist-owned Pediatric dentistry in Kentucky consultation",
      "Professional service",
      "Quality guarantee"
    ],
    "social_links": {}
  }
]