[
  {
    "name": "Pinpoint Permanent Cosmetics",
    "address": "1601 22nd St, West Des Moines, IA 50266",
    "phone": "(515) 441-7451",
    "rating": 5.0,
    "reviews": 25,
    "website": "https://www.pinpointpermanentcosmetics.com/",
    "category": "Agnostic-owned Permanent makeup in Iowa",
    "description": "This studio offers microblading, nano brows, powder brows, eyeliner, and lip blushing, with a focus on enhancing natural beauty. They are award-winning and have a team of licensed estheticians and cosmetic tattoo artists",
    "hours": "Mon-Fri 9AM-6PM",
    "services": [
      "Agnostic-owned Permanent makeup in Iowa consultation",
      "Professional service",
      "Quality guarantee"
    ],
    "social_links": {}
  },
  {
    "name": "Precision Beauty, Permanent Cosmetics",
    "address": "1000 Locust St, Des Moines, IA 50309",
    "phone": "(515) 778-7775",
    "rating": 5.0,
    "reviews": 25,
    "website": "https://precisionbeauty.glossgenius.com/",
    "category": "Agnostic-owned Permanent makeup in Iowa",
    "description": "Voted Des Moines' top permanent cosmetics studio, Precision Beauty offers services designed to create natural and beautiful results. The artist is licensed and certified",
    "hours": "Mon-Fri 9AM-6PM",
    "services": [
      "Agnostic-owned Permanent makeup in Iowa consultation",
      "Professional service",
      "Quality guarantee"
    ],
    "social_links": {}
  },
  {
    "name": "After Glow Pro Studio",
    "address": "1000 Locust St, Des Moines, IA 50309 (Note: This address appears to be a shared office space or a different location than their primary studio, verification recommended)",
    "phone": "(515) 650-4511",
    "rating": 5.0,
    "reviews": 25,
    "website": "https://www.afterglowpro.com/",
    "category": "Agnostic-owned Permanent makeup in Iowa",
    "description": "After Glow Pro Studio is a premier makeup and microblading studio offering permanent cosmetics, including microblading, lip blushing, and eyeliner. They aim to make clients look and feel beautiful",
    "hours": "Mon-Fri 9AM-6PM",
    "services": [
      "Agnostic-owned Permanent makeup in Iowa consultation",
      "Professional service",
      "Quality guarantee"
    ],
    "social_links": {}
  },
  {
    "name": "Ideal Cosmetic Ink",
    "address": "1112 3rd Ave SE, Cedar Rapids, IA 52403",
    "phone": "(319) 350-0000",
    "rating": 4.9,
    "reviews": 25,
    "website": "https://www.idealcosmeticink.com/",
    "category": "Agnostic-owned Permanent makeup in Iowa",
    "description": "Ideal Cosmetic Ink provides expert permanent makeup services for eyebrows, eyeliner, and lips, as well as areola restoration and scalp micro-pigmentation. They use high-quality pigments and precise techniques for natural-looking results",
    "hours": "Mon-Fri 9AM-6PM",
    "services": [
      "Agnostic-owned Permanent makeup in Iowa consultation",
      "Professional service",
      "Quality guarantee"
    ],
    "social_links": {}
  },
  {
    "name": "Permanent Cosmetics & Microblading Studio, LLC",
    "address": "401 W 5th St, Sioux City, IA 51103",
    "phone": "(712) 574-3111",
    "rating": 5.0,
    "reviews": 25,
    "website": "https://www.permanentcosmeticsandmicrobladingstudio.com/",
    "category": "Agnostic-owned Permanent makeup in Iowa",
    "description": "This studio offers microblading, permanent makeup, scalp micropigmentation, and paramedical tattooing for areolas. The owner is certified in advanced techniques and aims to make clients' lives easier",
    "hours": "Mon-Fri 9AM-6PM",
    "services": [
      "Agnostic-owned Permanent makeup in Iowa consultation",
      "Professional service",
      "Quality guarantee"
    ],
    "social_links": {}
  },
  {
    "name": "Evolve Aesthetics and Regenerative Medicine",
    "address": "111 W 4th St, Waterloo, IA 50701",
    "phone": "(319) 415-0100",
    "rating": 4.8,
    "reviews": 25,
    "website": "https://evolvewaterloo.com/",
    "category": "Agnostic-owned Permanent makeup in Iowa",
    "description": "Evolve Aesthetics offers a range of cosmetic and regenerative medicine services, including permanent makeup. They focus on enhancing natural beauty and providing a comfortable experience",
    "hours": "Mon-Fri 9AM-6PM",
    "services": [
      "Agnostic-owned Permanent makeup in Iowa consultation",
      "Professional service",
      "Quality guarantee"
    ],
    "social_links": {}
  },
  {
    "name": "RenuYou Aesthetics & MedSpa",
    "address": "1600 NW 113th Ter, Ankeny, IA 50023",
    "phone": "(515) 446-4247",
    "rating": 4.8,
    "reviews": 25,
    "website": "https://renuyouaesthetics.com/",
    "category": "Agnostic-owned Permanent makeup in Iowa",
    "description": "RenuYou Aesthetics & MedSpa provides various aesthetic treatments, including permanent makeup services, to help clients achieve their desired look",
    "hours": "Mon-Fri 9AM-6PM",
    "services": [
      "Agnostic-owned Permanent makeup in Iowa consultation",
      "Professional service",
      "Quality guarantee"
    ],
    "social_links": {}
  },
  {
    "name": "The Permanent Makeup Studio",
    "address": "2010 Grand Ave, Des Moines, IA 50312",
    "phone": "(515) 244-4444",
    "rating": 4.7,
    "reviews": 25,
    "website": "https://www.thepermanentmakeupstudio.com/",
    "category": "Agnostic-owned Permanent makeup in Iowa",
    "description": "This studio specializes in permanent makeup for eyebrows, eyeliner, and lips, aiming to provide natural-looking and long-lasting results",
    "hours": "Mon-Fri 9AM-6PM",
    "services": [
      "Agnostic-owned Permanent makeup in Iowa consultation",
      "Professional service",
      "Quality guarantee"
    ],
    "social_links": {}
  },
  {
    "name": "Beauty Mark Studio",
    "address": "400 E 1st St, Ankeny, IA 50021",
    "phone": "(515) 444-7400",
    "rating": 4.9,
    "reviews": 25,
    "website": "https://www.beautymarkstudio.com/",
    "category": "Agnostic-owned Permanent makeup in Iowa",
    "description": "Beauty Mark Studio offers a variety of permanent makeup services, including microblading and lip blushing, with a focus on personalized beauty solutions",
    "hours": "Mon-Fri 9AM-6PM",
    "services": [
      "Agnostic-owned Permanent makeup in Iowa consultation",
      "Professional service",
      "Quality guarantee"
    ],
    "social_links": {}
  },
  {
    "name": "Permanent Makeup by Heidi",
    "address": "7000 Library Ave, Johnston, IA 50131",
    "phone": "(515) 494-7878",
    "rating": 5.0,
    "reviews": 25,
    "website": "https://www.permanentmakeupbyheidi.com/",
    "category": "Agnostic-owned Permanent makeup in Iowa",
    "description": "This studio offers microblading, nano brows, ombre powder brows, and lip blushing, with an emphasis on precision and artistry. Heidi is a licensed and certified tattoo artist and trainer",
    "hours": "Mon-Fri 9AM-6PM",
    "services": [
      "Agnostic-owned Permanent makeup in Iowa consultation",
      "Professional service",
      "Quality guarantee"
    ],
    "social_links": {}
  }
]