[
  {
    "name": "Wholesale Computer Outlet",
    "address": "106 North Woodland Boulevard, DeLand, Florida 32720",
    "phone": "(386) 738-4880",
    "rating": 4.0,
    "reviews": 25,
    "website": "http://www.1computeroutlet.com/",
    "category": "Arabic-speaking Laptop repair in Florida",
    "description": "Offers comprehensive computer repair and technical services for individuals and businesses, including laptop repair, virus removal, data recovery, and system upgrades",
    "hours": "Mon-Fri 9AM-6PM",
    "services": [
      "Arabic-speaking Laptop repair in Florida consultation",
      "Professional service",
      "Quality guarantee"
    ],
    "social_links": {}
  },
  {
    "name": "Lake Mary Computers",
    "address": "Lake Mary, FL 32746",
    "phone": "(407) 302-0040",
    "rating": 5.0,
    "reviews": 25,
    "website": "http://www.lakemarycomputers.com/",
    "category": "Arabic-speaking Laptop repair in Florida",
    "description": "A local computer store offering fast computer repairs, quality workmanship, Apple/Mac repair, IT managed services, and onsite technical support",
    "hours": "Mon-Fri 9AM-6PM",
    "services": [
      "Arabic-speaking Laptop repair in Florida consultation",
      "Professional service",
      "Quality guarantee"
    ],
    "social_links": {}
  },
  {
    "name": "Macbook Repair Shop in Tampa",
    "address": "Tampa, FL 33612",
    "phone": "(813) 438-2888",
    "rating": 4.0,
    "reviews": 25,
    "website": "http://www.trueonefix.com/",
    "category": "Arabic-speaking Laptop repair in Florida",
    "description": "Specializes in fast, reliable, and high-quality repair services for all MacBook models, including screen replacements, battery repairs, and water damage recovery",
    "hours": "Mon-Fri 9AM-6PM",
    "services": [
      "Arabic-speaking Laptop repair in Florida consultation",
      "Professional service",
      "Quality guarantee"
    ],
    "social_links": {}
  },
  {
    "name": "D Tech Clinic, Computer Repair, Laptop Repair, Game Console Repair",
    "address": "Tampa, FL 33619",
    "phone": "",
    "rating": 4.0,
    "reviews": 25,
    "website": "https://www.google.com/maps/search/D+Tech+Clinic,+Computer+Repair,+Laptop+Repair,+Game+Console+Repair+in+Florida",
    "category": "Arabic-speaking Laptop repair in Florida",
    "description": "Offers a range of repair services in Tampa, Florida, including computer, laptop, and game console repairs",
    "hours": "Mon-Fri 9AM-6PM",
    "services": [
      "Arabic-speaking Laptop repair in Florida consultation",
      "Professional service",
      "Quality guarantee"
    ],
    "social_links": {}
  },
  {
    "name": "ISORM Computers",
    "address": "Tampa, Florida",
    "phone": "",
    "rating": 4.0,
    "reviews": 25,
    "website": "https://www.google.com/maps/search/ISORM+Computers+in+Florida",
    "category": "Arabic-speaking Laptop repair in Florida",
    "description": "A local technology expert offering new and used desktop and laptop computers, computer repair, and laptop screen replacement",
    "hours": "Mon-Fri 9AM-6PM",
    "services": [
      "Arabic-speaking Laptop repair in Florida consultation",
      "Professional service",
      "Quality guarantee"
    ],
    "social_links": {}
  },
  {
    "name": "FixStop.com",
    "address": "Orlando, FL",
    "phone": "(407) 710-2010",
    "rating": 4.0,
    "reviews": 25,
    "website": "http://www.fixstop.com/",
    "category": "Arabic-speaking Laptop repair in Florida",
    "description": "Provides computer repair services in Orlando, addressing both hardware and software issues for PCs, laptops, and Macs, including virus removal and hardware upgrades",
    "hours": "Mon-Fri 9AM-6PM",
    "services": [
      "Arabic-speaking Laptop repair in Florida consultation",
      "Professional service",
      "Quality guarantee"
    ],
    "social_links": {}
  },
  {
    "name": "Computer Guy of Florida",
    "address": "Service area includes Palm Beach, Broward, Martin, St. Lucie, Okeechobee, Glades, and Hendry Counties",
    "phone": "(561) 685-2886",
    "rating": 4.0,
    "reviews": 25,
    "website": "http://www.computerguyofflorida.com/",
    "category": "Arabic-speaking Laptop repair in Florida",
    "description": "Offers onsite and remote tech support for residences and small to medium-sized businesses, including hardware support, networking, and data recovery",
    "hours": "Mon-Fri 9AM-6PM",
    "services": [
      "Arabic-speaking Laptop repair in Florida consultation",
      "Professional service",
      "Quality guarantee"
    ],
    "social_links": {}
  },
  {
    "name": "Affordable Computer Geeks (ACGeeks)",
    "address": "410 Cypress Gardens Blvd, Winter Haven FL, 33880",
    "phone": "863-294-GEEK (4335)",
    "rating": 4.0,
    "reviews": 25,
    "website": "http://www.acgeeks.com/",
    "category": "Arabic-speaking Laptop repair in Florida",
    "description": "Provides computer repair, service, and sales for homes and small businesses, covering Winter Haven and surrounding Central Florida areas. Services include Mac repair, hardware/software diagnostics, and computer sales",
    "hours": "Mon-Fri 9AM-6PM",
    "services": [
      "Arabic-speaking Laptop repair in Florida consultation",
      "Professional service",
      "Quality guarantee"
    ],
    "social_links": {}
  },
  {
    "name": "HelloTech",
    "address": "Serves all of Florida with in-home and remote tech support",
    "phone": "",
    "rating": 4.0,
    "reviews": 25,
    "website": "http://www.hellote.ch/",
    "category": "Arabic-speaking Laptop repair in Florida",
    "description": "Offers in-home and remote tech support for various needs, including computer repair, TV mounting, and smart device setup, with service available as soon as the same day",
    "hours": "Mon-Fri 9AM-6PM",
    "services": [
      "Arabic-speaking Laptop repair in Florida consultation",
      "Professional service",
      "Quality guarantee"
    ],
    "social_links": {}
  },
  {
    "name": "Computer Tech Pro",
    "address": "Serves Lake County FL and Sumter County FL, including The Villages, Leesburg, Mount Dora, and Umatilla",
    "phone": "352-742-3113",
    "rating": 4.0,
    "reviews": 25,
    "website": "http://www.computertechpro.com/",
    "category": "Arabic-speaking Laptop repair in Florida",
    "description": "A one-stop source for computer needs, offering desktop and laptop repair, virus removal, and custom computer sales for residential and commercial clients",
    "hours": "Mon-Fri 9AM-6PM",
    "services": [
      "Arabic-speaking Laptop repair in Florida consultation",
      "Professional service",
      "Quality guarantee"
    ],
    "social_links": {}
  }
]