[
  {
    "name": "Chiltepes",
    "address": "Multiple locations in Omaha, NE (e.g., 5002 S 33rd St, Omaha, NE 68107)",
    "phone": "(402) 733-3440",
    "rating": 4.0,
    "reviews": 25,
    "website": "https://www.google.com/maps/search/Chiltepes+in+Nebraska",
    "category": "Central-American-owned Bistros in Nebraska",
    "description": "Offers Guatemalan staples like Churrasquito Chap\u00edn, hearty soups, tortillas, and pupusas",
    "hours": "Mon-Fri 9AM-6PM",
    "services": [
      "Central-American-owned Bistros in Nebraska consultation",
      "Professional service",
      "Quality guarantee"
    ],
    "social_links": {}
  },
  {
    "name": "QS Grill Steak",
    "address": "16808 Audrey St, Omaha, NE 68136",
    "phone": "(402) 708-2887",
    "rating": 4.0,
    "reviews": 25,
    "website": "https://www.qsgrillsteak.com",
    "category": "Central-American-owned Bistros in Nebraska",
    "description": "Features Nicaraguan and Salvadoran cuisine, including carne asada, fried cheese, and tajadas",
    "hours": "Mon-Fri 9AM-6PM",
    "services": [
      "Central-American-owned Bistros in Nebraska consultation",
      "Professional service",
      "Quality guarantee"
    ],
    "social_links": {}
  },
  {
    "name": "La Salvadore\u00f1a",
    "address": "1702 Vinton St, Omaha, NE 68108",
    "phone": "(402) 502-2528",
    "rating": 4.0,
    "reviews": 25,
    "website": "https://www.google.com/maps/search/La+Salvadore\u00f1a+in+Nebraska",
    "category": "Central-American-owned Bistros in Nebraska",
    "description": "Offers traditional Salvadoran cuisine",
    "hours": "Mon-Fri 9AM-6PM",
    "services": [
      "Central-American-owned Bistros in Nebraska consultation",
      "Professional service",
      "Quality guarantee"
    ],
    "social_links": {}
  },
  {
    "name": "La Choza",
    "address": "Omaha, NE 68107",
    "phone": "(402) 733-9554",
    "rating": 4.0,
    "reviews": 25,
    "website": "https://www.google.com/maps/search/La+Choza+in+Nebraska",
    "category": "Central-American-owned Bistros in Nebraska",
    "description": "Features traditional Salvadoran pupusas and tacos",
    "hours": "Mon-Fri 9AM-6PM",
    "services": [
      "Central-American-owned Bistros in Nebraska consultation",
      "Professional service",
      "Quality guarantee"
    ],
    "social_links": {}
  },
  {
    "name": "El Torogoz Restaurant",
    "address": "9539 Q St, Omaha, NE",
    "phone": "(531) 777-5332",
    "rating": 4.0,
    "reviews": 25,
    "website": "https://www.google.com/maps/search/El+Torogoz+Restaurant+in+Nebraska",
    "category": "Central-American-owned Bistros in Nebraska",
    "description": "Offers Salvadoran cuisine",
    "hours": "Mon-Fri 9AM-6PM",
    "services": [
      "Central-American-owned Bistros in Nebraska consultation",
      "Professional service",
      "Quality guarantee"
    ],
    "social_links": {}
  },
  {
    "name": "Costa El Sol",
    "address": "4454 S 84th St, Omaha, NE 68127",
    "phone": "(402) 596-1978",
    "rating": 4.0,
    "reviews": 25,
    "website": "https://www.google.com/maps/search/Costa+El+Sol+in+Nebraska",
    "category": "Central-American-owned Bistros in Nebraska",
    "description": "Offers Salvadoran cuisine, particularly pupusas",
    "hours": "Mon-Fri 9AM-6PM",
    "services": [
      "Central-American-owned Bistros in Nebraska consultation",
      "Professional service",
      "Quality guarantee"
    ],
    "social_links": {}
  },
  {
    "name": "Miranda's Taqueria y Pupuseria",
    "address": "11036 Elm St, Omaha, NE 68144",
    "phone": "(402) 502-1360",
    "rating": 4.0,
    "reviews": 25,
    "website": "https://www.google.com/maps/search/Miranda's+Taqueria+y+Pupuseria+in+Nebraska",
    "category": "Central-American-owned Bistros in Nebraska",
    "description": "Features baleadas, birria, tacos, and tamales",
    "hours": "Mon-Fri 9AM-6PM",
    "services": [
      "Central-American-owned Bistros in Nebraska consultation",
      "Professional service",
      "Quality guarantee"
    ],
    "social_links": {}
  },
  {
    "name": "El Arep\u00f3n",
    "address": "Bellevue, Nebraska",
    "phone": "",
    "rating": 4.0,
    "reviews": 25,
    "website": "https://www.google.com/maps/search/El+Arep\u00f3n+in+Nebraska",
    "category": "Central-American-owned Bistros in Nebraska",
    "description": "Serves Venezuelan food like teque\u00f1os, pabell\u00f3n criollo, and arepas",
    "hours": "Mon-Fri 9AM-6PM",
    "services": [
      "Central-American-owned Bistros in Nebraska consultation",
      "Professional service",
      "Quality guarantee"
    ],
    "social_links": {}
  },
  {
    "name": "Con Amor Latin Kitchen",
    "address": "Valley, NE",
    "phone": "",
    "rating": 4.0,
    "reviews": 25,
    "website": "https://www.google.com/maps/search/Con+Amor+Latin+Kitchen+in+Nebraska",
    "category": "Central-American-owned Bistros in Nebraska",
    "description": "Offers authentic Latin food, Sunday brunch, and cocktails",
    "hours": "Mon-Fri 9AM-6PM",
    "services": [
      "Central-American-owned Bistros in Nebraska consultation",
      "Professional service",
      "Quality guarantee"
    ],
    "social_links": {}
  },
  {
    "name": "Cumbia Tapas Bar",
    "address": "329 South 16th Street, Suite 1, Omaha, NE 68102",
    "phone": "",
    "rating": 4.0,
    "reviews": 25,
    "website": "https://www.google.com/maps/search/Cumbia+Tapas+Bar+in+Nebraska",
    "category": "Central-American-owned Bistros in Nebraska",
    "description": "Offers Latin-inspired tapas, cocktails, and ambiance",
    "hours": "Mon-Fri 9AM-6PM",
    "services": [
      "Central-American-owned Bistros in Nebraska consultation",
      "Professional service",
      "Quality guarantee"
    ],
    "social_links": {}
  }
]