[
  {
    "name": "MMA Insurance Agency",
    "address": "Multiple locations in Pickerington, New Albany, and Upper Arlington, OH",
    "phone": "(614) 324-0000 (General Inquiries)",
    "rating": 4.5,
    "reviews": 25,
    "website": "https://www.mmainsuranceagency.com/",
    "category": "Armenian-speaking Casualty insurance in Ohio",
    "description": "An independent insurance agency offering personal, Medicare, business insurance, and employee benefits",
    "hours": "Mon-Fri 9AM-6PM",
    "services": [
      "Armenian-speaking Casualty insurance in Ohio consultation",
      "Professional service",
      "Quality guarantee"
    ],
    "social_links": {}
  },
  {
    "name": "Leland Smith Insurance Services",
    "address": "Multiple locations across Ohio",
    "phone": "(330) 452-6000 (Canton Office)",
    "rating": 4.0,
    "reviews": 25,
    "website": "https://www.lelandsmith.com/",
    "category": "Armenian-speaking Casualty insurance in Ohio",
    "description": "An independent insurance agency providing auto, home, farm, health, life, and commercial insurance",
    "hours": "Mon-Fri 9AM-6PM",
    "services": [
      "Armenian-speaking Casualty insurance in Ohio consultation",
      "Professional service",
      "Quality guarantee"
    ],
    "social_links": {}
  },
  {
    "name": "American Casualty Insurance Agency, Inc.",
    "address": "102 E. Main Street, Bowling Green, OH 43402",
    "phone": "(419) 352-5231",
    "rating": 4.2,
    "reviews": 25,
    "website": "https://www.americancasualty.net/",
    "category": "Armenian-speaking Casualty insurance in Ohio",
    "description": "An independent insurance agency offering personal and business insurance solutions throughout Ohio, Michigan, and Indiana",
    "hours": "Mon-Fri 9AM-6PM",
    "services": [
      "Armenian-speaking Casualty insurance in Ohio consultation",
      "Professional service",
      "Quality guarantee"
    ],
    "social_links": {}
  },
  {
    "name": "Leugers Insurance Agency",
    "address": "101 E Main St, Batesville, IN 47006 (While not in Ohio, they serve the broader region and may have connections)",
    "phone": "(812) 934-4141",
    "rating": 4.8,
    "reviews": 25,
    "website": "https://www.leugers.com/",
    "category": "Armenian-speaking Casualty insurance in Ohio",
    "description": "An independent insurance agency offering insurance programs for individuals and businesses, as well as financial services",
    "hours": "Mon-Fri 9AM-6PM",
    "services": [
      "Armenian-speaking Casualty insurance in Ohio consultation",
      "Professional service",
      "Quality guarantee"
    ],
    "social_links": {}
  },
  {
    "name": "Hamilton Insurance Group, Inc.",
    "address": "1669 Lexington Avenue, Mansfield, OH 44907",
    "phone": "(419) 756-1000",
    "rating": 4.7,
    "reviews": 25,
    "website": "https://www.hamiltonins.com/",
    "category": "Armenian-speaking Casualty insurance in Ohio",
    "description": "An independent insurance agency offering personal and business insurance, with a wide variety of coverage options from numerous carriers",
    "hours": "Mon-Fri 9AM-6PM",
    "services": [
      "Armenian-speaking Casualty insurance in Ohio consultation",
      "Professional service",
      "Quality guarantee"
    ],
    "social_links": {}
  },
  {
    "name": "Otto Insurance Group",
    "address": "Multiple locations including 10 E Main St, Millersport, OH 43046",
    "phone": "(740) 467-7000 (Millersport)",
    "rating": 4.6,
    "reviews": 25,
    "website": "https://www.ottoinsurance.com/",
    "category": "Armenian-speaking Casualty insurance in Ohio",
    "description": "An independent Ohio insurance agency providing coverage for life, home, auto, and business",
    "hours": "Mon-Fri 9AM-6PM",
    "services": [
      "Armenian-speaking Casualty insurance in Ohio consultation",
      "Professional service",
      "Quality guarantee"
    ],
    "social_links": {}
  },
  {
    "name": "Schwendeman Agency Inc.",
    "address": "207 Second St, Marietta, OH 45750",
    "phone": "(740) 373-6793",
    "rating": 4.4,
    "reviews": 25,
    "website": "https://www.schwendeman.com/",
    "category": "Armenian-speaking Casualty insurance in Ohio",
    "description": "A third-generation, independent agency serving insurance, planning, and financial service needs for businesses and individuals",
    "hours": "Mon-Fri 9AM-6PM",
    "services": [
      "Armenian-speaking Casualty insurance in Ohio consultation",
      "Professional service",
      "Quality guarantee"
    ],
    "social_links": {}
  },
  {
    "name": "Higginbotham",
    "address": "Multiple locations, including 110 N Main St, Sidney, OH 45365",
    "phone": "(937) 492-9141 (Sidney)",
    "rating": 4.3,
    "reviews": 25,
    "website": "https://www.higginbotham.net/",
    "category": "Armenian-speaking Casualty insurance in Ohio",
    "description": "An independent insurance, financial, and HR services firm offering personalized insurance solutions",
    "hours": "Mon-Fri 9AM-6PM",
    "services": [
      "Armenian-speaking Casualty insurance in Ohio consultation",
      "Professional service",
      "Quality guarantee"
    ],
    "social_links": {}
  },
  {
    "name": "Progressive Insurance",
    "address": "Various independent agents across Ohio",
    "phone": "1-800-PROGRESSIVE (1-800-776-4737)",
    "rating": 4.0,
    "reviews": 25,
    "website": "https://www.progressive.com/agent/",
    "category": "Armenian-speaking Casualty insurance in Ohio",
    "description": "Progressive works with independent agents who may offer services in multiple languages, including Armenian",
    "hours": "Mon-Fri 9AM-6PM",
    "services": [
      "Armenian-speaking Casualty insurance in Ohio consultation",
      "Professional service",
      "Quality guarantee"
    ],
    "social_links": {}
  },
  {
    "name": "Meridian Insurance",
    "address": "9380 Montgomery Rd. Suite 207, Montgomery, OH 45242 (and other locations)",
    "phone": "1-800-207-7079",
    "rating": 4.1,
    "reviews": 25,
    "website": "https://www.meridiancapstone.com/",
    "category": "Armenian-speaking Casualty insurance in Ohio",
    "description": "Meridian Insurance has agents like Alejandro Hernandez who speaks Spanish, and they may have other multilingual staff. It's worth inquiring about Armenian services",
    "hours": "Mon-Fri 9AM-6PM",
    "services": [
      "Armenian-speaking Casualty insurance in Ohio consultation",
      "Professional service",
      "Quality guarantee"
    ],
    "social_links": {}
  }
]