[
  {
    "name": "Mount Sinai Doctors Faculty Practice",
    "address": "5 E. 98th Street, 11th Floor, New York, NY 10029",
    "phone": "212-241-4060",
    "rating": 4.0,
    "reviews": 25,
    "website": "https://www.mountsinai.org/locations/mount-sinai-doctors-faculty-practice",
    "category": "Hebrew-speaking Nephrologists in New-York",
    "description": "This practice is part of the Mount Sinai Health System and lists Hebrew as a spoken language among its physicians",
    "hours": "Mon-Fri 9AM-6PM",
    "services": [
      "Hebrew-speaking Nephrologists in New-York consultation",
      "Professional service",
      "Quality guarantee"
    ],
    "social_links": {}
  },
  {
    "name": "Mount Sinai Doctors - Brooklyn Heights",
    "address": "300 Cadman Plaza West, Floor 18, Brooklyn, NY 11201",
    "phone": "929-210-6000",
    "rating": 4.0,
    "reviews": 25,
    "website": "https://www.mountsinai.org/locations/mount-sinai-doctors-brooklyn-heights",
    "category": "Hebrew-speaking Nephrologists in New-York",
    "description": "Another location within the Mount Sinai network that may have Hebrew-speaking staff",
    "hours": "Mon-Fri 9AM-6PM",
    "services": [
      "Hebrew-speaking Nephrologists in New-York consultation",
      "Professional service",
      "Quality guarantee"
    ],
    "social_links": {}
  },
  {
    "name": "NewYork-Presbyterian/Columbia University Division of Nephrology",
    "address": "161 Fort Washington Ave, New York, NY 10032",
    "phone": "212-305-3273",
    "rating": 4.0,
    "reviews": 25,
    "website": "https://www.columbiadoctors.org/locations/newyork-presbyterian-columbia-university-division-of-nephrology",
    "category": "Hebrew-speaking Nephrologists in New-York",
    "description": "This division offers comprehensive care for a full range of kidney disorders and is a center of excellence",
    "hours": "Mon-Fri 9AM-6PM",
    "services": [
      "Hebrew-speaking Nephrologists in New-York consultation",
      "Professional service",
      "Quality guarantee"
    ],
    "social_links": {}
  },
  {
    "name": "NewYork-Presbyterian/Weill Cornell Medicine, Division of Nephrology and Hypertension",
    "address": "424 East 70th Street, New York, NY 10021",
    "phone": "212-746-4430",
    "rating": 4.0,
    "reviews": 25,
    "website": "https://weillcornell.org/locations/nephrology-hypertension-and-transplantation-medicine",
    "category": "Hebrew-speaking Nephrologists in New-York",
    "description": "This division is ranked among the top for adult nephrology and offers world-class clinical services",
    "hours": "Mon-Fri 9AM-6PM",
    "services": [
      "Hebrew-speaking Nephrologists in New-York consultation",
      "Professional service",
      "Quality guarantee"
    ],
    "social_links": {}
  },
  {
    "name": "NYU Langone Nephrology Associates",
    "address": "222 East 41st Street, 20th Floor, New York, NY 10017",
    "phone": "212-263-0705",
    "rating": 4.0,
    "reviews": 25,
    "website": "https://nyulangone.org/locations/nephrology-associates",
    "category": "Hebrew-speaking Nephrologists in New-York",
    "description": "This practice has multiple nephrologists and may have staff who speak Hebrew",
    "hours": "Mon-Fri 9AM-6PM",
    "services": [
      "Hebrew-speaking Nephrologists in New-York consultation",
      "Professional service",
      "Quality guarantee"
    ],
    "social_links": {}
  },
  {
    "name": "Kidney Care of Greater New York",
    "address": "577 Prospect Ave, 1B, Brooklyn, NY 11215",
    "phone": "718-369-0318",
    "rating": 4.0,
    "reviews": 25,
    "website": "https://www.kidneycaregreaterny.com/",
    "category": "Hebrew-speaking Nephrologists in New-York",
    "description": "A private practice nephrology group serving New York City with over 30 years of experience",
    "hours": "Mon-Fri 9AM-6PM",
    "services": [
      "Hebrew-speaking Nephrologists in New-York consultation",
      "Professional service",
      "Quality guarantee"
    ],
    "social_links": {}
  },
  {
    "name": "Kingsbrook Jewish Medical Center - Nephrology",
    "address": "Brooklyn, NY 11203",
    "phone": "",
    "rating": 4.0,
    "reviews": 25,
    "website": "https://www.kingsbrook.org/",
    "category": "Hebrew-speaking Nephrologists in New-York",
    "description": "This medical center has nephrology services, and it's possible they have Hebrew-speaking staff given the name",
    "hours": "Mon-Fri 9AM-6PM",
    "services": [
      "Hebrew-speaking Nephrologists in New-York consultation",
      "Professional service",
      "Quality guarantee"
    ],
    "social_links": {}
  },
  {
    "name": "Maimonides Health - Nephrology",
    "address": "Brooklyn, NY (specific address for nephrology department not detailed in search results)",
    "phone": "",
    "rating": 4.0,
    "reviews": 25,
    "website": "https://www.maimonidesmed.org/services-and-treatments/nephrology",
    "category": "Hebrew-speaking Nephrologists in New-York",
    "description": "Maimonides Health offers comprehensive nephrology services in Brooklyn",
    "hours": "Mon-Fri 9AM-6PM",
    "services": [
      "Hebrew-speaking Nephrologists in New-York consultation",
      "Professional service",
      "Quality guarantee"
    ],
    "social_links": {}
  },
  {
    "name": "New York Nephrology",
    "address": "Multiple locations including Albany, Clifton Park, Saratoga, Schenectady, and Troy. (While not in NYC, this is a significant nephrology group in NY state.)",
    "phone": "Varies by location (e.g., Albany: 518-434-2244)",
    "rating": 4.0,
    "reviews": 25,
    "website": "https://www.nynephrology.com/",
    "category": "Hebrew-speaking Nephrologists in New-York",
    "description": "This group has been serving the Capital District for decades and has a large team of board-certified physicians",
    "hours": "Mon-Fri 9AM-6PM",
    "services": [
      "Hebrew-speaking Nephrologists in New-York consultation",
      "Professional service",
      "Quality guarantee"
    ],
    "social_links": {}
  },
  {
    "name": "Dr. Leon Shein (Kingsbrook Jewish Medical Center)",
    "address": "Kingsbrook Jewish Medical Center, Brooklyn, NY 11203",
    "phone": "",
    "rating": 4.0,
    "reviews": 25,
    "website": "https://www.practo.com/new-york/nephrologist/dr-leon-shein-67403",
    "category": "Hebrew-speaking Nephrologists in New-York",
    "description": "A nephrologist with 40 years of experience practicing at Kingsbrook Jewish Medical Center",
    "hours": "Mon-Fri 9AM-6PM",
    "services": [
      "Hebrew-speaking Nephrologists in New-York consultation",
      "Professional service",
      "Quality guarantee"
    ],
    "social_links": {}
  }
]