[
  {
    "name": "The Stevens Law Group, LLC",
    "address": "(Not specified in search results, but serves South Carolina)",
    "phone": "(864) 598-9172",
    "rating": 4.0,
    "reviews": 25,
    "website": "https://www.the-stevens-law-group.com/",
    "category": "Arabic-speaking Family law in South-Carolina",
    "description": "Handles complex family law matters and international family law issues",
    "hours": "Mon-Fri 9AM-6PM",
    "services": [
      "Arabic-speaking Family law in South-Carolina consultation",
      "Professional service",
      "Quality guarantee"
    ],
    "social_links": {}
  },
  {
    "name": "Lane Law Firm",
    "address": "(Not specified in search results, but serves Columbia, SC)",
    "phone": "(803) 790-9958",
    "rating": 4.0,
    "reviews": 25,
    "website": "https://www.lanesc.com/",
    "category": "Arabic-speaking Family law in South-Carolina",
    "description": "Offers expert legal support in family matters, criminal cases, and more",
    "hours": "Mon-Fri 9AM-6PM",
    "services": [
      "Arabic-speaking Family law in South-Carolina consultation",
      "Professional service",
      "Quality guarantee"
    ],
    "social_links": {}
  },
  {
    "name": "Greenville Family Law",
    "address": "5409 Augusta Road #200, Greenville, SC 29605-2727",
    "phone": "(864) 335-9730",
    "rating": 4.0,
    "reviews": 25,
    "website": "https://www.greenvillefamilylaw.com/",
    "category": "Arabic-speaking Family law in South-Carolina",
    "description": "Concentrates in compassionate representations in Family Court",
    "hours": "Mon-Fri 9AM-6PM",
    "services": [
      "Arabic-speaking Family law in South-Carolina consultation",
      "Professional service",
      "Quality guarantee"
    ],
    "social_links": {}
  },
  {
    "name": "Carrie Warner Attorney at Law",
    "address": "(Not specified in search results, but serves Columbia, SC)",
    "phone": "",
    "rating": 4.0,
    "reviews": 25,
    "website": "https://www.carriewarnerlaw.com/",
    "category": "Arabic-speaking Family law in South-Carolina",
    "description": "Dedicated team of family law attorneys to help navigate complexities of family law issues",
    "hours": "Mon-Fri 9AM-6PM",
    "services": [
      "Arabic-speaking Family law in South-Carolina consultation",
      "Professional service",
      "Quality guarantee"
    ],
    "social_links": {}
  },
  {
    "name": "Sarah Henry Law",
    "address": "(Not specified in search results, but serves Greenville, SC)",
    "phone": "",
    "rating": 4.0,
    "reviews": 25,
    "website": "https://www.sarahhenrylaw.com/",
    "category": "Arabic-speaking Family law in South-Carolina",
    "description": "Family, Personal Injury & Criminal Defense Attorney",
    "hours": "Mon-Fri 9AM-6PM",
    "services": [
      "Arabic-speaking Family law in South-Carolina consultation",
      "Professional service",
      "Quality guarantee"
    ],
    "social_links": {}
  },
  {
    "name": "Turner Family Law and Divorce Attorney",
    "address": "(Not specified in search results, but serves Greenville, SC)",
    "phone": "",
    "rating": 4.0,
    "reviews": 25,
    "website": "https://www.turnerfamilylaw.com/",
    "category": "Arabic-speaking Family law in South-Carolina",
    "description": "Experienced legal representation from a family law attorney in Greenville, SC",
    "hours": "Mon-Fri 9AM-6PM",
    "services": [
      "Arabic-speaking Family law in South-Carolina consultation",
      "Professional service",
      "Quality guarantee"
    ],
    "social_links": {}
  },
  {
    "name": "Collins Family & Elder Law Group",
    "address": "(Not specified in search results, but has an office in Columbia, SC)",
    "phone": "(803) 590-6982",
    "rating": 4.0,
    "reviews": 25,
    "website": "https://www.collinsfamilyandelderlaw.com/",
    "category": "Arabic-speaking Family law in South-Carolina",
    "description": "Dedicated to protecting your family's future with over 200 years of combined experience",
    "hours": "Mon-Fri 9AM-6PM",
    "services": [
      "Arabic-speaking Family law in South-Carolina consultation",
      "Professional service",
      "Quality guarantee"
    ],
    "social_links": {}
  },
  {
    "name": "Cordell & Cordell",
    "address": "(Not specified in search results, but has an office in Columbia, SC)",
    "phone": "",
    "rating": 4.0,
    "reviews": 25,
    "website": "https://cordellcordell.com/locations/columbia-sc/",
    "category": "Arabic-speaking Family law in South-Carolina",
    "description": "Provides trusted legal representation for individuals facing divorce, child custody, and related domestic relations matters",
    "hours": "Mon-Fri 9AM-6PM",
    "services": [
      "Arabic-speaking Family law in South-Carolina consultation",
      "Professional service",
      "Quality guarantee"
    ],
    "social_links": {}
  },
  {
    "name": "Archer Swearingen",
    "address": "(Not specified in search results, but based in Columbia, SC)",
    "phone": "803-708-1258",
    "rating": 4.0,
    "reviews": 25,
    "website": "https://www.archerswearingen.com/",
    "category": "Arabic-speaking Family law in South-Carolina",
    "description": "Experienced family law firm handling divorce, custody, and visitation",
    "hours": "Mon-Fri 9AM-6PM",
    "services": [
      "Arabic-speaking Family law in South-Carolina consultation",
      "Professional service",
      "Quality guarantee"
    ],
    "social_links": {}
  },
  {
    "name": "Brinkley Law Firm, LLC",
    "address": "(Not specified in search results, but serves Charleston, SC)",
    "phone": "",
    "rating": 4.0,
    "reviews": 25,
    "website": "https://www.brinkleylaw.com/",
    "category": "Arabic-speaking Family law in South-Carolina",
    "description": "Focuses exclusively on South Carolina family law, offering litigation, mediation, and Collaborative Divorce",
    "hours": "Mon-Fri 9AM-6PM",
    "services": [
      "Arabic-speaking Family law in South-Carolina consultation",
      "Professional service",
      "Quality guarantee"
    ],
    "social_links": {}
  }
]