[
  {
    "name": "Uptown Imports",
    "address": "Minneapolis, MN",
    "phone": "(612) 871-8000",
    "rating": 4.5,
    "reviews": 25,
    "website": "http://www.uptownimports.com/",
    "category": "Asian-owned Engine rebuilding in Minnesota",
    "description": "Specializes in Asian auto repair, with expertise in various Asian car makes",
    "hours": "Mon-Fri 9AM-6PM",
    "services": [
      "Asian-owned Engine rebuilding in Minnesota consultation",
      "Professional service",
      "Quality guarantee"
    ],
    "social_links": {}
  },
  {
    "name": "Asian Auto Tech Inc.",
    "address": "874 Maryland Ave E, St Paul, MN 55106",
    "phone": "(651) 774-1605",
    "rating": 4.7,
    "reviews": 25,
    "website": "https://www.asianautotech.com/",
    "category": "Asian-owned Engine rebuilding in Minnesota",
    "description": "Offers a wide range of auto services, including diagnostics and complex repairs for various vehicle types",
    "hours": "Mon-Fri 9AM-6PM",
    "services": [
      "Asian-owned Engine rebuilding in Minnesota consultation",
      "Professional service",
      "Quality guarantee"
    ],
    "social_links": {}
  },
  {
    "name": "Certified Auto Repair",
    "address": "Spring Park, MN and Mound, MN",
    "phone": "(952) 471-9200 (Spring Park)",
    "rating": 4.6,
    "reviews": 25,
    "website": "https://www.certifiedautorepairmn.com/",
    "category": "Asian-owned Engine rebuilding in Minnesota",
    "description": "Specializes in Asian auto repair and offers engine rebuilding services",
    "hours": "Mon-Fri 9AM-6PM",
    "services": [
      "Asian-owned Engine rebuilding in Minnesota consultation",
      "Professional service",
      "Quality guarantee"
    ],
    "social_links": {}
  },
  {
    "name": "Wagamon Brothers, Inc.",
    "address": "3719 3rd Street NE, Columbia Heights, MN 55421",
    "phone": "(763) 571-9000",
    "rating": 4.7,
    "reviews": 25,
    "website": "https://wagamonbrothers.com/",
    "category": "Asian-owned Engine rebuilding in Minnesota",
    "description": "Offers comprehensive engine rebuilding and repair services, with a long history of expertise",
    "hours": "Mon-Fri 9AM-6PM",
    "services": [
      "Asian-owned Engine rebuilding in Minnesota consultation",
      "Professional service",
      "Quality guarantee"
    ],
    "social_links": {}
  },
  {
    "name": "Village Autoworks",
    "address": "2310 N Dale St, Roseville, MN 55113",
    "phone": "(651) 484-8555",
    "rating": 4.8,
    "reviews": 25,
    "website": "https://www.villageautoworks.com/",
    "category": "Asian-owned Engine rebuilding in Minnesota",
    "description": "Provides engine service, including engine rebuilds, swaps, and diagnostics",
    "hours": "Mon-Fri 9AM-6PM",
    "services": [
      "Asian-owned Engine rebuilding in Minnesota consultation",
      "Professional service",
      "Quality guarantee"
    ],
    "social_links": {}
  },
  {
    "name": "Becker Auto Repair",
    "address": "1212 N Broadway St Suite B, Alexandria, MN 56308",
    "phone": "(320) 762-8060",
    "rating": 4.7,
    "reviews": 25,
    "website": "https://www.beckerautorepair.com/",
    "category": "Asian-owned Engine rebuilding in Minnesota",
    "description": "Specializes in Asian vehicle repairs and offers a full range of auto services",
    "hours": "Mon-Fri 9AM-6PM",
    "services": [
      "Asian-owned Engine rebuilding in Minnesota consultation",
      "Professional service",
      "Quality guarantee"
    ],
    "social_links": {}
  },
  {
    "name": "Preferred Service and Repair",
    "address": "2205 Roosevelt Rd, St Cloud, MN 56301",
    "phone": "(320) 251-8844",
    "rating": 4.6,
    "reviews": 25,
    "website": "https://www.preferredserviceandrepair.com/",
    "category": "Asian-owned Engine rebuilding in Minnesota",
    "description": "Full-service auto repair and maintenance facility specializing in Asian vehicles",
    "hours": "Mon-Fri 9AM-6PM",
    "services": [
      "Asian-owned Engine rebuilding in Minnesota consultation",
      "Professional service",
      "Quality guarantee"
    ],
    "social_links": {}
  },
  {
    "name": "Miller Auto Center Inc.",
    "address": "12319 US-10, Elk River, MN 55330",
    "phone": "(763) 689-1332",
    "rating": 4.5,
    "reviews": 25,
    "website": "https://www.millerautocenter.com/",
    "category": "Asian-owned Engine rebuilding in Minnesota",
    "description": "Specializes in Asian vehicle repairs and offers a comprehensive range of automotive services",
    "hours": "Mon-Fri 9AM-6PM",
    "services": [
      "Asian-owned Engine rebuilding in Minnesota consultation",
      "Professional service",
      "Quality guarantee"
    ],
    "social_links": {}
  },
  {
    "name": "Quality Coaches, Inc.",
    "address": "20 W 38th St, Minneapolis, MN 55409",
    "phone": "(612) 824-4155",
    "rating": 4.7,
    "reviews": 25,
    "website": "https://www.qualitycoaches.com/",
    "category": "Asian-owned Engine rebuilding in Minnesota",
    "description": "Provides engine repair and rebuilding services for all makes and models, including foreign cars",
    "hours": "Mon-Fri 9AM-6PM",
    "services": [
      "Asian-owned Engine rebuilding in Minnesota consultation",
      "Professional service",
      "Quality guarantee"
    ],
    "social_links": {}
  },
  {
    "name": "Brothers Motorsports",
    "address": "1405 N 7th Ave, Baxter, MN 56425",
    "phone": "(218) 829-6656",
    "rating": 4.6,
    "reviews": 25,
    "website": "https://brothersmotorsports.com/",
    "category": "Asian-owned Engine rebuilding in Minnesota",
    "description": "Offers full engine rebuilds and other automotive services",
    "hours": "Mon-Fri 9AM-6PM",
    "services": [
      "Asian-owned Engine rebuilding in Minnesota consultation",
      "Professional service",
      "Quality guarantee"
    ],
    "social_links": {}
  }
]