[
  {
    "name": "Rajesh Ravikumar, Licensed Financial Professional",
    "address": "Indianapolis, IN",
    "phone": "737-377-4784",
    "rating": 4.0,
    "reviews": 25,
    "website": "https://www.google.com/maps/search/Rajesh+Ravikumar,+Licensed+Financial+Professional+in+Indiana",
    "category": "Asian-owned Cash flow management in Indiana",
    "description": "Offers investment management and other financial services",
    "hours": "Mon-Fri 9AM-6PM",
    "services": [
      "Asian-owned Cash flow management in Indiana consultation",
      "Professional service",
      "Quality guarantee"
    ],
    "social_links": {}
  },
  {
    "name": "Ankita Amin CPA LLC",
    "address": "Indianapolis, IN",
    "phone": "631-443-3482",
    "rating": 4.0,
    "reviews": 25,
    "website": "https://www.google.com/maps/search/Ankita+Amin+CPA+LLC+in+Indiana",
    "category": "Asian-owned Cash flow management in Indiana",
    "description": "Provides accounting services",
    "hours": "Mon-Fri 9AM-6PM",
    "services": [
      "Asian-owned Cash flow management in Indiana consultation",
      "Professional service",
      "Quality guarantee"
    ],
    "social_links": {}
  },
  {
    "name": "KV Financial Solutions & Services LLC",
    "address": "Indianapolis, IN",
    "phone": "323-800-4939",
    "rating": 4.0,
    "reviews": 25,
    "website": "https://www.google.com/maps/search/KV+Financial+Solutions+&+Services+LLC+in+Indiana",
    "category": "Asian-owned Cash flow management in Indiana",
    "description": "Offers investment management and other financial services",
    "hours": "Mon-Fri 9AM-6PM",
    "services": [
      "Asian-owned Cash flow management in Indiana consultation",
      "Professional service",
      "Quality guarantee"
    ],
    "social_links": {}
  },
  {
    "name": "Neelkanth Accountants",
    "address": "Indianapolis, IN",
    "phone": "424-400-2358",
    "rating": 4.0,
    "reviews": 25,
    "website": "https://www.google.com/maps/search/Neelkanth+Accountants+in+Indiana",
    "category": "Asian-owned Cash flow management in Indiana",
    "description": "An accounting firm",
    "hours": "Mon-Fri 9AM-6PM",
    "services": [
      "Asian-owned Cash flow management in Indiana consultation",
      "Professional service",
      "Quality guarantee"
    ],
    "social_links": {}
  },
  {
    "name": "Trident Financial Consultants",
    "address": "Indianapolis, IN",
    "phone": "310-912-7663",
    "rating": 4.0,
    "reviews": 25,
    "website": "https://www.google.com/maps/search/Trident+Financial+Consultants+in+Indiana",
    "category": "Asian-owned Cash flow management in Indiana",
    "description": "A financial consulting firm",
    "hours": "Mon-Fri 9AM-6PM",
    "services": [
      "Asian-owned Cash flow management in Indiana consultation",
      "Professional service",
      "Quality guarantee"
    ],
    "social_links": {}
  },
  {
    "name": "Gram Tax & Accounting",
    "address": "Not specified (ranked nationally)",
    "phone": "",
    "rating": 4.9,
    "reviews": 25,
    "website": "https://www.google.com/maps/search/Gram+Tax+&+Accounting+in+Indiana",
    "category": "Asian-owned Cash flow management in Indiana",
    "description": "Specializes in accounting services, tax preparation, and bookkeeping, known for responsive communication and expert tax planning",
    "hours": "Mon-Fri 9AM-6PM",
    "services": [
      "Asian-owned Cash flow management in Indiana consultation",
      "Professional service",
      "Quality guarantee"
    ],
    "social_links": {}
  },
  {
    "name": "SmartBean\u00ae Bookkeeping",
    "address": "Not specified (ranked nationally)",
    "phone": "",
    "rating": 5.0,
    "reviews": 25,
    "website": "https://www.google.com/maps/search/SmartBean\u00ae+Bookkeeping+in+Indiana",
    "category": "Asian-owned Cash flow management in Indiana",
    "description": "Provides comprehensive bookkeeping and financial services, praised for exceptional communication and transparent practices",
    "hours": "Mon-Fri 9AM-6PM",
    "services": [
      "Asian-owned Cash flow management in Indiana consultation",
      "Professional service",
      "Quality guarantee"
    ],
    "social_links": {}
  },
  {
    "name": "Rajmane CPA",
    "address": "Multiple offices including Indianapolis, Fort Wayne, Louisville & South Bend",
    "phone": "",
    "rating": 4.0,
    "reviews": 25,
    "website": "https://www.google.com/maps/search/Rajmane+CPA+in+Indiana",
    "category": "Asian-owned Cash flow management in Indiana",
    "description": "Offers accounting, tax consulting, new business setup, and payroll processing services",
    "hours": "Mon-Fri 9AM-6PM",
    "services": [
      "Asian-owned Cash flow management in Indiana consultation",
      "Professional service",
      "Quality guarantee"
    ],
    "social_links": {}
  },
  {
    "name": "Eads Murray & Pugh, P.C.",
    "address": "9515 E. 59th St. Suite B, Indianapolis, IN 46216",
    "phone": "(317) 536-2565",
    "rating": 4.0,
    "reviews": 25,
    "website": "https://www.google.com/maps/search/Eads+Murray+&+Pugh,+P.C.+in+Indiana",
    "category": "Asian-owned Cash flow management in Indiana",
    "description": "Provides professional services, including accounting",
    "hours": "Mon-Fri 9AM-6PM",
    "services": [
      "Asian-owned Cash flow management in Indiana consultation",
      "Professional service",
      "Quality guarantee"
    ],
    "social_links": {}
  },
  {
    "name": "Bedel Financial Consulting",
    "address": "Indianapolis, IN",
    "phone": "",
    "rating": 4.0,
    "reviews": 25,
    "website": "https://www.google.com/maps/search/Bedel+Financial+Consulting+in+Indiana",
    "category": "Asian-owned Cash flow management in Indiana",
    "description": "A fee-only wealth management firm offering services such as retirement planning, multi-generation planning, and education funding",
    "hours": "Mon-Fri 9AM-6PM",
    "services": [
      "Asian-owned Cash flow management in Indiana consultation",
      "Professional service",
      "Quality guarantee"
    ],
    "social_links": {}
  }
]