[
  {
    "name": "StorageMart",
    "address": "9925 SW 40th St, Miami, FL 33165",
    "phone": "(305) 220-1000",
    "rating": 4.0,
    "reviews": 25,
    "website": "https://www.storage-mart.com/",
    "category": "Armenian-speaking Climate-controlled storage in Florida",
    "description": "Offers climate-controlled storage units, including heated and air-conditioned options, to protect belongings from potential damage",
    "hours": "Mon-Fri 9AM-6PM",
    "services": [
      "Armenian-speaking Climate-controlled storage in Florida consultation",
      "Professional service",
      "Quality guarantee"
    ],
    "social_links": {}
  },
  {
    "name": "Safeguard Self Storage",
    "address": "Multiple locations across Florida (specific address not provided in search results for a single location)",
    "phone": "(800) 327-3373",
    "rating": 4.0,
    "reviews": 25,
    "website": "https://www.safeguardselfstorage.com/",
    "category": "Armenian-speaking Climate-controlled storage in Florida",
    "description": "Provides climate-controlled self-storage units with modern amenities for residential and commercial customers",
    "hours": "Mon-Fri 9AM-6PM",
    "services": [
      "Armenian-speaking Climate-controlled storage in Florida consultation",
      "Professional service",
      "Quality guarantee"
    ],
    "social_links": {}
  },
  {
    "name": "Extra Space Storage",
    "address": "Multiple locations across Florida, including 1880 North State Road 7, Margate, FL 33063 and 17231 Dona Michelle Drive, Tampa, FL 33647",
    "phone": "(844) 327-2110",
    "rating": 4.0,
    "reviews": 25,
    "website": "https://www.extraspace.com/",
    "category": "Armenian-speaking Climate-controlled storage in Florida",
    "description": "Offers a wide range of climate-controlled storage units with features like indoor access and 24-hour access",
    "hours": "Mon-Fri 9AM-6PM",
    "services": [
      "Armenian-speaking Climate-controlled storage in Florida consultation",
      "Professional service",
      "Quality guarantee"
    ],
    "social_links": {}
  },
  {
    "name": "Public Storage",
    "address": "Multiple locations across Florida, including 6550 West 20th Avenue, Hialeah, FL 33016",
    "phone": "(833) 814-3592",
    "rating": 4.6,
    "reviews": 25,
    "website": "https://www.publicstorage.com/",
    "category": "Armenian-speaking Climate-controlled storage in Florida",
    "description": "Provides climate-controlled storage units with indoor access and drive-up options, known for good customer service",
    "hours": "Mon-Fri 9AM-6PM",
    "services": [
      "Armenian-speaking Climate-controlled storage in Florida consultation",
      "Professional service",
      "Quality guarantee"
    ],
    "social_links": {}
  },
  {
    "name": "CubeSmart",
    "address": "Multiple locations across Florida, including 3040 South Goldenrod Road, Orlando, FL 32822",
    "phone": "(800) 468-4285",
    "rating": 4.1,
    "reviews": 25,
    "website": "https://www.cubesmart.com/",
    "category": "Armenian-speaking Climate-controlled storage in Florida",
    "description": "Offers climate-controlled storage units with indoor access and drive-up options, recognized for competitive pricing",
    "hours": "Mon-Fri 9AM-6PM",
    "services": [
      "Armenian-speaking Climate-controlled storage in Florida consultation",
      "Professional service",
      "Quality guarantee"
    ],
    "social_links": {}
  },
  {
    "name": "Life Storage",
    "address": "Multiple locations across Florida",
    "phone": "(855) 650-6479",
    "rating": 3.6,
    "reviews": 25,
    "website": "https://www.lifestorage.com/",
    "category": "Armenian-speaking Climate-controlled storage in Florida",
    "description": "Provides climate-controlled storage units with a focus on good security features",
    "hours": "Mon-Fri 9AM-6PM",
    "services": [
      "Armenian-speaking Climate-controlled storage in Florida consultation",
      "Professional service",
      "Quality guarantee"
    ],
    "social_links": {}
  },
  {
    "name": "Good Greek Moving & Storage",
    "address": "Multiple locations across Florida",
    "phone": "(561) 683-1313",
    "rating": 4.0,
    "reviews": 25,
    "website": "https://www.goodgreek.com/",
    "category": "Armenian-speaking Climate-controlled storage in Florida",
    "description": "Offers full-service moving and climate-controlled storage solutions, with temperature-moderated facilities to protect sensitive items",
    "hours": "Mon-Fri 9AM-6PM",
    "services": [
      "Armenian-speaking Climate-controlled storage in Florida consultation",
      "Professional service",
      "Quality guarantee"
    ],
    "social_links": {}
  },
  {
    "name": "Mindful Storage",
    "address": "900 Cypress Parkway, Kissimmee, FL 34759",
    "phone": "(561) 357-0121 (Corporate Phone)",
    "rating": 4.0,
    "reviews": 25,
    "website": "https://www.mindfulstorage.com/",
    "category": "Armenian-speaking Climate-controlled storage in Florida",
    "description": "Provides climate-controlled storage units in Kissimmee, emphasizing protection from mold and mildew, with amenities like a free moving truck",
    "hours": "Mon-Fri 9AM-6PM",
    "services": [
      "Armenian-speaking Climate-controlled storage in Florida consultation",
      "Professional service",
      "Quality guarantee"
    ],
    "social_links": {}
  },
  {
    "name": "Bloomingdale Self Storage",
    "address": "33511 Brandon, FL (specific street address not provided in search results)",
    "phone": "",
    "rating": 4.0,
    "reviews": 25,
    "website": "https://www.bloomingdaleselfstorage.com/",
    "category": "Armenian-speaking Climate-controlled storage in Florida",
    "description": "Offers climate-controlled storage units in Brandon, Florida, with various sizes and security systems",
    "hours": "Mon-Fri 9AM-6PM",
    "services": [
      "Armenian-speaking Climate-controlled storage in Florida consultation",
      "Professional service",
      "Quality guarantee"
    ],
    "social_links": {}
  },
  {
    "name": "Oxford Storage",
    "address": "3880 County Road 214, Oxford, FL 34484",
    "phone": "",
    "rating": 4.0,
    "reviews": 25,
    "website": "https://www.oxfordstorage.com/",
    "category": "Armenian-speaking Climate-controlled storage in Florida",
    "description": "Provides secure, climate-controlled self-storage units in Oxford, Florida, with gated access and 24/7 video surveillance",
    "hours": "Mon-Fri 9AM-6PM",
    "services": [
      "Armenian-speaking Climate-controlled storage in Florida consultation",
      "Professional service",
      "Quality guarantee"
    ],
    "social_links": {}
  }
]