[
  {
    "name": "G3 Homescaping",
    "address": "Newark, NJ 07108",
    "phone": "(862) 438-3345",
    "rating": 4.0,
    "reviews": 25,
    "website": "https://g3homescaping.com/",
    "category": "African-American-owned Decks in New-Jersey",
    "description": "G3 Homescaping is a Black-owned business offering a variety of services including deck building, handyman services, lawn care, and tree services in Essex County, New Jersey",
    "hours": "Mon-Fri 9AM-6PM",
    "services": [
      "African-American-owned Decks in New-Jersey consultation",
      "Professional service",
      "Quality guarantee"
    ],
    "social_links": {}
  },
  {
    "name": "Monello Landscape Industries",
    "address": "Not specified, but serves New Jersey",
    "phone": "",
    "rating": 4.0,
    "reviews": 25,
    "website": "https://www.monellolandscape.com/",
    "category": "African-American-owned Decks in New-Jersey",
    "description": "Monello Landscape Industries is a Minority Women Owned Business (MWOB) that provides landscaping, hardscaping, and outdoor living services",
    "hours": "Mon-Fri 9AM-6PM",
    "services": [
      "African-American-owned Decks in New-Jersey consultation",
      "Professional service",
      "Quality guarantee"
    ],
    "social_links": {}
  },
  {
    "name": "Decks by Ziec",
    "address": "Not specified, but serves Central, South, and North New Jersey",
    "phone": "(908) 275-7075",
    "rating": 4.0,
    "reviews": 25,
    "website": "https://decksbyziec.com/",
    "category": "African-American-owned Decks in New-Jersey",
    "description": "Decks by Ziec offers custom deck design, refinishing, restoration, paving, and repair services with 24 years of experience",
    "hours": "Mon-Fri 9AM-6PM",
    "services": [
      "African-American-owned Decks in New-Jersey consultation",
      "Professional service",
      "Quality guarantee"
    ],
    "social_links": {}
  },
  {
    "name": "Deck Guardian",
    "address": "Not specified, but serves most of New Jersey",
    "phone": "",
    "rating": 4.0,
    "reviews": 25,
    "website": "https://deckguardian.com/",
    "category": "African-American-owned Decks in New-Jersey",
    "description": "Deck Guardian is a custom deck building company with 10 years of experience in the construction industry, offering deck building and resurfacing services",
    "hours": "Mon-Fri 9AM-6PM",
    "services": [
      "African-American-owned Decks in New-Jersey consultation",
      "Professional service",
      "Quality guarantee"
    ],
    "social_links": {}
  },
  {
    "name": "Decks USA",
    "address": "Mullica Hill, NJ",
    "phone": "(856) 343-4557",
    "rating": 4.0,
    "reviews": 25,
    "website": "https://www.sjdeckbuilder.com/",
    "category": "African-American-owned Decks in New-Jersey",
    "description": "Decks USA has been providing deck contractor services since 2007, specializing in custom deck installation, design, and Trex deck installation",
    "hours": "Mon-Fri 9AM-6PM",
    "services": [
      "African-American-owned Decks in New-Jersey consultation",
      "Professional service",
      "Quality guarantee"
    ],
    "social_links": {}
  },
  {
    "name": "Deck Works",
    "address": "Kinnelon, NJ",
    "phone": "(973) 838-8644",
    "rating": 4.0,
    "reviews": 25,
    "website": "https://deckworksnj.com/",
    "category": "African-American-owned Decks in New-Jersey",
    "description": "Deck Works is a full-service deck builder offering new deck construction, deck repairs, deck maintenance, and under-deck waterproofing systems",
    "hours": "Mon-Fri 9AM-6PM",
    "services": [
      "African-American-owned Decks in New-Jersey consultation",
      "Professional service",
      "Quality guarantee"
    ],
    "social_links": {}
  },
  {
    "name": "C-JAM Construction",
    "address": "Deptford, NJ",
    "phone": "(856) 329-2933",
    "rating": 4.0,
    "reviews": 25,
    "website": "https://www.cjamconstruction.com/",
    "category": "African-American-owned Decks in New-Jersey",
    "description": "C-JAM Construction specializes in high-quality custom decks, railings, and outdoor structures, serving homeowners across South Jersey",
    "hours": "Mon-Fri 9AM-6PM",
    "services": [
      "African-American-owned Decks in New-Jersey consultation",
      "Professional service",
      "Quality guarantee"
    ],
    "social_links": {}
  },
  {
    "name": "Balabros LLC",
    "address": "Not specified, but serves New Jersey",
    "phone": "(856) 952-3135",
    "rating": 5.0,
    "reviews": 25,
    "website": "https://www.balabros.com/",
    "category": "African-American-owned Decks in New-Jersey",
    "description": "Balabros LLC specializes in custom decks, exterior construction, and design, with a focus on Trex decking and building above standard quality",
    "hours": "Mon-Fri 9AM-6PM",
    "services": [
      "African-American-owned Decks in New-Jersey consultation",
      "Professional service",
      "Quality guarantee"
    ],
    "social_links": {}
  },
  {
    "name": "East Brunswick Decks, Siding, Sunrooms, Roofing, Patio Contracting Company",
    "address": "East Brunswick, NJ (serves Central New Jersey)",
    "phone": "(732) 900-3760",
    "rating": 4.0,
    "reviews": 25,
    "website": "https://www.eastbrunswickdecks.com/",
    "category": "African-American-owned Decks in New-Jersey",
    "description": "This three-generation construction company offers custom deck installation, siding, sunrooms, roofing, and patio services, emphasizing personalized service and community investment",
    "hours": "Mon-Fri 9AM-6PM",
    "services": [
      "African-American-owned Decks in New-Jersey consultation",
      "Professional service",
      "Quality guarantee"
    ],
    "social_links": {}
  },
  {
    "name": "Deck Remodelers",
    "address": "Not specified, but serves New Jersey, New York, Pennsylvania, and Connecticut",
    "phone": "",
    "rating": 4.0,
    "reviews": 25,
    "website": "https://www.deckremodelers.com/",
    "category": "African-American-owned Decks in New-Jersey",
    "description": "Deck Remodelers designs and builds custom outdoor living spaces, including multi-level decks, outdoor kitchens, and patios, using high-quality materials",
    "hours": "Mon-Fri 9AM-6PM",
    "services": [
      "African-American-owned Decks in New-Jersey consultation",
      "Professional service",
      "Quality guarantee"
    ],
    "social_links": {}
  }
]