[
  {
    "name": "B.B. Barns - The Garden Company",
    "address": "3363 US-74, Asheville, NC 28704",
    "phone": "(828) 684-3351",
    "rating": 4.6,
    "reviews": 25,
    "website": "https://www.bbbarns.com/",
    "category": "Chinese-American-owned Garden center consultation in North-Carolina",
    "description": "Offers a large selection of plants and garden products, with knowledgeable staff and landscaping services",
    "hours": "Mon-Fri 9AM-6PM",
    "services": [
      "Chinese-American-owned Garden center consultation in North-Carolina consultation",
      "Professional service",
      "Quality guarantee"
    ],
    "social_links": {}
  },
  {
    "name": "Creekside Nursery, Inc.",
    "address": "4000 Dallas-Cherryville Hwy, Dallas, NC 28034",
    "phone": "(704) 922-1977",
    "rating": 4.7,
    "reviews": 25,
    "website": "https://www.creeksidenurserync.com/",
    "category": "Chinese-American-owned Garden center consultation in North-Carolina",
    "description": "A grower-direct nursery with a wide selection of perennials and shrubs, known for its beautiful and tranquil setting",
    "hours": "Mon-Fri 9AM-6PM",
    "services": [
      "Chinese-American-owned Garden center consultation in North-Carolina consultation",
      "Professional service",
      "Quality guarantee"
    ],
    "social_links": {}
  },
  {
    "name": "Logan's Garden Shop",
    "address": "3220 W. Gate City Blvd., Greensboro, NC 27407",
    "phone": "(336) 855-7777",
    "rating": 4.6,
    "reviews": 25,
    "website": "https://www.logansgarden.com/",
    "category": "Chinese-American-owned Garden center consultation in North-Carolina",
    "description": "A well-established garden shop offering a wide variety of plants, gardening supplies, and expert advice",
    "hours": "Mon-Fri 9AM-6PM",
    "services": [
      "Chinese-American-owned Garden center consultation in North-Carolina consultation",
      "Professional service",
      "Quality guarantee"
    ],
    "social_links": {}
  },
  {
    "name": "Fairview Garden Center",
    "address": "8455 Old NC 1002, Raleigh, NC 27615",
    "phone": "(919) 847-0133",
    "rating": 4.5,
    "reviews": 25,
    "website": "https://www.fairviewgardencenter.com/",
    "category": "Chinese-American-owned Garden center consultation in North-Carolina",
    "description": "A family-run garden center with a wide variety of plants, offering planting and personal consultation services",
    "hours": "Mon-Fri 9AM-6PM",
    "services": [
      "Chinese-American-owned Garden center consultation in North-Carolina consultation",
      "Professional service",
      "Quality guarantee"
    ],
    "social_links": {}
  },
  {
    "name": "Campbell Road Nursery",
    "address": "12000 Campbell Rd, Raleigh, NC 27606",
    "phone": "(919) 362-0500",
    "rating": 4.5,
    "reviews": 25,
    "website": "https://www.campbellroadnursery.com/",
    "category": "Chinese-American-owned Garden center consultation in North-Carolina",
    "description": "Offers both retail and wholesale options, with knowledgeable staff providing free counseling on planting",
    "hours": "Mon-Fri 9AM-6PM",
    "services": [
      "Chinese-American-owned Garden center consultation in North-Carolina consultation",
      "Professional service",
      "Quality guarantee"
    ],
    "social_links": {}
  },
  {
    "name": "Whitaker Farms & Garden Center",
    "address": "3421 Whitaker Rd, Climax, NC 27230",
    "phone": "(336) 755-3400",
    "rating": 4.5,
    "reviews": 25,
    "website": "https://www.whitakerfarms.com/",
    "category": "Chinese-American-owned Garden center consultation in North-Carolina",
    "description": "A farm and garden center with a wide selection of produce and plants, including pick-your-own options",
    "hours": "Mon-Fri 9AM-6PM",
    "services": [
      "Chinese-American-owned Garden center consultation in North-Carolina consultation",
      "Professional service",
      "Quality guarantee"
    ],
    "social_links": {}
  },
  {
    "name": "American Beauty Garden Center",
    "address": "7425 E WT Harris Blvd, Charlotte, NC 28215",
    "phone": "(704) 535-2050",
    "rating": 4.5,
    "reviews": 25,
    "website": "https://www.americanbeautygardencenter.com/",
    "category": "Chinese-American-owned Garden center consultation in North-Carolina",
    "description": "Known for its knowledgeable team, great selection, and welcoming atmosphere",
    "hours": "Mon-Fri 9AM-6PM",
    "services": [
      "Chinese-American-owned Garden center consultation in North-Carolina consultation",
      "Professional service",
      "Quality guarantee"
    ],
    "social_links": {}
  },
  {
    "name": "Tinga Nursery Inc.",
    "address": "3019 Wrightsville Ave, Wilmington, NC 28403",
    "phone": "(910) 791-1771",
    "rating": 4.5,
    "reviews": 25,
    "website": "https://tinganursery.com/",
    "category": "Chinese-American-owned Garden center consultation in North-Carolina",
    "description": "The largest retail and wholesale nursery in the Wilmington area, with a long history of operation",
    "hours": "Mon-Fri 9AM-6PM",
    "services": [
      "Chinese-American-owned Garden center consultation in North-Carolina consultation",
      "Professional service",
      "Quality guarantee"
    ],
    "social_links": {}
  },
  {
    "name": "Cline's Nursery",
    "address": "1001 W Warren St, Shelby, NC 28150",
    "phone": "(704) 482-7201",
    "rating": 4.7,
    "reviews": 25,
    "website": "https://clinesnursery.com/",
    "category": "Chinese-American-owned Garden center consultation in North-Carolina",
    "description": "A family-owned business offering a wide array of plants, including the largest Japanese Maple selection in the area",
    "hours": "Mon-Fri 9AM-6PM",
    "services": [
      "Chinese-American-owned Garden center consultation in North-Carolina consultation",
      "Professional service",
      "Quality guarantee"
    ],
    "social_links": {}
  },
  {
    "name": "King's Garden Center",
    "address": "1101 Stallings Rd, Stallings, NC 28104",
    "phone": "(704) 821-5111",
    "rating": 4.5,
    "reviews": 25,
    "website": "https://kingsgardencenter.com/",
    "category": "Chinese-American-owned Garden center consultation in North-Carolina",
    "description": "A locally owned and grown garden center offering a wide variety of plants, tools, and design assistance",
    "hours": "Mon-Fri 9AM-6PM",
    "services": [
      "Chinese-American-owned Garden center consultation in North-Carolina consultation",
      "Professional service",
      "Quality guarantee"
    ],
    "social_links": {}
  }
]