[
  {
    "name": "FJV Tax",
    "address": "1000 Washington St #400, Boston, MA 02118",
    "phone": "(617) 770-7286",
    "rating": 4.0,
    "reviews": 25,
    "website": "https://www.fjvtax.com/",
    "category": "Agnostic-owned Cash flow forecasting in Massachusetts",
    "description": "Offers business consulting services including financial forecasting and cash flow analysis for businesses of all sizes",
    "hours": "Mon-Fri 9AM-6PM",
    "services": [
      "Agnostic-owned Cash flow forecasting in Massachusetts consultation",
      "Professional service",
      "Quality guarantee"
    ],
    "social_links": {}
  },
  {
    "name": "BA Inc",
    "address": "1227 Plain St, Rockland, MA 02370 (also has an office in Woburn, MA)",
    "phone": "(781) 871-1040",
    "rating": 4.0,
    "reviews": 25,
    "website": "https://www.bainc.com/",
    "category": "Agnostic-owned Cash flow forecasting in Massachusetts",
    "description": "Provides business advisory services, including cash flow and profitability planning, strategy, and budgeting for small to medium-sized businesses",
    "hours": "Mon-Fri 9AM-6PM",
    "services": [
      "Agnostic-owned Cash flow forecasting in Massachusetts consultation",
      "Professional service",
      "Quality guarantee"
    ],
    "social_links": {}
  },
  {
    "name": "Daigle & Associates LLP",
    "address": "1330 Beacon St, Brookline, MA 02446",
    "phone": "(617) 734-6400",
    "rating": 4.0,
    "reviews": 25,
    "website": "https://www.daigle-associates.com/",
    "category": "Agnostic-owned Cash flow forecasting in Massachusetts",
    "description": "Offers business advisory services, including strategic planning and financial guidance",
    "hours": "Mon-Fri 9AM-6PM",
    "services": [
      "Agnostic-owned Cash flow forecasting in Massachusetts consultation",
      "Professional service",
      "Quality guarantee"
    ],
    "social_links": {}
  },
  {
    "name": "George R. Baxendale CPA, Inc.",
    "address": "100 Summer St, Boston, MA 02110",
    "phone": "(617) 261-1040",
    "rating": 4.0,
    "reviews": 25,
    "website": "https://www.baxendalecpa.com/",
    "category": "Agnostic-owned Cash flow forecasting in Massachusetts",
    "description": "Specializes in business cash flow and budget management, offering cash flow forecasting and analysis services",
    "hours": "Mon-Fri 9AM-6PM",
    "services": [
      "Agnostic-owned Cash flow forecasting in Massachusetts consultation",
      "Professional service",
      "Quality guarantee"
    ],
    "social_links": {}
  },
  {
    "name": "Sabo CPA, P.C.",
    "address": "145 South St, Hingham, MA 02043",
    "phone": "(781) 749-5550",
    "rating": 4.0,
    "reviews": 25,
    "website": "https://www.sabocpa.com/",
    "category": "Agnostic-owned Cash flow forecasting in Massachusetts",
    "description": "Provides cash flow forecast services, budgeting, and tax-focused advisory for individuals and businesses",
    "hours": "Mon-Fri 9AM-6PM",
    "services": [
      "Agnostic-owned Cash flow forecasting in Massachusetts consultation",
      "Professional service",
      "Quality guarantee"
    ],
    "social_links": {}
  },
  {
    "name": "Riverview Capital Advisers, LLC",
    "address": "265 Franklin St Suite 403, Boston, MA 02110",
    "phone": "(617) 423-0080",
    "rating": 4.0,
    "reviews": 25,
    "website": "https://www.riverviewcapitaladvisers.com/",
    "category": "Agnostic-owned Cash flow forecasting in Massachusetts",
    "description": "Offers business advisory services including strategic forecasting and financial modeling to help businesses thrive",
    "hours": "Mon-Fri 9AM-6PM",
    "services": [
      "Agnostic-owned Cash flow forecasting in Massachusetts consultation",
      "Professional service",
      "Quality guarantee"
    ],
    "social_links": {}
  },
  {
    "name": "Rizzo & Restuccia, P.C.",
    "address": "145 Main St, Saugus, MA 01906",
    "phone": "(781) 231-0400",
    "rating": 4.0,
    "reviews": 25,
    "website": "https://www.rrpc.com/",
    "category": "Agnostic-owned Cash flow forecasting in Massachusetts",
    "description": "Provides cash flow management services, including short-term and long-term cash flow projections, and historical cash flow statements",
    "hours": "Mon-Fri 9AM-6PM",
    "services": [
      "Agnostic-owned Cash flow forecasting in Massachusetts consultation",
      "Professional service",
      "Quality guarantee"
    ],
    "social_links": {}
  },
  {
    "name": "Genuine Business Advisors",
    "address": "101 Arch St, Boston, MA 02110",
    "phone": "(617) 213-4000",
    "rating": 4.0,
    "reviews": 25,
    "website": "https://www.genuinebusinessadvisors.com/",
    "category": "Agnostic-owned Cash flow forecasting in Massachusetts",
    "description": "An M&A and Business Brokerage firm offering business consulting services to optimize operations and improve profitability",
    "hours": "Mon-Fri 9AM-6PM",
    "services": [
      "Agnostic-owned Cash flow forecasting in Massachusetts consultation",
      "Professional service",
      "Quality guarantee"
    ],
    "social_links": {}
  },
  {
    "name": "Bridgepoint Consulting",
    "address": "100 Summer St, Boston, MA 02110",
    "phone": "(617) 557-7000",
    "rating": 4.0,
    "reviews": 25,
    "website": "https://www.bridgepointconsulting.com/",
    "category": "Agnostic-owned Cash flow forecasting in Massachusetts",
    "description": "Helps companies grow and scale through financial operations, technology, and risk & compliance standards in their Boston office",
    "hours": "Mon-Fri 9AM-6PM",
    "services": [
      "Agnostic-owned Cash flow forecasting in Massachusetts consultation",
      "Professional service",
      "Quality guarantee"
    ],
    "social_links": {}
  },
  {
    "name": "Vilms Consulting",
    "address": "100 Cummings Center, Suite 107-C, Beverly, MA 01915",
    "phone": "(978) 922-1110",
    "rating": 4.0,
    "reviews": 25,
    "website": "https://vilmsconsulting.com/",
    "category": "Agnostic-owned Cash flow forecasting in Massachusetts",
    "description": "Offers business accounting services, advisory services, and training, including cash flow management and strategic planning",
    "hours": "Mon-Fri 9AM-6PM",
    "services": [
      "Agnostic-owned Cash flow forecasting in Massachusetts consultation",
      "Professional service",
      "Quality guarantee"
    ],
    "social_links": {}
  }
]