[
  {
    "name": "Yoga Under the Palms",
    "address": "3574 Waialae Ave, Honolulu, HI 96816",
    "phone": "(808) 353-5922",
    "rating": 4.0,
    "reviews": 25,
    "website": "https://www.yoga-hawaii.com/",
    "category": "Buddhist-owned Prenatal fitness in Hawaii",
    "description": "Offers prenatal yoga classes designed to build body awareness, strength, and relaxation for expecting mothers",
    "hours": "Mon-Fri 9AM-6PM",
    "services": [
      "Buddhist-owned Prenatal fitness in Hawaii consultation",
      "Professional service",
      "Quality guarantee"
    ],
    "social_links": {}
  },
  {
    "name": "Still & Moving Center",
    "address": "1137 11th Ave, Honolulu, HI 96816",
    "phone": "(808) 737-9355",
    "rating": 4.0,
    "reviews": 25,
    "website": "https://www.stillandmovingcenter.com/",
    "category": "Buddhist-owned Prenatal fitness in Hawaii",
    "description": "A mindful movement and yoga studio offering a variety of classes, including those beneficial for prenatal wellness",
    "hours": "Mon-Fri 9AM-6PM",
    "services": [
      "Buddhist-owned Prenatal fitness in Hawaii consultation",
      "Professional service",
      "Quality guarantee"
    ],
    "social_links": {}
  },
  {
    "name": "Oahu Flow Prenatal Yoga & Massage",
    "address": "Services offered in-home or at a preferred location",
    "phone": "",
    "rating": 4.0,
    "reviews": 25,
    "website": "https://www.oahuflow.com/",
    "category": "Buddhist-owned Prenatal fitness in Hawaii",
    "description": "Provides prenatal yoga and massage services, bringing the studio experience to the client's home",
    "hours": "Mon-Fri 9AM-6PM",
    "services": [
      "Buddhist-owned Prenatal fitness in Hawaii consultation",
      "Professional service",
      "Quality guarantee"
    ],
    "social_links": {}
  },
  {
    "name": "Purple Yoga Hawaii",
    "address": "1145 Koko Head Ave, Honolulu, HI 96816",
    "phone": "(808) 944-8585",
    "rating": 4.0,
    "reviews": 25,
    "website": "https://www.purpleyoga.com/",
    "category": "Buddhist-owned Prenatal fitness in Hawaii",
    "description": "Offers pregnancy and prenatal yoga classes, focusing on breathwork, strengthening, and relaxation for expecting mothers",
    "hours": "Mon-Fri 9AM-6PM",
    "services": [
      "Buddhist-owned Prenatal fitness in Hawaii consultation",
      "Professional service",
      "Quality guarantee"
    ],
    "social_links": {}
  },
  {
    "name": "Ku Acupuncture & Day Spa",
    "address": "2909 Lowrey Ave, Second floor, #B, Honolulu, HI 96822",
    "phone": "(808) 721-1489",
    "rating": 4.0,
    "reviews": 25,
    "website": "https://www.google.com/maps/search/Ku+Acupuncture+&+Day+Spa+in+Hawaii",
    "category": "Buddhist-owned Prenatal fitness in Hawaii",
    "description": "Offers prenatal and postnatal massage services to support mothers during and after pregnancy",
    "hours": "Mon-Fri 9AM-6PM",
    "services": [
      "Buddhist-owned Prenatal fitness in Hawaii consultation",
      "Professional service",
      "Quality guarantee"
    ],
    "social_links": {}
  },
  {
    "name": "Wellness OBGYN",
    "address": "1401 S Beretania St Ste 405, Honolulu, HI 96814",
    "phone": "(808) 591-1111",
    "rating": 4.0,
    "reviews": 25,
    "website": "https://www.wellnessobgynhi.com/",
    "category": "Buddhist-owned Prenatal fitness in Hawaii",
    "description": "Provides comprehensive prenatal care with a holistic approach, integrating modern medicine with cultural sensitivity",
    "hours": "Mon-Fri 9AM-6PM",
    "services": [
      "Buddhist-owned Prenatal fitness in Hawaii consultation",
      "Professional service",
      "Quality guarantee"
    ],
    "social_links": {}
  },
  {
    "name": "Center for Natural Healing Hawaii",
    "address": "1440 Kapiolani Blvd Suite 101, Honolulu, HI 96814",
    "phone": "(808) 737-1033",
    "rating": 4.0,
    "reviews": 25,
    "website": "https://www.naturalhealinghawaii.com/",
    "category": "Buddhist-owned Prenatal fitness in Hawaii",
    "description": "A holistic health clinic offering natural and naturopathic approaches to conception and pregnancy, including nutrition, mindfulness, and exercise guidance",
    "hours": "Mon-Fri 9AM-6PM",
    "services": [
      "Buddhist-owned Prenatal fitness in Hawaii consultation",
      "Professional service",
      "Quality guarantee"
    ],
    "social_links": {}
  },
  {
    "name": "Zen Attitude Acupuncture",
    "address": "1137 11th Ave, Honolulu, HI 96816",
    "phone": "(808) 737-9355",
    "rating": 4.0,
    "reviews": 25,
    "website": "https://www.zenattitude.com/",
    "category": "Buddhist-owned Prenatal fitness in Hawaii",
    "description": "Offers holistic and integrated pregnancy care, combining naturopathic medicine, acupuncture, and nutritional support for physical and emotional well-being",
    "hours": "Mon-Fri 9AM-6PM",
    "services": [
      "Buddhist-owned Prenatal fitness in Hawaii consultation",
      "Professional service",
      "Quality guarantee"
    ],
    "social_links": {}
  },
  {
    "name": "Wainani Wellness Center",
    "address": "3574 Waialae Ave, Honolulu, HI 96816",
    "phone": "",
    "rating": 4.0,
    "reviews": 25,
    "website": "https://www.google.com/maps/search/Wainani+Wellness+Center+in+Hawaii",
    "category": "Buddhist-owned Prenatal fitness in Hawaii",
    "description": "Offers pregnancy yoga and other movement classes focused on cultivating optimal health and well-being through functional movement and a conscious lifestyle",
    "hours": "Mon-Fri 9AM-6PM",
    "services": [
      "Buddhist-owned Prenatal fitness in Hawaii consultation",
      "Professional service",
      "Quality guarantee"
    ],
    "social_links": {}
  },
  {
    "name": "Wisdom Flow Yoga",
    "address": "Information not available in search results. (Classes may be held at various locations or online)",
    "phone": "",
    "rating": 4.0,
    "reviews": 25,
    "website": "https://www.wisdomflowyoga.com/",
    "category": "Buddhist-owned Prenatal fitness in Hawaii",
    "description": "Provides prenatal yoga classes designed to address pregnancy discomforts, build strength, and prepare for birth through poses, breathing techniques, and meditation",
    "hours": "Mon-Fri 9AM-6PM",
    "services": [
      "Buddhist-owned Prenatal fitness in Hawaii consultation",
      "Professional service",
      "Quality guarantee"
    ],
    "social_links": {}
  }
]