[
  {
    "name": "Catholic Charities Diocese of Charlotte",
    "address": "Multiple locations including 1123 S. Church Street, Charlotte, NC 28203; 1612 East 14th Street, Winston-Salem, NC 27105; 50 Orange Street, Asheville, NC 28801",
    "phone": "Charlotte: 704-370-3262, Winston-Salem: 336-727-0705, Asheville: 828-255-0146",
    "rating": 4.0,
    "reviews": 25,
    "website": "http://www.ccdoc.org/",
    "category": "Catholic-owned Appointment scheduling in North-Carolina",
    "description": "Offers various social services, including food pantries and assistance with housing, rent, mortgage, or utilities. Appointments are often required for food pantry services",
    "hours": "Mon-Fri 9AM-6PM",
    "services": [
      "Catholic-owned Appointment scheduling in North-Carolina consultation",
      "Professional service",
      "Quality guarantee"
    ],
    "social_links": {}
  },
  {
    "name": "Catholic Charities of the Diocese of Raleigh - New Bern Region",
    "address": "502 Middle Street, New Bern, NC 28560",
    "phone": "252-638-2188",
    "rating": 4.0,
    "reviews": 25,
    "website": "https://www.ccharitiesdor.org/",
    "category": "Catholic-owned Appointment scheduling in North-Carolina",
    "description": "Provides services such as utility assistance and operates a food pantry. Appointments are preferred for walk-ins",
    "hours": "Mon-Fri 9AM-6PM",
    "services": [
      "Catholic-owned Appointment scheduling in North-Carolina consultation",
      "Professional service",
      "Quality guarantee"
    ],
    "social_links": {}
  },
  {
    "name": "Catholic Charities of the Diocese of Raleigh - Tar River Region",
    "address": "1746 Union Street, Greenville NC 27834",
    "phone": "252-355-5111",
    "rating": 4.0,
    "reviews": 25,
    "website": "https://www.ccharitiesdor.org/",
    "category": "Catholic-owned Appointment scheduling in North-Carolina",
    "description": "Offers immigration legal services, community educational presentations, and operates mobile food pantries. Appointments are conducted by phone, email, or virtually, with limited in-person appointments",
    "hours": "Mon-Fri 9AM-6PM",
    "services": [
      "Catholic-owned Appointment scheduling in North-Carolina consultation",
      "Professional service",
      "Quality guarantee"
    ],
    "social_links": {}
  },
  {
    "name": "St. Ann Catholic Church (Edenton, NC)",
    "address": "303 S Granville St, Edenton, NC 27932",
    "phone": "(252) 482-4444",
    "rating": 4.0,
    "reviews": 25,
    "website": "https://stanncatholic.org/",
    "category": "Catholic-owned Appointment scheduling in North-Carolina",
    "description": "Offers various ministries and sacraments. Confession is available by appointment",
    "hours": "Mon-Fri 9AM-6PM",
    "services": [
      "Catholic-owned Appointment scheduling in North-Carolina consultation",
      "Professional service",
      "Quality guarantee"
    ],
    "social_links": {}
  },
  {
    "name": "St. Ann Catholic Church (Clayton, NC)",
    "address": "4057 US-70 BUS, Clayton, NC 27520",
    "phone": "(919) 553-5500",
    "rating": 4.0,
    "reviews": 25,
    "website": "https://saintann.org/",
    "category": "Catholic-owned Appointment scheduling in North-Carolina",
    "description": "A Catholic church offering Masses, ministries, and community programs",
    "hours": "Mon-Fri 9AM-6PM",
    "services": [
      "Catholic-owned Appointment scheduling in North-Carolina consultation",
      "Professional service",
      "Quality guarantee"
    ],
    "social_links": {}
  },
  {
    "name": "St. Gabriel Catholic School (Charlotte, NC)",
    "address": "3028 Providence Road, Charlotte, NC 28211",
    "phone": "(704) 366-2409",
    "rating": 4.0,
    "reviews": 25,
    "website": "https://www.stgabrielcharlotte.org/",
    "category": "Catholic-owned Appointment scheduling in North-Carolina",
    "description": "A Catholic school that provides admissions support and allows families to schedule tours",
    "hours": "Mon-Fri 9AM-6PM",
    "services": [
      "Catholic-owned Appointment scheduling in North-Carolina consultation",
      "Professional service",
      "Quality guarantee"
    ],
    "social_links": {}
  },
  {
    "name": "The Cathedral of St. Patrick (Charlotte, NC)",
    "address": "1621 Dilworth Road East, Charlotte, NC 28203",
    "phone": "(704) 334-2283",
    "rating": 4.0,
    "reviews": 25,
    "website": "https://www.stpatricks.org/",
    "category": "Catholic-owned Appointment scheduling in North-Carolina",
    "description": "Offers various ministries and faith formation programs. Confessions are available by appointment",
    "hours": "Mon-Fri 9AM-6PM",
    "services": [
      "Catholic-owned Appointment scheduling in North-Carolina consultation",
      "Professional service",
      "Quality guarantee"
    ],
    "social_links": {}
  },
  {
    "name": "St. Joseph's Catholic Church (Greensboro, NC)",
    "address": "2617 West Friendly Avenue, Greensboro, NC 27403",
    "phone": "(336) 274-1501",
    "rating": 4.0,
    "reviews": 25,
    "website": "https://www.stjosephsgso.org/",
    "category": "Catholic-owned Appointment scheduling in North-Carolina",
    "description": "A multicultural Catholic community offering English and Spanish services",
    "hours": "Mon-Fri 9AM-6PM",
    "services": [
      "Catholic-owned Appointment scheduling in North-Carolina consultation",
      "Professional service",
      "Quality guarantee"
    ],
    "social_links": {}
  },
  {
    "name": "MyCatholicDoctor",
    "address": "Primarily telehealth, with clinicians qualified in North Carolina",
    "phone": "",
    "rating": 4.0,
    "reviews": 25,
    "website": "https://www.mycatholicdoctor.com/",
    "category": "Catholic-owned Appointment scheduling in North-Carolina",
    "description": "A network of Catholic healthcare professionals offering telehealth services. Appointments can be scheduled online or virtually",
    "hours": "Mon-Fri 9AM-6PM",
    "services": [
      "Catholic-owned Appointment scheduling in North-Carolina consultation",
      "Professional service",
      "Quality guarantee"
    ],
    "social_links": {}
  },
  {
    "name": "Christian Adoption Services",
    "address": "Multiple offices, including 7884 Idlewild Road, Indian Trail, NC 28079 (Charlotte Area Office)",
    "phone": "(704) 847-0038",
    "rating": 4.0,
    "reviews": 25,
    "website": "https://christianadopt.org/",
    "category": "Catholic-owned Appointment scheduling in North-Carolina",
    "description": "An adoption agency that provides services by appointment",
    "hours": "Mon-Fri 9AM-6PM",
    "services": [
      "Catholic-owned Appointment scheduling in North-Carolina consultation",
      "Professional service",
      "Quality guarantee"
    ],
    "social_links": {}
  }
]