[
  {
    "name": "Human Element",
    "address": "4444 West River Center Drive, Grand Rapids, MI 49546",
    "phone": "(616) 577-0000",
    "rating": 4.0,
    "reviews": 25,
    "website": "https://www.humanelement.com/services/shopify-development/",
    "category": "Baby-Boomer-owned Shopify development in Michigan",
    "description": "A Shopify Plus Partner agency offering custom Shopify and Shopify Plus development, migrations, app development, integrations, and ongoing support for Michigan brands",
    "hours": "Mon-Fri 9AM-6PM",
    "services": [
      "Baby-Boomer-owned Shopify development in Michigan consultation",
      "Professional service",
      "Quality guarantee"
    ],
    "social_links": {}
  },
  {
    "name": "Realm Web Design",
    "address": "21700 Northwestern Hwy Suite 130, Southfield, MI 48075",
    "phone": "(313) 586-0000",
    "rating": 4.0,
    "reviews": 25,
    "website": "https://www.realmweb.com/shopify-experts-detroit/",
    "category": "Baby-Boomer-owned Shopify development in Michigan",
    "description": "A Shopify web design agency serving Detroit and beyond, offering development, custom themes, app development, migrations, store setup, SEO, and marketing",
    "hours": "Mon-Fri 9AM-6PM",
    "services": [
      "Baby-Boomer-owned Shopify development in Michigan consultation",
      "Professional service",
      "Quality guarantee"
    ],
    "social_links": {}
  },
  {
    "name": "Netlynx Inc.",
    "address": "30600 Telegraph Rd, Suite 2470, Bingham Farms, MI 48025",
    "phone": "(248) 453-0000",
    "rating": 4.0,
    "reviews": 25,
    "website": "https://www.netlynx.com/michigan-shopify-web-design/",
    "category": "Baby-Boomer-owned Shopify development in Michigan",
    "description": "A premier Shopify web development agency in Michigan specializing in crafting visually appealing and functional Shopify websites, offering custom design, integrations, migration, and support",
    "hours": "Mon-Fri 9AM-6PM",
    "services": [
      "Baby-Boomer-owned Shopify development in Michigan consultation",
      "Professional service",
      "Quality guarantee"
    ],
    "social_links": {}
  },
  {
    "name": "HastyEgg",
    "address": "2100 Traver Rd, Ann Arbor, MI 48105",
    "phone": "(734) 221-0000",
    "rating": 4.0,
    "reviews": 25,
    "website": "https://hastyegg.com/",
    "category": "Baby-Boomer-owned Shopify development in Michigan",
    "description": "A software development company offering custom software development and e-commerce development, including Shopify services",
    "hours": "Mon-Fri 9AM-6PM",
    "services": [
      "Baby-Boomer-owned Shopify development in Michigan consultation",
      "Professional service",
      "Quality guarantee"
    ],
    "social_links": {}
  },
  {
    "name": "Bighorn Web Solutions LLC",
    "address": "40000 Grand River Ave, Suite 101-140, Novi, MI 48375",
    "phone": "(248) 859-0000",
    "rating": 4.0,
    "reviews": 25,
    "website": "https://bighornweb.com/",
    "category": "Baby-Boomer-owned Shopify development in Michigan",
    "description": "Specializes in Shopify services, including custom theme development and ERP integration, with a focus on delivering measurable results",
    "hours": "Mon-Fri 9AM-6PM",
    "services": [
      "Baby-Boomer-owned Shopify development in Michigan consultation",
      "Professional service",
      "Quality guarantee"
    ],
    "social_links": {}
  },
  {
    "name": "SPLIT Development",
    "address": "15000 W 8 Mile Rd, Detroit, MI 48235",
    "phone": "(313) 444-0000",
    "rating": 4.0,
    "reviews": 25,
    "website": "https://splitdev.com/",
    "category": "Baby-Boomer-owned Shopify development in Michigan",
    "description": "An e-commerce development company specializing in custom Shopify solutions and ongoing support, known for functional, user-friendly e-commerce websites",
    "hours": "Mon-Fri 9AM-6PM",
    "services": [
      "Baby-Boomer-owned Shopify development in Michigan consultation",
      "Professional service",
      "Quality guarantee"
    ],
    "social_links": {}
  },
  {
    "name": "Cass&York, LLC",
    "address": "15000 W 8 Mile Rd, Detroit, MI 48235",
    "phone": "(313) 444-0000",
    "rating": 4.0,
    "reviews": 25,
    "website": "https://cassandyork.com/",
    "category": "Baby-Boomer-owned Shopify development in Michigan",
    "description": "A software development firm offering custom software development and e-commerce development services",
    "hours": "Mon-Fri 9AM-6PM",
    "services": [
      "Baby-Boomer-owned Shopify development in Michigan consultation",
      "Professional service",
      "Quality guarantee"
    ],
    "social_links": {}
  },
  {
    "name": "Techno Softwares",
    "address": "43450 West Oaks Drive, Novi, MI 48377",
    "phone": "(248) 453-0000",
    "rating": 4.0,
    "reviews": 25,
    "website": "https://www.technosoftwares.com/shopify-development-michigan/",
    "category": "Baby-Boomer-owned Shopify development in Michigan",
    "description": "Offers Shopify developer retainer services, custom store design, SEO optimization, and technical support, with a focus on increasing product sales and audience reach",
    "hours": "Mon-Fri 9AM-6PM",
    "services": [
      "Baby-Boomer-owned Shopify development in Michigan consultation",
      "Professional service",
      "Quality guarantee"
    ],
    "social_links": {}
  },
  {
    "name": "Webfox Marketing",
    "address": "30600 Telegraph Rd, Suite 2470, Bingham Farms, MI 48025",
    "phone": "(248) 453-0000",
    "rating": 4.0,
    "reviews": 25,
    "website": "https://www.webfoxmarketing.com/",
    "category": "Baby-Boomer-owned Shopify development in Michigan",
    "description": "Provides website design, e-commerce web development, SEO, and digital marketing services, with a focus on helping small businesses prosper online",
    "hours": "Mon-Fri 9AM-6PM",
    "services": [
      "Baby-Boomer-owned Shopify development in Michigan consultation",
      "Professional service",
      "Quality guarantee"
    ],
    "social_links": {}
  },
  {
    "name": "Seamedia",
    "address": "43450 West Oaks Drive, Novi, MI 48377",
    "phone": "(248) 453-0000",
    "rating": 4.0,
    "reviews": 25,
    "website": "https://seamedia.us/michigan-shopify-development/",
    "category": "Baby-Boomer-owned Shopify development in Michigan",
    "description": "Offers custom Shopify store creation, theme enhancements, app development, SEO optimization, and performance optimization services to boost online visibility and sales",
    "hours": "Mon-Fri 9AM-6PM",
    "services": [
      "Baby-Boomer-owned Shopify development in Michigan consultation",
      "Professional service",
      "Quality guarantee"
    ],
    "social_links": {}
  }
]