[
  {
    "name": "Comfort Care Dental",
    "address": "Multiple locations in Southeast Idaho (Idaho Falls, Rexburg, Pocatello, Twin Falls)",
    "phone": "(208) 529-4321 (Idaho Falls)",
    "rating": 4.0,
    "reviews": 25,
    "website": "https://www.comfortcaredental.com/",
    "category": "Baby-Boomer-owned Teeth whitening in Idaho",
    "description": "Offers Zoom! in-office whitening and at-home whitening systems",
    "hours": "Mon-Fri 9AM-6PM",
    "services": [
      "Baby-Boomer-owned Teeth whitening in Idaho consultation",
      "Professional service",
      "Quality guarantee"
    ],
    "social_links": {}
  },
  {
    "name": "Illuminate Teeth Whitening",
    "address": "Meridian, ID (Serves Treasure Valley)",
    "phone": "",
    "rating": 4.0,
    "reviews": 25,
    "website": "https://www.illuminateteethwhitening.com/",
    "category": "Baby-Boomer-owned Teeth whitening in Idaho",
    "description": "Specializes in organic laser teeth whitening using natural ingredients",
    "hours": "Mon-Fri 9AM-6PM",
    "services": [
      "Baby-Boomer-owned Teeth whitening in Idaho consultation",
      "Professional service",
      "Quality guarantee"
    ],
    "social_links": {}
  },
  {
    "name": "Idahome Smiles",
    "address": "Boise, ID",
    "phone": "",
    "rating": 4.0,
    "reviews": 25,
    "website": "https://idahomesmiles.com/",
    "category": "Baby-Boomer-owned Teeth whitening in Idaho",
    "description": "A veteran, woman, and locally owned teeth whitening spa offering peroxide-free, enamel-safe technology in a spa-like environment",
    "hours": "Mon-Fri 9AM-6PM",
    "services": [
      "Baby-Boomer-owned Teeth whitening in Idaho consultation",
      "Professional service",
      "Quality guarantee"
    ],
    "social_links": {}
  },
  {
    "name": "Dr. Fred Stillings (Meridian Dental Care)",
    "address": "Meridian, ID",
    "phone": "(208) 377-3206",
    "rating": 4.0,
    "reviews": 25,
    "website": "https://www.meridiandentalcare.com/services/teeth-whitening/",
    "category": "Baby-Boomer-owned Teeth whitening in Idaho",
    "description": "Offers in-office and at-home professional teeth whitening solutions",
    "hours": "Mon-Fri 9AM-6PM",
    "services": [
      "Baby-Boomer-owned Teeth whitening in Idaho consultation",
      "Professional service",
      "Quality guarantee"
    ],
    "social_links": {}
  },
  {
    "name": "Silverstone Family Dental",
    "address": "Meridian, ID",
    "phone": "(208) 888-3623",
    "rating": 4.0,
    "reviews": 25,
    "website": "https://silverstonefamilydental.com/services/teeth-whitening/",
    "category": "Baby-Boomer-owned Teeth whitening in Idaho",
    "description": "Provides both take-home and in-office teeth whitening services",
    "hours": "Mon-Fri 9AM-6PM",
    "services": [
      "Baby-Boomer-owned Teeth whitening in Idaho consultation",
      "Professional service",
      "Quality guarantee"
    ],
    "social_links": {}
  },
  {
    "name": "Northwest Dental Center",
    "address": "Boise, ID",
    "phone": "(208) 314-4416",
    "rating": 4.0,
    "reviews": 25,
    "website": "https://www.northwestdentalidaho.com/services/glo-teeth-whitening/",
    "category": "Baby-Boomer-owned Teeth whitening in Idaho",
    "description": "Offers GLO instant teeth whitening, in-office and take-home options, custom trays, and a Whitening for Life program",
    "hours": "Mon-Fri 9AM-6PM",
    "services": [
      "Baby-Boomer-owned Teeth whitening in Idaho consultation",
      "Professional service",
      "Quality guarantee"
    ],
    "social_links": {}
  },
  {
    "name": "CDA Dental Center",
    "address": "Coeur d'Alene, ID",
    "phone": "",
    "rating": 4.0,
    "reviews": 25,
    "website": "https://www.cdadentalcenter.com/teeth-whitening/",
    "category": "Baby-Boomer-owned Teeth whitening in Idaho",
    "description": "Offers professional teeth whitening services with personalized treatment",
    "hours": "Mon-Fri 9AM-6PM",
    "services": [
      "Baby-Boomer-owned Teeth whitening in Idaho consultation",
      "Professional service",
      "Quality guarantee"
    ],
    "social_links": {}
  },
  {
    "name": "Dentists of Nampa",
    "address": "Nampa, ID",
    "phone": "(208) 563-2724",
    "rating": 4.0,
    "reviews": 25,
    "website": "https://dentistsofnampa.com/teeth-whitening/",
    "category": "Baby-Boomer-owned Teeth whitening in Idaho",
    "description": "Provides professional teeth whitening with in-office and at-home options, focusing on customized treatment and effective results",
    "hours": "Mon-Fri 9AM-6PM",
    "services": [
      "Baby-Boomer-owned Teeth whitening in Idaho consultation",
      "Professional service",
      "Quality guarantee"
    ],
    "social_links": {}
  },
  {
    "name": "Scott Hayhurst Family and Cosmetic Dentistry",
    "address": "Boise, ID",
    "phone": "",
    "rating": 4.0,
    "reviews": 25,
    "website": "https://www.scotthayhurstdental.com/services/teeth-whitening/",
    "category": "Baby-Boomer-owned Teeth whitening in Idaho",
    "description": "Offers Zoom Whitening (in-office) for immediate results and other professional-grade solutions",
    "hours": "Mon-Fri 9AM-6PM",
    "services": [
      "Baby-Boomer-owned Teeth whitening in Idaho consultation",
      "Professional service",
      "Quality guarantee"
    ],
    "social_links": {}
  },
  {
    "name": "Strobel Family Dental",
    "address": "59 Professional Plaza, Rexburg, ID 83440",
    "phone": "(208) 356-4400",
    "rating": 4.0,
    "reviews": 25,
    "website": "https://strobelfamilydental.com/teeth-whitening/",
    "category": "Baby-Boomer-owned Teeth whitening in Idaho",
    "description": "Offers teeth whitening services, including the Sinsational Smile professional teeth-whitening system",
    "hours": "Mon-Fri 9AM-6PM",
    "services": [
      "Baby-Boomer-owned Teeth whitening in Idaho consultation",
      "Professional service",
      "Quality guarantee"
    ],
    "social_links": {}
  }
]