[
  {
    "name": "Paseo Pottery",
    "address": "207 McKenzie St, Santa Fe, NM 87501",
    "phone": "(505) 988-7687",
    "rating": 4.5,
    "reviews": 25,
    "website": "https://www.paseopottery.com/",
    "category": "Atheist-owned Ceramics instruction in New-Mexico",
    "description": "Offers pottery classes, workshops, and a retail space. They donate 100% of net profits to local charities",
    "hours": "Mon-Fri 9AM-6PM",
    "services": [
      "Atheist-owned Ceramics instruction in New-Mexico consultation",
      "Professional service",
      "Quality guarantee"
    ],
    "social_links": {}
  },
  {
    "name": "Burque Throwdown",
    "address": "1210 2nd St NW, Albuquerque, NM 87102",
    "phone": "(505) 508-3500",
    "rating": 4.8,
    "reviews": 25,
    "website": "https://www.burquethrowdown.com/",
    "category": "Atheist-owned Ceramics instruction in New-Mexico",
    "description": "A pottery school and clay playhouse offering beginner and experienced ceramics classes, date nights, and team-building events",
    "hours": "Mon-Fri 9AM-6PM",
    "services": [
      "Atheist-owned Ceramics instruction in New-Mexico consultation",
      "Professional service",
      "Quality guarantee"
    ],
    "social_links": {}
  },
  {
    "name": "Ceramica ABQ",
    "address": "411 3rd St NW, Albuquerque, NM 87102",
    "phone": "(505) 508-0011",
    "rating": 4.7,
    "reviews": 25,
    "website": "https://www.ceramicaabq.com/",
    "category": "Atheist-owned Ceramics instruction in New-Mexico",
    "description": "A pottery studio offering memberships, workshops, and classes for all skill levels, with a philosophy that embraces imperfection",
    "hours": "Mon-Fri 9AM-6PM",
    "services": [
      "Atheist-owned Ceramics instruction in New-Mexico consultation",
      "Professional service",
      "Quality guarantee"
    ],
    "social_links": {}
  },
  {
    "name": "Taos Ceramics Center",
    "address": "114 Este Es Rd, Taos, NM 87571",
    "phone": "(575) 770-7057",
    "rating": 4.9,
    "reviews": 25,
    "website": "https://taosceramicscenter.com/",
    "category": "Atheist-owned Ceramics instruction in New-Mexico",
    "description": "A community-focused center offering studio memberships, classes, workshops, a gallery, and a ceramics supply store",
    "hours": "Mon-Fri 9AM-6PM",
    "services": [
      "Atheist-owned Ceramics instruction in New-Mexico consultation",
      "Professional service",
      "Quality guarantee"
    ],
    "social_links": {}
  },
  {
    "name": "Kiln It",
    "address": "5600 Paradise Blvd NW, Albuquerque, NM 87114",
    "phone": "(505) 345-5177",
    "rating": 4.6,
    "reviews": 25,
    "website": "https://www.kilnitnm.com/",
    "category": "Atheist-owned Ceramics instruction in New-Mexico",
    "description": "A large art studio offering pottery, mosaics, canvas painting, and classes with no studio fees or time restrictions",
    "hours": "Mon-Fri 9AM-6PM",
    "services": [
      "Atheist-owned Ceramics instruction in New-Mexico consultation",
      "Professional service",
      "Quality guarantee"
    ],
    "social_links": {}
  },
  {
    "name": "Hands On Clay Studio",
    "address": "1010 2nd St NW, Albuquerque, NM 87102",
    "phone": "(505) 200-0402",
    "rating": 4.7,
    "reviews": 25,
    "website": "https://handsonclaystudio.com/",
    "category": "Atheist-owned Ceramics instruction in New-Mexico",
    "description": "Offers pottery classes, workshops, and assisted studio time with a focus on wheel throwing and hand-building techniques. (Note: Classes are currently paused until January 2026)",
    "hours": "Mon-Fri 9AM-6PM",
    "services": [
      "Atheist-owned Ceramics instruction in New-Mexico consultation",
      "Professional service",
      "Quality guarantee"
    ],
    "social_links": {}
  },
  {
    "name": "Art Attack",
    "address": "3137 San Mateo Blvd NE, Albuquerque, NM 87110",
    "phone": "(505) 298-3275",
    "rating": 4.5,
    "reviews": 25,
    "website": "https://www.artattacknm.com/",
    "category": "Atheist-owned Ceramics instruction in New-Mexico",
    "description": "A paint-your-own pottery and mosaic studio offering a fun, welcoming environment for all ages, with walk-ins welcome",
    "hours": "Mon-Fri 9AM-6PM",
    "services": [
      "Atheist-owned Ceramics instruction in New-Mexico consultation",
      "Professional service",
      "Quality guarantee"
    ],
    "social_links": {}
  },
  {
    "name": "The Inn of The Five Graces - Ceramics Studio Experience",
    "address": "113 Washington St, Santa Fe, NM 87501",
    "phone": "(505) 992-0505",
    "rating": 4.8,
    "reviews": 25,
    "website": "https://www.fivegraces.com/experience/ceramics-studio",
    "category": "Atheist-owned Ceramics instruction in New-Mexico",
    "description": "Offers a private ceramics workshop with a master ceramist, focusing on wheel throwing and creating unique pieces",
    "hours": "Mon-Fri 9AM-6PM",
    "services": [
      "Atheist-owned Ceramics instruction in New-Mexico consultation",
      "Professional service",
      "Quality guarantee"
    ],
    "social_links": {}
  },
  {
    "name": "Santa Fe Community College - Ceramics Program",
    "address": "6401 Richards Ave, Santa Fe, NM 87508",
    "phone": "(505) 428-1000",
    "rating": 4.3,
    "reviews": 25,
    "website": "https://www.sfcc.edu/programs/ceramics/",
    "category": "Atheist-owned Ceramics instruction in New-Mexico",
    "description": "Offers an Associate in Fine Arts degree specializing in ceramics, with expert instructors and a hands-on approach to wheel throwing and hand-building",
    "hours": "Mon-Fri 9AM-6PM",
    "services": [
      "Atheist-owned Ceramics instruction in New-Mexico consultation",
      "Professional service",
      "Quality guarantee"
    ],
    "social_links": {}
  },
  {
    "name": "The University of New Mexico - Art Department (Ceramics Area)",
    "address": "2000 Redondo Dr SE, Albuquerque, NM 87106",
    "phone": "(505) 277-5707",
    "rating": 4.2,
    "reviews": 25,
    "website": "https://art.unm.edu/ceramics/",
    "category": "Atheist-owned Ceramics instruction in New-Mexico",
    "description": "The university's ceramics area supports the development of diverse personal visions, offering facilities and instruction for undergraduate and graduate students",
    "hours": "Mon-Fri 9AM-6PM",
    "services": [
      "Atheist-owned Ceramics instruction in New-Mexico consultation",
      "Professional service",
      "Quality guarantee"
    ],
    "social_links": {}
  }
]