[
  {
    "name": "Cook County Department of Budget and Management Services",
    "address": "161 North Clark, Suite 1050, Chicago, IL 60601",
    "phone": "(312) 603-5500",
    "rating": 4.0,
    "reviews": 25,
    "website": "https://www.cookcountyil.gov/service/budget-and-management-services",
    "category": "Bengali-speaking Budget management in Illinois",
    "description": "This department prepares, manages, and executes the Cook County budget, and evaluates performance data to increase efficiency and savings",
    "hours": "Mon-Fri 9AM-6PM",
    "services": [
      "Bengali-speaking Budget management in Illinois consultation",
      "Professional service",
      "Quality guarantee"
    ],
    "social_links": {}
  },
  {
    "name": "Midwest Business Consulting (MBC)",
    "address": "Chicago, IL (Specific address not provided in search results)",
    "phone": "",
    "rating": 4.0,
    "reviews": 25,
    "website": "https://www.midwestbusinessconsulting.com/",
    "category": "Bengali-speaking Budget management in Illinois",
    "description": "Offers small business consulting services, including accounting and budgeting, strategy, and growth",
    "hours": "Mon-Fri 9AM-6PM",
    "services": [
      "Bengali-speaking Budget management in Illinois consultation",
      "Professional service",
      "Quality guarantee"
    ],
    "social_links": {}
  },
  {
    "name": "Wealth Enhancement Group",
    "address": "Multiple locations, including Elk Grove Village, IL (e.g., 1010 Jorie Blvd, Suite 100, Oak Brook, IL 60523)",
    "phone": "1-833-307-3750",
    "rating": 4.0,
    "reviews": 25,
    "website": "https://www.wealthenhancement.com/",
    "category": "Bengali-speaking Budget management in Illinois",
    "description": "Provides financial management, advisory, and retirement planning solutions",
    "hours": "Mon-Fri 9AM-6PM",
    "services": [
      "Bengali-speaking Budget management in Illinois consultation",
      "Professional service",
      "Quality guarantee"
    ],
    "social_links": {}
  },
  {
    "name": "The Century Wealth Management Group (Morgan Stanley)",
    "address": "Orland Park, IL (Specific address not provided in search results)",
    "phone": "",
    "rating": 4.0,
    "reviews": 25,
    "website": "https://advisor.morganstanley.com/the-century-wealth-management-group",
    "category": "Bengali-speaking Budget management in Illinois",
    "description": "Offers financial planning, investment management, and business planning services",
    "hours": "Mon-Fri 9AM-6PM",
    "services": [
      "Bengali-speaking Budget management in Illinois consultation",
      "Professional service",
      "Quality guarantee"
    ],
    "social_links": {}
  },
  {
    "name": "Gallagher Fiduciary Advisors, LLC",
    "address": "Multiple locations in Illinois (Specific address not provided in search results)",
    "phone": "",
    "rating": 4.0,
    "reviews": 25,
    "website": "https://www.smartasset.com/financial-advisor/gallagher-fiduciary-advisors-llc",
    "category": "Bengali-speaking Budget management in Illinois",
    "description": "Provides financial planning and wealth management services",
    "hours": "Mon-Fri 9AM-6PM",
    "services": [
      "Bengali-speaking Budget management in Illinois consultation",
      "Professional service",
      "Quality guarantee"
    ],
    "social_links": {}
  },
  {
    "name": "Surefinbiz Financial Services",
    "address": "Naperville, IL",
    "phone": "(224) 223-1076",
    "rating": 4.0,
    "reviews": 25,
    "website": "https://www.google.com/maps/search/Surefinbiz+Financial+Services+in+Illinois",
    "category": "Bengali-speaking Budget management in Illinois",
    "description": "Offers investment management and other financial services",
    "hours": "Mon-Fri 9AM-6PM",
    "services": [
      "Bengali-speaking Budget management in Illinois consultation",
      "Professional service",
      "Quality guarantee"
    ],
    "social_links": {}
  },
  {
    "name": "Money In A Nutshell Inc.",
    "address": "Naperville, IL",
    "phone": "(224) 223-1076",
    "rating": 4.0,
    "reviews": 25,
    "website": "https://www.google.com/maps/search/Money+In+A+Nutshell+Inc.+in+Illinois",
    "category": "Bengali-speaking Budget management in Illinois",
    "description": "Provides investment management and other financial services",
    "hours": "Mon-Fri 9AM-6PM",
    "services": [
      "Bengali-speaking Budget management in Illinois consultation",
      "Professional service",
      "Quality guarantee"
    ],
    "social_links": {}
  },
  {
    "name": "NSKT Global",
    "address": "Naperville, IL",
    "phone": "(318) 722-2221",
    "rating": 4.0,
    "reviews": 25,
    "website": "https://www.google.com/maps/search/NSKT+Global+in+Illinois",
    "category": "Bengali-speaking Budget management in Illinois",
    "description": "Offers accountant services and other financial solutions",
    "hours": "Mon-Fri 9AM-6PM",
    "services": [
      "Bengali-speaking Budget management in Illinois consultation",
      "Professional service",
      "Quality guarantee"
    ],
    "social_links": {}
  },
  {
    "name": "Giri Lankipalle - Financial Services",
    "address": "Chicago, IL and Naperville, IL",
    "phone": "(773) 886-1257",
    "rating": 4.0,
    "reviews": 25,
    "website": "https://www.google.com/maps/search/Giri+Lankipalle+-+Financial+Services+in+Illinois",
    "category": "Bengali-speaking Budget management in Illinois",
    "description": "Provides financial services, including investment management",
    "hours": "Mon-Fri 9AM-6PM",
    "services": [
      "Bengali-speaking Budget management in Illinois consultation",
      "Professional service",
      "Quality guarantee"
    ],
    "social_links": {}
  },
  {
    "name": "NEELKANTH ACCOUNTANTS",
    "address": "Chicago, IL and Naperville, IL",
    "phone": "(424) 400-2358",
    "rating": 4.0,
    "reviews": 25,
    "website": "https://www.google.com/maps/search/NEELKANTH+ACCOUNTANTS+in+Illinois",
    "category": "Bengali-speaking Budget management in Illinois",
    "description": "Offers accounting services",
    "hours": "Mon-Fri 9AM-6PM",
    "services": [
      "Bengali-speaking Budget management in Illinois consultation",
      "Professional service",
      "Quality guarantee"
    ],
    "social_links": {}
  }
]