[
  {
    "name": "Imperial Market & Deli Catering",
    "address": "737 E. Glendale Ave, Phoenix, AZ 85020",
    "phone": "(602) 285-6999",
    "rating": 4.0,
    "reviews": 25,
    "website": "http://www.imperialkosher.com/",
    "category": "Chinese-speaking Kosher catering in Arizona",
    "description": "Offers Glatt Kosher catering in Phoenix and Scottsdale, with a variety of international entrees, buffet service, and custom cake orders",
    "hours": "Mon-Fri 9AM-6PM",
    "services": [
      "Chinese-speaking Kosher catering in Arizona consultation",
      "Professional service",
      "Quality guarantee"
    ],
    "social_links": {}
  },
  {
    "name": "Brad's Kitchen",
    "address": "Information not available, but serves Phoenix, Arizona",
    "phone": "602-540-9909",
    "rating": 4.0,
    "reviews": 25,
    "website": "http://www.bradskitchenazco.com/",
    "category": "Chinese-speaking Kosher catering in Arizona",
    "description": "Provides Kosher catering for all occasions, using fresh ingredients and offering a variety of delicious options. Meals are prepared under the supervision of Chabad of Arizona",
    "hours": "Mon-Fri 9AM-6PM",
    "services": [
      "Chinese-speaking Kosher catering in Arizona consultation",
      "Professional service",
      "Quality guarantee"
    ],
    "social_links": {}
  },
  {
    "name": "Kitchen 18",
    "address": "10211 N Scottsdale Rd, Scottsdale, AZ 85253",
    "phone": "480-284-6001",
    "rating": 4.0,
    "reviews": 25,
    "website": "http://www.thekitchen18.com/",
    "category": "Chinese-speaking Kosher catering in Arizona",
    "description": "A Kosher restaurant and catering service in Scottsdale offering a blend of classic American fare and Chinese favorites, all prepared under Kosher standards",
    "hours": "Mon-Fri 9AM-6PM",
    "services": [
      "Chinese-speaking Kosher catering in Arizona consultation",
      "Professional service",
      "Quality guarantee"
    ],
    "social_links": {}
  },
  {
    "name": "BenLevi Catering",
    "address": "12701 N Scottsdale Rd, Scottsdale, AZ 85254 (also serves Phoenix and surrounding areas)",
    "phone": "",
    "rating": 4.0,
    "reviews": 25,
    "website": "https://www.shiva.com/caterers/arizona/phoenix/benlevi-catering",
    "category": "Chinese-speaking Kosher catering in Arizona",
    "description": "A full-service Kosher catering company with over 15 years of experience in the Phoenix area, providing oven-ready meals, platters, and baked goods. They operate under the strict Kashrut Supervision of both VAAD HaKashruth and the Chabad of Phoenix",
    "hours": "Mon-Fri 9AM-6PM",
    "services": [
      "Chinese-speaking Kosher catering in Arizona consultation",
      "Professional service",
      "Quality guarantee"
    ],
    "social_links": {}
  },
  {
    "name": "LaBella Pizzeria & Restaurant",
    "address": "6505 N. 7th Street, Phoenix, AZ 85014",
    "phone": "602-354-7002",
    "rating": 4.0,
    "reviews": 25,
    "website": "http://www.labellakosher.com/",
    "category": "Chinese-speaking Kosher catering in Arizona",
    "description": "A Kosher vegetarian pizza restaurant owned by the Uvaydov family, offering Italian flavors in a casual setting. They also have catering options",
    "hours": "Mon-Fri 9AM-6PM",
    "services": [
      "Chinese-speaking Kosher catering in Arizona consultation",
      "Professional service",
      "Quality guarantee"
    ],
    "social_links": {}
  },
  {
    "name": "Fata Morgana",
    "address": "7116 E Mercer Lane, Suite 103, Scottsdale, AZ 85254",
    "phone": "480-687-2243",
    "rating": 4.0,
    "reviews": 25,
    "website": "http://fatamorganaaz.com/",
    "category": "Chinese-speaking Kosher catering in Arizona",
    "description": "A Kosher restaurant serving meat dishes and sushi, operating under Chabad supervision",
    "hours": "Mon-Fri 9AM-6PM",
    "services": [
      "Chinese-speaking Kosher catering in Arizona consultation",
      "Professional service",
      "Quality guarantee"
    ],
    "social_links": {}
  },
  {
    "name": "Milk + Honey Espresso Bar & Eatery",
    "address": "12701 N. Scottsdale Rd, Scottsdale, AZ 85254 (inside the VOS JCC)",
    "phone": "480-566-9020",
    "rating": 4.0,
    "reviews": 25,
    "website": "https://www.google.com/maps/search/Milk+++Honey+Espresso+Bar+&+Eatery+in+Arizona",
    "category": "Chinese-speaking Kosher catering in Arizona",
    "description": "Offers dairy Kosher options, including sushi and some Chalav Yisrael, and is located within the Valley of the Sun Jewish Community Center",
    "hours": "Mon-Fri 9AM-6PM",
    "services": [
      "Chinese-speaking Kosher catering in Arizona consultation",
      "Professional service",
      "Quality guarantee"
    ],
    "social_links": {}
  },
  {
    "name": "Manhattan Pizzeria",
    "address": "5224 N 7th St, Phoenix, AZ 85014",
    "phone": "602-248-8086",
    "rating": 4.0,
    "reviews": 25,
    "website": "http://manhattanpizzeria.com/",
    "category": "Chinese-speaking Kosher catering in Arizona",
    "description": "A Kosher pizza shop offering homemade pasta dishes, sandwiches, and salads, with Chalav Yisrael options",
    "hours": "Mon-Fri 9AM-6PM",
    "services": [
      "Chinese-speaking Kosher catering in Arizona consultation",
      "Professional service",
      "Quality guarantee"
    ],
    "social_links": {}
  },
  {
    "name": "Misha's Kosher Food Market",
    "address": "814 E Union Hills Dr, Ste C-4, Phoenix, AZ 85024",
    "phone": "623-580-0909",
    "rating": 4.0,
    "reviews": 25,
    "website": "https://www.facebook.com/Russianmishamedvedz/",
    "category": "Chinese-speaking Kosher catering in Arizona",
    "description": "A Kosher market offering dairy, meat, and pareve items, operating under Chabad supervision",
    "hours": "Mon-Fri 9AM-6PM",
    "services": [
      "Chinese-speaking Kosher catering in Arizona consultation",
      "Professional service",
      "Quality guarantee"
    ],
    "social_links": {}
  },
  {
    "name": "Smash Grille",
    "address": "6050 N 16th St, Phoenix, AZ 85016",
    "phone": "(602) 725-9323",
    "rating": 4.0,
    "reviews": 25,
    "website": "http://smashgrille.com/",
    "category": "Chinese-speaking Kosher catering in Arizona",
    "description": "A Kosher restaurant serving meat dishes, operating under the Phoenix Vaad",
    "hours": "Mon-Fri 9AM-6PM",
    "services": [
      "Chinese-speaking Kosher catering in Arizona consultation",
      "Professional service",
      "Quality guarantee"
    ],
    "social_links": {}
  }
]