[
  {
    "name": "Sitan Gym AZ",
    "address": "3029 N Alma School Rd #128, Chandler, AZ 85224",
    "phone": "(480) 777-3777",
    "rating": 4.9,
    "reviews": 25,
    "website": "https://www.sitanaz.com/",
    "category": "Central-American-owned Muay Thai classes in Arizona",
    "description": "Sitan Gym AZ is one of the longest-running Muay Thai gyms in Arizona, offering programs for both youth and adults. They focus on Muay Thai kickboxing and Olympic-style Tae Kwon Do",
    "hours": "Mon-Fri 9AM-6PM",
    "services": [
      "Central-American-owned Muay Thai classes in Arizona consultation",
      "Professional service",
      "Quality guarantee"
    ],
    "social_links": {}
  },
  {
    "name": "Xayaveth Muay Thai Gym",
    "address": "7150 W Roosevelt St #B143, Phoenix, AZ 85043",
    "phone": "(480) 818-0147",
    "rating": 5.0,
    "reviews": 25,
    "website": "https://www.xayavethmuaythai.com/",
    "category": "Central-American-owned Muay Thai classes in Arizona",
    "description": "Known as \"Arizona's House of Original Muay Thai,\" Xayaveth Muay Thai Gym offers world-class instruction in a fun and safe environment, welcoming beginners to advanced practitioners",
    "hours": "Mon-Fri 9AM-6PM",
    "services": [
      "Central-American-owned Muay Thai classes in Arizona consultation",
      "Professional service",
      "Quality guarantee"
    ],
    "social_links": {}
  },
  {
    "name": "Cyclone Muay Thai & Double Five Surprise",
    "address": "16740 W. Bell Rd, Surprise, AZ 85374",
    "phone": "(623) 242-1177",
    "rating": 5.0,
    "reviews": 25,
    "website": "https://cyclonemuaythai.com/",
    "category": "Central-American-owned Muay Thai classes in Arizona",
    "description": "This gym is Arizona's premier training center for Muay Thai and Jiu-Jitsu, aiming to empower individuals with combat skills, confidence, and self-assurance",
    "hours": "Mon-Fri 9AM-6PM",
    "services": [
      "Central-American-owned Muay Thai classes in Arizona consultation",
      "Professional service",
      "Quality guarantee"
    ],
    "social_links": {}
  },
  {
    "name": "Sunshine's Boxing, Muay Thai & Fitness",
    "address": "1007 E. Broadway Rd, Tempe, AZ 85282",
    "phone": "(480) 350-0000",
    "rating": 4.8,
    "reviews": 25,
    "website": "https://sunshinesgym.com/",
    "category": "Central-American-owned Muay Thai classes in Arizona",
    "description": "Sunshine's offers Muay Thai and boxing classes for all ages, focusing on fitness and skill development in a supportive environment",
    "hours": "Mon-Fri 9AM-6PM",
    "services": [
      "Central-American-owned Muay Thai classes in Arizona consultation",
      "Professional service",
      "Quality guarantee"
    ],
    "social_links": {}
  },
  {
    "name": "Arizona Combat Sports",
    "address": "1461 W. University Dr. #101, Tempe, AZ 85281",
    "phone": "(480) 731-9225",
    "rating": 4.8,
    "reviews": 25,
    "website": "https://www.arizonacombatsports.com/",
    "category": "Central-American-owned Muay Thai classes in Arizona",
    "description": "Arizona Combat Sports is a premier MMA and martial arts facility offering training in MMA, Muay Thai, Brazilian Jiu Jitsu, and more for all levels",
    "hours": "Mon-Fri 9AM-6PM",
    "services": [
      "Central-American-owned Muay Thai classes in Arizona consultation",
      "Professional service",
      "Quality guarantee"
    ],
    "social_links": {}
  },
  {
    "name": "KickHouse",
    "address": "7904 East Chaparral Road, Scottsdale, AZ 85250",
    "phone": "(480) 657-7777",
    "rating": 4.5,
    "reviews": 25,
    "website": "https://www.kickhouse.com/",
    "category": "Central-American-owned Muay Thai classes in Arizona",
    "description": "KickHouse is a modern kickboxing studio offering fun, high-energy exercise classes centered around kickboxing",
    "hours": "Mon-Fri 9AM-6PM",
    "services": [
      "Central-American-owned Muay Thai classes in Arizona consultation",
      "Professional service",
      "Quality guarantee"
    ],
    "social_links": {}
  },
  {
    "name": "Spartan Nation Combatives and Fitness",
    "address": "3929 East Main Street, Suite 12, Mesa, AZ 85205",
    "phone": "(480) 550-7500",
    "rating": 4.9,
    "reviews": 25,
    "website": "https://spartannationaz.com/",
    "category": "Central-American-owned Muay Thai classes in Arizona",
    "description": "Spartan Nation offers a variety of classes including Bootcamp, Power Lifting, Heavybag Kickboxing, and Kids Striking, with a focus on physical transformation and mental elevation",
    "hours": "Mon-Fri 9AM-6PM",
    "services": [
      "Central-American-owned Muay Thai classes in Arizona consultation",
      "Professional service",
      "Quality guarantee"
    ],
    "social_links": {}
  },
  {
    "name": "MITT Boxing",
    "address": "1325 S Alma School Rd, Mesa, AZ 85210",
    "phone": "(480) 500-0000",
    "rating": 5.0,
    "reviews": 25,
    "website": "https://mittboxing.com/",
    "category": "Central-American-owned Muay Thai classes in Arizona",
    "description": "MITT Boxing is described as one of the best MMA/Muay Thai gyms in Mesa, known for its great community and coaching",
    "hours": "Mon-Fri 9AM-6PM",
    "services": [
      "Central-American-owned Muay Thai classes in Arizona consultation",
      "Professional service",
      "Quality guarantee"
    ],
    "social_links": {}
  },
  {
    "name": "Legion MMA",
    "address": "1640 W. Broadway Rd, Mesa, AZ 85202",
    "phone": "(480) 219-7000",
    "rating": 4.7,
    "reviews": 25,
    "website": "https://legionmma.com/",
    "category": "Central-American-owned Muay Thai classes in Arizona",
    "description": "Legion MMA is a top combat and fitness academy with multiple championships in Boxing, Kickboxing, Muay Thai, MMA, and Jiu Jitsu",
    "hours": "Mon-Fri 9AM-6PM",
    "services": [
      "Central-American-owned Muay Thai classes in Arizona consultation",
      "Professional service",
      "Quality guarantee"
    ],
    "social_links": {}
  },
  {
    "name": "Faction Combat Gym",
    "address": "1245 E. Warner Rd. Suite 107, Gilbert, AZ 85296",
    "phone": "(480) 325-1500",
    "rating": 4.9,
    "reviews": 25,
    "website": "https://www.factioncombat.com/",
    "category": "Central-American-owned Muay Thai classes in Arizona",
    "description": "Faction Combat Gym offers fitness and competition Muay Thai classes in Gilbert and Mesa, suitable for all levels, with a focus on self-defense and competitive training",
    "hours": "Mon-Fri 9AM-6PM",
    "services": [
      "Central-American-owned Muay Thai classes in Arizona consultation",
      "Professional service",
      "Quality guarantee"
    ],
    "social_links": {}
  }
]