[
  {
    "name": "Extra Space Storage",
    "address": "230 Oak St, Brockton, MA 02301",
    "phone": "(888) 218-5131",
    "rating": 4.5,
    "reviews": 25,
    "website": "https://www.extraspace.com/",
    "category": "Arabic-speaking Self-storage in Massachusetts",
    "description": "Offers a variety of storage unit options, climate-controlled units, drive-up access, and vehicle storage",
    "hours": "Mon-Fri 9AM-6PM",
    "services": [
      "Arabic-speaking Self-storage in Massachusetts consultation",
      "Professional service",
      "Quality guarantee"
    ],
    "social_links": {}
  },
  {
    "name": "Go Store It",
    "address": "480 Centre St, Quincy, MA 02169",
    "phone": "(844) 643-2678",
    "rating": 4.7,
    "reviews": 25,
    "website": "https://www.gostoreit.com/",
    "category": "Arabic-speaking Self-storage in Massachusetts",
    "description": "Provides all-indoor, climate-controlled self-storage with keypad access and 24/7 surveillance",
    "hours": "Mon-Fri 9AM-6PM",
    "services": [
      "Arabic-speaking Self-storage in Massachusetts consultation",
      "Professional service",
      "Quality guarantee"
    ],
    "social_links": {}
  },
  {
    "name": "Otter Self Storage",
    "address": "192 Cadwell Drive, Springfield, MA 01104",
    "phone": "(413) 707-5004",
    "rating": 4.6,
    "reviews": 25,
    "website": "https://www.otterselfstorage.com/",
    "category": "Arabic-speaking Self-storage in Massachusetts",
    "description": "Offers clean, affordable storage units with drive-up access, a fenced facility, and 24-hour video recording",
    "hours": "Mon-Fri 9AM-6PM",
    "services": [
      "Arabic-speaking Self-storage in Massachusetts consultation",
      "Professional service",
      "Quality guarantee"
    ],
    "social_links": {}
  },
  {
    "name": "CubeSmart",
    "address": "150 William F Mcclellan Hwy, Boston, MA 02128",
    "phone": "(855) 270-2692",
    "rating": 4.5,
    "reviews": 25,
    "website": "https://www.cubesmart.com/",
    "category": "Arabic-speaking Self-storage in Massachusetts",
    "description": "Provides a variety of self-storage units with flexible leases, convenient access, and 24-hour video recording",
    "hours": "Mon-Fri 9AM-6PM",
    "services": [
      "Arabic-speaking Self-storage in Massachusetts consultation",
      "Professional service",
      "Quality guarantee"
    ],
    "social_links": {}
  },
  {
    "name": "Clocktower Self-Storage",
    "address": "583 Lynnway, Lynn, MA 01901",
    "phone": "(781) 596-1890",
    "rating": 4.4,
    "reviews": 25,
    "website": "https://www.clocktowerselfstorage.com/",
    "category": "Arabic-speaking Self-storage in Massachusetts",
    "description": "Offers climate-controlled storage units with a drive-thru loading area, smartphone entry, and 365-day access",
    "hours": "Mon-Fri 9AM-6PM",
    "services": [
      "Arabic-speaking Self-storage in Massachusetts consultation",
      "Professional service",
      "Quality guarantee"
    ],
    "social_links": {}
  },
  {
    "name": "210 Self Storage",
    "address": "210 Worcester Center Blvd, Worcester, MA 01604",
    "phone": "(508) 753-7777",
    "rating": 4.9,
    "reviews": 25,
    "website": "https://www.210selfstorage.com/",
    "category": "Arabic-speaking Self-storage in Massachusetts",
    "description": "A clean, secure, and easily accessible facility offering various unit sizes and vehicle storage options",
    "hours": "Mon-Fri 9AM-6PM",
    "services": [
      "Arabic-speaking Self-storage in Massachusetts consultation",
      "Professional service",
      "Quality guarantee"
    ],
    "social_links": {}
  },
  {
    "name": "Public Storage",
    "address": "2030 Main St, Brockton, MA 02301",
    "phone": "(800) 688-8057",
    "rating": 4.3,
    "reviews": 25,
    "website": "https://www.publicstorage.com/",
    "category": "Arabic-speaking Self-storage in Massachusetts",
    "description": "Offers a variety of unit sizes, climate-controlled storage, and convenient access near major highways",
    "hours": "Mon-Fri 9AM-6PM",
    "services": [
      "Arabic-speaking Self-storage in Massachusetts consultation",
      "Professional service",
      "Quality guarantee"
    ],
    "social_links": {}
  },
  {
    "name": "U-Haul Moving & Storage at Lynnway",
    "address": "282 Lynnway Rte 1A, Lynn, MA 01901",
    "phone": "(781) 596-1890",
    "rating": 4.4,
    "reviews": 25,
    "website": "https://www.uhaul.com/",
    "category": "Arabic-speaking Self-storage in Massachusetts",
    "description": "Provides a clean, dry, and secure environment with options for climate-controlled storage and 24-hour access",
    "hours": "Mon-Fri 9AM-6PM",
    "services": [
      "Arabic-speaking Self-storage in Massachusetts consultation",
      "Professional service",
      "Quality guarantee"
    ],
    "social_links": {}
  },
  {
    "name": "Boott Mills Storage",
    "address": "30 French Street, Lowell, MA 01852",
    "phone": "(978) 275-0760",
    "rating": 4.5,
    "reviews": 25,
    "website": "https://www.boottmillsstorage.com/",
    "category": "Arabic-speaking Self-storage in Massachusetts",
    "description": "Offers affordable self-storage units in downtown Lowell with on-site security and easy loading dock access",
    "hours": "Mon-Fri 9AM-6PM",
    "services": [
      "Arabic-speaking Self-storage in Massachusetts consultation",
      "Professional service",
      "Quality guarantee"
    ],
    "social_links": {}
  },
  {
    "name": "Prime Storage - Boston South End",
    "address": "41 Norwood St, Quincy, MA 02169 (This address is listed as being in Quincy, but the facility is described as being in Boston South End)",
    "phone": "(855) 270-2692",
    "rating": 4.5,
    "reviews": 25,
    "website": "https://www.primestorage.com/",
    "category": "Arabic-speaking Self-storage in Massachusetts",
    "description": "Offers accessible, drive-up units and climate-controlled storage in Boston, with 24/7 access available for select units",
    "hours": "Mon-Fri 9AM-6PM",
    "services": [
      "Arabic-speaking Self-storage in Massachusetts consultation",
      "Professional service",
      "Quality guarantee"
    ],
    "social_links": {}
  }
]