[
  {
    "name": "3 Brothers Tree Service",
    "address": "New Castle, DE (Specific address not publicly listed, service area covers New Castle)",
    "phone": "(302) 379-0175",
    "rating": 4.8,
    "reviews": 25,
    "website": "https://www.3brotherstreeservice.com/",
    "category": "Armenian-speaking Tree removal in Delaware",
    "description": "Offers safe, fast, and affordable tree removal, stump removal, and emergency services for residential and commercial clients",
    "hours": "Mon-Fri 9AM-6PM",
    "services": [
      "Armenian-speaking Tree removal in Delaware consultation",
      "Professional service",
      "Quality guarantee"
    ],
    "social_links": {}
  },
  {
    "name": "Sussex Tree Inc.",
    "address": "Rehoboth Beach, DE (Specific address not publicly listed, serves Delaware)",
    "phone": "(302) 645-6262",
    "rating": 4.7,
    "reviews": 25,
    "website": "https://www.sussextree.com/",
    "category": "Armenian-speaking Tree removal in Delaware",
    "description": "Provides tree removal, tree care, landscaping, and crane services. They are a locally owned and operated company with over 30 years of experience",
    "hours": "Mon-Fri 9AM-6PM",
    "services": [
      "Armenian-speaking Tree removal in Delaware consultation",
      "Professional service",
      "Quality guarantee"
    ],
    "social_links": {}
  },
  {
    "name": "Ensley's Tree Care",
    "address": "Dover, DE (Specific address not publicly listed, serves Kent County)",
    "phone": "(302) 531-5741",
    "rating": 4.9,
    "reviews": 25,
    "website": "https://www.ensleystreecare.com/",
    "category": "Armenian-speaking Tree removal in Delaware",
    "description": "Offers tree removal, stump removal, tree trimming, and storm damage cleanup services in Kent County, Delaware. They specialize in removing large trees in tight areas",
    "hours": "Mon-Fri 9AM-6PM",
    "services": [
      "Armenian-speaking Tree removal in Delaware consultation",
      "Professional service",
      "Quality guarantee"
    ],
    "social_links": {}
  },
  {
    "name": "Ron's Tree Service",
    "address": "Wilmington, DE (Specific address not publicly listed, serves Northern Delaware)",
    "phone": "(302) 475-5311",
    "rating": 4.8,
    "reviews": 25,
    "website": "https://www.ronstreeservice.com/",
    "category": "Armenian-speaking Tree removal in Delaware",
    "description": "Provides safe, efficient, and environmentally responsible tree removal, stump grinding, and emergency services for residential and commercial clients",
    "hours": "Mon-Fri 9AM-6PM",
    "services": [
      "Armenian-speaking Tree removal in Delaware consultation",
      "Professional service",
      "Quality guarantee"
    ],
    "social_links": {}
  },
  {
    "name": "The Cutting Edge of Delaware",
    "address": "Bear, DE (Specific address not publicly listed, serves throughout Delaware)",
    "phone": "(302) 834-8723",
    "rating": 4.7,
    "reviews": 25,
    "website": "https://www.cuttingedgeofde.com/",
    "category": "Armenian-speaking Tree removal in Delaware",
    "description": "Offers expert tree care services including trimming, pruning, tree removal, stump removal, and 24-hour emergency service",
    "hours": "Mon-Fri 9AM-6PM",
    "services": [
      "Armenian-speaking Tree removal in Delaware consultation",
      "Professional service",
      "Quality guarantee"
    ],
    "social_links": {}
  },
  {
    "name": "Stein Tree Service",
    "address": "Wilmington, DE (Specific address not publicly listed, serves Delaware, Pennsylvania, and Maryland)",
    "phone": "(302) 479-8017",
    "rating": 4.6,
    "reviews": 25,
    "website": "https://www.steintreeservice.com/",
    "category": "Armenian-speaking Tree removal in Delaware",
    "description": "Provides commercial, residential, and municipal tree care services including cabling, bracing, tree removal, pruning, and emergency services. They have been in business for over 40 years",
    "hours": "Mon-Fri 9AM-6PM",
    "services": [
      "Armenian-speaking Tree removal in Delaware consultation",
      "Professional service",
      "Quality guarantee"
    ],
    "social_links": {}
  },
  {
    "name": "Miller's Tree Service",
    "address": "Harrington, DE (Specific address not publicly listed, serves the Delaware area)",
    "phone": "(302) 399-0050",
    "rating": 4.8,
    "reviews": 25,
    "website": "https://www.millerstreeservice.com/",
    "category": "Armenian-speaking Tree removal in Delaware",
    "description": "A family-owned business offering tree removal, trimming, pruning, lot clearing, stump grinding, and snow plowing services for over 25 years",
    "hours": "Mon-Fri 9AM-6PM",
    "services": [
      "Armenian-speaking Tree removal in Delaware consultation",
      "Professional service",
      "Quality guarantee"
    ],
    "social_links": {}
  },
  {
    "name": "Veteran Tree and Landscape",
    "address": "Wilmington, DE (Specific address not publicly listed, serves Delaware and Maryland)",
    "phone": "(443) 206-3980",
    "rating": 4.9,
    "reviews": 25,
    "website": "https://veterantreeandlandscape.com/",
    "category": "Armenian-speaking Tree removal in Delaware",
    "description": "A veteran-owned company providing safe and efficient tree removal, pruning, trimming, and stump grinding services. They are fully insured and licensed",
    "hours": "Mon-Fri 9AM-6PM",
    "services": [
      "Armenian-speaking Tree removal in Delaware consultation",
      "Professional service",
      "Quality guarantee"
    ],
    "social_links": {}
  },
  {
    "name": "Mitsdarfer Brothers Tree Service",
    "address": "Wilmington, DE (Specific address not publicly listed, serves Delaware and surrounding states)",
    "phone": "(302) 475-5311",
    "rating": 4.7,
    "reviews": 25,
    "website": "https://www.mitsdarferbrothers.com/",
    "category": "Armenian-speaking Tree removal in Delaware",
    "description": "A family-owned company established in 1991, offering tree removal, tree trimming, stump grinding, firewood, mulch, and land clearing services",
    "hours": "Mon-Fri 9AM-6PM",
    "services": [
      "Armenian-speaking Tree removal in Delaware consultation",
      "Professional service",
      "Quality guarantee"
    ],
    "social_links": {}
  },
  {
    "name": "AAA Tree Work LLC",
    "address": "Millsboro, DE (Specific address not publicly listed, serves Millsboro and surrounding areas)",
    "phone": "(302) 945-2222",
    "rating": 4.9,
    "reviews": 25,
    "website": "https://www.aaatreeworkllc.com/",
    "category": "Armenian-speaking Tree removal in Delaware",
    "description": "Owned by a certified arborist, this company provides tree trimming, removal, stump grinding, and emergency tree services for residential and commercial clients",
    "hours": "Mon-Fri 9AM-6PM",
    "services": [
      "Armenian-speaking Tree removal in Delaware consultation",
      "Professional service",
      "Quality guarantee"
    ],
    "social_links": {}
  }
]