[
  {
    "name": "Silk Touch MedSpa",
    "address": "1150 N. Cole Road, Boise, ID 83704",
    "phone": "(208) 939-3110",
    "rating": 4.8,
    "reviews": 25,
    "website": "https://silktouchmedspa.com/",
    "category": "Arabic-speaking Microdermabrasion in Idaho",
    "description": "Offers microdermabrasion as a treatment to rejuvenate skin, improve texture, and address concerns like dullness, fine lines, and mild scarring. They use a diamond-tipped wand or crystal-based device for exfoliation",
    "hours": "Mon-Fri 9AM-6PM",
    "services": [
      "Arabic-speaking Microdermabrasion in Idaho consultation",
      "Professional service",
      "Quality guarantee"
    ],
    "social_links": {}
  },
  {
    "name": "Advanced Specialty Care & Med Spa",
    "address": "1114 N. 19th Ave, Nampa, ID 83687",
    "phone": "(208) 468-9400",
    "rating": 4.7,
    "reviews": 25,
    "website": "https://www.advancedspecialtycare.com/med-spa",
    "category": "Arabic-speaking Microdermabrasion in Idaho",
    "description": "Provides microdermabrasion to exfoliate the top layer of dead skin cells, helpful for acne, mild pigmentation, and restoring a youthful glow. They utilize the Ultrapeel\u00ae II system",
    "hours": "Mon-Fri 9AM-6PM",
    "services": [
      "Arabic-speaking Microdermabrasion in Idaho consultation",
      "Professional service",
      "Quality guarantee"
    ],
    "social_links": {}
  },
  {
    "name": "GlowLogic Medspa",
    "address": "1757 W Broadway St, Idaho Falls, ID 83402",
    "phone": "(208) 552-1000",
    "rating": 4.9,
    "reviews": 25,
    "website": "https://www.glowlogicmedspa.com/",
    "category": "Arabic-speaking Microdermabrasion in Idaho",
    "description": "Offers microdermabrasion to rejuvenate skin, revealing a brighter and smoother complexion, and reducing the appearance of fine lines, acne scars, and uneven skin tone. They use diamond microdermabrasion",
    "hours": "Mon-Fri 9AM-6PM",
    "services": [
      "Arabic-speaking Microdermabrasion in Idaho consultation",
      "Professional service",
      "Quality guarantee"
    ],
    "social_links": {}
  },
  {
    "name": "Onyx MedSpa",
    "address": "2525 E. Ironwood Drive, Suite 100, Twin Falls, ID 83301",
    "phone": "(208) 736-6000",
    "rating": 4.8,
    "reviews": 25,
    "website": "https://onyxmedspa.com/",
    "category": "Arabic-speaking Microdermabrasion in Idaho",
    "description": "A full-service medical spa offering a range of aesthetic services, including treatments that can address skin texture and tone",
    "hours": "Mon-Fri 9AM-6PM",
    "services": [
      "Arabic-speaking Microdermabrasion in Idaho consultation",
      "Professional service",
      "Quality guarantee"
    ],
    "social_links": {}
  },
  {
    "name": "High Valley Dermatology",
    "address": "2085 Providence Way, Idaho Falls, ID 83404",
    "phone": "(208) 525-4888",
    "rating": 4.7,
    "reviews": 25,
    "website": "https://www.highvalleydermatology.com/",
    "category": "Arabic-speaking Microdermabrasion in Idaho",
    "description": "Offers cosmetic dermatology services including microdermabrasion, aimed at improving skin texture, tone, and addressing various skin concerns",
    "hours": "Mon-Fri 9AM-6PM",
    "services": [
      "Arabic-speaking Microdermabrasion in Idaho consultation",
      "Professional service",
      "Quality guarantee"
    ],
    "social_links": {}
  },
  {
    "name": "Idaho Skin Center",
    "address": "1200 East 17th Street, Idaho Falls, ID 83404",
    "phone": "(208) 522-5442",
    "rating": 4.9,
    "reviews": 25,
    "website": "https://idahoskincenter.com/",
    "category": "Arabic-speaking Microdermabrasion in Idaho",
    "description": "Provides both medical and cosmetic dermatology services, with a focus on helping patients achieve healthy, radiant skin. Microdermabrasion is likely offered as part of their cosmetic services",
    "hours": "Mon-Fri 9AM-6PM",
    "services": [
      "Arabic-speaking Microdermabrasion in Idaho consultation",
      "Professional service",
      "Quality guarantee"
    ],
    "social_links": {}
  },
  {
    "name": "Renu Medispa",
    "address": "12447 W..\u00b3 Eagle Rd, Eagle, ID 83616",
    "phone": "(208) 939-4456",
    "rating": 4.9,
    "reviews": 25,
    "website": "https://renumedispa.com/",
    "category": "Arabic-speaking Microdermabrasion in Idaho",
    "description": "Offers microdermabrasion as a non-invasive treatment to unveil a brighter, smoother, and more youthful complexion, and can be combined with other procedures",
    "hours": "Mon-Fri 9AM-6PM",
    "services": [
      "Arabic-speaking Microdermabrasion in Idaho consultation",
      "Professional service",
      "Quality guarantee"
    ],
    "social_links": {}
  },
  {
    "name": "Dermatology Clinic of Idaho",
    "address": "777 N. 5th Street, Suite 100, Boise, ID 83702",
    "phone": "(208) 376-4265",
    "rating": 4.7,
    "reviews": 25,
    "website": "https://www.dermatologyclinicofidaho.com/",
    "category": "Arabic-speaking Microdermabrasion in Idaho",
    "description": "Provides comprehensive dermatological care, including cosmetic services. Their \"IdaGlo\" treatment includes microdermabrasion",
    "hours": "Mon-Fri 9AM-6PM",
    "services": [
      "Arabic-speaking Microdermabrasion in Idaho consultation",
      "Professional service",
      "Quality guarantee"
    ],
    "social_links": {}
  },
  {
    "name": "OM Med Spa",
    "address": "1617 W Jefferson St, Boise, ID 83702",
    "phone": "(208) 917-2782",
    "rating": 4.9,
    "reviews": 25,
    "website": "https://www.ommedspa.com/",
    "category": "Arabic-speaking Microdermabrasion in Idaho",
    "description": "A medical spa offering a variety of aesthetic services, including treatments that can improve skin texture and appearance",
    "hours": "Mon-Fri 9AM-6PM",
    "services": [
      "Arabic-speaking Microdermabrasion in Idaho consultation",
      "Professional service",
      "Quality guarantee"
    ],
    "social_links": {}
  },
  {
    "name": "Sweet Cheeks Beauty Bar",
    "address": "1020 W. Main Street, Suite 101, Boise, ID 83702",
    "phone": "(208) 331-5400",
    "rating": 4.8,
    "reviews": 25,
    "website": "https://www.sweetcheeksbeautybar.com/",
    "category": "Arabic-speaking Microdermabrasion in Idaho",
    "description": "Offers a Microdermabrasion Facial designed to treat fine lines, wrinkles, sun damage, and acne scarring by using controlled exfoliation with crystals",
    "hours": "Mon-Fri 9AM-6PM",
    "services": [
      "Arabic-speaking Microdermabrasion in Idaho consultation",
      "Professional service",
      "Quality guarantee"
    ],
    "social_links": {}
  }
]