[
  {
    "name": "Vegas Dental Experts",
    "address": "10575 W. Tropicana Ave. Suite 101, Las Vegas, NV 89135",
    "phone": "(702) 876-6067",
    "rating": 4.9,
    "reviews": 25,
    "website": "https://www.vegasdentalexperts.com/",
    "category": "Chinese-American-owned Dental implants in Nevada",
    "description": "Dr. Harvey Chin, a second-generation Chinese American, specializes in dental implants and minimally invasive procedures. The practice offers a range of services including mini dental implants, dentures, and cosmetic dentistry",
    "hours": "Mon-Fri 9AM-6PM",
    "services": [
      "Chinese-American-owned Dental implants in Nevada consultation",
      "Professional service",
      "Quality guarantee"
    ],
    "social_links": {}
  },
  {
    "name": "Affordable Dentures & Implants (Henderson)",
    "address": "510 Marks Street, Suite 130, Henderson, NV 89014",
    "phone": "(702) 989-9960",
    "rating": 4.3,
    "reviews": 25,
    "website": "https://www.affordabledentures.com/dentist/nv/henderson/510-marks-street-suite-130-89014",
    "category": "Chinese-American-owned Dental implants in Nevada",
    "description": "Dr. Eric Hui is associated with this practice, which offers affordable dentures and dental implants. They provide a variety of services including full and partial dentures, implants, and extractions",
    "hours": "Mon-Fri 9AM-6PM",
    "services": [
      "Chinese-American-owned Dental implants in Nevada consultation",
      "Professional service",
      "Quality guarantee"
    ],
    "social_links": {}
  },
  {
    "name": "Affordable Dentures & Implants (Las Vegas)",
    "address": "7020 W. Charleston Blvd., Suite 101, Las Vegas, NV 89117",
    "phone": "(702) 870-7700",
    "rating": 4.4,
    "reviews": 25,
    "website": "https://www.affordabledentures.com/dentist/nv/las-vegas/7020-w-charleston-blvd-suite-101-89117",
    "category": "Chinese-American-owned Dental implants in Nevada",
    "description": "Dr. Chang is mentioned as a dentist at this location, which offers dentures and dental implants. They focus on providing accessible and affordable tooth replacement solutions",
    "hours": "Mon-Fri 9AM-6PM",
    "services": [
      "Chinese-American-owned Dental implants in Nevada consultation",
      "Professional service",
      "Quality guarantee"
    ],
    "social_links": {}
  },
  {
    "name": "Dental Implant Institute (Las Vegas)",
    "address": "6170 West Desert Inn Rd., Las Vegas, NV 89146",
    "phone": "(702) 220-5000",
    "rating": 4.7,
    "reviews": 25,
    "website": "https://www.dentalimplantinstitute.com/",
    "category": "Chinese-American-owned Dental implants in Nevada",
    "description": "Led by Dr. Jennifer Cha and Dr. Leon Chen, this institute is a pioneer in dental implantology. They offer advanced techniques, including a 5-in-1 procedure for full-mouth reconstruction",
    "hours": "Mon-Fri 9AM-6PM",
    "services": [
      "Chinese-American-owned Dental implants in Nevada consultation",
      "Professional service",
      "Quality guarantee"
    ],
    "social_links": {}
  },
  {
    "name": "Discovery Dental (Las Vegas)",
    "address": "7020 W. Charleston Blvd., Suite 101, Las Vegas, NV 89117",
    "phone": "(702) 816-5885",
    "rating": 4.7,
    "reviews": 25,
    "website": "https://www.discoverydental.com/",
    "category": "Chinese-American-owned Dental implants in Nevada",
    "description": "This practice offers a wide range of dental services, including state-of-the-art robotic dental implant surgery. They emphasize patient-centered care and advanced technology",
    "hours": "Mon-Fri 9AM-6PM",
    "services": [
      "Chinese-American-owned Dental implants in Nevada consultation",
      "Professional service",
      "Quality guarantee"
    ],
    "social_links": {}
  },
  {
    "name": "White Pine Family Dental (Reno)",
    "address": "5420 Kietzke Ln, Reno, NV 89511",
    "phone": "(775) 825-5221",
    "rating": 4.8,
    "reviews": 25,
    "website": "https://www.whitepinefamilydental.com/",
    "category": "Chinese-American-owned Dental implants in Nevada",
    "description": "Dr. Ladam Kuang is associated with this practice, which provides expert dental implant restorations. They focus on personalized care and advanced implant technology",
    "hours": "Mon-Fri 9AM-6PM",
    "services": [
      "Chinese-American-owned Dental implants in Nevada consultation",
      "Professional service",
      "Quality guarantee"
    ],
    "social_links": {}
  },
  {
    "name": "Smile Design Implant Centers (Reno)",
    "address": "10355 Professional Ct, Reno, NV 89521",
    "phone": "(775) 324-4444",
    "rating": 4.9,
    "reviews": 25,
    "website": "https://smiledesignreno.com/",
    "category": "Chinese-American-owned Dental implants in Nevada",
    "description": "This center is led by Dr. Ricciardi and Dr. Winfield, specializing in dental implants and smile restoration. They emphasize a welcoming environment and professional care",
    "hours": "Mon-Fri 9AM-6PM",
    "services": [
      "Chinese-American-owned Dental implants in Nevada consultation",
      "Professional service",
      "Quality guarantee"
    ],
    "social_links": {}
  },
  {
    "name": "Streamline Dental Implants (Las Vegas)",
    "address": "7545 W Sahara Ave #150, Las Vegas, NV 89117",
    "phone": "(702) 945-0617",
    "rating": 4.9,
    "reviews": 25,
    "website": "https://www.streamlinedentalimplants.com/",
    "category": "Chinese-American-owned Dental implants in Nevada",
    "description": "Dr. Phillip Devore offers dental implant services, focusing on restoring smiles and improving quality of life. They provide same-day dental implants and offer financing options",
    "hours": "Mon-Fri 9AM-6PM",
    "services": [
      "Chinese-American-owned Dental implants in Nevada consultation",
      "Professional service",
      "Quality guarantee"
    ],
    "social_links": {}
  },
  {
    "name": "Henderson Oral Surgery (Henderson)",
    "address": "10575 W Tropicana Ave #101, Las Vegas, NV 89135",
    "phone": "(702) 876-6067",
    "rating": 4.9,
    "reviews": 25,
    "website": "https://www.hendersonoralsurgery.com/",
    "category": "Chinese-American-owned Dental implants in Nevada",
    "description": "Dr. Steve J. Huang is a board-certified oral and maxillofacial surgeon specializing in oral surgery and dental implants. The practice emphasizes customized treatment plans and patient comfort",
    "hours": "Mon-Fri 9AM-6PM",
    "services": [
      "Chinese-American-owned Dental implants in Nevada consultation",
      "Professional service",
      "Quality guarantee"
    ],
    "social_links": {}
  },
  {
    "name": "Brilliant Smiles (Henderson)",
    "address": "2525 Anthem Village Dr #100, Henderson, NV 89052",
    "phone": "(702) 450-5999",
    "rating": 4.9,
    "reviews": 25,
    "website": "https://brilliantsmileshenderson.com/",
    "category": "Chinese-American-owned Dental implants in Nevada",
    "description": "Dr. Julian Alivia leads this practice, offering a range of dental services including Invisalign and implants. They focus on providing high-quality, personalized dental care",
    "hours": "Mon-Fri 9AM-6PM",
    "services": [
      "Chinese-American-owned Dental implants in Nevada consultation",
      "Professional service",
      "Quality guarantee"
    ],
    "social_links": {}
  }
]