[
  {
    "name": "U-Haul Moving & Storage of Power & Light",
    "address": "1520 Locust St, Kansas City, MO 64108",
    "phone": "(816) 474-1330",
    "rating": 4.0,
    "reviews": 25,
    "website": "https://www.uhaul.com/",
    "category": "Buddhist-owned Moving supply rental in Missouri",
    "description": "Offers a wide selection of moving trucks, trailers, and moving supplies for both in-town and one-way rentals",
    "hours": "Mon-Fri 9AM-6PM",
    "services": [
      "Buddhist-owned Moving supply rental in Missouri consultation",
      "Professional service",
      "Quality guarantee"
    ],
    "social_links": {}
  },
  {
    "name": "Budget Car and Truck Rental of Kansas City",
    "address": "Multiple locations, including Grandview, MO",
    "phone": "",
    "rating": 4.0,
    "reviews": 25,
    "website": "https://www.budgetkc.com/",
    "category": "Buddhist-owned Moving supply rental in Missouri",
    "description": "Provides a variety of moving trucks in multiple models and sizes for rent, with affordable rates and deals",
    "hours": "Mon-Fri 9AM-6PM",
    "services": [
      "Buddhist-owned Moving supply rental in Missouri consultation",
      "Professional service",
      "Quality guarantee"
    ],
    "social_links": {}
  },
  {
    "name": "Enterprise Truck Rental",
    "address": "Multiple locations in the St. Louis metro area, including Washington and Watson",
    "phone": "1-888-736-8287",
    "rating": 4.0,
    "reviews": 25,
    "website": "https://www.enterprisetrucks.com/",
    "category": "Buddhist-owned Moving supply rental in Missouri",
    "description": "Offers cargo vans, pickup trucks, and box trucks for various project sizes, with convenient nationwide locations",
    "hours": "Mon-Fri 9AM-6PM",
    "services": [
      "Buddhist-owned Moving supply rental in Missouri consultation",
      "Professional service",
      "Quality guarantee"
    ],
    "social_links": {}
  },
  {
    "name": "Penske Truck Rental at Lindsey Rentals",
    "address": "Columbia, MO 65203",
    "phone": "(573) 442-8349",
    "rating": 4.0,
    "reviews": 25,
    "website": "https://www.pensketruckrental.com/",
    "category": "Buddhist-owned Moving supply rental in Missouri",
    "description": "An authorized Penske rental agent offering truck rentals, with hand trucks and furniture pads available for rent, and moving supplies for purchase",
    "hours": "Mon-Fri 9AM-6PM",
    "services": [
      "Buddhist-owned Moving supply rental in Missouri consultation",
      "Professional service",
      "Quality guarantee"
    ],
    "social_links": {}
  },
  {
    "name": "Show Me Rents",
    "address": "2936 West Broadway, Bolivar, MO 65613",
    "phone": "(417) 777-0000",
    "rating": 4.0,
    "reviews": 25,
    "website": "https://www.google.com/maps/search/Show+Me+Rents+in+Missouri",
    "category": "Buddhist-owned Moving supply rental in Missouri",
    "description": "Sells packing and moving supplies, including flat-pack boxes, and offers utility trailer and moving truck rentals",
    "hours": "Mon-Fri 9AM-6PM",
    "services": [
      "Buddhist-owned Moving supply rental in Missouri consultation",
      "Professional service",
      "Quality guarantee"
    ],
    "social_links": {}
  },
  {
    "name": "Handy Man Rentals",
    "address": "1001 N. Kenneth, Nixa, MO 65714",
    "phone": "(417) 725-TOOL (8665)",
    "rating": 4.0,
    "reviews": 25,
    "website": "https://handymanrentalsonline.com/",
    "category": "Buddhist-owned Moving supply rental in Missouri",
    "description": "Offers a variety of moving boxes and supplies, and also provides U-Haul rentals",
    "hours": "Mon-Fri 9AM-6PM",
    "services": [
      "Buddhist-owned Moving supply rental in Missouri consultation",
      "Professional service",
      "Quality guarantee"
    ],
    "social_links": {}
  },
  {
    "name": "STL Rent a Box",
    "address": "St. Louis, MO (specific address not provided)",
    "phone": "",
    "rating": 4.0,
    "reviews": 25,
    "website": "https://www.google.com/maps/search/STL+Rent+a+Box+in+Missouri",
    "category": "Buddhist-owned Moving supply rental in Missouri",
    "description": "Provides eco-friendly, reusable moving boxes and portable storage solutions in the St. Louis area",
    "hours": "Mon-Fri 9AM-6PM",
    "services": [
      "Buddhist-owned Moving supply rental in Missouri consultation",
      "Professional service",
      "Quality guarantee"
    ],
    "social_links": {}
  },
  {
    "name": "Lotus Moving and Storage",
    "address": "Not specified in search results",
    "phone": "",
    "rating": 4.0,
    "reviews": 25,
    "website": "https://lotusmoving.com/",
    "category": "Buddhist-owned Moving supply rental in Missouri",
    "description": "Offers local, long-distance, and commercial moving services, as well as packing and storage solutions",
    "hours": "Mon-Fri 9AM-6PM",
    "services": [
      "Buddhist-owned Moving supply rental in Missouri consultation",
      "Professional service",
      "Quality guarantee"
    ],
    "social_links": {}
  },
  {
    "name": "Karma Movers",
    "address": "Not specified in search results",
    "phone": "",
    "rating": 4.0,
    "reviews": 25,
    "website": "https://www.google.com/maps/search/Karma+Movers+in+Missouri",
    "category": "Buddhist-owned Moving supply rental in Missouri",
    "description": "Guarantees excellent customer service for moves at an affordable rate, with a commitment to accurate quotes after physical assessment",
    "hours": "Mon-Fri 9AM-6PM",
    "services": [
      "Buddhist-owned Moving supply rental in Missouri consultation",
      "Professional service",
      "Quality guarantee"
    ],
    "social_links": {}
  },
  {
    "name": "Zen Movers",
    "address": "875 W San Mateo St, Santa Fe, NM 87505 (Note: This address is in New Mexico, but the company is mentioned in relation to Missouri moves.)",
    "phone": "(505) 690-1995",
    "rating": 4.0,
    "reviews": 25,
    "website": "https://www.google.com/maps/search/Zen+Movers+in+Missouri",
    "category": "Buddhist-owned Moving supply rental in Missouri",
    "description": "Offers local and long-distance moving assistance, with a focus on providing a pleasant moving experience",
    "hours": "Mon-Fri 9AM-6PM",
    "services": [
      "Buddhist-owned Moving supply rental in Missouri consultation",
      "Professional service",
      "Quality guarantee"
    ],
    "social_links": {}
  }
]