[
  {
    "name": "Cornerstone Equipment",
    "address": "Multiple locations including Frankfort, KY",
    "phone": "(502) 678-8779",
    "rating": 4.0,
    "reviews": 25,
    "website": "https://kycornerstone.com/",
    "category": "Catholic-owned Farm equipment rental in Kentucky",
    "description": "Offers new and used agriculture equipment, rental services, and parts. They also provide construction machinery and UTVs",
    "hours": "Mon-Fri 9AM-6PM",
    "services": [
      "Catholic-owned Farm equipment rental in Kentucky consultation",
      "Professional service",
      "Quality guarantee"
    ],
    "social_links": {}
  },
  {
    "name": "A Town Equipment Rental And Sales",
    "address": "Alexandria, KY area",
    "phone": "",
    "rating": 4.0,
    "reviews": 25,
    "website": "https://atownrental.com/",
    "category": "Catholic-owned Farm equipment rental in Kentucky",
    "description": "Provides rentals for skid steers, excavation equipment, farm equipment, and more",
    "hours": "Mon-Fri 9AM-6PM",
    "services": [
      "Catholic-owned Farm equipment rental in Kentucky consultation",
      "Professional service",
      "Quality guarantee"
    ],
    "social_links": {}
  },
  {
    "name": "Equipment Depot",
    "address": "340 North Dr., Hopkinsville, KY",
    "phone": "",
    "rating": 4.0,
    "reviews": 25,
    "website": "https://www.equipmentdepot.com/locations/hopkinsville/",
    "category": "Catholic-owned Farm equipment rental in Kentucky",
    "description": "Offers equipment rental, service, and parts, including agriculture and industrial equipment",
    "hours": "Mon-Fri 9AM-6PM",
    "services": [
      "Catholic-owned Farm equipment rental in Kentucky consultation",
      "Professional service",
      "Quality guarantee"
    ],
    "social_links": {}
  },
  {
    "name": "Fayette County Conservation District (KY FCCD)",
    "address": "Fayette County, KY",
    "phone": "",
    "rating": 4.0,
    "reviews": 25,
    "website": "https://fayettecd.org/equipment-rentals/",
    "category": "Catholic-owned Farm equipment rental in Kentucky",
    "description": "Offers a farm equipment rental program with drills and seeders",
    "hours": "Mon-Fri 9AM-6PM",
    "services": [
      "Catholic-owned Farm equipment rental in Kentucky consultation",
      "Professional service",
      "Quality guarantee"
    ],
    "social_links": {}
  },
  {
    "name": "ENCON Equipment",
    "address": "Multiple locations including Lexington, KY",
    "phone": "",
    "rating": 4.0,
    "reviews": 25,
    "website": "https://www.enconequipment.com/",
    "category": "Catholic-owned Farm equipment rental in Kentucky",
    "description": "Specializes in equipment rental and sales, including forestry rental needs",
    "hours": "Mon-Fri 9AM-6PM",
    "services": [
      "Catholic-owned Farm equipment rental in Kentucky consultation",
      "Professional service",
      "Quality guarantee"
    ],
    "social_links": {}
  },
  {
    "name": "Art's Rental Equipment",
    "address": "Multiple locations including Florence, KY, Lexington, KY, and Louisville, KY",
    "phone": "(859) 371-3660 (Florence)",
    "rating": 4.0,
    "reviews": 25,
    "website": "https://www.artsrental.com/",
    "category": "Catholic-owned Farm equipment rental in Kentucky",
    "description": "Offers a wide range of rental equipment, including aerial lifts, air compressors, earth moving equipment, and lawn/landscape equipment",
    "hours": "Mon-Fri 9AM-6PM",
    "services": [
      "Catholic-owned Farm equipment rental in Kentucky consultation",
      "Professional service",
      "Quality guarantee"
    ],
    "social_links": {}
  },
  {
    "name": "BigRentz",
    "address": "Henderson, KY area",
    "phone": "(855) 837-9124",
    "rating": 4.0,
    "reviews": 25,
    "website": "https://www.bigrentz.com/locations/ky/henderson",
    "category": "Catholic-owned Farm equipment rental in Kentucky",
    "description": "Provides skid steer rentals and other equipment through a supplier network",
    "hours": "Mon-Fri 9AM-6PM",
    "services": [
      "Catholic-owned Farm equipment rental in Kentucky consultation",
      "Professional service",
      "Quality guarantee"
    ],
    "social_links": {}
  },
  {
    "name": "Herc Rentals",
    "address": "Multiple locations including South Louisville, KY",
    "phone": "(502) 450-7368 (South Louisville)",
    "rating": 4.0,
    "reviews": 25,
    "website": "https://www.hercrentals.com/locations/kentucky/louisville/south-louisville",
    "category": "Catholic-owned Farm equipment rental in Kentucky",
    "description": "Offers general equipment rentals for various jobsite tasks",
    "hours": "Mon-Fri 9AM-6PM",
    "services": [
      "Catholic-owned Farm equipment rental in Kentucky consultation",
      "Professional service",
      "Quality guarantee"
    ],
    "social_links": {}
  },
  {
    "name": "Black Equipment",
    "address": "2685 Pembroke Rd, Hopkinsville, KY 42240",
    "phone": "(270) 886-3432",
    "rating": 4.0,
    "reviews": 25,
    "website": "https://www.blackequipment.com/locations/hopkinsville-ky/",
    "category": "Catholic-owned Farm equipment rental in Kentucky",
    "description": "Offers rental equipment, including forklifts and material handling equipment, for various industries",
    "hours": "Mon-Fri 9AM-6PM",
    "services": [
      "Catholic-owned Farm equipment rental in Kentucky consultation",
      "Professional service",
      "Quality guarantee"
    ],
    "social_links": {}
  },
  {
    "name": "Boyd CAT",
    "address": "Multiple locations including Bowling Green, KY and Louisville, KY",
    "phone": "(855) 426-9326 (Bowling Green)",
    "rating": 4.0,
    "reviews": 25,
    "website": "https://www.boydcat.com/locations/bowling-green-ky/",
    "category": "Catholic-owned Farm equipment rental in Kentucky",
    "description": "Provides a vast supply of rental equipment, including heavy machinery, for various projects",
    "hours": "Mon-Fri 9AM-6PM",
    "services": [
      "Catholic-owned Farm equipment rental in Kentucky consultation",
      "Professional service",
      "Quality guarantee"
    ],
    "social_links": {}
  }
]