[
  {
    "name": "Saint Alphonsus Pulmonary Services - Nampa",
    "address": "4424 E Flamingo Ave Ste 210, Nampa, ID 83687",
    "phone": "(208) 302-2000",
    "rating": 4.0,
    "reviews": 25,
    "website": "https://www.saintalphonsus.org/",
    "category": "Chinese-speaking Respiratory therapy in Idaho",
    "description": "Offers high-quality, compassionate, and personalized pulmonary care for acute, chronic, and recurring conditions of the respiratory system",
    "hours": "Mon-Fri 9AM-6PM",
    "services": [
      "Chinese-speaking Respiratory therapy in Idaho consultation",
      "Professional service",
      "Quality guarantee"
    ],
    "social_links": {}
  },
  {
    "name": "Saint Alphonsus Pulmonary Services - Boise",
    "address": "1075 N Curtis Rd Ste 200, Boise, ID 83706",
    "phone": "(208) 302-2000",
    "rating": 4.0,
    "reviews": 25,
    "website": "https://www.saintalphonsus.org/",
    "category": "Chinese-speaking Respiratory therapy in Idaho",
    "description": "Provides specialized outpatient care for individuals with acute, chronic, and recurring respiratory system conditions",
    "hours": "Mon-Fri 9AM-6PM",
    "services": [
      "Chinese-speaking Respiratory therapy in Idaho consultation",
      "Professional service",
      "Quality guarantee"
    ],
    "social_links": {}
  },
  {
    "name": "Vibra Hospital of Boise",
    "address": "1005 N Curtis Rd, Boise, ID 83706",
    "phone": "(208) 377-3377",
    "rating": 4.0,
    "reviews": 25,
    "website": "https://www.vibrahospitalofboise.com/",
    "category": "Chinese-speaking Respiratory therapy in Idaho",
    "description": "Offers specialized respiratory care in a safe hospital environment, including mechanical ventilation, high flow oxygen, and BiPAP therapy",
    "hours": "Mon-Fri 9AM-6PM",
    "services": [
      "Chinese-speaking Respiratory therapy in Idaho consultation",
      "Professional service",
      "Quality guarantee"
    ],
    "social_links": {}
  },
  {
    "name": "Cascadia of Boise",
    "address": "7575 W. Northview, Boise, ID 83714",
    "phone": "(208) 377-3377",
    "rating": 4.0,
    "reviews": 25,
    "website": "https://www.cascadiaboise.com/",
    "category": "Chinese-speaking Respiratory therapy in Idaho",
    "description": "Provides 24-hour respiratory care, specializing in long-term mechanical ventilation with advanced technology",
    "hours": "Mon-Fri 9AM-6PM",
    "services": [
      "Chinese-speaking Respiratory therapy in Idaho consultation",
      "Professional service",
      "Quality guarantee"
    ],
    "social_links": {}
  },
  {
    "name": "Mountain View Hospital",
    "address": "2540 Stonecreek Dr, Idaho Falls, ID 83404",
    "phone": "(208) 542-7174",
    "rating": 4.0,
    "reviews": 25,
    "website": "https://www.mountainviewhospital.org/",
    "category": "Chinese-speaking Respiratory therapy in Idaho",
    "description": "Offers a state-of-the-art cardiopulmonary rehabilitation program with experienced staff providing education and monitored exercise",
    "hours": "Mon-Fri 9AM-6PM",
    "services": [
      "Chinese-speaking Respiratory therapy in Idaho consultation",
      "Professional service",
      "Quality guarantee"
    ],
    "social_links": {}
  },
  {
    "name": "Eastern Idaho Regional Medical Center (EIRMC)",
    "address": "3100 Channing Way, Idaho Falls, ID 83404",
    "phone": "(208) 497-6167",
    "rating": 4.0,
    "reviews": 25,
    "website": "https://www.eirmc.com/",
    "category": "Chinese-speaking Respiratory therapy in Idaho",
    "description": "Provides a variety of lung services, including pulmonary rehabilitation and advanced ventilator care, with a team of board-certified pulmonologists and respiratory therapists",
    "hours": "Mon-Fri 9AM-6PM",
    "services": [
      "Chinese-speaking Respiratory therapy in Idaho consultation",
      "Professional service",
      "Quality guarantee"
    ],
    "social_links": {}
  },
  {
    "name": "St. Luke's Clinic \u2013 Idaho Pulmonary Associates: Boise",
    "address": "2051 E. Summersweet Dr., Boise, ID 83716",
    "phone": "(208) 323-3767",
    "rating": 4.0,
    "reviews": 25,
    "website": "https://www.stlukesonline.org/health-services/specialties/pulmonary-medicine",
    "category": "Chinese-speaking Respiratory therapy in Idaho",
    "description": "Diagnoses and treats conditions of the lungs and respiratory tract, with expertise in sleep medicine and critical care",
    "hours": "Mon-Fri 9AM-6PM",
    "services": [
      "Chinese-speaking Respiratory therapy in Idaho consultation",
      "Professional service",
      "Quality guarantee"
    ],
    "social_links": {}
  },
  {
    "name": "Kootenai Clinic Lung and Asthma",
    "address": "2002 Kootenai Park Rd, Coeur d'Alene, ID 83814",
    "phone": "",
    "rating": 4.0,
    "reviews": 25,
    "website": "https://www.kootenaihealth.org/services/lung-asthma",
    "category": "Chinese-speaking Respiratory therapy in Idaho",
    "description": "Provides comprehensive care for various pulmonary problems, including asthma, COPD, and pulmonary fibrosis, with experienced physicians and in-house testing",
    "hours": "Mon-Fri 9AM-6PM",
    "services": [
      "Chinese-speaking Respiratory therapy in Idaho consultation",
      "Professional service",
      "Quality guarantee"
    ],
    "social_links": {}
  },
  {
    "name": "Minidoka Memorial Hospital",
    "address": "1224 8th Street, Rupert, ID 83350",
    "phone": "(208) 436-0481",
    "rating": 4.0,
    "reviews": 25,
    "website": "https://www.minidokamemorialhospital.com/",
    "category": "Chinese-speaking Respiratory therapy in Idaho",
    "description": "Offers a respiratory care team that manages patients with breathing disorders, providing assessments, monitoring, and various diagnostic tests for all age groups",
    "hours": "Mon-Fri 9AM-6PM",
    "services": [
      "Chinese-speaking Respiratory therapy in Idaho consultation",
      "Professional service",
      "Quality guarantee"
    ],
    "social_links": {}
  },
  {
    "name": "Valor Health",
    "address": "1202 E Locust Street, Emmett, ID 83617",
    "phone": "(208) 365-3561 Ext. 3422",
    "rating": 4.0,
    "reviews": 25,
    "website": "https://www.valorhealth.org/",
    "category": "Chinese-speaking Respiratory therapy in Idaho",
    "description": "Provides cardio/respiratory services with certified respiratory therapists who evaluate and manage a variety of lung conditions, personalizing treatment plans",
    "hours": "Mon-Fri 9AM-6PM",
    "services": [
      "Chinese-speaking Respiratory therapy in Idaho consultation",
      "Professional service",
      "Quality guarantee"
    ],
    "social_links": {}
  }
]