[
  {
    "name": "Delta Dental of Utah",
    "address": "(Specific addresses vary by location, but their main office is often listed as 405 S. 500 W., Salt Lake City, UT 84101)",
    "phone": "1-800-335-8227",
    "rating": 4.0,
    "reviews": 25,
    "website": "https://www.deltadentalut.com/",
    "category": "Baby-Boomer-owned Dental insurance in Utah",
    "description": "Delta Dental offers a wide range of PPO and DHMO plans with varying levels of coverage for preventive, basic, and major services. They have a large network of dentists",
    "hours": "Mon-Fri 9AM-6PM",
    "services": [
      "Baby-Boomer-owned Dental insurance in Utah consultation",
      "Professional service",
      "Quality guarantee"
    ],
    "social_links": {}
  },
  {
    "name": "Humana",
    "address": "(Humana operates nationally, specific Utah office addresses may vary or be online-focused)",
    "phone": "1-800-448-6262",
    "rating": 4.0,
    "reviews": 25,
    "website": "https://www.humana.com/",
    "category": "Baby-Boomer-owned Dental insurance in Utah",
    "description": "Humana offers various dental plans in Utah, including options like Complete Dental, Bright Plus, and Preventive Value, with different premium and coverage levels",
    "hours": "Mon-Fri 9AM-6PM",
    "services": [
      "Baby-Boomer-owned Dental insurance in Utah consultation",
      "Professional service",
      "Quality guarantee"
    ],
    "social_links": {}
  },
  {
    "name": "Cigna Healthcare",
    "address": "(Cigna operates nationally, specific Utah office addresses may vary or be online-focused. Products in Utah are provided by Cigna Health and Life Insurance Company.)",
    "phone": "1-800-244-6224",
    "rating": 4.0,
    "reviews": 25,
    "website": "https://www.cigna.com/",
    "category": "Baby-Boomer-owned Dental insurance in Utah",
    "description": "Cigna offers dental insurance plans with options for preventive care, basic services, and major services, with a large network of dentists",
    "hours": "Mon-Fri 9AM-6PM",
    "services": [
      "Baby-Boomer-owned Dental insurance in Utah consultation",
      "Professional service",
      "Quality guarantee"
    ],
    "social_links": {}
  },
  {
    "name": "MetLife Dental",
    "address": "(MetLife operates nationally, specific Utah office addresses may vary or be online-focused)",
    "phone": "1-800-541-0094",
    "rating": 4.0,
    "reviews": 25,
    "website": "https://www.metlife.com/",
    "category": "Baby-Boomer-owned Dental insurance in Utah",
    "description": "MetLife provides flexible dental insurance plans, including PPO and HMO options, designed to meet various family needs",
    "hours": "Mon-Fri 9AM-6PM",
    "services": [
      "Baby-Boomer-owned Dental insurance in Utah consultation",
      "Professional service",
      "Quality guarantee"
    ],
    "social_links": {}
  },
  {
    "name": "Guardian Dental",
    "address": "(Guardian operates nationally, specific Utah office addresses may vary or be online-focused)",
    "phone": "1-800-338-4466",
    "rating": 4.0,
    "reviews": 25,
    "website": "https://www.guardianlife.com/",
    "category": "Baby-Boomer-owned Dental insurance in Utah",
    "description": "Guardian offers a variety of dental plans with different coverage levels, often noted for affordability and a broad network of dentists",
    "hours": "Mon-Fri 9AM-6PM",
    "services": [
      "Baby-Boomer-owned Dental insurance in Utah consultation",
      "Professional service",
      "Quality guarantee"
    ],
    "social_links": {}
  },
  {
    "name": "Aetna Dental",
    "address": "(Aetna operates nationally, specific Utah office addresses may vary or be online-focused)",
    "phone": "1-877-238-6200",
    "rating": 4.0,
    "reviews": 25,
    "website": "https://www.aetna.com/",
    "category": "Baby-Boomer-owned Dental insurance in Utah",
    "description": "Aetna Dental offers plans with options for preventive care, major services, and sometimes vision and hearing coverage, with a focus on affordable options",
    "hours": "Mon-Fri 9AM-6PM",
    "services": [
      "Baby-Boomer-owned Dental insurance in Utah consultation",
      "Professional service",
      "Quality guarantee"
    ],
    "social_links": {}
  },
  {
    "name": "Select Health",
    "address": "(Select Health is based in Utah, with offices in Salt Lake City)",
    "phone": "855-442-0220",
    "rating": 4.0,
    "reviews": 25,
    "website": "https://selecthealth.org/",
    "category": "Baby-Boomer-owned Dental insurance in Utah",
    "description": "Select Health offers dental plans in Utah, often requiring enrollment in a Select Health medical plan. They have different network options across the state",
    "hours": "Mon-Fri 9AM-6PM",
    "services": [
      "Baby-Boomer-owned Dental insurance in Utah consultation",
      "Professional service",
      "Quality guarantee"
    ],
    "social_links": {}
  },
  {
    "name": "DentaQuest",
    "address": "(DentaQuest operates nationally, specific Utah office addresses may vary or be online-focused)",
    "phone": "1-800-447-7027",
    "rating": 3.5,
    "reviews": 25,
    "website": "https://www.dentaquest.com/",
    "category": "Baby-Boomer-owned Dental insurance in Utah",
    "description": "DentaQuest is a leading dental insurance provider that serves members of various Medicare Advantage plans in Utah",
    "hours": "Mon-Fri 9AM-6PM",
    "services": [
      "Baby-Boomer-owned Dental insurance in Utah consultation",
      "Professional service",
      "Quality guarantee"
    ],
    "social_links": {}
  },
  {
    "name": "EMI Health",
    "address": "(EMI Health is based in Utah)",
    "phone": "801-531-9000",
    "rating": 4.0,
    "reviews": 25,
    "website": "https://www.emihealth.com/",
    "category": "Baby-Boomer-owned Dental insurance in Utah",
    "description": "EMI Health offers a variety of health and dental plans in Utah, including options for individuals and groups",
    "hours": "Mon-Fri 9AM-6PM",
    "services": [
      "Baby-Boomer-owned Dental insurance in Utah consultation",
      "Professional service",
      "Quality guarantee"
    ],
    "social_links": {}
  },
  {
    "name": "BEST Life",
    "address": "(BEST Life operates nationally, specific Utah office addresses may vary or be online-focused)",
    "phone": "1-877-507-2532",
    "rating": 3.5,
    "reviews": 25,
    "website": "https://www.bestlife.com/",
    "category": "Baby-Boomer-owned Dental insurance in Utah",
    "description": "BEST Life offers dental insurance plans, often available through marketplaces, providing coverage for various dental services",
    "hours": "Mon-Fri 9AM-6PM",
    "services": [
      "Baby-Boomer-owned Dental insurance in Utah consultation",
      "Professional service",
      "Quality guarantee"
    ],
    "social_links": {}
  }
]