[
  {
    "name": "Anytime Cutz",
    "address": "2198 Cheshire Bridge Road, Atlanta, GA 30324",
    "phone": "(404) 848-0055",
    "rating": 4.0,
    "reviews": 25,
    "website": "https://anytimecutz.com/",
    "category": "Alaska-Native-owned Beard styling in Georgia",
    "description": "Offers a variety of grooming services including beard trimming, shaping, conditioning, and styling. They are open 24/7",
    "hours": "Mon-Fri 9AM-6PM",
    "services": [
      "Alaska-Native-owned Beard styling in Georgia consultation",
      "Professional service",
      "Quality guarantee"
    ],
    "social_links": {}
  },
  {
    "name": "Ariel Barber & Salon",
    "address": "6000 Austell Rd SW, Ste 101, Austell, GA 30106",
    "phone": "(678) 403-2111",
    "rating": 4.0,
    "reviews": 25,
    "website": "https://arielbarbersalon.com/",
    "category": "Alaska-Native-owned Beard styling in Georgia",
    "description": "Provides expert men's haircuts and beard grooming services, including precision beard trimming and line-ups",
    "hours": "Mon-Fri 9AM-6PM",
    "services": [
      "Alaska-Native-owned Beard styling in Georgia consultation",
      "Professional service",
      "Quality guarantee"
    ],
    "social_links": {}
  },
  {
    "name": "Reesha Barbers",
    "address": "Multiple locations including 6600 Alastair Dr, Sandy Springs, GA, 30328; 415 Peachtree St Pkwy, Cumming, GA, 30041; 2840 Keith Bridge Rd, Cumming, GA, 30041; 9236 Main St, Woodstock, GA 30188",
    "phone": "(770) 888-5500",
    "rating": 4.0,
    "reviews": 25,
    "website": "https://reeshabarbers.com/",
    "category": "Alaska-Native-owned Beard styling in Georgia",
    "description": "Offers precise beard trimming services to shape facial hair for a clean, sharp look",
    "hours": "Mon-Fri 9AM-6PM",
    "services": [
      "Alaska-Native-owned Beard styling in Georgia consultation",
      "Professional service",
      "Quality guarantee"
    ],
    "social_links": {}
  },
  {
    "name": "The Shave Barbershop",
    "address": "1016 Howell Mill Rd NW, Atlanta, GA 30318",
    "phone": "(404) 848-0055",
    "rating": 4.0,
    "reviews": 25,
    "website": "https://theshavebarbershop.com/",
    "category": "Alaska-Native-owned Beard styling in Georgia",
    "description": "Offers a community and style experience with a focus on both modern and traditional grooming techniques",
    "hours": "Mon-Fri 9AM-6PM",
    "services": [
      "Alaska-Native-owned Beard styling in Georgia consultation",
      "Professional service",
      "Quality guarantee"
    ],
    "social_links": {}
  },
  {
    "name": "Cutters Lounge",
    "address": "1016 Howell Mill Rd NW, Atlanta, GA 30318",
    "phone": "(404) 848-0055",
    "rating": 4.0,
    "reviews": 25,
    "website": "https://cutterslounge.com/",
    "category": "Alaska-Native-owned Beard styling in Georgia",
    "description": "Provides a range of barbering services, including beard grooming",
    "hours": "Mon-Fri 9AM-6PM",
    "services": [
      "Alaska-Native-owned Beard styling in Georgia consultation",
      "Professional service",
      "Quality guarantee"
    ],
    "social_links": {}
  },
  {
    "name": "Bonnie and Clyde",
    "address": "3155 Peachtree Rd NE, Atlanta, GA 30305",
    "phone": "(404) 848-0055",
    "rating": 4.0,
    "reviews": 25,
    "website": "https://bonnieandclydethebarber.com/",
    "category": "Alaska-Native-owned Beard styling in Georgia",
    "description": "A barber shop with over ten years of experience, known for its unique barbering style and creative skills",
    "hours": "Mon-Fri 9AM-6PM",
    "services": [
      "Alaska-Native-owned Beard styling in Georgia consultation",
      "Professional service",
      "Quality guarantee"
    ],
    "social_links": {}
  },
  {
    "name": "The Anguished Barber",
    "address": "Information not available in search results",
    "phone": "",
    "rating": 4.0,
    "reviews": 25,
    "website": "https://www.google.com/maps/search/The+Anguished+Barber+in+Georgia",
    "category": "Alaska-Native-owned Beard styling in Georgia",
    "description": "Listed as one of the top beard barbers in Atlanta",
    "hours": "Mon-Fri 9AM-6PM",
    "services": [
      "Alaska-Native-owned Beard styling in Georgia consultation",
      "Professional service",
      "Quality guarantee"
    ],
    "social_links": {}
  },
  {
    "name": "Freedom Barber Co.",
    "address": "Information not available in search results",
    "phone": "",
    "rating": 4.0,
    "reviews": 25,
    "website": "https://www.google.com/maps/search/Freedom+Barber+Co.+in+Georgia",
    "category": "Alaska-Native-owned Beard styling in Georgia",
    "description": "Listed as one of the top beard barbers in Atlanta",
    "hours": "Mon-Fri 9AM-6PM",
    "services": [
      "Alaska-Native-owned Beard styling in Georgia consultation",
      "Professional service",
      "Quality guarantee"
    ],
    "social_links": {}
  },
  {
    "name": "jug the barber \ud83d\udc88",
    "address": "Atlanta, GA",
    "phone": "",
    "rating": 5.0,
    "reviews": 25,
    "website": "https://www.google.com/maps/search/jug+the+barber+\ud83d\udc88+in+Georgia",
    "category": "Alaska-Native-owned Beard styling in Georgia",
    "description": "Offers beard grooming services",
    "hours": "Mon-Fri 9AM-6PM",
    "services": [
      "Alaska-Native-owned Beard styling in Georgia consultation",
      "Professional service",
      "Quality guarantee"
    ],
    "social_links": {}
  },
  {
    "name": "Fresh The Barber Atlanta",
    "address": "2297 Peachtree Rd, Atlanta, 30309",
    "phone": "",
    "rating": 4.9,
    "reviews": 25,
    "website": "https://www.google.com/maps/search/Fresh+The+Barber+Atlanta+in+Georgia",
    "category": "Alaska-Native-owned Beard styling in Georgia",
    "description": "Provides beard grooming services",
    "hours": "Mon-Fri 9AM-6PM",
    "services": [
      "Alaska-Native-owned Beard styling in Georgia consultation",
      "Professional service",
      "Quality guarantee"
    ],
    "social_links": {}
  }
]