[
  {
    "name": "Coastal Eye Surgeons",
    "address": "50 Holly Hill Lane, Greenwich, CT, 06830",
    "phone": "(203) 900-7911",
    "rating": 4.0,
    "reviews": 25,
    "website": "https://coastaleyecare.com/",
    "category": "Arabic-speaking Cataract surgery in Connecticut",
    "description": "Dr. Omar Shakir, a board-certified ophthalmologist, offers advanced eye care, including cataract surgery. He is fluent in Arabic",
    "hours": "Mon-Fri 9AM-6PM",
    "services": [
      "Arabic-speaking Cataract surgery in Connecticut consultation",
      "Professional service",
      "Quality guarantee"
    ],
    "social_links": {}
  },
  {
    "name": "Dr. Armand Daccache",
    "address": "Multiple locations including Danbury, Prospect, and New Milford, CT",
    "phone": "",
    "rating": 4.0,
    "reviews": 25,
    "website": "https://www.cteyeconsultants.com/",
    "category": "Arabic-speaking Cataract surgery in Connecticut",
    "description": "Dr. Daccache is a retina specialist who is fluent in Arabic",
    "hours": "Mon-Fri 9AM-6PM",
    "services": [
      "Arabic-speaking Cataract surgery in Connecticut consultation",
      "Professional service",
      "Quality guarantee"
    ],
    "social_links": {}
  },
  {
    "name": "Eye Group of Connecticut",
    "address": "1000 Bridgeport Ave, Milford, CT 06460",
    "phone": "(203) 374-8182",
    "rating": 4.0,
    "reviews": 25,
    "website": "https://www.eyegroupct.com/",
    "category": "Arabic-speaking Cataract surgery in Connecticut",
    "description": "This practice offers comprehensive eye care, including cataract surgery, and has been recognized for its quality of care",
    "hours": "Mon-Fri 9AM-6PM",
    "services": [
      "Arabic-speaking Cataract surgery in Connecticut consultation",
      "Professional service",
      "Quality guarantee"
    ],
    "social_links": {}
  },
  {
    "name": "Eye Physicians & Surgeons, PC",
    "address": "Multiple locations including Milford, Orange, Branford, Shelton, and Westport, CT",
    "phone": "(203) 878-1236 (Milford office)",
    "rating": 4.0,
    "reviews": 25,
    "website": "https://www.eyepc.com/",
    "category": "Arabic-speaking Cataract surgery in Connecticut",
    "description": "This practice has been providing eye care services for nearly 30 years and offers cataract surgery",
    "hours": "Mon-Fri 9AM-6PM",
    "services": [
      "Arabic-speaking Cataract surgery in Connecticut consultation",
      "Professional service",
      "Quality guarantee"
    ],
    "social_links": {}
  },
  {
    "name": "Connecticut Eye Specialists",
    "address": "Not explicitly stated, but serves the Southern Connecticut area",
    "phone": "203-926-1700",
    "rating": 4.0,
    "reviews": 25,
    "website": "https://www.cteyes.com/",
    "category": "Arabic-speaking Cataract surgery in Connecticut",
    "description": "They offer advanced laser-assisted surgery for cataracts and other eye conditions",
    "hours": "Mon-Fri 9AM-6PM",
    "services": [
      "Arabic-speaking Cataract surgery in Connecticut consultation",
      "Professional service",
      "Quality guarantee"
    ],
    "social_links": {}
  },
  {
    "name": "ReFocus Eye Health",
    "address": "Multiple locations including Cheshire, Branford, and Stamford, CT",
    "phone": "",
    "rating": 4.0,
    "reviews": 25,
    "website": "https://refocuseyehealth.com/",
    "category": "Arabic-speaking Cataract surgery in Connecticut",
    "description": "This practice has several ophthalmologists who specialize in cataract surgery",
    "hours": "Mon-Fri 9AM-6PM",
    "services": [
      "Arabic-speaking Cataract surgery in Connecticut consultation",
      "Professional service",
      "Quality guarantee"
    ],
    "social_links": {}
  },
  {
    "name": "Ratchford Eye Center",
    "address": "152 Berlin Rd, Berlin, CT 06037",
    "phone": "",
    "rating": 4.0,
    "reviews": 25,
    "website": "https://ratchfordeye.com/",
    "category": "Arabic-speaking Cataract surgery in Connecticut",
    "description": "This center offers ophthalmology services, and patient testimonials highlight their thoroughness and professionalism",
    "hours": "Mon-Fri 9AM-6PM",
    "services": [
      "Arabic-speaking Cataract surgery in Connecticut consultation",
      "Professional service",
      "Quality guarantee"
    ],
    "social_links": {}
  },
  {
    "name": "Connecticut Eye Physicians",
    "address": "Middletown, CT",
    "phone": "",
    "rating": 4.0,
    "reviews": 25,
    "website": "https://cteyephysicians.com/",
    "category": "Arabic-speaking Cataract surgery in Connecticut",
    "description": "This practice includes ophthalmologists who perform various eye surgeries, including cataract surgery",
    "hours": "Mon-Fri 9AM-6PM",
    "services": [
      "Arabic-speaking Cataract surgery in Connecticut consultation",
      "Professional service",
      "Quality guarantee"
    ],
    "social_links": {}
  },
  {
    "name": "Killingly Eye Care",
    "address": "141 Westcott Rd, Danielson, CT 06239",
    "phone": "",
    "rating": 4.0,
    "reviews": 25,
    "website": "https://killinglyeyecare.com/",
    "category": "Arabic-speaking Cataract surgery in Connecticut",
    "description": "While Dr. Bethany Arabic is listed here, her specialization is not explicitly stated as cataract surgery, though she has expertise in various eye care needs",
    "hours": "Mon-Fri 9AM-6PM",
    "services": [
      "Arabic-speaking Cataract surgery in Connecticut consultation",
      "Professional service",
      "Quality guarantee"
    ],
    "social_links": {}
  },
  {
    "name": "Stamford Ophthalmology",
    "address": "1298 Summer St, Stamford, CT 06905",
    "phone": "(203) 325-7575",
    "rating": 4.0,
    "reviews": 25,
    "website": "https://stamfordophthalmology.com/",
    "category": "Arabic-speaking Cataract surgery in Connecticut",
    "description": "Dr. Andrew Wolf at this practice is listed as a specialist in laser-assisted cataract surgery",
    "hours": "Mon-Fri 9AM-6PM",
    "services": [
      "Arabic-speaking Cataract surgery in Connecticut consultation",
      "Professional service",
      "Quality guarantee"
    ],
    "social_links": {}
  }
]