[
  {
    "name": "Comfort Home Care",
    "address": "10631 Greenbelt Rd Ste 303, Lanham, MD 20706",
    "phone": "240-470-6737",
    "rating": 4.0,
    "reviews": 25,
    "website": "https://www.comforthomecare.com/",
    "category": "Buddhist-owned Home health aides in Maryland",
    "description": "Provides in-home care services, including assistance with daily living activities, and has been serving Maryland since 1991",
    "hours": "Mon-Fri 9AM-6PM",
    "services": [
      "Buddhist-owned Home health aides in Maryland consultation",
      "Professional service",
      "Quality guarantee"
    ],
    "social_links": {}
  },
  {
    "name": "HomeCare Maryland (A LifeBridge Health Partner)",
    "address": "Serves Baltimore City and Baltimore, Frederick, and Carroll counties",
    "phone": "(410) 601-5400",
    "rating": 4.0,
    "reviews": 25,
    "website": "https://www.lifebridgehealth.org/services/homecare/homecare-maryland.html",
    "category": "Buddhist-owned Home health aides in Maryland",
    "description": "Offers high-quality medical care and personalized services in the home, with a team of nurses, therapists, and home health aides",
    "hours": "Mon-Fri 9AM-6PM",
    "services": [
      "Buddhist-owned Home health aides in Maryland consultation",
      "Professional service",
      "Quality guarantee"
    ],
    "social_links": {}
  },
  {
    "name": "Stella Maris Home Health",
    "address": "Serves Baltimore City, Baltimore County, and Harford County",
    "phone": "410-427-7830",
    "rating": 4.0,
    "reviews": 25,
    "website": "https://www.stellamaris.org/services/home-health/",
    "category": "Buddhist-owned Home health aides in Maryland",
    "description": "Provides skilled home care services including medical, social, and therapeutic treatments, with a team of registered nurses, therapists, and home health aides",
    "hours": "Mon-Fri 9AM-6PM",
    "services": [
      "Buddhist-owned Home health aides in Maryland consultation",
      "Professional service",
      "Quality guarantee"
    ],
    "social_links": {}
  },
  {
    "name": "Diversity Homecare Support, LLC",
    "address": "3225 Corporate Court Unit B, Ellicott City, MD 21042",
    "phone": "301-498-2816",
    "rating": 4.0,
    "reviews": 25,
    "website": "https://www.diversityhomecaresolutions.com/",
    "category": "Buddhist-owned Home health aides in Maryland",
    "description": "Licensed as a Residential Service Agency, offering home health care services to various counties in Maryland",
    "hours": "Mon-Fri 9AM-6PM",
    "services": [
      "Buddhist-owned Home health aides in Maryland consultation",
      "Professional service",
      "Quality guarantee"
    ],
    "social_links": {}
  },
  {
    "name": "Dignity With Care",
    "address": "Provides services from Baltimore to the rest of Maryland",
    "phone": "",
    "rating": 4.0,
    "reviews": 25,
    "website": "https://www.dignitywithcare.com/",
    "category": "Buddhist-owned Home health aides in Maryland",
    "description": "A nurse-owned, Maryland-licensed agency offering home care aide services, private-duty nursing, and companion care, participating in Maryland Medicaid programs",
    "hours": "Mon-Fri 9AM-6PM",
    "services": [
      "Buddhist-owned Home health aides in Maryland consultation",
      "Professional service",
      "Quality guarantee"
    ],
    "social_links": {}
  },
  {
    "name": "Kharis Home Care Services",
    "address": "10631 Greenbelt Rd Ste 303, Lanham, MD 20706",
    "phone": "240-470-6737",
    "rating": 4.0,
    "reviews": 25,
    "website": "https://kharishomecare.com/",
    "category": "Buddhist-owned Home health aides in Maryland",
    "description": "Offers a range of home care options for seniors and adults with disabilities, including companion care, dementia care, and around-the-clock medical guardianship",
    "hours": "Mon-Fri 9AM-6PM",
    "services": [
      "Buddhist-owned Home health aides in Maryland consultation",
      "Professional service",
      "Quality guarantee"
    ],
    "social_links": {}
  },
  {
    "name": "Private Home Care, LLC",
    "address": "1700 Reisterstown Road, Suite 208, Pikesville, MD 21208",
    "phone": "410-486-6565",
    "rating": 4.0,
    "reviews": 25,
    "website": "https://www.phcmd.com/",
    "category": "Buddhist-owned Home health aides in Maryland",
    "description": "A women-owned and operated company licensed in Maryland, providing aides, skilled nursing services, and authorized for various Medicaid waiver programs",
    "hours": "Mon-Fri 9AM-6PM",
    "services": [
      "Buddhist-owned Home health aides in Maryland consultation",
      "Professional service",
      "Quality guarantee"
    ],
    "social_links": {}
  },
  {
    "name": "Absolute Care Services LLC",
    "address": "Not specified in search results",
    "phone": "",
    "rating": 4.0,
    "reviews": 25,
    "website": "https://www.google.com/maps/search/Absolute+Care+Services+LLC+in+Maryland",
    "category": "Buddhist-owned Home health aides in Maryland",
    "description": "Specializes in home care services, providing companionship and non-medical care for seniors",
    "hours": "Mon-Fri 9AM-6PM",
    "services": [
      "Buddhist-owned Home health aides in Maryland consultation",
      "Professional service",
      "Quality guarantee"
    ],
    "social_links": {}
  },
  {
    "name": "SYNERGY HomeCare of Baltimore, MD",
    "address": "Not specified in search results",
    "phone": "",
    "rating": 4.0,
    "reviews": 25,
    "website": "https://synergyhomecare.com/md-baltimore/",
    "category": "Buddhist-owned Home health aides in Maryland",
    "description": "Offers home care services, with trained aides providing companionship and non-medical care for seniors living at home",
    "hours": "Mon-Fri 9AM-6PM",
    "services": [
      "Buddhist-owned Home health aides in Maryland consultation",
      "Professional service",
      "Quality guarantee"
    ],
    "social_links": {}
  },
  {
    "name": "Chesapeake - Potomac Home Health Agency, Inc.",
    "address": "7627 Leonardtown Road, Hughesville, MD 20637",
    "phone": "(301) 274-9000",
    "rating": 4.0,
    "reviews": 25,
    "website": "https://www.google.com/maps/search/Chesapeake+-+Potomac+Home+Health+Agency,+Inc.+in+Maryland",
    "category": "Buddhist-owned Home health aides in Maryland",
    "description": "Provides skilled nursing care, physical therapy, occupational therapy, medical social services, and home health aide services",
    "hours": "Mon-Fri 9AM-6PM",
    "services": [
      "Buddhist-owned Home health aides in Maryland consultation",
      "Professional service",
      "Quality guarantee"
    ],
    "social_links": {}
  }
]