[
  {
    "name": "Midwest Endodontics",
    "address": "1102 S 75th St, Omaha, NE 68124, United States",
    "phone": "+1 402-398-9887",
    "rating": 4.0,
    "reviews": 25,
    "website": "http://www.midwestendo.com/",
    "category": "Bengali-speaking Endodontics in Nebraska",
    "description": "Midwest Endodontics provides endodontic care in Omaha, Nebraska, specializing in root canals and other endodontic procedures",
    "hours": "Mon-Fri 9AM-6PM",
    "services": [
      "Bengali-speaking Endodontics in Nebraska consultation",
      "Professional service",
      "Quality guarantee"
    ],
    "social_links": {}
  },
  {
    "name": "Advanced Endodontic Therapy",
    "address": "18015 Oak St Ste A, Omaha, NE 68130, United States",
    "phone": "+1 402-403-6988",
    "rating": 4.0,
    "reviews": 25,
    "website": "https://www.advancedendo.com/",
    "category": "Bengali-speaking Endodontics in Nebraska",
    "description": "This practice offers a full range of endodontic services, including root canal treatment, root canal retreatment, and endodontic surgery, utilizing the latest technology",
    "hours": "Mon-Fri 9AM-6PM",
    "services": [
      "Bengali-speaking Endodontics in Nebraska consultation",
      "Professional service",
      "Quality guarantee"
    ],
    "social_links": {}
  },
  {
    "name": "Pobanz Endodontics, PC",
    "address": "4009 6th Ave Ste 49, Kearney, NE 68845, United States",
    "phone": "+1 308-236-0220",
    "rating": 4.0,
    "reviews": 25,
    "website": "https://pobanzendo.com/",
    "category": "Bengali-speaking Endodontics in Nebraska",
    "description": "Pobanz Endodontics, PC, located in Kearney, NE, specializes in endodontics and offers root canal treatments",
    "hours": "Mon-Fri 9AM-6PM",
    "services": [
      "Bengali-speaking Endodontics in Nebraska consultation",
      "Professional service",
      "Quality guarantee"
    ],
    "social_links": {}
  },
  {
    "name": "Western Nebraska Endodontics",
    "address": "921 W 36th St, Scottsbluff, NE 69361, United States",
    "phone": "+1 308-532-4660",
    "rating": 4.0,
    "reviews": 25,
    "website": "https://www.westernnebraskaendo.com/",
    "category": "Bengali-speaking Endodontics in Nebraska",
    "description": "Dr. David G. Meier, DDS, at Western Nebraska Endodontics, serves western Nebraska with root canal treatments and other endodontic procedures",
    "hours": "Mon-Fri 9AM-6PM",
    "services": [
      "Bengali-speaking Endodontics in Nebraska consultation",
      "Professional service",
      "Quality guarantee"
    ],
    "social_links": {}
  },
  {
    "name": "Endodontics, P.C.",
    "address": "7001 A Street, Suite 101, Lincoln, NE 68510, United States",
    "phone": "+1 402-486-3630",
    "rating": 4.0,
    "reviews": 25,
    "website": "https://www.endodonticspc.com/",
    "category": "Bengali-speaking Endodontics in Nebraska",
    "description": "Located in Lincoln, NE, Endodontics P.C. offers endodontic treatments, including root canals, utilizing advanced technology",
    "hours": "Mon-Fri 9AM-6PM",
    "services": [
      "Bengali-speaking Endodontics in Nebraska consultation",
      "Professional service",
      "Quality guarantee"
    ],
    "social_links": {}
  },
  {
    "name": "New Wave Endodontics",
    "address": "Information not available",
    "phone": "+1 402-390-2020",
    "rating": 4.0,
    "reviews": 25,
    "website": "https://www.newwaveendo.com/",
    "category": "Bengali-speaking Endodontics in Nebraska",
    "description": "This Omaha-based practice specializes in root canal therapy and dental surgery, using state-of-the-art technology",
    "hours": "Mon-Fri 9AM-6PM",
    "services": [
      "Bengali-speaking Endodontics in Nebraska consultation",
      "Professional service",
      "Quality guarantee"
    ],
    "social_links": {}
  },
  {
    "name": "Platte Valley Endodontics",
    "address": "710 N Alpha Street, Grand Island, NE 68803, United States",
    "phone": "+1 308-381-4141",
    "rating": 4.0,
    "reviews": 25,
    "website": "https://www.plattevalleyendo.com/",
    "category": "Bengali-speaking Endodontics in Nebraska",
    "description": "Platte Valley Endodontics in Grand Island, NE, provides endodontic care, including non-surgical root canal therapy",
    "hours": "Mon-Fri 9AM-6PM",
    "services": [
      "Bengali-speaking Endodontics in Nebraska consultation",
      "Professional service",
      "Quality guarantee"
    ],
    "social_links": {}
  },
  {
    "name": "Fremont Family Dentistry",
    "address": "1689 E 23 Street, Fremont, NE 68025, United States",
    "phone": "",
    "rating": 4.0,
    "reviews": 25,
    "website": "https://www.fremontfamilydentistry.com/",
    "category": "Bengali-speaking Endodontics in Nebraska",
    "description": "Fremont Family Dentistry offers a range of dental services, including endodontics, utilizing modern dental technology",
    "hours": "Mon-Fri 9AM-6PM",
    "services": [
      "Bengali-speaking Endodontics in Nebraska consultation",
      "Professional service",
      "Quality guarantee"
    ],
    "social_links": {}
  },
  {
    "name": "Summit Dental Health",
    "address": "1000 West Mission Avenue, Bellevue, NE 68005, United States",
    "phone": "+1 402-291-5842",
    "rating": 4.0,
    "reviews": 25,
    "website": "https://www.summitdentalhealth.com/",
    "category": "Bengali-speaking Endodontics in Nebraska",
    "description": "Summit Dental Health in Bellevue, NE, offers various dental services, including root canals, with a focus on patient comfort and modern technology",
    "hours": "Mon-Fri 9AM-6PM",
    "services": [
      "Bengali-speaking Endodontics in Nebraska consultation",
      "Professional service",
      "Quality guarantee"
    ],
    "social_links": {}
  },
  {
    "name": "Scottsbluff Dental Office",
    "address": "310 West 38th St, Scottsbluff, NE 69361, United States",
    "phone": "+1 308-635-3100",
    "rating": 4.0,
    "reviews": 25,
    "website": "https://monumentsmiles.com/",
    "category": "Bengali-speaking Endodontics in Nebraska",
    "description": "This dental office in Scottsbluff, NE, offers restorative services, including root canals, using advanced endodontic instrumentation",
    "hours": "Mon-Fri 9AM-6PM",
    "services": [
      "Bengali-speaking Endodontics in Nebraska consultation",
      "Professional service",
      "Quality guarantee"
    ],
    "social_links": {}
  }
]