[
  {
    "name": "ADP",
    "address": "Multiple locations in Connecticut. A general search for \"ADP Connecticut\" will provide specific office addresses",
    "phone": "1-800-CALL-ADP (1-800-225-5237)",
    "rating": 4.0,
    "reviews": 25,
    "website": "https://www.adp.com/",
    "category": "Central-American-owned Payroll processing in Connecticut",
    "description": "ADP offers a wide range of human resources, payroll, and benefits administration solutions for businesses of all sizes",
    "hours": "Mon-Fri 9AM-6PM",
    "services": [
      "Central-American-owned Payroll processing in Connecticut consultation",
      "Professional service",
      "Quality guarantee"
    ],
    "social_links": {}
  },
  {
    "name": "Paychex",
    "address": "Multiple locations in Connecticut. A general search for \"Paychex Connecticut\" will provide specific office addresses",
    "phone": "1-800-PAYCHEX (1-800-729-2439)",
    "rating": 4.0,
    "reviews": 25,
    "website": "https://www.paychex.com/",
    "category": "Central-American-owned Payroll processing in Connecticut",
    "description": "Paychex provides payroll, human resources, and benefits services, with a focus on small to medium-sized businesses",
    "hours": "Mon-Fri 9AM-6PM",
    "services": [
      "Central-American-owned Payroll processing in Connecticut consultation",
      "Professional service",
      "Quality guarantee"
    ],
    "social_links": {}
  },
  {
    "name": "Total Pay Inc.",
    "address": "145 Main St, Manchester, CT 06042",
    "phone": "(860) 643-9060",
    "rating": 4.0,
    "reviews": 25,
    "website": "https://totalpayinc.com/",
    "category": "Central-American-owned Payroll processing in Connecticut",
    "description": "Total Pay Inc. offers tailored payroll solutions, timekeeping, and employer support services",
    "hours": "Mon-Fri 9AM-6PM",
    "services": [
      "Central-American-owned Payroll processing in Connecticut consultation",
      "Professional service",
      "Quality guarantee"
    ],
    "social_links": {}
  },
  {
    "name": "Advantage Payroll Service",
    "address": "Multiple locations, including 1000 Bridgeport Ave, Shelton, CT 06484",
    "phone": "(203) 925-8000",
    "rating": 4.0,
    "reviews": 25,
    "website": "https://www.advantagepayroll.com/",
    "category": "Central-American-owned Payroll processing in Connecticut",
    "description": "Advantage Payroll Service is a national provider of outsourced payroll processing, tax filing, and tax payments",
    "hours": "Mon-Fri 9AM-6PM",
    "services": [
      "Central-American-owned Payroll processing in Connecticut consultation",
      "Professional service",
      "Quality guarantee"
    ],
    "social_links": {}
  },
  {
    "name": "New England Payroll Services",
    "address": "1000 Bridgeport Ave, Shelton, CT 06484",
    "phone": "(203) 925-8000",
    "rating": 4.0,
    "reviews": 25,
    "website": "https://www.newenglandpayroll.com/",
    "category": "Central-American-owned Payroll processing in Connecticut",
    "description": "New England Payroll Services provides payroll management, tax filing, and HR solutions",
    "hours": "Mon-Fri 9AM-6PM",
    "services": [
      "Central-American-owned Payroll processing in Connecticut consultation",
      "Professional service",
      "Quality guarantee"
    ],
    "social_links": {}
  },
  {
    "name": "AccuServe Payroll",
    "address": "1000 Bridgeport Ave, Shelton, CT 06484",
    "phone": "(203) 925-8000",
    "rating": 4.0,
    "reviews": 25,
    "website": "https://www.accuservepayroll.com/",
    "category": "Central-American-owned Payroll processing in Connecticut",
    "description": "AccuServe Payroll offers online payroll services for small businesses",
    "hours": "Mon-Fri 9AM-6PM",
    "services": [
      "Central-American-owned Payroll processing in Connecticut consultation",
      "Professional service",
      "Quality guarantee"
    ],
    "social_links": {}
  },
  {
    "name": "ConnectPay Payroll Services",
    "address": "185 Plains Road, Suite 204W, Milford, CT 06461",
    "phone": "(203) 882-5400",
    "rating": 4.5,
    "reviews": 25,
    "website": "https://www.connectpay.com/",
    "category": "Central-American-owned Payroll processing in Connecticut",
    "description": "ConnectPay offers online payroll services with a focus on customer service and technology",
    "hours": "Mon-Fri 9AM-6PM",
    "services": [
      "Central-American-owned Payroll processing in Connecticut consultation",
      "Professional service",
      "Quality guarantee"
    ],
    "social_links": {}
  },
  {
    "name": "Action Payroll Services",
    "address": "124 Water St, Waterbury, CT 06702",
    "phone": "(203) 597-8321",
    "rating": 4.5,
    "reviews": 25,
    "website": "https://www.actionpayroll.com/",
    "category": "Central-American-owned Payroll processing in Connecticut",
    "description": "Action Payroll Services provides personalized payroll solutions, time tracking, and HR support",
    "hours": "Mon-Fri 9AM-6PM",
    "services": [
      "Central-American-owned Payroll processing in Connecticut consultation",
      "Professional service",
      "Quality guarantee"
    ],
    "social_links": {}
  },
  {
    "name": "OEM America",
    "address": "1000 Bridgeport Ave, Shelton, CT 06484",
    "phone": "(203) 925-8000",
    "rating": 4.0,
    "reviews": 25,
    "website": "https://www.oemamerica.com/",
    "category": "Central-American-owned Payroll processing in Connecticut",
    "description": "OEM America offers comprehensive payroll and HR outsourcing solutions, including an error-free guarantee",
    "hours": "Mon-Fri 9AM-6PM",
    "services": [
      "Central-American-owned Payroll processing in Connecticut consultation",
      "Professional service",
      "Quality guarantee"
    ],
    "social_links": {}
  },
  {
    "name": "TPS Group (Payright Payroll Affiliates)",
    "address": "Multiple locations. A general search for \"TPS Group Connecticut\" may provide specific addresses",
    "phone": "1-855-828-2229",
    "rating": 4.0,
    "reviews": 25,
    "website": "https://www.tpsgroup.com/",
    "category": "Central-American-owned Payroll processing in Connecticut",
    "description": "TPS Group, through Payright Payroll Affiliates, offers customized payroll solutions and HR services",
    "hours": "Mon-Fri 9AM-6PM",
    "services": [
      "Central-American-owned Payroll processing in Connecticut consultation",
      "Professional service",
      "Quality guarantee"
    ],
    "social_links": {}
  }
]