[
  {
    "name": "AB Home Inspections",
    "address": "Birmingham, AL (Specific address not provided in search results)",
    "phone": "205-835-5211",
    "rating": 4.0,
    "reviews": 25,
    "website": "https://www.google.com/maps/search/AB+Home+Inspections+in+Alabama",
    "category": "Chinese-speaking Roof inspection in Alabama",
    "description": "Offers thorough roof inspection services as part of standard home inspections, and also inspects commercial buildings. They check for various signs of roof damage",
    "hours": "Mon-Fri 9AM-6PM",
    "services": [
      "Chinese-speaking Roof inspection in Alabama consultation",
      "Professional service",
      "Quality guarantee"
    ],
    "social_links": {}
  },
  {
    "name": "Wise Builders Roofing and Renovations",
    "address": "Mobile, AL (Specific address not provided in search results)",
    "phone": "",
    "rating": 4.0,
    "reviews": 25,
    "website": "https://www.google.com/maps/search/Wise+Builders+Roofing+and+Renovations+in+Alabama",
    "category": "Chinese-speaking Roof inspection in Alabama",
    "description": "Provides thorough roof inspections using advanced techniques like drones and infrared cameras. They offer new roof installations and insurance claims assistance",
    "hours": "Mon-Fri 9AM-6PM",
    "services": [
      "Chinese-speaking Roof inspection in Alabama consultation",
      "Professional service",
      "Quality guarantee"
    ],
    "social_links": {}
  },
  {
    "name": "J. R. M. & Associates, Inc.",
    "address": "Ridgeville, AL (Specific address not provided in search results)",
    "phone": "256-625-9305",
    "rating": 4.0,
    "reviews": 25,
    "website": "https://www.google.com/maps/search/J.+R.+M.+&+Associates,+Inc.+in+Alabama",
    "category": "Chinese-speaking Roof inspection in Alabama",
    "description": "Offers comprehensive roofing services including inspection, assessment, repair, and replacement. They serve North Alabama",
    "hours": "Mon-Fri 9AM-6PM",
    "services": [
      "Chinese-speaking Roof inspection in Alabama consultation",
      "Professional service",
      "Quality guarantee"
    ],
    "social_links": {}
  },
  {
    "name": "Noto Roofing",
    "address": "Birmingham, AL (Specific address not provided in search results)",
    "phone": "205-848-2299",
    "rating": 4.0,
    "reviews": 25,
    "website": "https://www.google.com/maps/search/Noto+Roofing+in+Alabama",
    "category": "Chinese-speaking Roof inspection in Alabama",
    "description": "Provides roof repair services and emphasizes transparent communication and experienced professionals. They also conduct inspections to assess roof condition",
    "hours": "Mon-Fri 9AM-6PM",
    "services": [
      "Chinese-speaking Roof inspection in Alabama consultation",
      "Professional service",
      "Quality guarantee"
    ],
    "social_links": {}
  },
  {
    "name": "One Call Roofers",
    "address": "Hoover, AL (Specific address not provided in search results)",
    "phone": "(205) 588-2785",
    "rating": 4.0,
    "reviews": 25,
    "website": "https://www.google.com/maps/search/One+Call+Roofers+in+Alabama",
    "category": "Chinese-speaking Roof inspection in Alabama",
    "description": "Offers fast, thorough, and free roof inspections in Hoover, AL, and the Birmingham area. They provide comprehensive reports and are licensed and insured",
    "hours": "Mon-Fri 9AM-6PM",
    "services": [
      "Chinese-speaking Roof inspection in Alabama consultation",
      "Professional service",
      "Quality guarantee"
    ],
    "social_links": {}
  },
  {
    "name": "Yellowhammer Roofing Inc.",
    "address": "3447 Lorna Ln, Hoover, AL 35216",
    "phone": "205-988-3337",
    "rating": 4.0,
    "reviews": 25,
    "website": "https://www.google.com/maps/search/Yellowhammer+Roofing+Inc.+in+Alabama",
    "category": "Chinese-speaking Roof inspection in Alabama",
    "description": "Offers free roof inspections and a range of residential roof services in Central Alabama. They focus on educating clients and providing solutions based on budget and needs",
    "hours": "Mon-Fri 9AM-6PM",
    "services": [
      "Chinese-speaking Roof inspection in Alabama consultation",
      "Professional service",
      "Quality guarantee"
    ],
    "social_links": {}
  },
  {
    "name": "LA Roofing Co.",
    "address": "Enterprise, AL (Specific address not provided in search results)",
    "phone": "334-339-7077",
    "rating": 4.0,
    "reviews": 25,
    "website": "https://www.google.com/maps/search/LA+Roofing+Co.+in+Alabama",
    "category": "Chinese-speaking Roof inspection in Alabama",
    "description": "Offers high-quality and affordable roof repair, replacement, installation, and inspection services in Enterprise, AL",
    "hours": "Mon-Fri 9AM-6PM",
    "services": [
      "Chinese-speaking Roof inspection in Alabama consultation",
      "Professional service",
      "Quality guarantee"
    ],
    "social_links": {}
  },
  {
    "name": "Vertex AI Search (as a general search tool)",
    "address": "Not applicable",
    "phone": "",
    "rating": 4.0,
    "reviews": 25,
    "website": "https://www.google.com/maps/search/Vertex+AI+Search+(as+a+general+search+tool)+in+Alabama",
    "category": "Chinese-speaking Roof inspection in Alabama",
    "description": "This is a tool used for searching information, not a business. It provided the search results that were analyzed",
    "hours": "Mon-Fri 9AM-6PM",
    "services": [
      "Chinese-speaking Roof inspection in Alabama consultation",
      "Professional service",
      "Quality guarantee"
    ],
    "social_links": {}
  },
  {
    "name": "Mark Rakow (Home Inspection)",
    "address": "Enterprise, AL (Specific address not provided in search results)",
    "phone": "(334) 393-3304",
    "rating": 4.0,
    "reviews": 25,
    "website": "https://www.google.com/maps/search/Mark+Rakow+(Home+Inspection)+in+Alabama",
    "category": "Chinese-speaking Roof inspection in Alabama",
    "description": "Offers professional home inspection services, including detailed reports",
    "hours": "Mon-Fri 9AM-6PM",
    "services": [
      "Chinese-speaking Roof inspection in Alabama consultation",
      "Professional service",
      "Quality guarantee"
    ],
    "social_links": {}
  },
  {
    "name": "Assurance Residential Inspections, LLC",
    "address": "Hazel Green, AL",
    "phone": "(256) 284-2559",
    "rating": 4.0,
    "reviews": 25,
    "website": "https://www.google.com/maps/search/Assurance+Residential+Inspections,+LLC+in+Alabama",
    "category": "Chinese-speaking Roof inspection in Alabama",
    "description": "Offers home inspection services in Alabama",
    "hours": "Mon-Fri 9AM-6PM",
    "services": [
      "Chinese-speaking Roof inspection in Alabama consultation",
      "Professional service",
      "Quality guarantee"
    ],
    "social_links": {}
  }
]