[
  {
    "name": "Tri-State Metal Roofing Supply",
    "address": "Multiple locations, including 1000 S 700 W, Salt Lake City, UT 84104",
    "phone": "(801) 973-0870",
    "rating": 4.8,
    "reviews": 25,
    "website": "https://www.tristatemetalroofingsupply.com/",
    "category": "Baby-Boomer-owned Metal roofing in Utah",
    "description": "Offers a wide selection of metal roofing colors, types, and trim profiles, as well as accessories. They are a full-service trim fabricator and panel manufacturer",
    "hours": "Mon-Fri 9AM-6PM",
    "services": [
      "Baby-Boomer-owned Metal roofing in Utah consultation",
      "Professional service",
      "Quality guarantee"
    ],
    "social_links": {}
  },
  {
    "name": "Cypress Metals",
    "address": "1250 S Redwood Rd, Salt Lake City, UT 84104",
    "phone": "(801) 973-2220",
    "rating": 4.7,
    "reviews": 25,
    "website": "https://cypressmetals.com/",
    "category": "Baby-Boomer-owned Metal roofing in Utah",
    "description": "A metal roofing supplier and fabricator in Salt Lake City, offering customization for unique demands and specifications",
    "hours": "Mon-Fri 9AM-6PM",
    "services": [
      "Baby-Boomer-owned Metal roofing in Utah consultation",
      "Professional service",
      "Quality guarantee"
    ],
    "social_links": {}
  },
  {
    "name": "The Roof Guys",
    "address": "1155 N 1000 W, Orem, UT 84057",
    "phone": "(801) 201-8042",
    "rating": 4.9,
    "reviews": 25,
    "website": "https://theroofguysutah.com/",
    "category": "Baby-Boomer-owned Metal roofing in Utah",
    "description": "Experienced roofing contractors in Utah County specializing in metal, shingle, and membrane roofing for residential and commercial properties",
    "hours": "Mon-Fri 9AM-6PM",
    "services": [
      "Baby-Boomer-owned Metal roofing in Utah consultation",
      "Professional service",
      "Quality guarantee"
    ],
    "social_links": {}
  },
  {
    "name": "Mountain Standard Metal Roofing",
    "address": "765 S 500 E #1, Salt Lake City, UT 84102",
    "phone": "(801) 618-2587",
    "rating": 4.8,
    "reviews": 25,
    "website": "https://mountainstandardmetalroofing.com/",
    "category": "Baby-Boomer-owned Metal roofing in Utah",
    "description": "Provides high-quality and long-lasting metal roofing installations for residential and commercial properties, focusing on structural integrity",
    "hours": "Mon-Fri 9AM-6PM",
    "services": [
      "Baby-Boomer-owned Metal roofing in Utah consultation",
      "Professional service",
      "Quality guarantee"
    ],
    "social_links": {}
  },
  {
    "name": "Clear Skies Construction",
    "address": "1277 E 3300 S, Salt Lake City, UT 84106",
    "phone": "(801) 448-0555",
    "rating": 4.9,
    "reviews": 25,
    "website": "https://clearskiesconstruction.com/",
    "category": "Baby-Boomer-owned Metal roofing in Utah",
    "description": "Offers customized roofing services with attention to detail, and is a GAF Certified Contractor",
    "hours": "Mon-Fri 9AM-6PM",
    "services": [
      "Baby-Boomer-owned Metal roofing in Utah consultation",
      "Professional service",
      "Quality guarantee"
    ],
    "social_links": {}
  },
  {
    "name": "Novus Roofing and Exteriors",
    "address": "1165 E 3300 S, Salt Lake City, UT 84106",
    "phone": "(801) 871-0000",
    "rating": 4.7,
    "reviews": 25,
    "website": "https://www.novusroofing.com/",
    "category": "Baby-Boomer-owned Metal roofing in Utah",
    "description": "Provides fair pricing for quality work and materials, with a focus on customer satisfaction",
    "hours": "Mon-Fri 9AM-6PM",
    "services": [
      "Baby-Boomer-owned Metal roofing in Utah consultation",
      "Professional service",
      "Quality guarantee"
    ],
    "social_links": {}
  },
  {
    "name": "Texo Roofing",
    "address": "1325 S 400 W, Salt Lake City, UT 84101",
    "phone": "(801) 601-1000",
    "rating": 4.8,
    "reviews": 25,
    "website": "https://texoroo\ufb01ng.com/",
    "category": "Baby-Boomer-owned Metal roofing in Utah",
    "description": "Experienced in residential and commercial installation, replacement, and repair, focusing on high-quality products and craftsmanship",
    "hours": "Mon-Fri 9AM-6PM",
    "services": [
      "Baby-Boomer-owned Metal roofing in Utah consultation",
      "Professional service",
      "Quality guarantee"
    ],
    "social_links": {}
  },
  {
    "name": "Orem Metal Roofing (Roofing Utah)",
    "address": "1380 S State St, Orem, UT 84058",
    "phone": "(385) 799-8824",
    "rating": 4.9,
    "reviews": 25,
    "website": "https://www.roofingutah.com/orem-metal-roofing/",
    "category": "Baby-Boomer-owned Metal roofing in Utah",
    "description": "Specializes in metal roofing installation, offering advantages like reduced energy bills, protective lifespan, and safety against hail and fire damage",
    "hours": "Mon-Fri 9AM-6PM",
    "services": [
      "Baby-Boomer-owned Metal roofing in Utah consultation",
      "Professional service",
      "Quality guarantee"
    ],
    "social_links": {}
  },
  {
    "name": "Roof-It, Inc.",
    "address": "323 Gregson Ave S, Salt Lake City, UT 84115",
    "phone": "(801) 567-9093",
    "rating": 5.0,
    "reviews": 25,
    "website": "https://roof-it.com/",
    "category": "Baby-Boomer-owned Metal roofing in Utah",
    "description": "A licensed general roofing contractor with an A+ BBB rating, serving Utah for 25 years with quality, integrity, and long-lasting results",
    "hours": "Mon-Fri 9AM-6PM",
    "services": [
      "Baby-Boomer-owned Metal roofing in Utah consultation",
      "Professional service",
      "Quality guarantee"
    ],
    "social_links": {}
  },
  {
    "name": "Lifetime Roofing",
    "address": "555 E 1000 N, North Salt Lake, UT 84054",
    "phone": "(801) 928-8881",
    "rating": 4.9,
    "reviews": 25,
    "website": "https://lifetimeroofingutah.com/",
    "category": "Baby-Boomer-owned Metal roofing in Utah",
    "description": "A full-service, family-owned roofing company offering residential and commercial roofing services with a focus on quality materials, expert installation, and customer satisfaction",
    "hours": "Mon-Fri 9AM-6PM",
    "services": [
      "Baby-Boomer-owned Metal roofing in Utah consultation",
      "Professional service",
      "Quality guarantee"
    ],
    "social_links": {}
  }
]