[
  {
    "name": "Burn Boot Camp - Indian Land",
    "address": "9030 Northfield Dr, Unit G, Indian Land, SC 29707",
    "phone": "+1 803-802-9979",
    "rating": 4.0,
    "reviews": 25,
    "website": "https://burnbootcamp.com/locations/indian-land-sc/",
    "category": "American-Indian-owned Boot camps in South-Carolina",
    "description": "Offers HIIT workouts, nutritional guidance, and childcare",
    "hours": "Mon-Fri 9AM-6PM",
    "services": [
      "American-Indian-owned Boot camps in South-Carolina consultation",
      "Professional service",
      "Quality guarantee"
    ],
    "social_links": {}
  },
  {
    "name": "Burn Boot Camp - Lexington",
    "address": "217 Saluda Springs Rd, Lexington, SC 29072",
    "phone": "+1 803-490-0940",
    "rating": 4.0,
    "reviews": 25,
    "website": "https://burnbootcamp.com/locations/lexington-sc/",
    "category": "American-Indian-owned Boot camps in South-Carolina",
    "description": "Offers group fitness classes with a focus on strength and conditioning",
    "hours": "Mon-Fri 9AM-6PM",
    "services": [
      "American-Indian-owned Boot camps in South-Carolina consultation",
      "Professional service",
      "Quality guarantee"
    ],
    "social_links": {}
  },
  {
    "name": "Burn Boot Camp - Lake Murray",
    "address": "7595 Saint Andrews Rd, Irmo, SC 29063",
    "phone": "+1 803-360-1277",
    "rating": 4.0,
    "reviews": 25,
    "website": "https://burnbootcamp.com/locations/lake-murray-sc/",
    "category": "American-Indian-owned Boot camps in South-Carolina",
    "description": "Provides unlimited group fitness workouts",
    "hours": "Mon-Fri 9AM-6PM",
    "services": [
      "American-Indian-owned Boot camps in South-Carolina consultation",
      "Professional service",
      "Quality guarantee"
    ],
    "social_links": {}
  },
  {
    "name": "Burn Boot Camp - Sandhill",
    "address": "715 Fashion Dr, Columbia, SC 29229",
    "phone": "+1 803-223-9385",
    "rating": 4.0,
    "reviews": 25,
    "website": "https://burnbootcamp.com/locations/sandhill-sc/",
    "category": "American-Indian-owned Boot camps in South-Carolina",
    "description": "Offers high-intensity interval training (HIIT) and community-focused fitness",
    "hours": "Mon-Fri 9AM-6PM",
    "services": [
      "American-Indian-owned Boot camps in South-Carolina consultation",
      "Professional service",
      "Quality guarantee"
    ],
    "social_links": {}
  },
  {
    "name": "Burn Boot Camp - Rock Hill",
    "address": "1075 Bayshore Dr, Rock Hill, SC 29732",
    "phone": "+1 803-579-5278",
    "rating": 4.0,
    "reviews": 25,
    "website": "https://burnbootcamp.com/locations/rock-hill-sc/",
    "category": "American-Indian-owned Boot camps in South-Carolina",
    "description": "A fitness center offering various workout programs and a supportive environment",
    "hours": "Mon-Fri 9AM-6PM",
    "services": [
      "American-Indian-owned Boot camps in South-Carolina consultation",
      "Professional service",
      "Quality guarantee"
    ],
    "social_links": {}
  },
  {
    "name": "Burn Boot Camp - Summerville",
    "address": "1202 North Main St, Summerville, SC 29483",
    "phone": "+1 843-970-6883",
    "rating": 4.0,
    "reviews": 25,
    "website": "https://burnbootcamp.com/locations/summerville-sc/",
    "category": "American-Indian-owned Boot camps in South-Carolina",
    "description": "Focuses on group fitness, strength, and conditioning",
    "hours": "Mon-Fri 9AM-6PM",
    "services": [
      "American-Indian-owned Boot camps in South-Carolina consultation",
      "Professional service",
      "Quality guarantee"
    ],
    "social_links": {}
  },
  {
    "name": "Burn Boot Camp - Tega Cay",
    "address": "1736 Gold Hill Rd, Fort Mill, SC 29708",
    "phone": "+1 980-288-9095",
    "rating": 4.0,
    "reviews": 25,
    "website": "https://burnbootcamp.com/locations/tega-cay-sc/",
    "category": "American-Indian-owned Boot camps in South-Carolina",
    "description": "Offers unlimited group fitness workouts and community support",
    "hours": "Mon-Fri 9AM-6PM",
    "services": [
      "American-Indian-owned Boot camps in South-Carolina consultation",
      "Professional service",
      "Quality guarantee"
    ],
    "social_links": {}
  },
  {
    "name": "Burn Boot Camp - Simpsonville",
    "address": "810 SE Main St, Simpsonville, SC 29681",
    "phone": "+1 864-350-0849",
    "rating": 4.0,
    "reviews": 25,
    "website": "https://burnbootcamp.com/locations/simpsonville-sc/",
    "category": "American-Indian-owned Boot camps in South-Carolina",
    "description": "A fitness camp providing high-intensity workouts",
    "hours": "Mon-Fri 9AM-6PM",
    "services": [
      "American-Indian-owned Boot camps in South-Carolina consultation",
      "Professional service",
      "Quality guarantee"
    ],
    "social_links": {}
  },
  {
    "name": "Burn Boot Camp - Spartanburg",
    "address": "1802 Drayton Rd, Spartanburg, SC 29307",
    "phone": "+1 864-715-2267",
    "rating": 4.0,
    "reviews": 25,
    "website": "https://burnbootcamp.com/locations/spartanburg-sc/",
    "category": "American-Indian-owned Boot camps in South-Carolina",
    "description": "Offers group fitness classes and personalized training",
    "hours": "Mon-Fri 9AM-6PM",
    "services": [
      "American-Indian-owned Boot camps in South-Carolina consultation",
      "Professional service",
      "Quality guarantee"
    ],
    "social_links": {}
  },
  {
    "name": "Burn Boot Camp - Five Forks",
    "address": "1618 Woodruff Rd, Greenville, SC 29607",
    "phone": "+1 864-609-7401",
    "rating": 4.0,
    "reviews": 25,
    "website": "https://burnbootcamp.com/locations/five-forks-sc/",
    "category": "American-Indian-owned Boot camps in South-Carolina",
    "description": "Provides a variety of fitness classes and a supportive community",
    "hours": "Mon-Fri 9AM-6PM",
    "services": [
      "American-Indian-owned Boot camps in South-Carolina consultation",
      "Professional service",
      "Quality guarantee"
    ],
    "social_links": {}
  }
]