[
  {
    "name": "Avek IP LLC",
    "address": "100 E. Big Ben Dr., Ste. 300, Overland Park, KS 66210",
    "phone": "(913) 647-9050",
    "rating": 4.0,
    "reviews": 25,
    "website": "https://www.avekip.com/",
    "category": "Asian-owned Patent law in Kansas",
    "description": "Focuses on protecting innovations and brands, offering services in patents, trademarks, copyrights, litigation, and international services",
    "hours": "Mon-Fri 9AM-6PM",
    "services": [
      "Asian-owned Patent law in Kansas consultation",
      "Professional service",
      "Quality guarantee"
    ],
    "social_links": {}
  },
  {
    "name": "Hovey Williams LLP",
    "address": "100 E. Big Ben Dr., Ste. 300, Overland Park, KS 66210",
    "phone": "(913) 647-9050",
    "rating": 4.0,
    "reviews": 25,
    "website": "https://www.hoveywilliams.com/",
    "category": "Asian-owned Patent law in Kansas",
    "description": "Assists clients nationally and internationally with a full range of intellectual property issues",
    "hours": "Mon-Fri 9AM-6PM",
    "services": [
      "Asian-owned Patent law in Kansas consultation",
      "Professional service",
      "Quality guarantee"
    ],
    "social_links": {}
  },
  {
    "name": "Ream Law Firm, L.L.C.",
    "address": "210 Tecumseh St., Ottawa, KS 66067",
    "phone": "(785) 242-9500",
    "rating": 4.0,
    "reviews": 25,
    "website": "https://reamlawfirm.com/",
    "category": "Asian-owned Patent law in Kansas",
    "description": "Provides patent and trademark services, with over 25 years of experience in helping inventors and securing intellectual property",
    "hours": "Mon-Fri 9AM-6PM",
    "services": [
      "Asian-owned Patent law in Kansas consultation",
      "Professional service",
      "Quality guarantee"
    ],
    "social_links": {}
  },
  {
    "name": "Adams Jones",
    "address": "120 N. Market St., Ste. 200, Wichita, KS 67202",
    "phone": "(316) 267-2000",
    "rating": 4.0,
    "reviews": 25,
    "website": "https://www.adamsjones.com/",
    "category": "Asian-owned Patent law in Kansas",
    "description": "Offers intellectual property services including patent law, trademark law, copyright law, and trade secrets",
    "hours": "Mon-Fri 9AM-6PM",
    "services": [
      "Asian-owned Patent law in Kansas consultation",
      "Professional service",
      "Quality guarantee"
    ],
    "social_links": {}
  },
  {
    "name": "BRADLEY IP, LLC",
    "address": "100 E. Big Ben Dr., Ste. 300, Overland Park, KS 66210 (Note: This address appears to be a shared office space or a different location than a primary office for some firms listed.)",
    "phone": "(816) 531-7000",
    "rating": 4.0,
    "reviews": 25,
    "website": "https://www.bradleyip.com/",
    "category": "Asian-owned Patent law in Kansas",
    "description": "Provides intellectual property legal services for protecting patents, trademarks, copyrights, and trade secrets",
    "hours": "Mon-Fri 9AM-6PM",
    "services": [
      "Asian-owned Patent law in Kansas consultation",
      "Professional service",
      "Quality guarantee"
    ],
    "social_links": {}
  },
  {
    "name": "NovoTech Patent Firm",
    "address": "Serving Wichita, KS (Nationwide)",
    "phone": "855-978-0128",
    "rating": 4.0,
    "reviews": 25,
    "website": "https://www.novotechpatent.com/",
    "category": "Asian-owned Patent law in Kansas",
    "description": "A patent law firm for startups and corporations, combining technical knowledge with legal experience",
    "hours": "Mon-Fri 9AM-6PM",
    "services": [
      "Asian-owned Patent law in Kansas consultation",
      "Professional service",
      "Quality guarantee"
    ],
    "social_links": {}
  },
  {
    "name": "David Yamaguchi (associated with UpCounsel)",
    "address": "Wichita, KS (specific address not provided in search results)",
    "phone": "",
    "rating": 4.0,
    "reviews": 25,
    "website": "https://www.upcounsel.com/david-yamaguchi",
    "category": "Asian-owned Patent law in Kansas",
    "description": "Specializes in intellectual property, content hosting issues, and international transactions",
    "hours": "Mon-Fri 9AM-6PM",
    "services": [
      "Asian-owned Patent law in Kansas consultation",
      "Professional service",
      "Quality guarantee"
    ],
    "social_links": {}
  },
  {
    "name": "Kenneth Jack",
    "address": "2121 W. Maple St., Wichita, KS 67213",
    "phone": "(316) 945-8251",
    "rating": 4.0,
    "reviews": 25,
    "website": "https://www.google.com/maps/search/Kenneth+Jack+in+Kansas",
    "category": "Asian-owned Patent law in Kansas",
    "description": "An Intellectual Property Attorney with extensive experience",
    "hours": "Mon-Fri 9AM-6PM",
    "services": [
      "Asian-owned Patent law in Kansas consultation",
      "Professional service",
      "Quality guarantee"
    ],
    "social_links": {}
  },
  {
    "name": "Sheila Seck",
    "address": "5000 W. 95th Street Suite 120, Prairie Village, KS 66207",
    "phone": "(913) 815-8481",
    "rating": 4.0,
    "reviews": 25,
    "website": "https://www.google.com/maps/search/Sheila+Seck+in+Kansas",
    "category": "Asian-owned Patent law in Kansas",
    "description": "An Intellectual Property Attorney with significant experience",
    "hours": "Mon-Fri 9AM-6PM",
    "services": [
      "Asian-owned Patent law in Kansas consultation",
      "Professional service",
      "Quality guarantee"
    ],
    "social_links": {}
  },
  {
    "name": "Daniel J Coughlin",
    "address": "821 Main St PO Box 116, Sabetha, KS 66534",
    "phone": "(785) 284-2843",
    "rating": 4.0,
    "reviews": 25,
    "website": "https://www.google.com/maps/search/Daniel+J+Coughlin+in+Kansas",
    "category": "Asian-owned Patent law in Kansas",
    "description": "An Intellectual Property Lawyer specializing in IP, Business, Patents, and Trademarks",
    "hours": "Mon-Fri 9AM-6PM",
    "services": [
      "Asian-owned Patent law in Kansas consultation",
      "Professional service",
      "Quality guarantee"
    ],
    "social_links": {}
  }
]