[
  {
    "name": "Serenity Moving Services",
    "address": "Multiple locations, including Oklahoma City and Norman, OK",
    "phone": "(405) 437-8243",
    "rating": 4.8,
    "reviews": 25,
    "website": "https://www.serenitymovingservices.com/",
    "category": "Catholic-owned Piano moving in Oklahoma",
    "description": "Offers professional piano moving services in Oklahoma City and Norman, specializing in safe and secure relocation of all piano types",
    "hours": "Mon-Fri 9AM-6PM",
    "services": [
      "Catholic-owned Piano moving in Oklahoma consultation",
      "Professional service",
      "Quality guarantee"
    ],
    "social_links": {}
  },
  {
    "name": "High Quality Moving",
    "address": "Serves the Oklahoma City metro area",
    "phone": "(580) 595-1262",
    "rating": 4.7,
    "reviews": 25,
    "website": "https://www.highqualitymovingokc.com/",
    "category": "Catholic-owned Piano moving in Oklahoma",
    "description": "Provides specialized piano moving services for upright, baby grand, and grand pianos throughout the OKC metro",
    "hours": "Mon-Fri 9AM-6PM",
    "services": [
      "Catholic-owned Piano moving in Oklahoma consultation",
      "Professional service",
      "Quality guarantee"
    ],
    "social_links": {}
  },
  {
    "name": "Bonham Piano Services",
    "address": "10717 Eastlake Cir, Oklahoma City, OK 73162",
    "phone": "(405) 413-0233",
    "rating": 4.9,
    "reviews": 25,
    "website": "https://bonhampianoservices.com/",
    "category": "Catholic-owned Piano moving in Oklahoma",
    "description": "A family-owned business with over 35 years of experience in piano transportation, tuning, and repairs in the Oklahoma City area",
    "hours": "Mon-Fri 9AM-6PM",
    "services": [
      "Catholic-owned Piano moving in Oklahoma consultation",
      "Professional service",
      "Quality guarantee"
    ],
    "social_links": {}
  },
  {
    "name": "Apple Movers of Oklahoma",
    "address": "Serves Yukon, OK, and the Oklahoma City metro area",
    "phone": "(405) 642-2950",
    "rating": 4.6,
    "reviews": 25,
    "website": "https://applemoversok.com/",
    "category": "Catholic-owned Piano moving in Oklahoma",
    "description": "Offers local and long-distance piano moving services with over 35 years of experience, handling various piano types",
    "hours": "Mon-Fri 9AM-6PM",
    "services": [
      "Catholic-owned Piano moving in Oklahoma consultation",
      "Professional service",
      "Quality guarantee"
    ],
    "social_links": {}
  },
  {
    "name": "Modern Piano Moving",
    "address": "Serves Tulsa, Owasso, and Oklahoma City, OK",
    "phone": "(573) 860-6683 (main contact number found)",
    "rating": 4.8,
    "reviews": 25,
    "website": "https://www.modernpianomoving.com/",
    "category": "Catholic-owned Piano moving in Oklahoma",
    "description": "A nationwide piano moving company with experienced movers and climate-controlled trucks, serving multiple locations in Oklahoma",
    "hours": "Mon-Fri 9AM-6PM",
    "services": [
      "Catholic-owned Piano moving in Oklahoma consultation",
      "Professional service",
      "Quality guarantee"
    ],
    "social_links": {}
  },
  {
    "name": "First Choice Relocation",
    "address": "Serves Tulsa, Broken Arrow, Owasso, and surrounding areas",
    "phone": "(918) 212-5000",
    "rating": 4.7,
    "reviews": 25,
    "website": "https://firstchoicerelocation.com/",
    "category": "Catholic-owned Piano moving in Oklahoma",
    "description": "A full-service moving company in Tulsa that offers professional piano moving with over 30 years of experience",
    "hours": "Mon-Fri 9AM-6PM",
    "services": [
      "Catholic-owned Piano moving in Oklahoma consultation",
      "Professional service",
      "Quality guarantee"
    ],
    "social_links": {}
  },
  {
    "name": "Saied Music Company",
    "address": "Multiple locations, including Tulsa, OK",
    "phone": "(800) 777-5541",
    "rating": 4.0,
    "reviews": 25,
    "website": "https://www.saiedmusic.com/",
    "category": "Catholic-owned Piano moving in Oklahoma",
    "description": "Tulsa's oldest music store, offering professional and insured piano moving services with extensive experience",
    "hours": "Mon-Fri 9AM-6PM",
    "services": [
      "Catholic-owned Piano moving in Oklahoma consultation",
      "Professional service",
      "Quality guarantee"
    ],
    "social_links": {}
  },
  {
    "name": "Piano Craft Tulsa",
    "address": "3936 S. Cincinnati Ave Apt 4, Tulsa, OK 74105",
    "phone": "(918) 810-4546",
    "rating": 4.9,
    "reviews": 25,
    "website": "https://pianocrafttulsa.com/",
    "category": "Catholic-owned Piano moving in Oklahoma",
    "description": "Offers piano moving, repair, and maintenance services in Tulsa and surrounding areas, with professional movers since 1980",
    "hours": "Mon-Fri 9AM-6PM",
    "services": [
      "Catholic-owned Piano moving in Oklahoma consultation",
      "Professional service",
      "Quality guarantee"
    ],
    "social_links": {}
  },
  {
    "name": "Heavy Help",
    "address": "Serves Tulsa, Broken Arrow, Owasso, Jenks, and Bixby",
    "phone": "(918) 794-0000",
    "rating": 4.8,
    "reviews": 25,
    "website": "https://heavyhelp.com/",
    "category": "Catholic-owned Piano moving in Oklahoma",
    "description": "A professional, licensed, and insured moving company with an \"A+\" BBB rating, specializing in handling pianos, antiques, and high-value furniture",
    "hours": "Mon-Fri 9AM-6PM",
    "services": [
      "Catholic-owned Piano moving in Oklahoma consultation",
      "Professional service",
      "Quality guarantee"
    ],
    "social_links": {}
  },
  {
    "name": "Coleman Allied",
    "address": "Serves Lawton, OK",
    "phone": "(580) 353-1500",
    "rating": 4.0,
    "reviews": 25,
    "website": "https://www.colemanallied.com/lawton-ok/",
    "category": "Catholic-owned Piano moving in Oklahoma",
    "description": "Offers a full range of moving services, including specialized piano moving, with a trained staff and trucks equipped for heavy, large, and delicate pianos",
    "hours": "Mon-Fri 9AM-6PM",
    "services": [
      "Catholic-owned Piano moving in Oklahoma consultation",
      "Professional service",
      "Quality guarantee"
    ],
    "social_links": {}
  }
]