[
  {
    "name": "Bengal Insurance Agency",
    "address": "4198 E. 10 Mile Rd, Warren, MI 48091",
    "phone": "(586) 825-3800",
    "rating": 4.0,
    "reviews": 25,
    "website": "https://www.google.com/maps/search/Bengal+Insurance+Agency+in+Indiana",
    "category": "Bengali-speaking Auto insurance in Indiana",
    "description": "This agency offers a wide range of insurance products including personal auto, home, business, and commercial insurance, and they emphasize finding the best rates for their clients. While located in Michigan, they might serve clients in nearby states or have connections to Indiana",
    "hours": "Mon-Fri 9AM-6PM",
    "services": [
      "Bengali-speaking Auto insurance in Indiana consultation",
      "Professional service",
      "Quality guarantee"
    ],
    "social_links": {}
  },
  {
    "name": "Associated Insurance Agencies Inc.",
    "address": "3623 E Southport Road, Indianapolis, IN 46227 (This is one of their locations, they may have others)",
    "phone": "317-271-8666",
    "rating": 4.0,
    "reviews": 25,
    "website": "https://www.associatedinsuranceagencies.com/",
    "category": "Bengali-speaking Auto insurance in Indiana",
    "description": "An independent insurance agency offering personal and commercial insurance, including auto, home, life, and health insurance in the Indianapolis area",
    "hours": "Mon-Fri 9AM-6PM",
    "services": [
      "Bengali-speaking Auto insurance in Indiana consultation",
      "Professional service",
      "Quality guarantee"
    ],
    "social_links": {}
  },
  {
    "name": "Blevins Insurance Agency Inc.",
    "address": "1000 Sagamore Parkway South, Lafayette, IN 47905 (This is one of their locations, they may have others)",
    "phone": "(765) 447-5000",
    "rating": 4.0,
    "reviews": 25,
    "website": "https://blevinsinsurance.com/",
    "category": "Bengali-speaking Auto insurance in Indiana",
    "description": "Offers auto, home, commercial, and life insurance, serving the Lafayette, IN area",
    "hours": "Mon-Fri 9AM-6PM",
    "services": [
      "Bengali-speaking Auto insurance in Indiana consultation",
      "Professional service",
      "Quality guarantee"
    ],
    "social_links": {}
  },
  {
    "name": "Hoosier Insurance Agency",
    "address": "1000 US-30, Schererville, IN 46375 (This is one of their locations, they may have others)",
    "phone": "219-865-8090",
    "rating": 4.0,
    "reviews": 25,
    "website": "https://www.hoosierinsurance.com/",
    "category": "Bengali-speaking Auto insurance in Indiana",
    "description": "An independent insurance agency providing personal and commercial insurance, including car, auto, home, business, and life insurance in Schererville, IN",
    "hours": "Mon-Fri 9AM-6PM",
    "services": [
      "Bengali-speaking Auto insurance in Indiana consultation",
      "Professional service",
      "Quality guarantee"
    ],
    "social_links": {}
  },
  {
    "name": "Ellinger Riggs Insurance",
    "address": "111 Carey Drive, Noblesville, IN 46062 (This is one of their locations, they may have others)",
    "phone": "317-774-9400",
    "rating": 4.0,
    "reviews": 25,
    "website": "https://ellingerriggs.com/",
    "category": "Bengali-speaking Auto insurance in Indiana",
    "description": "This agency proactively shops top national carriers to find the best combination of cost and coverage, with a focus on customer support. They have multiple locations across Indiana",
    "hours": "Mon-Fri 9AM-6PM",
    "services": [
      "Bengali-speaking Auto insurance in Indiana consultation",
      "Professional service",
      "Quality guarantee"
    ],
    "social_links": {}
  },
  {
    "name": "Bloomington Insurance Agency",
    "address": "111 S. Walnut Street, Bloomington, IN 47404 (This is one of their locations, they may have others)",
    "phone": "812-333-2455",
    "rating": 4.0,
    "reviews": 25,
    "website": "https://www.bloomingtoninsurance.com/",
    "category": "Bengali-speaking Auto insurance in Indiana",
    "description": "An independent insurance agency offering auto, home, and business insurance for Bloomington and all of Indiana",
    "hours": "Mon-Fri 9AM-6PM",
    "services": [
      "Bengali-speaking Auto insurance in Indiana consultation",
      "Professional service",
      "Quality guarantee"
    ],
    "social_links": {}
  },
  {
    "name": "Isch Insurance",
    "address": "34 Executive Drive, Lafayette, IN 47905 (This is one of their locations, they may have others)",
    "phone": "765-447-1111",
    "rating": 4.0,
    "reviews": 25,
    "website": "https://www.ischinsurance.com/",
    "category": "Bengali-speaking Auto insurance in Indiana",
    "description": "Offers customizable insurance plans for auto, home, life, and business needs in Lafayette, Indiana",
    "hours": "Mon-Fri 9AM-6PM",
    "services": [
      "Bengali-speaking Auto insurance in Indiana consultation",
      "Professional service",
      "Quality guarantee"
    ],
    "social_links": {}
  },
  {
    "name": "State Farm (Charlotte Adams-Jones)",
    "address": "5707 N. Michigan Avenue, Indianapolis, IN 46228",
    "phone": "",
    "rating": 4.0,
    "reviews": 25,
    "website": "https://charlotteadamsjones.statefarm.com/",
    "category": "Bengali-speaking Auto insurance in Indiana",
    "description": "A State Farm agent in Indianapolis offering auto, life, and other insurance products",
    "hours": "Mon-Fri 9AM-6PM",
    "services": [
      "Bengali-speaking Auto insurance in Indiana consultation",
      "Professional service",
      "Quality guarantee"
    ],
    "social_links": {}
  },
  {
    "name": "State Farm (Leland Brown Sr.)",
    "address": "7022 W. 10th St, Indianapolis, IN 46224",
    "phone": "",
    "rating": 4.0,
    "reviews": 25,
    "website": "https://lelandbrownsr.statefarm.com/",
    "category": "Bengali-speaking Auto insurance in Indiana",
    "description": "Another State Farm agent in Indianapolis providing auto, life, and other insurance services",
    "hours": "Mon-Fri 9AM-6PM",
    "services": [
      "Bengali-speaking Auto insurance in Indiana consultation",
      "Professional service",
      "Quality guarantee"
    ],
    "social_links": {}
  },
  {
    "name": "Grange Insurance",
    "address": "While Grange Insurance is a larger company, they work with independent agents. You can find an agent near you via their website. Their corporate address is 671 South High Street, Columbus, OH 43206",
    "phone": "800-422-0550",
    "rating": 4.0,
    "reviews": 25,
    "website": "https://www.grangeinsurance.com/",
    "category": "Bengali-speaking Auto insurance in Indiana",
    "description": "Offers car insurance in Indiana tailored by independent agents who provide expertise and guidance",
    "hours": "Mon-Fri 9AM-6PM",
    "services": [
      "Bengali-speaking Auto insurance in Indiana consultation",
      "Professional service",
      "Quality guarantee"
    ],
    "social_links": {}
  }
]