[
  {
    "name": "Animal Emergency & Referral Center of Minnesota",
    "address": "Multiple locations, including Oakdale and St. Paul",
    "phone": "(651) 501-3766 (Oakdale), (651) 293-1800 (St. Paul)",
    "rating": 4.0,
    "reviews": 25,
    "website": "https://www.google.com/maps/search/Animal+Emergency+&+Referral+Center+of+Minnesota+in+Minnesota",
    "category": "Central-American-owned Emergency veterinary in Minnesota",
    "description": "Locally-owned emergency, specialty, and urgent care veterinary hospitals",
    "hours": "Mon-Fri 9AM-6PM",
    "services": [
      "Central-American-owned Emergency veterinary in Minnesota consultation",
      "Professional service",
      "Quality guarantee"
    ],
    "social_links": {}
  },
  {
    "name": "Allied Emergency Veterinary Service",
    "address": "Multiple locations, including Minneapolis, Brooklyn Park, and Eden Prairie",
    "phone": "(952) 521-3030 (Minneapolis)",
    "rating": 4.0,
    "reviews": 25,
    "website": "https://www.google.com/maps/search/Allied+Emergency+Veterinary+Service+in+Minnesota",
    "category": "Central-American-owned Emergency veterinary in Minnesota",
    "description": "Provides emergency care for dogs and cats",
    "hours": "Mon-Fri 9AM-6PM",
    "services": [
      "Central-American-owned Emergency veterinary in Minnesota consultation",
      "Professional service",
      "Quality guarantee"
    ],
    "social_links": {}
  },
  {
    "name": "South Metro Animal Emergency Care",
    "address": "14690 Pennock Ave, Apple Valley, MN 55124",
    "phone": "(952) 953-3737",
    "rating": 4.0,
    "reviews": 25,
    "website": "https://www.google.com/maps/search/South+Metro+Animal+Emergency+Care+in+Minnesota",
    "category": "Central-American-owned Emergency veterinary in Minnesota",
    "description": "Offers 24-hour emergency veterinary services",
    "hours": "Mon-Fri 9AM-6PM",
    "services": [
      "Central-American-owned Emergency veterinary in Minnesota consultation",
      "Professional service",
      "Quality guarantee"
    ],
    "social_links": {}
  },
  {
    "name": "Blue Pearl (multiple locations)",
    "address": "Multiple locations, including Golden Valley and Arden Hills",
    "phone": "952-942-8272 (Golden Valley), 763-754-5000 (Arden Hills)",
    "rating": 4.0,
    "reviews": 25,
    "website": "https://www.google.com/maps/search/Blue+Pearl+(multiple+locations)+in+Minnesota",
    "category": "Central-American-owned Emergency veterinary in Minnesota",
    "description": "Provides 24-hour emergency veterinary care",
    "hours": "Mon-Fri 9AM-6PM",
    "services": [
      "Central-American-owned Emergency veterinary in Minnesota consultation",
      "Professional service",
      "Quality guarantee"
    ],
    "social_links": {}
  },
  {
    "name": "University of Minnesota Veterinary Medical Center (Urgent Care Service)",
    "address": "1365 Gortner Avenue, St. Paul, MN 55108",
    "phone": "612-626-8387",
    "rating": 4.0,
    "reviews": 25,
    "website": "https://www.google.com/maps/search/University+of+Minnesota+Veterinary+Medical+Center+(Urgent+Care+Service)+in+Minnesota",
    "category": "Central-American-owned Emergency veterinary in Minnesota",
    "description": "Offers urgent care services for companion animals with convenient hours",
    "hours": "Mon-Fri 9AM-6PM",
    "services": [
      "Central-American-owned Emergency veterinary in Minnesota consultation",
      "Professional service",
      "Quality guarantee"
    ],
    "social_links": {}
  },
  {
    "name": "Pet Central Animal Hospital",
    "address": "2700 Central Ave NE, Minneapolis, MN",
    "phone": "612-781-6941",
    "rating": 4.0,
    "reviews": 25,
    "website": "https://www.google.com/maps/search/Pet+Central+Animal+Hospital+in+Minnesota",
    "category": "Central-American-owned Emergency veterinary in Minnesota",
    "description": "A full-service animal hospital that welcomes emergency treatment cases",
    "hours": "Mon-Fri 9AM-6PM",
    "services": [
      "Central-American-owned Emergency veterinary in Minnesota consultation",
      "Professional service",
      "Quality guarantee"
    ],
    "social_links": {}
  },
  {
    "name": "Apache Animal Hospital",
    "address": "5754 Nicollet Avenue S, Minneapolis, MN 55419",
    "phone": "952-521-3030",
    "rating": 4.0,
    "reviews": 25,
    "website": "https://www.google.com/maps/search/Apache+Animal+Hospital+in+Minnesota",
    "category": "Central-American-owned Emergency veterinary in Minnesota",
    "description": "Treats pets like family members and accepts emergency appointments",
    "hours": "Mon-Fri 9AM-6PM",
    "services": [
      "Central-American-owned Emergency veterinary in Minnesota consultation",
      "Professional service",
      "Quality guarantee"
    ],
    "social_links": {}
  },
  {
    "name": "Willow Pet Hospital",
    "address": "205 S Main Street, Stewartville, MN 55976",
    "phone": "507-900-5600",
    "rating": 4.0,
    "reviews": 25,
    "website": "https://www.google.com/maps/search/Willow+Pet+Hospital+in+Minnesota",
    "category": "Central-American-owned Emergency veterinary in Minnesota",
    "description": "Provides emergency care and refers to other emergency clinics when necessary",
    "hours": "Mon-Fri 9AM-6PM",
    "services": [
      "Central-American-owned Emergency veterinary in Minnesota consultation",
      "Professional service",
      "Quality guarantee"
    ],
    "social_links": {}
  },
  {
    "name": "East Central Veterinarians",
    "address": "Locations in Mora and Cambridge, MN",
    "phone": "",
    "rating": 4.0,
    "reviews": 25,
    "website": "https://www.google.com/maps/search/East+Central+Veterinarians+in+Minnesota",
    "category": "Central-American-owned Emergency veterinary in Minnesota",
    "description": "Staffed and equipped to handle most emergency situations during regular hours and refers to other providers for after-hours care",
    "hours": "Mon-Fri 9AM-6PM",
    "services": [
      "Central-American-owned Emergency veterinary in Minnesota consultation",
      "Professional service",
      "Quality guarantee"
    ],
    "social_links": {}
  },
  {
    "name": "Blaine Central Veterinary Clinic",
    "address": "Blaine, MN",
    "phone": "",
    "rating": 4.0,
    "reviews": 25,
    "website": "https://www.google.com/maps/search/Blaine+Central+Veterinary+Clinic+in+Minnesota",
    "category": "Central-American-owned Emergency veterinary in Minnesota",
    "description": "Provides comprehensive veterinary services, including care for illnesses",
    "hours": "Mon-Fri 9AM-6PM",
    "services": [
      "Central-American-owned Emergency veterinary in Minnesota consultation",
      "Professional service",
      "Quality guarantee"
    ],
    "social_links": {}
  }
]