[
  {
    "name": "4C Medical Group",
    "address": "9590 E Ironwood Square Dr Suite 125, Scottsdale, AZ 85258",
    "phone": "(480) 455-3000",
    "rating": 4.0,
    "reviews": 25,
    "website": "https://www.google.com/maps/search/4C+Medical+Group+in+Arizona",
    "category": "Arabic-speaking Alternative health practitioners in Arizona",
    "description": "Provides alternative medicine services",
    "hours": "Mon-Fri 9AM-6PM",
    "services": [
      "Arabic-speaking Alternative health practitioners in Arizona consultation",
      "Professional service",
      "Quality guarantee"
    ],
    "social_links": {}
  },
  {
    "name": "Abby Garcia Phf",
    "address": "10613 N Hayden Rd Suite 100, Scottsdale, AZ 85260",
    "phone": "(480) 609-2855",
    "rating": 4.0,
    "reviews": 25,
    "website": "https://www.google.com/maps/search/Abby+Garcia+Phf+in+Arizona",
    "category": "Arabic-speaking Alternative health practitioners in Arizona",
    "description": "Provides alternative medicine services",
    "hours": "Mon-Fri 9AM-6PM",
    "services": [
      "Arabic-speaking Alternative health practitioners in Arizona consultation",
      "Professional service",
      "Quality guarantee"
    ],
    "social_links": {}
  },
  {
    "name": "Absolute Health",
    "address": "8360 E Raintree Dr Suite 135, Scottsdale, AZ 85260",
    "phone": "(480) 991-9945",
    "rating": 4.0,
    "reviews": 25,
    "website": "https://www.google.com/maps/search/Absolute+Health+in+Arizona",
    "category": "Arabic-speaking Alternative health practitioners in Arizona",
    "description": "Provides alternative medicine services",
    "hours": "Mon-Fri 9AM-6PM",
    "services": [
      "Arabic-speaking Alternative health practitioners in Arizona consultation",
      "Professional service",
      "Quality guarantee"
    ],
    "social_links": {}
  },
  {
    "name": "Active Rx Inc.",
    "address": "7331 E Osborn Dr Suite 410, Scottsdale, AZ 85251",
    "phone": "(480) 443-0409",
    "rating": 4.0,
    "reviews": 25,
    "website": "https://www.google.com/maps/search/Active+Rx+Inc.+in+Arizona",
    "category": "Arabic-speaking Alternative health practitioners in Arizona",
    "description": "Provides alternative medicine services",
    "hours": "Mon-Fri 9AM-6PM",
    "services": [
      "Arabic-speaking Alternative health practitioners in Arizona consultation",
      "Professional service",
      "Quality guarantee"
    ],
    "social_links": {}
  },
  {
    "name": "Acuhealth",
    "address": "14354 N Frank Lloyd Wright Blvd, Scottsdale, AZ 85260",
    "phone": "(480) 477-7722",
    "rating": 4.0,
    "reviews": 25,
    "website": "https://www.google.com/maps/search/Acuhealth+in+Arizona",
    "category": "Arabic-speaking Alternative health practitioners in Arizona",
    "description": "Provides alternative medicine services",
    "hours": "Mon-Fri 9AM-6PM",
    "services": [
      "Arabic-speaking Alternative health practitioners in Arizona consultation",
      "Professional service",
      "Quality guarantee"
    ],
    "social_links": {}
  },
  {
    "name": "Aletris Center of Integrative Medicine",
    "address": "7425 E Shea Blvd Suite 111, Scottsdale, AZ 85260",
    "phone": "(480) 998-2020",
    "rating": 4.0,
    "reviews": 25,
    "website": "https://www.google.com/maps/search/Aletris+Center+of+Integrative+Medicine+in+Arizona",
    "category": "Arabic-speaking Alternative health practitioners in Arizona",
    "description": "Provides integrative medicine services",
    "hours": "Mon-Fri 9AM-6PM",
    "services": [
      "Arabic-speaking Alternative health practitioners in Arizona consultation",
      "Professional service",
      "Quality guarantee"
    ],
    "social_links": {}
  },
  {
    "name": "Alternatives For Women",
    "address": "9522 E San Salvador Dr Suite 203, Scottsdale, AZ 85258",
    "phone": "(480) 947-1545",
    "rating": 4.0,
    "reviews": 25,
    "website": "https://www.google.com/maps/search/Alternatives+For+Women+in+Arizona",
    "category": "Arabic-speaking Alternative health practitioners in Arizona",
    "description": "Provides alternative medicine services",
    "hours": "Mon-Fri 9AM-6PM",
    "services": [
      "Arabic-speaking Alternative health practitioners in Arizona consultation",
      "Professional service",
      "Quality guarantee"
    ],
    "social_links": {}
  },
  {
    "name": "Alvarez, Wilbert-Joh",
    "address": "2515 N Scottsdale Road, Scottsdale, AZ 85257",
    "phone": "(480) 695-2545",
    "rating": 4.0,
    "reviews": 25,
    "website": "https://www.google.com/maps/search/Alvarez,+Wilbert-Joh+in+Arizona",
    "category": "Arabic-speaking Alternative health practitioners in Arizona",
    "description": "Provides alternative medicine services",
    "hours": "Mon-Fri 9AM-6PM",
    "services": [
      "Arabic-speaking Alternative health practitioners in Arizona consultation",
      "Professional service",
      "Quality guarantee"
    ],
    "social_links": {}
  },
  {
    "name": "Ancala Chiropractic",
    "address": "11259 E Via Linda Suite 108, Scottsdale, AZ 85259",
    "phone": "(480) 661-6449",
    "rating": 4.0,
    "reviews": 25,
    "website": "https://www.google.com/maps/search/Ancala+Chiropractic+in+Arizona",
    "category": "Arabic-speaking Alternative health practitioners in Arizona",
    "description": "Provides chiropractic services",
    "hours": "Mon-Fri 9AM-6PM",
    "services": [
      "Arabic-speaking Alternative health practitioners in Arizona consultation",
      "Professional service",
      "Quality guarantee"
    ],
    "social_links": {}
  },
  {
    "name": "Anderson-McLau, Jessica K, ND",
    "address": "7605 E Pinnacle Peak Road, Scottsdale, AZ 85255",
    "phone": "(480) 513-2888",
    "rating": 4.0,
    "reviews": 25,
    "website": "https://www.google.com/maps/search/Anderson-McLau,+Jessica+K,+ND+in+Arizona",
    "category": "Arabic-speaking Alternative health practitioners in Arizona",
    "description": "Provides naturopathic doctor services",
    "hours": "Mon-Fri 9AM-6PM",
    "services": [
      "Arabic-speaking Alternative health practitioners in Arizona consultation",
      "Professional service",
      "Quality guarantee"
    ],
    "social_links": {}
  }
]