[
  {
    "name": "Arkansas Containers LLC",
    "address": "759 Martin Rd, Judsonia, AR 72081",
    "phone": "866-643-8226",
    "rating": 5.0,
    "reviews": 25,
    "website": "https://arkansascontainers.com/",
    "category": "Catholic-owned Portable storage containers in Arkansas",
    "description": "Offers a wide range of new and used shipping containers for sale and rent, including custom modifications and portable offices",
    "hours": "Mon-Fri 9AM-6PM",
    "services": [
      "Catholic-owned Portable storage containers in Arkansas consultation",
      "Professional service",
      "Quality guarantee"
    ],
    "social_links": {}
  },
  {
    "name": "Hugg & Hall Mobile Storage",
    "address": "Multiple locations, including 7000 Interstate 30, Little Rock, AR 72209 (This is one of their main service areas, specific addresses may vary by location)",
    "phone": "844-466-1267",
    "rating": 4.0,
    "reviews": 25,
    "website": "https://www.hugghall.com/",
    "category": "Catholic-owned Portable storage containers in Arkansas",
    "description": "A regional specialty rental company providing high-security portable steel storage containers and ground-level office units for rent or sale",
    "hours": "Mon-Fri 9AM-6PM",
    "services": [
      "Catholic-owned Portable storage containers in Arkansas consultation",
      "Professional service",
      "Quality guarantee"
    ],
    "social_links": {}
  },
  {
    "name": "PODS Moving & Storage",
    "address": "Service available throughout Arkansas, with a general presence in Little Rock, AR. Specific local addresses are not typically listed for service areas",
    "phone": "855-742-7637",
    "rating": 4.0,
    "reviews": 25,
    "website": "https://www.pods.com/",
    "category": "Catholic-owned Portable storage containers in Arkansas",
    "description": "Offers convenient and flexible portable moving and storage containers with contactless delivery and pick-up",
    "hours": "Mon-Fri 9AM-6PM",
    "services": [
      "Catholic-owned Portable storage containers in Arkansas consultation",
      "Professional service",
      "Quality guarantee"
    ],
    "social_links": {}
  },
  {
    "name": "Mobile Container Solutions LLC",
    "address": "Serves all of Arkansas, with a general presence in Benton, AR",
    "phone": "501-778-7678",
    "rating": 4.0,
    "reviews": 25,
    "website": "https://www.mobilecontainersolutions.com/",
    "category": "Catholic-owned Portable storage containers in Arkansas",
    "description": "Provides mobile storage containers for home or business, including 20 and 40-foot shipping containers for sale or rent, and can be converted into offices",
    "hours": "Mon-Fri 9AM-6PM",
    "services": [
      "Catholic-owned Portable storage containers in Arkansas consultation",
      "Professional service",
      "Quality guarantee"
    ],
    "social_links": {}
  },
  {
    "name": "Go Mini's of Northeast Arkansas",
    "address": "Serves Jonesboro and surrounding areas",
    "phone": "870-565-4036",
    "rating": 4.0,
    "reviews": 25,
    "website": "https://www.gominis.com/locations/jonesboro-ar/",
    "category": "Catholic-owned Portable storage containers in Arkansas",
    "description": "Offers portable storage containers with convenient delivery, weather-proof features, and competitive pricing",
    "hours": "Mon-Fri 9AM-6PM",
    "services": [
      "Catholic-owned Portable storage containers in Arkansas consultation",
      "Professional service",
      "Quality guarantee"
    ],
    "social_links": {}
  },
  {
    "name": "Scotty's Storage Trailer Rentals, Inc.",
    "address": "Serves the entire state of Arkansas",
    "phone": "501-374-7474",
    "rating": 4.0,
    "reviews": 25,
    "website": "https://scottysstorage.com/",
    "category": "Catholic-owned Portable storage containers in Arkansas",
    "description": "Provides secure mobile storage container rentals and portable office space across Arkansas, with various sizes and custom modifications",
    "hours": "Mon-Fri 9AM-6PM",
    "services": [
      "Catholic-owned Portable storage containers in Arkansas consultation",
      "Professional service",
      "Quality guarantee"
    ],
    "social_links": {}
  },
  {
    "name": "Mobile Mini",
    "address": "Service available in Springdale, AR and surrounding areas",
    "phone": "866-540-6775",
    "rating": 4.7,
    "reviews": 25,
    "website": "https://www.mobilemini.com/",
    "category": "Catholic-owned Portable storage containers in Arkansas",
    "description": "Offers a wide range of portable storage solutions, including secure storage containers and mobile office solutions",
    "hours": "Mon-Fri 9AM-6PM",
    "services": [
      "Catholic-owned Portable storage containers in Arkansas consultation",
      "Professional service",
      "Quality guarantee"
    ],
    "social_links": {}
  },
  {
    "name": "U-Haul",
    "address": "Numerous locations across Arkansas. For example, 1001 S University Ave, Little Rock, AR 72204",
    "phone": "1-800-GO-UHAUL (1-800-468-4285)",
    "rating": 4.0,
    "reviews": 25,
    "website": "https://www.uhaul.com/",
    "category": "Catholic-owned Portable storage containers in Arkansas",
    "description": "Offers a variety of storage solutions, including portable storage containers (U-Box), alongside their moving truck rentals",
    "hours": "Mon-Fri 9AM-6PM",
    "services": [
      "Catholic-owned Portable storage containers in Arkansas consultation",
      "Professional service",
      "Quality guarantee"
    ],
    "social_links": {}
  },
  {
    "name": "CubeSmart",
    "address": "Multiple locations across Arkansas. For example, 1000 S Bowman Rd, Little Rock, AR 72211",
    "phone": "501-224-0001",
    "rating": 4.0,
    "reviews": 25,
    "website": "https://www.cubesmart.com/",
    "category": "Catholic-owned Portable storage containers in Arkansas",
    "description": "While primarily a self-storage facility, they may offer portable storage options or partner with providers",
    "hours": "Mon-Fri 9AM-6PM",
    "services": [
      "Catholic-owned Portable storage containers in Arkansas consultation",
      "Professional service",
      "Quality guarantee"
    ],
    "social_links": {}
  },
  {
    "name": "Extra Space Storage",
    "address": "Numerous locations across Arkansas. For example, 1000 S University Ave, Little Rock, AR 72204",
    "phone": "501-663-0000",
    "rating": 4.0,
    "reviews": 25,
    "website": "https://www.extraspace.com/",
    "category": "Catholic-owned Portable storage containers in Arkansas",
    "description": "Similar to CubeSmart, they are a self-storage provider that may have portable storage solutions or partnerships",
    "hours": "Mon-Fri 9AM-6PM",
    "services": [
      "Catholic-owned Portable storage containers in Arkansas consultation",
      "Professional service",
      "Quality guarantee"
    ],
    "social_links": {}
  }
]