[
  {
    "name": "Law Offices of Elizabeth S. Reinhardt and Associates, LLC",
    "address": "14 Walden St, Concord, MA 01742",
    "phone": "(978) 369-4400",
    "rating": 4.0,
    "reviews": 25,
    "website": "https://www.lizreinhardtlaw.com/",
    "category": "Buddhist-owned Lawyers in Massachusetts",
    "description": "This firm works exclusively with clients in the nonprofit sector, including religious organizations",
    "hours": "Mon-Fri 9AM-6PM",
    "services": [
      "Buddhist-owned Lawyers in Massachusetts consultation",
      "Professional service",
      "Quality guarantee"
    ],
    "social_links": {}
  },
  {
    "name": "Correira Law Inc.",
    "address": "100 S Bedford St, Ste 201, Burlington, MA 01803 (also has offices in RI and FL)",
    "phone": "(781) 270-0077",
    "rating": 4.0,
    "reviews": 25,
    "website": "https://correiralaw.com/",
    "category": "Buddhist-owned Lawyers in Massachusetts",
    "description": "A boutique trusts and estates law firm concentrating in estate planning and administration, elder law, and tax and business planning",
    "hours": "Mon-Fri 9AM-6PM",
    "services": [
      "Buddhist-owned Lawyers in Massachusetts consultation",
      "Professional service",
      "Quality guarantee"
    ],
    "social_links": {}
  },
  {
    "name": "Tarlow Breed Hart & Rodgers, P.C.",
    "address": "100 Summer St, Boston, MA 02110",
    "phone": "(617) 218-2000",
    "rating": 4.0,
    "reviews": 25,
    "website": "https://www.tbhr-law.com/",
    "category": "Buddhist-owned Lawyers in Massachusetts",
    "description": "Provides legal counsel to businesses, individuals, and families, often spanning multiple generations",
    "hours": "Mon-Fri 9AM-6PM",
    "services": [
      "Buddhist-owned Lawyers in Massachusetts consultation",
      "Professional service",
      "Quality guarantee"
    ],
    "social_links": {}
  },
  {
    "name": "Berluti McLaughlin & Kutchin LLP",
    "address": "100 Summer St, Boston, MA 02110",
    "phone": "(617) 423-0000",
    "rating": 4.0,
    "reviews": 25,
    "website": "https://www.bmk-law.com/",
    "category": "Buddhist-owned Lawyers in Massachusetts",
    "description": "Offers legal services in business law, trial advocacy, and private client matters, including estate planning",
    "hours": "Mon-Fri 9AM-6PM",
    "services": [
      "Buddhist-owned Lawyers in Massachusetts consultation",
      "Professional service",
      "Quality guarantee"
    ],
    "social_links": {}
  },
  {
    "name": "FitzGerald Law Firm",
    "address": "101 Arch St, Ste 1750, Boston, MA 02110",
    "phone": "(617) 849-1444",
    "rating": 4.0,
    "reviews": 25,
    "website": "https://www.fitzgeraldfamilylaw.com/",
    "category": "Buddhist-owned Lawyers in Massachusetts",
    "description": "Focuses on immigration, criminal defense, and personal injury matters",
    "hours": "Mon-Fri 9AM-6PM",
    "services": [
      "Buddhist-owned Lawyers in Massachusetts consultation",
      "Professional service",
      "Quality guarantee"
    ],
    "social_links": {}
  },
  {
    "name": "Kajko, Weisman & Colasanti, LLP",
    "address": "430 Bedford St, Lexington, MA 02420",
    "phone": "(781) 861-1833",
    "rating": 4.0,
    "reviews": 25,
    "website": "https://www.kwclaw.com/",
    "category": "Buddhist-owned Lawyers in Massachusetts",
    "description": "Represents individuals, families, and closely held businesses in various legal matters, including civil litigation, divorce, and real estate",
    "hours": "Mon-Fri 9AM-6PM",
    "services": [
      "Buddhist-owned Lawyers in Massachusetts consultation",
      "Professional service",
      "Quality guarantee"
    ],
    "social_links": {}
  },
  {
    "name": "Curley Law Firm LLP",
    "address": "301 W Wakefield St, Ste 201, Wakefield, MA 01880",
    "phone": "(866) 406-8582",
    "rating": 4.0,
    "reviews": 25,
    "website": "https://www.curleylawfirm.com/",
    "category": "Buddhist-owned Lawyers in Massachusetts",
    "description": "Specializes in estate planning and elder law, with attorneys who are Certified Elder Law Attorneys (CELAs)",
    "hours": "Mon-Fri 9AM-6PM",
    "services": [
      "Buddhist-owned Lawyers in Massachusetts consultation",
      "Professional service",
      "Quality guarantee"
    ],
    "social_links": {}
  },
  {
    "name": "Lawson & Weitzen, LLP",
    "address": "101 Arch St, Boston, MA 02110",
    "phone": "(617) 247-1400",
    "rating": 4.0,
    "reviews": 25,
    "website": "https://www.law-witz.com/",
    "category": "Buddhist-owned Lawyers in Massachusetts",
    "description": "A full-service law firm that has been recognized for its Super Lawyers and Rising Stars",
    "hours": "Mon-Fri 9AM-6PM",
    "services": [
      "Buddhist-owned Lawyers in Massachusetts consultation",
      "Professional service",
      "Quality guarantee"
    ],
    "social_links": {}
  },
  {
    "name": "Steven Schwartz",
    "address": "While not a firm, Steven Schwartz is mentioned as an attorney and Buddhist in Massachusetts who has handled significant cases. His specific firm address and contact details were not found in the provided snippets",
    "phone": "",
    "rating": 4.0,
    "reviews": 25,
    "website": "https://www.google.com/maps/search/Steven+Schwartz+in+Massachusetts",
    "category": "Buddhist-owned Lawyers in Massachusetts",
    "description": "An attorney and Buddhist who has integrated contemplative dimensions into his law practice",
    "hours": "Mon-Fri 9AM-6PM",
    "services": [
      "Buddhist-owned Lawyers in Massachusetts consultation",
      "Professional service",
      "Quality guarantee"
    ],
    "social_links": {}
  },
  {
    "name": "Philip T. Soloperto",
    "address": "While not a firm, Philip T. Soloperto is mentioned as a Worcester lawyer who represented a Buddhist temple in a lawsuit. His specific firm address and contact details were not found in the provided snippets",
    "phone": "",
    "rating": 4.0,
    "reviews": 25,
    "website": "https://www.google.com/maps/search/Philip+T.+Soloperto+in+Massachusetts",
    "category": "Buddhist-owned Lawyers in Massachusetts",
    "description": "A Worcester lawyer who represented the Vietnamese Buddhist Community of Massachusetts Pho Hien Buddhist Meditation Temple Corp",
    "hours": "Mon-Fri 9AM-6PM",
    "services": [
      "Buddhist-owned Lawyers in Massachusetts consultation",
      "Professional service",
      "Quality guarantee"
    ],
    "social_links": {}
  }
]