[
  {
    "name": "Cityside Metal Roofing",
    "address": "China, TX",
    "phone": "(409) 245-7031",
    "rating": 4.0,
    "reviews": 25,
    "website": "https://www.google.com/maps/search/Cityside+Metal+Roofing+in+Texas",
    "category": "Chinese-speaking Roofing repair in Texas",
    "description": "Offers residential metal roofing solutions, ACM panel installation, commercial roof coating, roof design and installation, and roof repair and replacement",
    "hours": "Mon-Fri 9AM-6PM",
    "services": [
      "Chinese-speaking Roofing repair in Texas consultation",
      "Professional service",
      "Quality guarantee"
    ],
    "social_links": {}
  },
  {
    "name": "Roofing Repair Pros",
    "address": "China, TX",
    "phone": "(833) 754-4566",
    "rating": 4.0,
    "reviews": 25,
    "website": "https://www.google.com/maps/search/Roofing+Repair+Pros+in+Texas",
    "category": "Chinese-speaking Roofing repair in Texas",
    "description": "Provides roof leak repairs, shingle replacements, roof maintenance and inspections, flat roof repairs, and skylight installation and repairs",
    "hours": "Mon-Fri 9AM-6PM",
    "services": [
      "Chinese-speaking Roofing repair in Texas consultation",
      "Professional service",
      "Quality guarantee"
    ],
    "social_links": {}
  },
  {
    "name": "Best Certified Metal Roofing Company",
    "address": "China, TX",
    "phone": "(844) 551-3620",
    "rating": 4.0,
    "reviews": 25,
    "website": "https://www.google.com/maps/search/Best+Certified+Metal+Roofing+Company+in+Texas",
    "category": "Chinese-speaking Roofing repair in Texas",
    "description": "Specializes in metal roof installation, repair, and replacement for residential and commercial properties, as well as EPDM and TPO roofing",
    "hours": "Mon-Fri 9AM-6PM",
    "services": [
      "Chinese-speaking Roofing repair in Texas consultation",
      "Professional service",
      "Quality guarantee"
    ],
    "social_links": {}
  },
  {
    "name": "ShingleMasters Roofing",
    "address": "Colmesneil, TX 75938",
    "phone": "(844) 950-7663",
    "rating": 5.0,
    "reviews": 25,
    "website": "https://www.google.com/maps/search/ShingleMasters+Roofing+in+Texas",
    "category": "Chinese-speaking Roofing repair in Texas",
    "description": "Family-owned company specializing in asphalt shingle roofing installation and replacement with over 40 years of experience",
    "hours": "Mon-Fri 9AM-6PM",
    "services": [
      "Chinese-speaking Roofing repair in Texas consultation",
      "Professional service",
      "Quality guarantee"
    ],
    "social_links": {}
  },
  {
    "name": "Coastal Roofing Specialists",
    "address": "1318 Hwy 96 S, Lumberton, TX 77657",
    "phone": "(409) 751-5454",
    "rating": 2.3,
    "reviews": 25,
    "website": "https://www.google.com/maps/search/Coastal+Roofing+Specialists+in+Texas",
    "category": "Chinese-speaking Roofing repair in Texas",
    "description": "General roofing services",
    "hours": "Mon-Fri 9AM-6PM",
    "services": [
      "Chinese-speaking Roofing repair in Texas consultation",
      "Professional service",
      "Quality guarantee"
    ],
    "social_links": {}
  },
  {
    "name": "Rock N Rod Roofing",
    "address": "13101 Almeda Rd, Houston, TX 77045",
    "phone": "(281) 484-7663",
    "rating": 5.0,
    "reviews": 25,
    "website": "https://www.google.com/maps/search/Rock+N+Rod+Roofing+in+Texas",
    "category": "Chinese-speaking Roofing repair in Texas",
    "description": "Roofing and restoration services",
    "hours": "Mon-Fri 9AM-6PM",
    "services": [
      "Chinese-speaking Roofing repair in Texas consultation",
      "Professional service",
      "Quality guarantee"
    ],
    "social_links": {}
  },
  {
    "name": "Most Wanted Roofing & Remodeling",
    "address": "Houston, TX 77001",
    "phone": "(409) 363-8884",
    "rating": 4.0,
    "reviews": 25,
    "website": "https://www.google.com/maps/search/Most+Wanted+Roofing+&+Remodeling+in+Texas",
    "category": "Chinese-speaking Roofing repair in Texas",
    "description": "Roofing and remodeling services",
    "hours": "Mon-Fri 9AM-6PM",
    "services": [
      "Chinese-speaking Roofing repair in Texas consultation",
      "Professional service",
      "Quality guarantee"
    ],
    "social_links": {}
  },
  {
    "name": "J & J\u2019s Construction",
    "address": "Houston, TX 77033",
    "phone": "(832) 996-0557",
    "rating": 4.0,
    "reviews": 25,
    "website": "https://www.google.com/maps/search/J+&+J\u2019s+Construction+in+Texas",
    "category": "Chinese-speaking Roofing repair in Texas",
    "description": "Family-owned and operated construction services",
    "hours": "Mon-Fri 9AM-6PM",
    "services": [
      "Chinese-speaking Roofing repair in Texas consultation",
      "Professional service",
      "Quality guarantee"
    ],
    "social_links": {}
  },
  {
    "name": "HouseCalls Of Beaumont, LLC",
    "address": "1005 Lindbergh Dr, Beaumont, TX 77707",
    "phone": "(409) 363-8884",
    "rating": 5.0,
    "reviews": 25,
    "website": "https://www.google.com/maps/search/HouseCalls+Of+Beaumont,+LLC+in+Texas",
    "category": "Chinese-speaking Roofing repair in Texas",
    "description": "Handyman services",
    "hours": "Mon-Fri 9AM-6PM",
    "services": [
      "Chinese-speaking Roofing repair in Texas consultation",
      "Professional service",
      "Quality guarantee"
    ],
    "social_links": {}
  },
  {
    "name": "Texas Built Roofing",
    "address": "911 E Johnson St, China Spring, TX",
    "phone": "(254) 717-2736",
    "rating": 4.0,
    "reviews": 25,
    "website": "https://www.google.com/maps/search/Texas+Built+Roofing+in+Texas",
    "category": "Chinese-speaking Roofing repair in Texas",
    "description": "Provides high-quality roofing solutions for homes and businesses in China Spring and surrounding areas",
    "hours": "Mon-Fri 9AM-6PM",
    "services": [
      "Chinese-speaking Roofing repair in Texas consultation",
      "Professional service",
      "Quality guarantee"
    ],
    "social_links": {}
  }
]