[
  {
    "name": "Chapel Hill Endodontics",
    "address": "101 Conner Dr #204, Chapel Hill, NC 27514",
    "phone": "(919) 932-1616",
    "rating": 4.8,
    "reviews": 25,
    "website": "https://www.chapelhillendo.com/",
    "category": "Cuban-American-owned Endodontics in North-Carolina",
    "description": "Specializes in advanced endodontic care, including laser-assisted irrigation for enhanced cleaning and photobiomodulation for pain reduction",
    "hours": "Mon-Fri 9AM-6PM",
    "services": [
      "Cuban-American-owned Endodontics in North-Carolina consultation",
      "Professional service",
      "Quality guarantee"
    ],
    "social_links": {}
  },
  {
    "name": "Charlotte Endodontics",
    "address": "1215 East Blvd Suite 100, Charlotte, NC 28203",
    "phone": "(704) 377-1444",
    "rating": 4.7,
    "reviews": 25,
    "website": "https://charlotteendodontics.com/",
    "category": "Cuban-American-owned Endodontics in North-Carolina",
    "description": "A premier endodontic practice established in 1972, offering high-quality care with multiple board-certified endodontists",
    "hours": "Mon-Fri 9AM-6PM",
    "services": [
      "Cuban-American-owned Endodontics in North-Carolina consultation",
      "Professional service",
      "Quality guarantee"
    ],
    "social_links": {}
  },
  {
    "name": "Levin Endodontics",
    "address": "3700-101 Wake Forest Rd, Raleigh, NC 27609",
    "phone": "(919) 401-4827",
    "rating": 4.9,
    "reviews": 25,
    "website": "https://www.levinendodontics.com/",
    "category": "Cuban-American-owned Endodontics in North-Carolina",
    "description": "Provides state-of-the-art endodontic care with a focus on patient education and a comfortable environment. Dr. Levin is board-certified",
    "hours": "Mon-Fri 9AM-6PM",
    "services": [
      "Cuban-American-owned Endodontics in North-Carolina consultation",
      "Professional service",
      "Quality guarantee"
    ],
    "social_links": {}
  },
  {
    "name": "Carolina Endodontic Associates",
    "address": "Multiple locations including: 2801 Village Way, New Bern, NC 28562; 104 Oakmont Drive, Greenville, NC 27858; 2300 Wayne Memorial Drive, Ste. E, Goldsboro NC 27534",
    "phone": "(252) 636-1011 (New Bern)",
    "rating": 4.7,
    "reviews": 25,
    "website": "https://www.carolinaendo.com/",
    "category": "Cuban-American-owned Endodontics in North-Carolina",
    "description": "Eastern North Carolina's largest endodontic group, dedicated to high-quality root canal therapy in a friendly environment, utilizing advanced technology",
    "hours": "Mon-Fri 9AM-6PM",
    "services": [
      "Cuban-American-owned Endodontics in North-Carolina consultation",
      "Professional service",
      "Quality guarantee"
    ],
    "social_links": {}
  },
  {
    "name": "North Carolina Endodontics",
    "address": "Multiple locations including: 8320 Litchford Rd, Suite #158, Raleigh, NC 27615; 1506 E Franklin St #204, Chapel Hill, NC 27514",
    "phone": "(919) 813-7800 (Raleigh)",
    "rating": 4.8,
    "reviews": 25,
    "website": "https://www.ncdotendodontics.com/",
    "category": "Cuban-American-owned Endodontics in North-Carolina",
    "description": "Specializes in microscopic endodontics, both surgical and non-surgical, with a team of expert endodontists",
    "hours": "Mon-Fri 9AM-6PM",
    "services": [
      "Cuban-American-owned Endodontics in North-Carolina consultation",
      "Professional service",
      "Quality guarantee"
    ],
    "social_links": {}
  },
  {
    "name": "Ballantyne Endodontics",
    "address": "15225 John J Delaney Dr #202, Charlotte, NC 28277",
    "phone": "(704) 544-9925",
    "rating": 4.9,
    "reviews": 25,
    "website": "https://www.ballantyneendodontics.com/",
    "category": "Cuban-American-owned Endodontics in North-Carolina",
    "description": "Offers cutting-edge technology and compassionate care, with a focus on preserving natural teeth and providing personalized treatment",
    "hours": "Mon-Fri 9AM-6PM",
    "services": [
      "Cuban-American-owned Endodontics in North-Carolina consultation",
      "Professional service",
      "Quality guarantee"
    ],
    "social_links": {}
  },
  {
    "name": "Endodontics of the Triad",
    "address": "2005 Westover Terrace, Greensboro, NC 27401",
    "phone": "(336) 645-1517",
    "rating": 4.9,
    "reviews": 25,
    "website": "https://www.endotriads.com/",
    "category": "Cuban-American-owned Endodontics in North-Carolina",
    "description": "Led by Greensboro's only female board-certified endodontist, this practice provides exceptional care with precision, compassion, and a personalized touch",
    "hours": "Mon-Fri 9AM-6PM",
    "services": [
      "Cuban-American-owned Endodontics in North-Carolina consultation",
      "Professional service",
      "Quality guarantee"
    ],
    "social_links": {}
  },
  {
    "name": "Carolinas Center for Endodontics and Dental Microsurgery",
    "address": "1010 Gum Branch Rd, Jacksonville, NC 28540",
    "phone": "(910) 577-4330",
    "rating": 4.9,
    "reviews": 25,
    "website": "https://www.carolinascendo.com/",
    "category": "Cuban-American-owned Endodontics in North-Carolina",
    "description": "The only practice limited to endodontic therapy in Jacksonville, NC, specializing in root canal therapy using the latest technology and dental microsurgery",
    "hours": "Mon-Fri 9AM-6PM",
    "services": [
      "Cuban-American-owned Endodontics in North-Carolina consultation",
      "Professional service",
      "Quality guarantee"
    ],
    "social_links": {}
  },
  {
    "name": "KOS Endodontics",
    "address": "1320 4th Street Drive Northwest, Hickory, NC 28601",
    "phone": "(828) 322-8710",
    "rating": 4.9,
    "reviews": 25,
    "website": "https://www.kosendo.com/",
    "category": "Cuban-American-owned Endodontics in North-Carolina",
    "description": "Provides root canal treatment, root canal retreatment, and apicoectomy services with a focus on excellent care",
    "hours": "Mon-Fri 9AM-6PM",
    "services": [
      "Cuban-American-owned Endodontics in North-Carolina consultation",
      "Professional service",
      "Quality guarantee"
    ],
    "social_links": {}
  },
  {
    "name": "PreservEndo",
    "address": "Multiple locations including: 610 Dr Calvin Jones Hwy Suite 100, Wake Forest, NC 27587; 875 Walnut St Suite 200, Cary, NC 27511; 509 N Arendell Ave, Zebulon, NC 27597",
    "phone": "(919) 556-7000 (Wake Forest)",
    "rating": 4.9,
    "reviews": 25,
    "website": "https://www.preservendo.com/",
    "category": "Cuban-American-owned Endodontics in North-Carolina",
    "description": "Committed to providing the best endodontic care possible, focusing on patient understanding, clear communication, and continuous improvement through technology and education",
    "hours": "Mon-Fri 9AM-6PM",
    "services": [
      "Cuban-American-owned Endodontics in North-Carolina consultation",
      "Professional service",
      "Quality guarantee"
    ],
    "social_links": {}
  }
]