[
  {
    "name": "Actors Lab Philly",
    "address": "111 N Wayne Ave, Wayne, PA 19087",
    "phone": "(267) 567-0050",
    "rating": 5.0,
    "reviews": 25,
    "website": "https://actorslabphilly.com/",
    "category": "Atheist-owned Acting instruction in Pennsylvania",
    "description": "Offers scene study for TV and film, commercial auditioning, and acting coaching in a professional and safe environment",
    "hours": "Mon-Fri 9AM-6PM",
    "services": [
      "Atheist-owned Acting instruction in Pennsylvania consultation",
      "Professional service",
      "Quality guarantee"
    ],
    "social_links": {}
  },
  {
    "name": "Philly Improv Theater (PHIT)",
    "address": "2030 Sansom St, Philadelphia, PA 19103",
    "phone": "(215) 875-0000",
    "rating": 4.5,
    "reviews": 25,
    "website": "https://phillyimprovtheater.com/",
    "category": "Atheist-owned Acting instruction in Pennsylvania",
    "description": "Provides improv and acting classes designed to boost confidence, quick thinking, and comedic skills, with options for beginners and experienced performers",
    "hours": "Mon-Fri 9AM-6PM",
    "services": [
      "Atheist-owned Acting instruction in Pennsylvania consultation",
      "Professional service",
      "Quality guarantee"
    ],
    "social_links": {}
  },
  {
    "name": "Playhouse West Philadelphia",
    "address": "1613 S 2nd St, Philadelphia, PA 19148",
    "phone": "(215) 709-4500",
    "rating": 4.7,
    "reviews": 25,
    "website": "https://www.playhousewestphilly.com/",
    "category": "Atheist-owned Acting instruction in Pennsylvania",
    "description": "Offers a serious, intense, professional training program aimed at preparing actors for professional work at the highest levels of the industry",
    "hours": "Mon-Fri 9AM-6PM",
    "services": [
      "Atheist-owned Acting instruction in Pennsylvania consultation",
      "Professional service",
      "Quality guarantee"
    ],
    "social_links": {}
  },
  {
    "name": "Wexford Acting Studio",
    "address": "10095 Perry Hwy, Wexford, PA 15090",
    "phone": "(724) 935-1000",
    "rating": 4.9,
    "reviews": 25,
    "website": "https://www.wexfordactingstudio.com/",
    "category": "Atheist-owned Acting instruction in Pennsylvania",
    "description": "Provides fun, productive acting classes that yield high results and build confident actors, with a focus on artistic development and a supportive environment",
    "hours": "Mon-Fri 9AM-6PM",
    "services": [
      "Atheist-owned Acting instruction in Pennsylvania consultation",
      "Professional service",
      "Quality guarantee"
    ],
    "social_links": {}
  },
  {
    "name": "The Philadelphia Acting Studio",
    "address": "1216 Arch St, Philadelphia, PA 19107",
    "phone": "(215) 563-7500",
    "rating": 4.6,
    "reviews": 25,
    "website": "https://www.philadelphiaactingstudio.com/",
    "category": "Atheist-owned Acting instruction in Pennsylvania",
    "description": "Offers acting classes that teach the craft of acting, the business of acting, and how to develop a successful mindset, with experienced instructors",
    "hours": "Mon-Fri 9AM-6PM",
    "services": [
      "Atheist-owned Acting instruction in Pennsylvania consultation",
      "Professional service",
      "Quality guarantee"
    ],
    "social_links": {}
  },
  {
    "name": "Slippery Rock University - Theatre Department",
    "address": "1 Morrow Way, Slippery Rock, PA 16057",
    "phone": "(724) 738-2000",
    "rating": 4.2,
    "reviews": 25,
    "website": "https://www.sru.edu/academics/theatre/",
    "category": "Atheist-owned Acting instruction in Pennsylvania",
    "description": "Offers a BFA in Acting with professional training from experienced faculty, accredited by the National Association of Schools of Theatre",
    "hours": "Mon-Fri 9AM-6PM",
    "services": [
      "Atheist-owned Acting instruction in Pennsylvania consultation",
      "Professional service",
      "Quality guarantee"
    ],
    "social_links": {}
  },
  {
    "name": "Seton Hill University - Theatre Department",
    "address": "1 Seton Hill Dr, Greensburg, PA 15601",
    "phone": "(724) 830-1000",
    "rating": 3.7,
    "reviews": 25,
    "website": "https://www.setonhill.edu/academics/theatre-arts/acting-bfa/",
    "category": "Atheist-owned Acting instruction in Pennsylvania",
    "description": "Provides an intensive BFA in Acting program preparing students for professional work on stage and screen, with opportunities for performance and industry exposure",
    "hours": "Mon-Fri 9AM-6PM",
    "services": [
      "Atheist-owned Acting instruction in Pennsylvania consultation",
      "Professional service",
      "Quality guarantee"
    ],
    "social_links": {}
  },
  {
    "name": "University of Pennsylvania - Theatre Arts Program",
    "address": "116 College Hall, Philadelphia, PA 19104",
    "phone": "(215) 898-7541",
    "rating": 4.0,
    "reviews": 25,
    "website": "https://www.english.upenn.edu/programs/theatre-arts",
    "category": "Atheist-owned Acting instruction in Pennsylvania",
    "description": "An interdisciplinary program exploring theatrical history, literature, and artistic practice, developing students' minds and creativity",
    "hours": "Mon-Fri 9AM-6PM",
    "services": [
      "Atheist-owned Acting instruction in Pennsylvania consultation",
      "Professional service",
      "Quality guarantee"
    ],
    "social_links": {}
  },
  {
    "name": "DeSales University - Theatre Program",
    "address": "2755 Station Rd, Center Valley, PA 18034",
    "phone": "(610) 282-1100",
    "rating": 3.5,
    "reviews": 25,
    "website": "https://www.desales.edu/academics/programs/theatre",
    "category": "Atheist-owned Acting instruction in Pennsylvania",
    "description": "Offers a comprehensive theatre program with a focus on acting, preparing students for professional careers in the performing arts",
    "hours": "Mon-Fri 9AM-6PM",
    "services": [
      "Atheist-owned Acting instruction in Pennsylvania consultation",
      "Professional service",
      "Quality guarantee"
    ],
    "social_links": {}
  },
  {
    "name": "Arcadia University - Theatre Program",
    "address": "450 S Easton Rd, Glenside, PA 19038",
    "phone": "(215) 572-2900",
    "rating": 3.4,
    "reviews": 25,
    "website": "https://www.arcadia.edu/academics/programs/theatre",
    "category": "Atheist-owned Acting instruction in Pennsylvania",
    "description": "Provides a theatre program with opportunities for students to develop their acting skills and explore various aspects of the performing arts",
    "hours": "Mon-Fri 9AM-6PM",
    "services": [
      "Atheist-owned Acting instruction in Pennsylvania consultation",
      "Professional service",
      "Quality guarantee"
    ],
    "social_links": {}
  }
]