[
  {
    "name": "Red Ginger Asian Bistro",
    "address": "9710 West Sample Road, Coral Springs, FL 33065",
    "phone": "(954) 345-8880",
    "rating": 4.0,
    "reviews": 25,
    "website": "http://www.redgingercoralsprings.com/",
    "category": "Asian-owned Wine bars in Florida",
    "description": "An Asian Bistro and Sushi destination offering Chinese dishes and a lounge with cocktails",
    "hours": "Mon-Fri 9AM-6PM",
    "services": [
      "Asian-owned Wine bars in Florida consultation",
      "Professional service",
      "Quality guarantee"
    ],
    "social_links": {}
  },
  {
    "name": "Kapow Noodle Bar",
    "address": "401 E Las Olas Blvd, Fort Lauderdale, FL 33301",
    "phone": "(954) 539-7090",
    "rating": 4.4,
    "reviews": 25,
    "website": "https://kapownoodlebar.com/",
    "category": "Asian-owned Wine bars in Florida",
    "description": "A modern Asian Kitchen & Noodle Bar with hand-crafted cocktails, sake, wine, and craft beers",
    "hours": "Mon-Fri 9AM-6PM",
    "services": [
      "Asian-owned Wine bars in Florida consultation",
      "Professional service",
      "Quality guarantee"
    ],
    "social_links": {}
  },
  {
    "name": "Zen Kitchen & Bar",
    "address": "6390 US-19, New Port Richey, FL 34652",
    "phone": "(727) 807-0000",
    "rating": 4.7,
    "reviews": 25,
    "website": "https://www.zenkitchenandbar.com/",
    "category": "Asian-owned Wine bars in Florida",
    "description": "A Pan-Asian restaurant and bar offering a full liquor bar with cocktails, sake, and an extensive wine list",
    "hours": "Mon-Fri 9AM-6PM",
    "services": [
      "Asian-owned Wine bars in Florida consultation",
      "Professional service",
      "Quality guarantee"
    ],
    "social_links": {}
  },
  {
    "name": "Mama Asian Bistro",
    "address": "4530 N State Rd 7, Coconut Creek, FL 33073",
    "phone": "(954) 977-1818",
    "rating": 4.4,
    "reviews": 25,
    "website": "https://www.mamaasianbistro.com/",
    "category": "Asian-owned Wine bars in Florida",
    "description": "A Thai sushi restaurant serving sushi, Thai, and Ramen noodle dishes with a selection of wine, beer, and cocktails",
    "hours": "Mon-Fri 9AM-6PM",
    "services": [
      "Asian-owned Wine bars in Florida consultation",
      "Professional service",
      "Quality guarantee"
    ],
    "social_links": {}
  },
  {
    "name": "Soho Asian Bar & Grill",
    "address": "19067 NE 37th Ave, Aventura, FL 33180",
    "phone": "(305) 932-7000",
    "rating": 4.2,
    "reviews": 25,
    "website": "https://sohoasian.com/",
    "category": "Asian-owned Wine bars in Florida",
    "description": "A kosher restaurant specializing in American, Japanese, Chinese, and Italian kosher-style food with an extensive kosher wine selection",
    "hours": "Mon-Fri 9AM-6PM",
    "services": [
      "Asian-owned Wine bars in Florida consultation",
      "Professional service",
      "Quality guarantee"
    ],
    "social_links": {}
  },
  {
    "name": "Lemongrass Asian Bistro Sushi",
    "address": "950 E Delray Beach Blvd, Delray Beach, FL 33483",
    "phone": "(561) 563-5000",
    "rating": 4.4,
    "reviews": 25,
    "website": "https://lemongrassasianbistro.com/",
    "category": "Asian-owned Wine bars in Florida",
    "description": "An Asian restaurant offering sushi and other Asian dishes, with a plum wine option",
    "hours": "Mon-Fri 9AM-6PM",
    "services": [
      "Asian-owned Wine bars in Florida consultation",
      "Professional service",
      "Quality guarantee"
    ],
    "social_links": {}
  },
  {
    "name": "Saucy Boodah",
    "address": "252 NW 26th St, Miami, FL 33127",
    "phone": "(305) 747-5400",
    "rating": 4.5,
    "reviews": 25,
    "website": "https://www.saucyboodah.com/",
    "category": "Asian-owned Wine bars in Florida",
    "description": "An Asian Fusion restaurant and bar in Wynwood, Miami, offering brunch, lunch, dinner, happy hour, and nightlife",
    "hours": "Mon-Fri 9AM-6PM",
    "services": [
      "Asian-owned Wine bars in Florida consultation",
      "Professional service",
      "Quality guarantee"
    ],
    "social_links": {}
  },
  {
    "name": "Nami Nori",
    "address": "1000 S Miami Ave, Miami, FL 33130",
    "phone": "(305) 397-8580",
    "rating": 4.5,
    "reviews": 25,
    "website": "https://www.naminori.com/",
    "category": "Asian-owned Wine bars in Florida",
    "description": "A casual temaki bar specializing in open-style sushi hand rolls, with a selection of beer, sake, and wine",
    "hours": "Mon-Fri 9AM-6PM",
    "services": [
      "Asian-owned Wine bars in Florida consultation",
      "Professional service",
      "Quality guarantee"
    ],
    "social_links": {}
  },
  {
    "name": "COTE Korean Steakhouse",
    "address": "3900 NE 2nd Ave, Miami, FL 33137",
    "phone": "(305) 434-1234",
    "rating": 4.7,
    "reviews": 25,
    "website": "https://www.cotemiami.com/",
    "category": "Asian-owned Wine bars in Florida",
    "description": "A Korean Steakhouse that blends Korean barbeque with American steakhouse elements, featuring an award-winning wine list",
    "hours": "Mon-Fri 9AM-6PM",
    "services": [
      "Asian-owned Wine bars in Florida consultation",
      "Professional service",
      "Quality guarantee"
    ],
    "social_links": {}
  },
  {
    "name": "Maru",
    "address": "718 S Howard Ave, Tampa, FL 33606",
    "phone": "(813) 284-4040",
    "rating": 4.5,
    "reviews": 25,
    "website": "https://www.marutampa.com/",
    "category": "Asian-owned Wine bars in Florida",
    "description": "A restaurant offering Nikkei cuisine (Peruvian and Japanese flavors) with small plates, sushi, and expertly crafted cocktails, as well as wine",
    "hours": "Mon-Fri 9AM-6PM",
    "services": [
      "Asian-owned Wine bars in Florida consultation",
      "Professional service",
      "Quality guarantee"
    ],
    "social_links": {}
  }
]