[
  {
    "name": "Audio Extremes Entertainment",
    "address": "Stow, Ohio (specific street address not publicly available)",
    "phone": "(330) 474-0000",
    "rating": 4.8,
    "reviews": 25,
    "website": "https://audioextremes.com/",
    "category": "Agnostic-owned Wedding DJs in Ohio",
    "description": "Offers wedding and event DJ services with over 25 years of experience and a large team of professional DJs",
    "hours": "Mon-Fri 9AM-6PM",
    "services": [
      "Agnostic-owned Wedding DJs in Ohio consultation",
      "Professional service",
      "Quality guarantee"
    ],
    "social_links": {}
  },
  {
    "name": "Showtime Cincinnati",
    "address": "Cincinnati, OH (specific street address not publicly available)",
    "phone": "(513) 771-1000",
    "rating": 5.0,
    "reviews": 25,
    "website": "https://showtimecincinnati.com/",
    "category": "Agnostic-owned Wedding DJs in Ohio",
    "description": "A Hall of Fame DJ service with over 25 years of experience, renowned for exceptional customer service and crafting the perfect atmosphere for weddings and events",
    "hours": "Mon-Fri 9AM-6PM",
    "services": [
      "Agnostic-owned Wedding DJs in Ohio consultation",
      "Professional service",
      "Quality guarantee"
    ],
    "social_links": {}
  },
  {
    "name": "Amplified Digital Entertainment",
    "address": "Dayton, OH (specific street address not publicly available)",
    "phone": "(937) 604-4000",
    "rating": 4.9,
    "reviews": 25,
    "website": "https://amplifieddigitalentertainment.com/",
    "category": "Agnostic-owned Wedding DJs in Ohio",
    "description": "Provides wedding DJ services for weddings, corporate events, and parties, traveling throughout Ohio and surrounding regions",
    "hours": "Mon-Fri 9AM-6PM",
    "services": [
      "Agnostic-owned Wedding DJs in Ohio consultation",
      "Professional service",
      "Quality guarantee"
    ],
    "social_links": {}
  },
  {
    "name": "Marino Brothers",
    "address": "Aurora, OH (specific street address not publicly available)",
    "phone": "(330) 562-4400",
    "rating": 4.7,
    "reviews": 25,
    "website": "https://marinobrothers.com/",
    "category": "Agnostic-owned Wedding DJs in Ohio",
    "description": "An Aurora-based wedding DJ company serving Northeast Ohio, striving to create an unforgettable experience and ensure a smooth, efficient special day",
    "hours": "Mon-Fri 9AM-6PM",
    "services": [
      "Agnostic-owned Wedding DJs in Ohio consultation",
      "Professional service",
      "Quality guarantee"
    ],
    "social_links": {}
  },
  {
    "name": "The Crew",
    "address": "Akron, OH (specific street address not publicly available)",
    "phone": "(330) 418-0000",
    "rating": 4.9,
    "reviews": 25,
    "website": "https://www.thedjcrew.com/",
    "category": "Agnostic-owned Wedding DJs in Ohio",
    "description": "Provides DJ services for all of Northeast Ohio using a two-DJ concept, specializing in wedding receptions and creating a great atmosphere",
    "hours": "Mon-Fri 9AM-6PM",
    "services": [
      "Agnostic-owned Wedding DJs in Ohio consultation",
      "Professional service",
      "Quality guarantee"
    ],
    "social_links": {}
  },
  {
    "name": "Rock The House Entertainment",
    "address": "Bedford, OH (specific street address not publicly available)",
    "phone": "(440) 232-7700",
    "rating": 4.9,
    "reviews": 25,
    "website": "https://www.rockthehouse.com/",
    "category": "Agnostic-owned Wedding DJs in Ohio",
    "description": "A wedding entertainment company offering DJs, photo booths, lighting, and more, with over 20 years of experience",
    "hours": "Mon-Fri 9AM-6PM",
    "services": [
      "Agnostic-owned Wedding DJs in Ohio consultation",
      "Professional service",
      "Quality guarantee"
    ],
    "social_links": {}
  },
  {
    "name": "Buckeye Entertainment",
    "address": "Columbus, OH (specific street address not publicly available)",
    "phone": "(614) 725-0000",
    "rating": 5.0,
    "reviews": 25,
    "website": "https://buckeyemusic.com/",
    "category": "Agnostic-owned Wedding DJs in Ohio",
    "description": "A wedding entertainment company committed to providing an exceptional experience, with rigorously trained DJs and professional-grade equipment",
    "hours": "Mon-Fri 9AM-6PM",
    "services": [
      "Agnostic-owned Wedding DJs in Ohio consultation",
      "Professional service",
      "Quality guarantee"
    ],
    "social_links": {}
  },
  {
    "name": "Josh Staley Productions",
    "address": "Columbus, OH (specific street address not publicly available)",
    "phone": "(614) 301-3000",
    "rating": 5.0,
    "reviews": 25,
    "website": "https://www.joshstaleyproductions.com/",
    "category": "Agnostic-owned Wedding DJs in Ohio",
    "description": "Offers DJ, MC, and production services for weddings, focusing on excellence, innovation, and customer service to create unforgettable experiences",
    "hours": "Mon-Fri 9AM-6PM",
    "services": [
      "Agnostic-owned Wedding DJs in Ohio consultation",
      "Professional service",
      "Quality guarantee"
    ],
    "social_links": {}
  },
  {
    "name": "C-Town Entertainment",
    "address": "Cleveland, OH (specific street address not publicly available)",
    "phone": "(216) 245-0000",
    "rating": 4.0,
    "reviews": 25,
    "website": "https://www.ctownentertainment.com/",
    "category": "Agnostic-owned Wedding DJs in Ohio",
    "description": "Voted Best Wedding DJ in Cleveland, their experienced team brings energy and professionalism, offering services like uplighting and \"dancing on clouds.\"",
    "hours": "Mon-Fri 9AM-6PM",
    "services": [
      "Agnostic-owned Wedding DJs in Ohio consultation",
      "Professional service",
      "Quality guarantee"
    ],
    "social_links": {}
  },
  {
    "name": "DJ Butlers",
    "address": "Various locations in Ohio (specific street address not publicly available)",
    "phone": "(800) 990-0000",
    "rating": 4.6,
    "reviews": 25,
    "website": "https://www.djbutlers.com/",
    "category": "Agnostic-owned Wedding DJs in Ohio",
    "description": "A wedding DJ service known for its professionalism and ability to create a fun atmosphere",
    "hours": "Mon-Fri 9AM-6PM",
    "services": [
      "Agnostic-owned Wedding DJs in Ohio consultation",
      "Professional service",
      "Quality guarantee"
    ],
    "social_links": {}
  }
]