[
  {
    "name": "Shrine Catholic Schools",
    "address": "3500 W 13 Mile Rd, Royal Oak, MI 48073",
    "phone": "(248) 549-2925",
    "rating": 4.0,
    "reviews": 25,
    "website": "https://www.shrineschools.com/academics/arts",
    "category": "Catholic-owned Theater instruction in Michigan",
    "description": "Offers a comprehensive fine and performing arts program, including drama, music, and visual arts, with opportunities for students from early childhood through high school",
    "hours": "Mon-Fri 9AM-6PM",
    "services": [
      "Catholic-owned Theater instruction in Michigan consultation",
      "Professional service",
      "Quality guarantee"
    ],
    "social_links": {}
  },
  {
    "name": "Hackett Catholic Prep",
    "address": "1000 W Kilgore Rd, Kalamazoo, MI 49008",
    "phone": "(269) 381-2646",
    "rating": 4.0,
    "reviews": 25,
    "website": "https://www.hackettcp.org/student-life/theater",
    "category": "Catholic-owned Theater instruction in Michigan",
    "description": "Features a theater program where students are involved in all aspects of production, from acting to technical roles, with approximately 30% of students participating annually",
    "hours": "Mon-Fri 9AM-6PM",
    "services": [
      "Catholic-owned Theater instruction in Michigan consultation",
      "Professional service",
      "Quality guarantee"
    ],
    "social_links": {}
  },
  {
    "name": "Detroit Catholic Central High School",
    "address": "24505 W 10 Mile Rd, Novi, MI 48375",
    "phone": "(248) 347-1100",
    "rating": 4.0,
    "reviews": 25,
    "website": "https://www.catholiccentral.net/student-life/performing-arts",
    "category": "Catholic-owned Theater instruction in Michigan",
    "description": "Provides a Drama Club that stages annual productions and offers students experience in acting, stage design, lighting, sound, and stage management",
    "hours": "Mon-Fri 9AM-6PM",
    "services": [
      "Catholic-owned Theater instruction in Michigan consultation",
      "Professional service",
      "Quality guarantee"
    ],
    "social_links": {}
  },
  {
    "name": "Everest Collegiate High School & Academy",
    "address": "5116 Clinton River Rd, Clarkston, MI 48346",
    "phone": "(248) 241-9000",
    "rating": 4.0,
    "reviews": 25,
    "website": "https://www.everestcatholic.org/arts",
    "category": "Catholic-owned Theater instruction in Michigan",
    "description": "Offers a theater arts program that develops core drama skills and repertoire, with opportunities to participate in a fall play and spring musical",
    "hours": "Mon-Fri 9AM-6PM",
    "services": [
      "Catholic-owned Theater instruction in Michigan consultation",
      "Professional service",
      "Quality guarantee"
    ],
    "social_links": {}
  },
  {
    "name": "Catholic Central High School (Grand Rapids)",
    "address": "3445 Bristol Ave NW, Grand Rapids, MI 49534",
    "phone": "(616) 453-7731",
    "rating": 4.0,
    "reviews": 25,
    "website": "https://www.grcatholiccentral.org/fine-arts",
    "category": "Catholic-owned Theater instruction in Michigan",
    "description": "The theater program is an extracurricular activity producing three plays/musicals annually, performed at the Aquinas College Performing Arts Center",
    "hours": "Mon-Fri 9AM-6PM",
    "services": [
      "Catholic-owned Theater instruction in Michigan consultation",
      "Professional service",
      "Quality guarantee"
    ],
    "social_links": {}
  },
  {
    "name": "St. Fabian Catholic School",
    "address": "32200 W 12 Mile Rd, Farmington Hills, MI 48334",
    "phone": "(248) 553-2450",
    "rating": 4.0,
    "reviews": 25,
    "website": "https://www.stfabian.org/theater",
    "category": "Catholic-owned Theater instruction in Michigan",
    "description": "A Christ-centered school dedicated to academic excellence and spiritual development, with a theater program as part of its offerings",
    "hours": "Mon-Fri 9AM-6PM",
    "services": [
      "Catholic-owned Theater instruction in Michigan consultation",
      "Professional service",
      "Quality guarantee"
    ],
    "social_links": {}
  },
  {
    "name": "Grand Traverse Area Catholic Schools",
    "address": "1200 W. Silver Lake Rd, Traverse City, MI 49684",
    "phone": "(231) 944-7474",
    "rating": 4.0,
    "reviews": 25,
    "website": "https://www.gtacs.org/arts",
    "category": "Catholic-owned Theater instruction in Michigan",
    "description": "Offers various arts programs, including theater, with opportunities for students to express their faith through the arts, including a high school musical",
    "hours": "Mon-Fri 9AM-6PM",
    "services": [
      "Catholic-owned Theater instruction in Michigan consultation",
      "Professional service",
      "Quality guarantee"
    ],
    "social_links": {}
  },
  {
    "name": "Bishop Foley Catholic High School",
    "address": "32000 Ryan Rd, Madison Heights, MI 48071",
    "phone": "(248) 585-0100",
    "rating": 4.0,
    "reviews": 25,
    "website": "https://www.bishopfoley.org/arts",
    "category": "Catholic-owned Theater instruction in Michigan",
    "description": "Features a performing and visual arts department with different levels of drama as part of the curriculum and after-school programs, along with dance and music",
    "hours": "Mon-Fri 9AM-6PM",
    "services": [
      "Catholic-owned Theater instruction in Michigan consultation",
      "Professional service",
      "Quality guarantee"
    ],
    "social_links": {}
  },
  {
    "name": "St. Mary Catholic School",
    "address": "106 High St, Westphalia, MI 48894",
    "phone": "(517) 587-3400",
    "rating": 4.0,
    "reviews": 25,
    "website": "https://www.stmary.pvt.k12.mi.us/performing-arts",
    "category": "Catholic-owned Theater instruction in Michigan",
    "description": "The Middle School Drama Department performs a theatrical production in the spring, involving students in all aspects of the production",
    "hours": "Mon-Fri 9AM-6PM",
    "services": [
      "Catholic-owned Theater instruction in Michigan consultation",
      "Professional service",
      "Quality guarantee"
    ],
    "social_links": {}
  },
  {
    "name": "Powers Catholic High School",
    "address": "1500 Saxton Ave, Flint, MI 48506",
    "phone": "(810) 744-1130",
    "rating": 4.0,
    "reviews": 25,
    "website": "https://powerscatholic.org/arts",
    "category": "Catholic-owned Theater instruction in Michigan",
    "description": "The Powers Catholic Theatre Department produces two shows a year, which are acted out and completely run by students",
    "hours": "Mon-Fri 9AM-6PM",
    "services": [
      "Catholic-owned Theater instruction in Michigan consultation",
      "Professional service",
      "Quality guarantee"
    ],
    "social_links": {}
  }
]