[
  {
    "name": "Sterling Hot Yoga Lexington",
    "address": "1270-A New Circle Rd, Lexington, KY 40502",
    "phone": "(859) 402-2211",
    "rating": 4.5,
    "reviews": 25,
    "website": "https://www.sterlinghotyoga.com/",
    "category": "Arabic-speaking Yoga instruction in Kentucky",
    "description": "Offers hot yoga and hot pilates classes for all levels in a warm and secure environment",
    "hours": "Mon-Fri 9AM-6PM",
    "services": [
      "Arabic-speaking Yoga instruction in Kentucky consultation",
      "Professional service",
      "Quality guarantee"
    ],
    "social_links": {}
  },
  {
    "name": "Wildfire Yoga",
    "address": "1210 Manchester St, Lexington, KY 40508",
    "phone": "(859) 559-0071",
    "rating": 4.8,
    "reviews": 25,
    "website": "https://wildfireyoga.com/",
    "category": "Arabic-speaking Yoga instruction in Kentucky",
    "description": "Provides a diverse range of hot yoga classes in a welcoming space, with options for in-person and online sessions",
    "hours": "Mon-Fri 9AM-6PM",
    "services": [
      "Arabic-speaking Yoga instruction in Kentucky consultation",
      "Professional service",
      "Quality guarantee"
    ],
    "social_links": {}
  },
  {
    "name": "Full Body Fitness & Yoga",
    "address": "7040 Mall Rd, Florence, KY 41042",
    "phone": "(859) 647-0000",
    "rating": 4.9,
    "reviews": 25,
    "website": "https://www.fullbodyfitnessky.com/",
    "category": "Arabic-speaking Yoga instruction in Kentucky",
    "description": "Offers a wide range of fitness and yoga classes, including Vinyasa, Yin, and Restorative practices, in a supportive environment",
    "hours": "Mon-Fri 9AM-6PM",
    "services": [
      "Arabic-speaking Yoga instruction in Kentucky consultation",
      "Professional service",
      "Quality guarantee"
    ],
    "social_links": {}
  },
  {
    "name": "4yoga",
    "address": "1130 Adams St, Bowling Green, KY 42101",
    "phone": "(270) 793-0011",
    "rating": 4.7,
    "reviews": 25,
    "website": "https://www.4yoga.com/",
    "category": "Arabic-speaking Yoga instruction in Kentucky",
    "description": "A community yoga studio offering classes that focus on breath awareness, mindfulness, strength, and flexibility",
    "hours": "Mon-Fri 9AM-6PM",
    "services": [
      "Arabic-speaking Yoga instruction in Kentucky consultation",
      "Professional service",
      "Quality guarantee"
    ],
    "social_links": {}
  },
  {
    "name": "Yoga East",
    "address": "1200 Bardstown Rd, Louisville, KY 40204",
    "phone": "(502) 585-2070",
    "rating": 4.6,
    "reviews": 25,
    "website": "https://www.yogaeast.com/",
    "category": "Arabic-speaking Yoga instruction in Kentucky",
    "description": "A non-profit yoga school offering over 40 weekly classes, workshops, and teacher training, with a focus on Hatha, Gentle, Yin, and Ashtanga styles",
    "hours": "Mon-Fri 9AM-6PM",
    "services": [
      "Arabic-speaking Yoga instruction in Kentucky consultation",
      "Professional service",
      "Quality guarantee"
    ],
    "social_links": {}
  },
  {
    "name": "Yoga Baum",
    "address": "2101 Bardstown Rd, Louisville, KY 40205",
    "phone": "(502) 409-7120",
    "rating": 4.8,
    "reviews": 25,
    "website": "https://www.yogabaum.com/",
    "category": "Arabic-speaking Yoga instruction in Kentucky",
    "description": "Offers group classes, private sessions, workshops, and teacher trainings with a focus on personalized experiences and community building",
    "hours": "Mon-Fri 9AM-6PM",
    "services": [
      "Arabic-speaking Yoga instruction in Kentucky consultation",
      "Professional service",
      "Quality guarantee"
    ],
    "social_links": {}
  },
  {
    "name": "Hot Yoga Bowling Green",
    "address": "730 Fairview Ave Suite C-2, Bowling Green, KY 42101",
    "phone": "(270) 793-0011",
    "rating": 4.7,
    "reviews": 25,
    "website": "https://www.hotyogabowlinggreen.com/",
    "category": "Arabic-speaking Yoga instruction in Kentucky",
    "description": "A premier hot yoga studio offering a welcoming environment for all levels, with well-trained instructors",
    "hours": "Mon-Fri 9AM-6PM",
    "services": [
      "Arabic-speaking Yoga instruction in Kentucky consultation",
      "Professional service",
      "Quality guarantee"
    ],
    "social_links": {}
  },
  {
    "name": "The Studio (Georgetown)",
    "address": "315 E Washington St, Georgetown, KY 40324",
    "phone": "(502) 863-6262",
    "rating": 4.9,
    "reviews": 25,
    "website": "https://www.thestudiogtown.com/",
    "category": "Arabic-speaking Yoga instruction in Kentucky",
    "description": "Offers a variety of yoga classes, massage, and dance, with a focus on creating a welcoming environment for all",
    "hours": "Mon-Fri 9AM-6PM",
    "services": [
      "Arabic-speaking Yoga instruction in Kentucky consultation",
      "Professional service",
      "Quality guarantee"
    ],
    "social_links": {}
  },
  {
    "name": "Sage Yoga Hot + Pilates (Newport, KY)",
    "address": "627 Monmouth St, Newport, KY 41071",
    "phone": "(859) 468-6052",
    "rating": 4.7,
    "reviews": 25,
    "website": "https://www.sageyogahot.com/",
    "category": "Arabic-speaking Yoga instruction in Kentucky",
    "description": "Offers hot yoga, Reformer Pilates, and boutique fitness classes in a vibrant and inclusive community",
    "hours": "Mon-Fri 9AM-6PM",
    "services": [
      "Arabic-speaking Yoga instruction in Kentucky consultation",
      "Professional service",
      "Quality guarantee"
    ],
    "social_links": {}
  },
  {
    "name": "Embra Studio (Crescent Springs, KY)",
    "address": "2428 High Street, Crescent Springs, KY 41017",
    "phone": "(859) 344-9642",
    "rating": 4.8,
    "reviews": 25,
    "website": "https://www.embrastudio.com/",
    "category": "Arabic-speaking Yoga instruction in Kentucky",
    "description": "A yoga and wellness studio with locations in Cincinnati and Northern Kentucky, offering a variety of classes to help individuals create their most vibrant selves",
    "hours": "Mon-Fri 9AM-6PM",
    "services": [
      "Arabic-speaking Yoga instruction in Kentucky consultation",
      "Professional service",
      "Quality guarantee"
    ],
    "social_links": {}
  }
]