[
  {
    "name": "KP Heating and Cooling, LLC",
    "address": "Cincinnati, OH 45219",
    "phone": "(513) 498-0955",
    "rating": 4.0,
    "reviews": 25,
    "website": "https://www.google.com/maps/search/KP+Heating+and+Cooling,+LLC+in+Ohio",
    "category": "Black-owned Thermostats in Ohio",
    "description": "Specializes in repairing, replacing, and installing furnaces, air-conditioning, water heaters, and boilers. They handle all HVAC needs, including routine maintenance and emergency repairs",
    "hours": "Mon-Fri 9AM-6PM",
    "services": [
      "Black-owned Thermostats in Ohio consultation",
      "Professional service",
      "Quality guarantee"
    ],
    "social_links": {}
  },
  {
    "name": "SURE Mechanical Commercial HVAC Services",
    "address": "Cincinnati, OH (service area includes Southern Ohio)",
    "phone": "",
    "rating": 4.0,
    "reviews": 25,
    "website": "https://www.google.com/maps/search/SURE+Mechanical+Commercial+HVAC+Services+in+Ohio",
    "category": "Black-owned Thermostats in Ohio",
    "description": "A commercial HVAC contracting firm offering design, fabrication, installation, and engineering services. They focus on providing innovative and cost-effective solutions for government agencies, private organizations, and educational institutions",
    "hours": "Mon-Fri 9AM-6PM",
    "services": [
      "Black-owned Thermostats in Ohio consultation",
      "Professional service",
      "Quality guarantee"
    ],
    "social_links": {}
  },
  {
    "name": "All Around Heating & Cooling",
    "address": "1709 Goodyear Blvd, Akron, OH 44305",
    "phone": "234-206-0836",
    "rating": 4.0,
    "reviews": 25,
    "website": "https://www.supportblackowned.com/all-around-heating-cooling",
    "category": "Black-owned Thermostats in Ohio",
    "description": "A full-service residential and light commercial heating and cooling company servicing all makes and models of HVAC equipment, including AC and furnace repair",
    "hours": "Mon-Fri 9AM-6PM",
    "services": [
      "Black-owned Thermostats in Ohio consultation",
      "Professional service",
      "Quality guarantee"
    ],
    "social_links": {}
  },
  {
    "name": "Moody Engineering",
    "address": "Cleveland and Columbus, OH",
    "phone": "",
    "rating": 4.0,
    "reviews": 25,
    "website": "https://www.google.com/maps/search/Moody+Engineering+in+Ohio",
    "category": "Black-owned Thermostats in Ohio",
    "description": "An engineering firm that may offer HVAC-related services",
    "hours": "Mon-Fri 9AM-6PM",
    "services": [
      "Black-owned Thermostats in Ohio consultation",
      "Professional service",
      "Quality guarantee"
    ],
    "social_links": {}
  },
  {
    "name": "Manning Preferred Inspections",
    "address": "Columbus, OH",
    "phone": "",
    "rating": 4.0,
    "reviews": 25,
    "website": "https://www.google.com/maps/search/Manning+Preferred+Inspections+in+Ohio",
    "category": "Black-owned Thermostats in Ohio",
    "description": "While primarily focused on inspections, they may offer related services or referrals",
    "hours": "Mon-Fri 9AM-6PM",
    "services": [
      "Black-owned Thermostats in Ohio consultation",
      "Professional service",
      "Quality guarantee"
    ],
    "social_links": {}
  },
  {
    "name": "Pro-Contractors",
    "address": "Cincinnati, OH",
    "phone": "513-402-0350",
    "rating": 4.0,
    "reviews": 25,
    "website": "https://www.google.com/maps/search/Pro-Contractors+in+Ohio",
    "category": "Black-owned Thermostats in Ohio",
    "description": "Offers renovation, roof repair and installation, handyman services, kitchen and bath remodel, plumbing and electrical maintenance, and landscaping services. They may also handle HVAC components",
    "hours": "Mon-Fri 9AM-6PM",
    "services": [
      "Black-owned Thermostats in Ohio consultation",
      "Professional service",
      "Quality guarantee"
    ],
    "social_links": {}
  },
  {
    "name": "Willpower Contracting",
    "address": "Cincinnati, OH",
    "phone": "513-620-4138",
    "rating": 4.0,
    "reviews": 25,
    "website": "https://www.google.com/maps/search/Willpower+Contracting+in+Ohio",
    "category": "Black-owned Thermostats in Ohio",
    "description": "Provides remodeling, concepts, HVAC, electrical, drywall, plumbing, installation, handyman, maintenance, and repair services",
    "hours": "Mon-Fri 9AM-6PM",
    "services": [
      "Black-owned Thermostats in Ohio consultation",
      "Professional service",
      "Quality guarantee"
    ],
    "social_links": {}
  },
  {
    "name": "Xcell Building Construction and Maintenance",
    "address": "Cincinnati, OH",
    "phone": "513-461-4066",
    "rating": 4.0,
    "reviews": 25,
    "website": "https://www.google.com/maps/search/Xcell+Building+Construction+and+Maintenance+in+Ohio",
    "category": "Black-owned Thermostats in Ohio",
    "description": "Offers remodeling, plumbing, electrical work, painting, HVAC services, demolition, and repairs",
    "hours": "Mon-Fri 9AM-6PM",
    "services": [
      "Black-owned Thermostats in Ohio consultation",
      "Professional service",
      "Quality guarantee"
    ],
    "social_links": {}
  },
  {
    "name": "Yes We Can General Contracting",
    "address": "Cincinnati, OH",
    "phone": "513-497-2884",
    "rating": 4.0,
    "reviews": 25,
    "website": "https://www.google.com/maps/search/Yes+We+Can+General+Contracting+in+Ohio",
    "category": "Black-owned Thermostats in Ohio",
    "description": "Provides remodeling, plumbing, clean-outs, flooring, landscaping, and HVAC services",
    "hours": "Mon-Fri 9AM-6PM",
    "services": [
      "Black-owned Thermostats in Ohio consultation",
      "Professional service",
      "Quality guarantee"
    ],
    "social_links": {}
  },
  {
    "name": "Southern Ohio Air LLC",
    "address": "Clinton County, OH (serves Cincinnati and surrounding regions)",
    "phone": "937-302-8008",
    "rating": 4.0,
    "reviews": 25,
    "website": "https://www.google.com/maps/search/Southern+Ohio+Air+LLC+in+Ohio",
    "category": "Black-owned Thermostats in Ohio",
    "description": "Provides 24/7 HVAC repair and replacement services, including heating, cooling, and indoor air quality needs",
    "hours": "Mon-Fri 9AM-6PM",
    "services": [
      "Black-owned Thermostats in Ohio consultation",
      "Professional service",
      "Quality guarantee"
    ],
    "social_links": {}
  }
]