[
  {
    "name": "Main Street Automotive",
    "address": "2040 N. Main Street Suite 2, Walnut Creek, California, 94596",
    "phone": "925-945-0691",
    "rating": 4.0,
    "reviews": 25,
    "website": "https://www.mainstreetautomotive.com/",
    "category": "LGBT-owned Bumper repair in California",
    "description": "Offers a wide range of auto repair services, including bumper repair, and welcomes LGBTQ+ clientele",
    "hours": "Mon-Fri 9AM-6PM",
    "services": [
      "LGBT-owned Bumper repair in California consultation",
      "Professional service",
      "Quality guarantee"
    ],
    "social_links": {}
  },
  {
    "name": "Greg's Automotive",
    "address": "El Cajon, California, 92020 (also has a La Mesa location)",
    "phone": "619-440-4337",
    "rating": 4.0,
    "reviews": 25,
    "website": "https://www.gregsautomotive.com/",
    "category": "LGBT-owned Bumper repair in California",
    "description": "Specializes in vehicle maintenance and auto repair, serving the LGBTQ community in the San Diego area",
    "hours": "Mon-Fri 9AM-6PM",
    "services": [
      "LGBT-owned Bumper repair in California consultation",
      "Professional service",
      "Quality guarantee"
    ],
    "social_links": {}
  },
  {
    "name": "AutoAid",
    "address": "14852 Vanowen St, Van Nuys, CA 91405",
    "phone": "(818) 296-0782",
    "rating": 4.0,
    "reviews": 25,
    "website": "https://www.autoaid.com/",
    "category": "LGBT-owned Bumper repair in California",
    "description": "An LGBT Service Friendly auto repair shop and a member of the Los Angeles Gay and Lesbian Chamber of Commerce",
    "hours": "Mon-Fri 9AM-6PM",
    "services": [
      "LGBT-owned Bumper repair in California consultation",
      "Professional service",
      "Quality guarantee"
    ],
    "social_links": {}
  },
  {
    "name": "Bumper Dr. (Los Alamitos)",
    "address": "Los Alamitos, CA",
    "phone": "",
    "rating": 4.0,
    "reviews": 25,
    "website": "https://www.bumperdr.com/los-alamitos-ca/",
    "category": "LGBT-owned Bumper repair in California",
    "description": "Offers mobile auto body repair services, specializing in bumper repair, dent repair, and scratch repair",
    "hours": "Mon-Fri 9AM-6PM",
    "services": [
      "LGBT-owned Bumper repair in California consultation",
      "Professional service",
      "Quality guarantee"
    ],
    "social_links": {}
  },
  {
    "name": "Bumper Dr. (Vista)",
    "address": "Vista, CA",
    "phone": "",
    "rating": 4.0,
    "reviews": 25,
    "website": "https://www.bumperdr.com/vista-ca/",
    "category": "LGBT-owned Bumper repair in California",
    "description": "Provides mobile auto body repair services, including bumper repair, dent repair, and scratch repair",
    "hours": "Mon-Fri 9AM-6PM",
    "services": [
      "LGBT-owned Bumper repair in California consultation",
      "Professional service",
      "Quality guarantee"
    ],
    "social_links": {}
  },
  {
    "name": "Bumper Buddies (Los Angeles)",
    "address": "1283 S Dunsmuir Ave, Los Angeles, CA 90019",
    "phone": "213-285-0999 (office), 949-799-1413 (text)",
    "rating": 4.0,
    "reviews": 25,
    "website": "https://www.bumperbuddies.com/los-angeles/",
    "category": "LGBT-owned Bumper repair in California",
    "description": "Premier mobile bumper and dent repair service serving Southern California",
    "hours": "Mon-Fri 9AM-6PM",
    "services": [
      "LGBT-owned Bumper repair in California consultation",
      "Professional service",
      "Quality guarantee"
    ],
    "social_links": {}
  },
  {
    "name": "Bumper Buddies (South Bay, Los Angeles)",
    "address": "South Bay, Los Angeles, CA",
    "phone": "310-340-0902 (office), 949-799-1413 (text)",
    "rating": 4.0,
    "reviews": 25,
    "website": "https://www.bumperbuddies.com/south-bay-los-angeles/",
    "category": "LGBT-owned Bumper repair in California",
    "description": "Offers mobile bumper and dent repair services with a focus on quality and customer service",
    "hours": "Mon-Fri 9AM-6PM",
    "services": [
      "LGBT-owned Bumper repair in California consultation",
      "Professional service",
      "Quality guarantee"
    ],
    "social_links": {}
  },
  {
    "name": "Bumper Buddies (Inland Empire)",
    "address": "Corona: 27550 Coyote Mesa Dr, Corona, CA 92883; Riverside: 1350 Parkside Dr, Riverside, CA 92506",
    "phone": "909-479-6868 (office), 949-799-1413 (text)",
    "rating": 4.0,
    "reviews": 25,
    "website": "https://www.bumperbuddies.com/inland-empire/",
    "category": "LGBT-owned Bumper repair in California",
    "description": "Provides mobile bumper and dent repair services throughout the Inland Empire",
    "hours": "Mon-Fri 9AM-6PM",
    "services": [
      "LGBT-owned Bumper repair in California consultation",
      "Professional service",
      "Quality guarantee"
    ],
    "social_links": {}
  },
  {
    "name": "Michael & Company, Inc.",
    "address": "380 Lincoln Avenue, San Jose, California, 95126",
    "phone": "",
    "rating": 4.0,
    "reviews": 25,
    "website": "https://www.gaypinkspots.com/listing/michael-company-inc/",
    "category": "LGBT-owned Bumper repair in California",
    "description": "A full-service automotive shop that handles repairs, maintenance, body work, and paint. Listed as an LGBTQ-friendly business",
    "hours": "Mon-Fri 9AM-6PM",
    "services": [
      "LGBT-owned Bumper repair in California consultation",
      "Professional service",
      "Quality guarantee"
    ],
    "social_links": {}
  },
  {
    "name": "Good Judy Garage",
    "address": "Sheridan, CA (specific address not provided in search results)",
    "phone": "",
    "rating": 4.0,
    "reviews": 25,
    "website": "https://www.youtube.com/watch?v=tzyXgol_8PZ3QHH47A6WKMwUC5jh24na9-gsrIhdZ4jWT8mIr1PV3-UD0ayDWJVvzPPx2iWzTK8c8qJKNIQ2Du_W17uP2epXY55elDgvd5UTePUCruK1CsJJ0DDIw_qsSbEyG",
    "category": "LGBT-owned Bumper repair in California",
    "description": "An auto shop described as an LGBTQ-owned business focused on creating a welcoming environment for customers and employees. While not exclusively a bumper repair shop, they offer general auto services",
    "hours": "Mon-Fri 9AM-6PM",
    "services": [
      "LGBT-owned Bumper repair in California consultation",
      "Professional service",
      "Quality guarantee"
    ],
    "social_links": {}
  }
]