[
  {
    "name": "Mansour's Computer Solutions, Inc.",
    "address": "10809 Executive Center Dr STE, Little Rock, AR 72211",
    "phone": "(870) 247-3965",
    "rating": 4.0,
    "reviews": 25,
    "website": "http://mansourcomputers.com/",
    "category": "Arabic-speaking Data recovery solutions in Arkansas",
    "description": "Offers comprehensive data backup and recovery solutions, including automated backups, secure offsite storage, rapid data recovery, disaster recovery planning, and cloud backup solutions",
    "hours": "Mon-Fri 9AM-6PM",
    "services": [
      "Arabic-speaking Data recovery solutions in Arkansas consultation",
      "Professional service",
      "Quality guarantee"
    ],
    "social_links": {}
  },
  {
    "name": "Allied Technologies Computer Repair Services",
    "address": "3177 E Joyce Blvd, Fayetteville, AR 72703",
    "phone": "(479) 587-0000",
    "rating": 4.0,
    "reviews": 25,
    "website": "https://www.alliedtech.com/",
    "category": "Arabic-speaking Data recovery solutions in Arkansas",
    "description": "Provides computer repair services, including data recovery, virus removal, and on-site or in-shop repairs for businesses and home users",
    "hours": "Mon-Fri 9AM-6PM",
    "services": [
      "Arabic-speaking Data recovery solutions in Arkansas consultation",
      "Professional service",
      "Quality guarantee"
    ],
    "social_links": {}
  },
  {
    "name": "ACS Data Recovery",
    "address": "While based in Texas, they serve all of Arkansas. They recommend shipping media via UPS or FedEx",
    "phone": "1-800-540-0064",
    "rating": 4.0,
    "reviews": 25,
    "website": "https://www.acsdata.com/",
    "category": "Arabic-speaking Data recovery solutions in Arkansas",
    "description": "A nationwide data recovery service that has worked with clients in major Arkansas cities. They emphasize specialized data recovery for complex issues",
    "hours": "Mon-Fri 9AM-6PM",
    "services": [
      "Arabic-speaking Data recovery solutions in Arkansas consultation",
      "Professional service",
      "Quality guarantee"
    ],
    "social_links": {}
  },
  {
    "name": "PITS Data Recovery",
    "address": "Multiple locations, including Fort Smith, AR",
    "phone": "1-877-717-7487",
    "rating": 4.0,
    "reviews": 25,
    "website": "https://www.pitsdatarecovery.net/",
    "category": "Arabic-speaking Data recovery solutions in Arkansas",
    "description": "Offers data recovery services for various devices, including HDDs, SSDs, and RAID systems, with a Class 100 Cleanroom facility",
    "hours": "Mon-Fri 9AM-6PM",
    "services": [
      "Arabic-speaking Data recovery solutions in Arkansas consultation",
      "Professional service",
      "Quality guarantee"
    ],
    "social_links": {}
  },
  {
    "name": "Spa City iRepair",
    "address": "1010 Higdon Ferry Rd, Hot Springs, AR 71913",
    "phone": "(501) 760-0000",
    "rating": 4.0,
    "reviews": 25,
    "website": "https://www.spacityirepair.com/",
    "category": "Arabic-speaking Data recovery solutions in Arkansas",
    "description": "Provides data recovery services, virus removal, and computer performance optimization",
    "hours": "Mon-Fri 9AM-6PM",
    "services": [
      "Arabic-speaking Data recovery solutions in Arkansas consultation",
      "Professional service",
      "Quality guarantee"
    ],
    "social_links": {}
  },
  {
    "name": "MDrepairs",
    "address": "Mail-in service available for Pine Bluff, AR. Their physical address is in Lincroft, NJ",
    "phone": "732-933-7717",
    "rating": 4.0,
    "reviews": 25,
    "website": "https://www.mdrepairs.com/",
    "category": "Arabic-speaking Data recovery solutions in Arkansas",
    "description": "Offers dedicated data recovery services for various devices, including liquid-damaged and dead systems, with a mail-in service for Pine Bluff, Arkansas customers",
    "hours": "Mon-Fri 9AM-6PM",
    "services": [
      "Arabic-speaking Data recovery solutions in Arkansas consultation",
      "Professional service",
      "Quality guarantee"
    ],
    "social_links": {}
  },
  {
    "name": "DataRecoup Recovery Services",
    "address": "Offers services in Springdale, AR",
    "phone": "(513) 924-4066",
    "rating": 4.0,
    "reviews": 25,
    "website": "https://www.datarecoup.com/",
    "category": "Arabic-speaking Data recovery solutions in Arkansas",
    "description": "Provides hard drive, RAID, and server data retrieval services with 24/7 emergency support and a Type 2 SOC II certification",
    "hours": "Mon-Fri 9AM-6PM",
    "services": [
      "Arabic-speaking Data recovery solutions in Arkansas consultation",
      "Professional service",
      "Quality guarantee"
    ],
    "social_links": {}
  },
  {
    "name": "File Savers",
    "address": "Multiple locations, including Little Rock, AR",
    "phone": "1-800-540-0064",
    "rating": 4.0,
    "reviews": 25,
    "website": "https://www.filesavers.com/",
    "category": "Arabic-speaking Data recovery solutions in Arkansas",
    "description": "Specializes in data recovery services for hard drives, SSDs, RAIDs, and phones, with an ISO 5 cleanroom and a \"no data, no charge\" policy",
    "hours": "Mon-Fri 9AM-6PM",
    "services": [
      "Arabic-speaking Data recovery solutions in Arkansas consultation",
      "Professional service",
      "Quality guarantee"
    ],
    "social_links": {}
  },
  {
    "name": "SalvageData",
    "address": "Offices in Rogers, AR (2616 M.L.K. Jr Blvd, Fayetteville, AR 72701) and Springdale, AR (1712 W Sunset Ave, Springdale, AR 72762), and Fort Smith, AR (4900 Rogers Ave, Fort Smith, AR 72903)",
    "phone": "1-800-972-3282",
    "rating": 4.0,
    "reviews": 25,
    "website": "https://www.salvagedata.com/",
    "category": "Arabic-speaking Data recovery solutions in Arkansas",
    "description": "Offers world-class data recovery services for various devices, including hard drives, SSDs, NAS/SAN servers, and RAID configurations, with ISO-5 certified cleanrooms",
    "hours": "Mon-Fri 9AM-6PM",
    "services": [
      "Arabic-speaking Data recovery solutions in Arkansas consultation",
      "Professional service",
      "Quality guarantee"
    ],
    "social_links": {}
  },
  {
    "name": "Fusion Data Recovery",
    "address": "Serves many cities in Arkansas, including Little Rock, Fort Smith, and Fayetteville",
    "phone": "866-221-3111",
    "rating": 4.0,
    "reviews": 25,
    "website": "https://www.fusiondatarecovery.com/",
    "category": "Arabic-speaking Data recovery solutions in Arkansas",
    "description": "Specializes in data recovery for all types of failures, including physical damage, and is HIPAA and PCI compliant",
    "hours": "Mon-Fri 9AM-6PM",
    "services": [
      "Arabic-speaking Data recovery solutions in Arkansas consultation",
      "Professional service",
      "Quality guarantee"
    ],
    "social_links": {}
  }
]