[
  {
    "name": "Coastal Alabama Community College - Culinary Arts Program",
    "address": "3301 Gulf Shores Pkwy, Gulf Shores, AL 36542",
    "phone": "(800) 381-3722",
    "rating": 4.0,
    "reviews": 25,
    "website": "https://www.coastalalabama.edu/academics/areas-of-study/hospitality-and-culinary/",
    "category": "African-American-owned Culinary training in Alabama",
    "description": "Offers an Associate of Applied Science in Culinary Arts and is recognized as a top culinary school in Alabama",
    "hours": "Mon-Fri 9AM-6PM",
    "services": [
      "African-American-owned Culinary training in Alabama consultation",
      "Professional service",
      "Quality guarantee"
    ],
    "social_links": {}
  },
  {
    "name": "Jefferson State Community College - Culinary & Hospitality Institute",
    "address": "4600 Valleydale Rd, Birmingham, AL 35242",
    "phone": "(205) 856-7700",
    "rating": 4.0,
    "reviews": 25,
    "website": "https://www.jeffersonstate.edu/programs/culinary-hospitality-institute",
    "category": "African-American-owned Culinary training in Alabama",
    "description": "Provides degree options in Culinary Apprentice, Culinary/Nutrition Science, Baking/Pastry, and Catering/Event Planning",
    "hours": "Mon-Fri 9AM-6PM",
    "services": [
      "African-American-owned Culinary training in Alabama consultation",
      "Professional service",
      "Quality guarantee"
    ],
    "social_links": {}
  },
  {
    "name": "Lawson State Community College - Culinary Arts",
    "address": "3060 Wilson Rd SW, Birmingham, AL 35221",
    "phone": "(205) 925-2511",
    "rating": 4.0,
    "reviews": 25,
    "website": "https://www.lawsonstate.edu/programs/Pages/culinary-arts.aspx",
    "category": "African-American-owned Culinary training in Alabama",
    "description": "Offers a Short Certificate, Certificate, and Associate in Applied Science Degree in Culinary Arts, with hands-on learning opportunities",
    "hours": "Mon-Fri 9AM-6PM",
    "services": [
      "African-American-owned Culinary training in Alabama consultation",
      "Professional service",
      "Quality guarantee"
    ],
    "social_links": {}
  },
  {
    "name": "Trenholm State Community College - Culinary Arts & Hospitality Management",
    "address": "8 Commerce St Ste 100, Montgomery, AL 36104",
    "phone": "(334) 420-4200",
    "rating": 4.0,
    "reviews": 25,
    "website": "https://www.trenholmstate.edu/programs/career-technical-education/culinary-arts-hospitality-management",
    "category": "African-American-owned Culinary training in Alabama",
    "description": "Features an award-winning Culinary Arts program accredited by the American Culinary Federation",
    "hours": "Mon-Fri 9AM-6PM",
    "services": [
      "African-American-owned Culinary training in Alabama consultation",
      "Professional service",
      "Quality guarantee"
    ],
    "social_links": {}
  },
  {
    "name": "Wallace State Community College - Hanceville",
    "address": "801 Main St NW, Hanceville, AL 35077",
    "phone": "(256) 352-8000",
    "rating": 4.0,
    "reviews": 25,
    "website": "https://www.wallacestate.edu/programs/career-technical-education/culinary-arts",
    "category": "African-American-owned Culinary training in Alabama",
    "description": "Offers a Culinary Arts program with a focus on preparing students for the workforce",
    "hours": "Mon-Fri 9AM-6PM",
    "services": [
      "African-American-owned Culinary training in Alabama consultation",
      "Professional service",
      "Quality guarantee"
    ],
    "social_links": {}
  },
  {
    "name": "University of North Alabama - Culinary Arts",
    "address": "UNA Box 5024, Florence, AL 35632",
    "phone": "(256) 765-4600",
    "rating": 3.89,
    "reviews": 25,
    "website": "https://www.una.edu/academics/programs/culinary-arts/",
    "category": "African-American-owned Culinary training in Alabama",
    "description": "Offers an Associate of Science degree in Culinary Arts designed for students aiming for careers as chefs",
    "hours": "Mon-Fri 9AM-6PM",
    "services": [
      "African-American-owned Culinary training in Alabama consultation",
      "Professional service",
      "Quality guarantee"
    ],
    "social_links": {}
  },
  {
    "name": "Auburn University - Tony & Libba Rane Culinary Science Center",
    "address": "101 N Donahue Dr, Auburn, AL 36849",
    "phone": "(334) 844-4000",
    "rating": 4.0,
    "reviews": 25,
    "website": "https://www.auburn.edu/administration/culinary-science-center/",
    "category": "African-American-owned Culinary training in Alabama",
    "description": "Provides immersive, hands-on learning opportunities within the hospitality industry",
    "hours": "Mon-Fri 9AM-6PM",
    "services": [
      "African-American-owned Culinary training in Alabama consultation",
      "Professional service",
      "Quality guarantee"
    ],
    "social_links": {}
  },
  {
    "name": "J.F. Drake State Technical College - Culinary Arts",
    "address": "102 Bibb St, Huntsville, AL 35801",
    "phone": "(256) 539-2952",
    "rating": 4.05,
    "reviews": 25,
    "website": "https://www.jfdrakestate.edu/academics/programs/culinary-arts",
    "category": "African-American-owned Culinary training in Alabama",
    "description": "Offers a Culinary Arts program preparing students for various roles in the food service industry",
    "hours": "Mon-Fri 9AM-6PM",
    "services": [
      "African-American-owned Culinary training in Alabama consultation",
      "Professional service",
      "Quality guarantee"
    ],
    "social_links": {}
  },
  {
    "name": "Central Alabama Community College - Food & Beverage Program",
    "address": "1675 E. Flying Squirrel Rd, Alexander City, AL 35010",
    "phone": "(256) 215-4276",
    "rating": 4.0,
    "reviews": 25,
    "website": "https://www.cacc.edu/programs/skills-for-success/food-beverage/",
    "category": "African-American-owned Culinary training in Alabama",
    "description": "Equips students with skills for the food service and hospitality industry, including culinary arts and food safety",
    "hours": "Mon-Fri 9AM-6PM",
    "services": [
      "African-American-owned Culinary training in Alabama consultation",
      "Professional service",
      "Quality guarantee"
    ],
    "social_links": {}
  },
  {
    "name": "Shelton State Community College - Culinary Arts",
    "address": "9500 Outdoor Sports Complex Dr, Tuscaloosa, AL 35405",
    "phone": "(205) 349-3121",
    "rating": 4.0,
    "reviews": 25,
    "website": "https://www.sheltonstate.edu/academics/career-technical-education/culinary-arts/",
    "category": "African-American-owned Culinary training in Alabama",
    "description": "Offers a Culinary Arts program designed to prepare students for careers in the culinary field",
    "hours": "Mon-Fri 9AM-6PM",
    "services": [
      "African-American-owned Culinary training in Alabama consultation",
      "Professional service",
      "Quality guarantee"
    ],
    "social_links": {}
  }
]