[
  {
    "name": "SMI Automotive Service",
    "address": "1215 Lyndon Ln, Louisville, KY 40222, United States",
    "phone": "+1 502-896-0305",
    "rating": 4.6,
    "reviews": 25,
    "website": "https://smiky.com/",
    "category": "Armenian-speaking Alternator repair in Kentucky",
    "description": "Specializes in alternator diagnostics and repair for all makes and models, offering a full range of automotive services since 1969",
    "hours": "Mon-Fri 9AM-6PM",
    "services": [
      "Armenian-speaking Alternator repair in Kentucky consultation",
      "Professional service",
      "Quality guarantee"
    ],
    "social_links": {}
  },
  {
    "name": "Kaiser Tire Pros",
    "address": "7000 Southside Dr, Louisville, KY 40214, United States",
    "phone": "+1 502-368-3304",
    "rating": 4.5,
    "reviews": 25,
    "website": "https://www.kaisertirepros.com/",
    "category": "Armenian-speaking Alternator repair in Kentucky",
    "description": "Offers alternator service and a variety of other tire and auto repair services",
    "hours": "Mon-Fri 9AM-6PM",
    "services": [
      "Armenian-speaking Alternator repair in Kentucky consultation",
      "Professional service",
      "Quality guarantee"
    ],
    "social_links": {}
  },
  {
    "name": "Tony's Brake & Alignment",
    "address": "4800 Poplar Level Rd, Louisville, KY 40213, United States",
    "phone": "+1 502-406-5196",
    "rating": 4.7,
    "reviews": 25,
    "website": "https://www.tonysbrakeandalignment.com/",
    "category": "Armenian-speaking Alternator repair in Kentucky",
    "description": "Provides expert auto electrical and starter repair, including alternator services, with ASE-certified technicians",
    "hours": "Mon-Fri 9AM-6PM",
    "services": [
      "Armenian-speaking Alternator repair in Kentucky consultation",
      "Professional service",
      "Quality guarantee"
    ],
    "social_links": {}
  },
  {
    "name": "Deals Tires",
    "address": "7779 Dixie Highway, Louisville, KY 40258, United States",
    "phone": "+1 502-915-0101",
    "rating": 4.6,
    "reviews": 25,
    "website": "https://dealstires.com/",
    "category": "Armenian-speaking Alternator repair in Kentucky",
    "description": "Offers expert auto electrical repair, including starter and alternator services, with a focus on honest communication and quality work",
    "hours": "Mon-Fri 9AM-6PM",
    "services": [
      "Armenian-speaking Alternator repair in Kentucky consultation",
      "Professional service",
      "Quality guarantee"
    ],
    "social_links": {}
  },
  {
    "name": "Pro Auto Care",
    "address": "10100 Shelbyville Rd, Louisville, KY 40243, United States",
    "phone": "+1 502-245-0000",
    "rating": 4.7,
    "reviews": 25,
    "website": "https://proautocarelouisville.com/",
    "category": "Armenian-speaking Alternator repair in Kentucky",
    "description": "Specializes in battery, starter, and alternator repair, utilizing advanced diagnostics and high-quality parts",
    "hours": "Mon-Fri 9AM-6PM",
    "services": [
      "Armenian-speaking Alternator repair in Kentucky consultation",
      "Professional service",
      "Quality guarantee"
    ],
    "social_links": {}
  },
  {
    "name": "B & B Tire Town",
    "address": "1240 Campbell Ln, Bowling Green, KY 42101, United States",
    "phone": "+1 270-781-3006",
    "rating": 4.5,
    "reviews": 25,
    "website": "https://www.bandbtiretown.com/",
    "category": "Armenian-speaking Alternator repair in Kentucky",
    "description": "Provides alternator replacement services and a range of other automotive repairs for vehicles in Bowling Green and surrounding areas",
    "hours": "Mon-Fri 9AM-6PM",
    "services": [
      "Armenian-speaking Alternator repair in Kentucky consultation",
      "Professional service",
      "Quality guarantee"
    ],
    "social_links": {}
  },
  {
    "name": "TNT Automotive",
    "address": "1812 Louisville Rd, Bowling Green, KY 42101, United States",
    "phone": "+1 270-599-1419",
    "rating": 4.8,
    "reviews": 25,
    "website": "https://www.tntautomotivebg.com/",
    "category": "Armenian-speaking Alternator repair in Kentucky",
    "description": "Offers comprehensive electrical system diagnostics and repairs, including alternator issues, with a TechNet Nationwide Warranty",
    "hours": "Mon-Fri 9AM-6PM",
    "services": [
      "Armenian-speaking Alternator repair in Kentucky consultation",
      "Professional service",
      "Quality guarantee"
    ],
    "social_links": {}
  },
  {
    "name": "Musser Automotive",
    "address": "1450 Scottsville Rd, Bowling Green, KY 42104, United States",
    "phone": "+1 270-781-5500",
    "rating": 4.7,
    "reviews": 25,
    "website": "https://musserautomotive.com/",
    "category": "Armenian-speaking Alternator repair in Kentucky",
    "description": "Provides expert electrical diagnostics and repair services, including alternator issues, with ASE-certified technicians",
    "hours": "Mon-Fri 9AM-6PM",
    "services": [
      "Armenian-speaking Alternator repair in Kentucky consultation",
      "Professional service",
      "Quality guarantee"
    ],
    "social_links": {}
  },
  {
    "name": "Lexington Autoworks",
    "address": "1030 Nandino Blvd, Lexington, KY 40511, United States",
    "phone": "+1 859-225-7300",
    "rating": 4.7,
    "reviews": 25,
    "website": "https://lexingtonautoworks.com/",
    "category": "Armenian-speaking Alternator repair in Kentucky",
    "description": "Specializes in auto electrical repair and maintenance, including alternator issues, offering high-quality workmanship",
    "hours": "Mon-Fri 9AM-6PM",
    "services": [
      "Armenian-speaking Alternator repair in Kentucky consultation",
      "Professional service",
      "Quality guarantee"
    ],
    "social_links": {}
  },
  {
    "name": "KD Auto Repair",
    "address": "1200 N Broadway, Lexington, KY 40505, United States",
    "phone": "+1 859-695-6584",
    "rating": 4.6,
    "reviews": 25,
    "website": "https://kdautorepair.com/",
    "category": "Armenian-speaking Alternator repair in Kentucky",
    "description": "Offers expert electric systems repair, including alternator repair, with advanced diagnostic tools and quality parts",
    "hours": "Mon-Fri 9AM-6PM",
    "services": [
      "Armenian-speaking Alternator repair in Kentucky consultation",
      "Professional service",
      "Quality guarantee"
    ],
    "social_links": {}
  }
]