[
  {
    "name": "The Cycle Fix",
    "address": "Indianapolis, IN",
    "phone": "(463) 204-2453",
    "rating": 4.0,
    "reviews": 25,
    "website": "https://www.thecyclefix.com/",
    "category": "Catholic-owned Mobile bicycle repair in Indiana",
    "description": "Fully mobile bicycle repair service serving the Greater Indy area, offering convenience by meeting customers at their homes or workplaces",
    "hours": "Mon-Fri 9AM-6PM",
    "services": [
      "Catholic-owned Mobile bicycle repair in Indiana consultation",
      "Professional service",
      "Quality guarantee"
    ],
    "social_links": {}
  },
  {
    "name": "Leo's Mobile Bicycle Service",
    "address": "Valparaiso, IN (Serves Northwest Indiana and Chicagoland)",
    "phone": "(219) 246-2504",
    "rating": 4.0,
    "reviews": 25,
    "website": "https://www.leosmobilebicycleservice.com/",
    "category": "Catholic-owned Mobile bicycle repair in Indiana",
    "description": "Northwest Indiana's first mobile bicycle repair service, bringing the bike shop to the customer's location",
    "hours": "Mon-Fri 9AM-6PM",
    "services": [
      "Catholic-owned Mobile bicycle repair in Indiana consultation",
      "Professional service",
      "Quality guarantee"
    ],
    "social_links": {}
  },
  {
    "name": "Arnold's Mobile Bike Repair",
    "address": "Northwest Indiana",
    "phone": "",
    "rating": 4.0,
    "reviews": 25,
    "website": "https://arnoldsmobilebikerepair.com/",
    "category": "Catholic-owned Mobile bicycle repair in Indiana",
    "description": "Mobile repair service for bicycles and home fitness equipment, established in 2015 with a focus on reliability and quality",
    "hours": "Mon-Fri 9AM-6PM",
    "services": [
      "Catholic-owned Mobile bicycle repair in Indiana consultation",
      "Professional service",
      "Quality guarantee"
    ],
    "social_links": {}
  },
  {
    "name": "Midwest Bicycleworks",
    "address": "Nashville, Indiana (Previously Fort Wayne, IN)",
    "phone": "(260) 615-3661",
    "rating": 4.0,
    "reviews": 25,
    "website": "https://www.midwestbicycleworks.com/",
    "category": "Catholic-owned Mobile bicycle repair in Indiana",
    "description": "Full-service mobile bicycle repair shop specializing in various types of bikes, with service areas including Brown County and plans to expand",
    "hours": "Mon-Fri 9AM-6PM",
    "services": [
      "Catholic-owned Mobile bicycle repair in Indiana consultation",
      "Professional service",
      "Quality guarantee"
    ],
    "social_links": {}
  },
  {
    "name": "Bicycle Garage Indy & BGI Fitness",
    "address": "Multiple locations in Indiana, including Indianapolis. (Specific mobile service details not provided, but a large service department is mentioned)",
    "phone": "",
    "rating": 4.0,
    "reviews": 25,
    "website": "https://www.indybicycle.com/",
    "category": "Catholic-owned Mobile bicycle repair in Indiana",
    "description": "A long-standing bicycle and fitness store in Indiana with a large service department, known for knowledgeable staff and quality repairs",
    "hours": "Mon-Fri 9AM-6PM",
    "services": [
      "Catholic-owned Mobile bicycle repair in Indiana consultation",
      "Professional service",
      "Quality guarantee"
    ],
    "social_links": {}
  },
  {
    "name": "REI Castleton Bike Shop",
    "address": "6350 E 82nd St, Indianapolis, IN 46250",
    "phone": "(317) 595-1550",
    "rating": 4.0,
    "reviews": 25,
    "website": "https://www.rei.com/stores/ \u0ab5\u0abf",
    "category": "Catholic-owned Mobile bicycle repair in Indiana",
    "description": "Offers a full-service in-store bike shop with expert technicians for tune-ups, repairs, and fitting services",
    "hours": "Mon-Fri 9AM-6PM",
    "services": [
      "Catholic-owned Mobile bicycle repair in Indiana consultation",
      "Professional service",
      "Quality guarantee"
    ],
    "social_links": {}
  },
  {
    "name": "Indy Cycle Specialist",
    "address": "5804 E. Washington St, Indianapolis, IN 46219",
    "phone": "(317) 356-4585",
    "rating": 4.0,
    "reviews": 25,
    "website": "https://www.indycle.com/",
    "category": "Catholic-owned Mobile bicycle repair in Indiana",
    "description": "A full-service neighborhood bike shop offering sales, service, and repair for all types and styles of bikes",
    "hours": "Mon-Fri 9AM-6PM",
    "services": [
      "Catholic-owned Mobile bicycle repair in Indiana consultation",
      "Professional service",
      "Quality guarantee"
    ],
    "social_links": {}
  },
  {
    "name": "Matthews Bicycles",
    "address": "5940 Pendleton Pike, Indianapolis, IN 46226",
    "phone": "(317) 545-3330",
    "rating": 4.0,
    "reviews": 25,
    "website": "https://www.matthewsbicycles.com/",
    "category": "Catholic-owned Mobile bicycle repair in Indiana",
    "description": "A long-standing bicycle shop in Indianapolis with experienced mechanics capable of all types of repairs",
    "hours": "Mon-Fri 9AM-6PM",
    "services": [
      "Catholic-owned Mobile bicycle repair in Indiana consultation",
      "Professional service",
      "Quality guarantee"
    ],
    "social_links": {}
  },
  {
    "name": "Westfield Cyclesports",
    "address": "18128 Market CT, Westfield, IN 46074",
    "phone": "(317) 867-4422",
    "rating": 4.0,
    "reviews": 25,
    "website": "https://www.westfieldcyclesports.com/",
    "category": "Catholic-owned Mobile bicycle repair in Indiana",
    "description": "A Trek & Specialized Bicycle Shop offering a full-service bike repair department for everything from flat tires to full overhauls",
    "hours": "Mon-Fri 9AM-6PM",
    "services": [
      "Catholic-owned Mobile bicycle repair in Indiana consultation",
      "Professional service",
      "Quality guarantee"
    ],
    "social_links": {}
  },
  {
    "name": "Bike People",
    "address": "Downtown Indianapolis, IN (Specific address not provided, but described as a community space)",
    "phone": "",
    "rating": 4.0,
    "reviews": 25,
    "website": "https://www.bikep-eople.com/",
    "category": "Catholic-owned Mobile bicycle repair in Indiana",
    "description": "A community bike shop in downtown Indianapolis offering friendly sales, repair, and custom builds",
    "hours": "Mon-Fri 9AM-6PM",
    "services": [
      "Catholic-owned Mobile bicycle repair in Indiana consultation",
      "Professional service",
      "Quality guarantee"
    ],
    "social_links": {}
  }
]