[
  {
    "name": "The Body Works of Virginia",
    "address": "105 Loudoun St SW, Leesburg, VA 20175",
    "phone": "(703) 777-1111",
    "rating": 4.7,
    "reviews": 25,
    "website": "http://www.thebodyworksofvirginia.com/",
    "category": "Atheist-owned Auto body repair in Virginia",
    "description": "Full-service auto body repair and collision shop specializing in collision repair, custom paint, and PDR (paintless dent removal). They are a Gold Class collision repair business",
    "hours": "Mon-Fri 9AM-6PM",
    "services": [
      "Atheist-owned Auto body repair in Virginia consultation",
      "Professional service",
      "Quality guarantee"
    ],
    "social_links": {}
  },
  {
    "name": "Bruce's Super Body Shop",
    "address": "Multiple locations including:",
    "phone": "Williamsburg: (757) 220-3655; West End: (804) 527-2886; Southside: (804) 794-2639",
    "rating": 4.0,
    "reviews": 25,
    "website": "http://brucessuperbodyshop.com/",
    "category": "Atheist-owned Auto body repair in Virginia",
    "description": "Offers quality collision repair, dent and ding removal, and windshield repair and replacement for all makes and models",
    "hours": "Mon-Fri 9AM-6PM",
    "services": [
      "Atheist-owned Auto body repair in Virginia consultation",
      "Professional service",
      "Quality guarantee"
    ],
    "social_links": {}
  },
  {
    "name": "Lynchburg Collision",
    "address": "1017 Kemper St, Lynchburg, VA 24501",
    "phone": "(434) 845-2321",
    "rating": 4.0,
    "reviews": 25,
    "website": "http://www.lynchburgcollision.com/",
    "category": "Atheist-owned Auto body repair in Virginia",
    "description": "Provides complete auto collision repairs, bumper repair, and paint services for all makes and models",
    "hours": "Mon-Fri 9AM-6PM",
    "services": [
      "Atheist-owned Auto body repair in Virginia consultation",
      "Professional service",
      "Quality guarantee"
    ],
    "social_links": {}
  },
  {
    "name": "Capital Auto Shop",
    "address": "3053 Nutley St, Fairfax, VA 22031",
    "phone": "(703) 385-2040",
    "rating": 5.0,
    "reviews": 25,
    "website": "http://www.capitalautoshop.com/",
    "category": "Atheist-owned Auto body repair in Virginia",
    "description": "Offers five-star collision, paint, and auto body repairs for all vehicles, with a lifetime warranty on paint and repairs",
    "hours": "Mon-Fri 9AM-6PM",
    "services": [
      "Atheist-owned Auto body repair in Virginia consultation",
      "Professional service",
      "Quality guarantee"
    ],
    "social_links": {}
  },
  {
    "name": "Gem Autobody Shop",
    "address": "14370 Lee Rd, Chantilly, VA 20151",
    "phone": "(703) 221-0100",
    "rating": 4.0,
    "reviews": 25,
    "website": "http://gemautobody.com/",
    "category": "Atheist-owned Auto body repair in Virginia",
    "description": "Specializes in collision repair, precision auto painting, dent and ding removal, and preventative maintenance",
    "hours": "Mon-Fri 9AM-6PM",
    "services": [
      "Atheist-owned Auto body repair in Virginia consultation",
      "Professional service",
      "Quality guarantee"
    ],
    "social_links": {}
  },
  {
    "name": "Best Auto Body",
    "address": "5401 Eisenhower Ave, Alexandria, VA 22304",
    "phone": "(703) 751-3333",
    "rating": 5.0,
    "reviews": 25,
    "website": "http://www.bestautobodyva.com/",
    "category": "Atheist-owned Auto body repair in Virginia",
    "description": "Provides reliable car collision and repair services with quick, efficient, and fairly priced solutions",
    "hours": "Mon-Fri 9AM-6PM",
    "services": [
      "Atheist-owned Auto body repair in Virginia consultation",
      "Professional service",
      "Quality guarantee"
    ],
    "social_links": {}
  },
  {
    "name": "K & W Auto Body Inc.",
    "address": "14010 Jefferson Davis Hwy, Woodbridge, VA 22191",
    "phone": "(703) 491-8485",
    "rating": 4.0,
    "reviews": 25,
    "website": "https://maps.app.goo.gl/9KvtNFHwEJv37JsC9",
    "category": "Atheist-owned Auto body repair in Virginia",
    "description": "Known for excellent work, including frame straightening, with a well-informed and dedicated staff",
    "hours": "Mon-Fri 9AM-6PM",
    "services": [
      "Atheist-owned Auto body repair in Virginia consultation",
      "Professional service",
      "Quality guarantee"
    ],
    "social_links": {}
  },
  {
    "name": "Caliber Collision",
    "address": "Multiple locations, including:",
    "phone": "Falls Church: (703) 237-8166; Alexandria: (703) 718-0100; Burke: (703) 425-5500",
    "rating": 4.0,
    "reviews": 25,
    "website": "https://www.calibercollision.com/",
    "category": "Atheist-owned Auto body repair in Virginia",
    "description": "Offers comprehensive collision, auto, and glass repair services with a focus on customer service and quality repairs",
    "hours": "Mon-Fri 9AM-6PM",
    "services": [
      "Atheist-owned Auto body repair in Virginia consultation",
      "Professional service",
      "Quality guarantee"
    ],
    "social_links": {}
  },
  {
    "name": "NOVA Auto Body, Inc.",
    "address": "8501 Traction Ave, Manassas, VA 20110",
    "phone": "(703) 368-3000",
    "rating": 4.0,
    "reviews": 25,
    "website": "http://www.novaautobody.com/",
    "category": "Atheist-owned Auto body repair in Virginia",
    "description": "Provides high-quality collision repair services with certified technicians and a commitment to customer satisfaction and safety",
    "hours": "Mon-Fri 9AM-6PM",
    "services": [
      "Atheist-owned Auto body repair in Virginia consultation",
      "Professional service",
      "Quality guarantee"
    ],
    "social_links": {}
  },
  {
    "name": "Hy-Tek Collision",
    "address": "301 W Main St, Christiansburg, VA 24073",
    "phone": "(540) 382-8745",
    "rating": 4.0,
    "reviews": 25,
    "website": "http://hytekcollision.com/",
    "category": "Atheist-owned Auto body repair in Virginia",
    "description": "Locally owned and operated, offering fast, friendly, and affordable collision repair services with I-Car and ASE-certified technicians",
    "hours": "Mon-Fri 9AM-6PM",
    "services": [
      "Atheist-owned Auto body repair in Virginia consultation",
      "Professional service",
      "Quality guarantee"
    ],
    "social_links": {}
  }
]