[
  {
    "name": "PA Window Tint",
    "address": "1020 W College Ave, State College, PA 16801",
    "phone": "(814) 238-1271",
    "rating": 4.8,
    "reviews": 25,
    "website": "https://pawindowtint.com/",
    "category": "Baby-Boomer-owned Window tinting in Pennsylvania",
    "description": "Specializes in 3M window films for residential and commercial properties, offering sun control, privacy, and security solutions. They have been serving Central Pennsylvania for over 30 years",
    "hours": "Mon-Fri 9AM-6PM",
    "services": [
      "Baby-Boomer-owned Window tinting in Pennsylvania consultation",
      "Professional service",
      "Quality guarantee"
    ],
    "social_links": {}
  },
  {
    "name": "Elite Window Tinting & Paint Protection",
    "address": "339 N Locust Point Rd, Mechanicsburg, PA 17055",
    "phone": "(717) 602-7100",
    "rating": 4.9,
    "reviews": 25,
    "website": "https://www.elitewindowtintingpa.com/",
    "category": "Baby-Boomer-owned Window tinting in Pennsylvania",
    "description": "A family-owned business offering automotive, commercial, and residential window tinting, as well as paint protection film and ceramic coatings. They are an authorized XPEL dealer and were recognized as \"Simply the Best 2023\" by Harrisburg Magazine",
    "hours": "Mon-Fri 9AM-6PM",
    "services": [
      "Baby-Boomer-owned Window tinting in Pennsylvania consultation",
      "Professional service",
      "Quality guarantee"
    ],
    "social_links": {}
  },
  {
    "name": "Precision Window Tinting & Paint Protection",
    "address": "5101 Oxford Ave, Philadelphia, PA 19124",
    "phone": "(215) 531-2046",
    "rating": 4.8,
    "reviews": 25,
    "website": "https://precisionwindowtinting.com/",
    "category": "Baby-Boomer-owned Window tinting in Pennsylvania",
    "description": "Provides automotive window tinting, paint protection film, and ceramic coatings in Philadelphia. They have been in business since 2005 and emphasize a passion for cars and customer experience",
    "hours": "Mon-Fri 9AM-6PM",
    "services": [
      "Baby-Boomer-owned Window tinting in Pennsylvania consultation",
      "Professional service",
      "Quality guarantee"
    ],
    "social_links": {}
  },
  {
    "name": "All Seasons Glass Tinting",
    "address": "1001 W 7th Ave, Conshohocken, PA 19428",
    "phone": "(610) 279-6055",
    "rating": 4.7,
    "reviews": 25,
    "website": "https://www.allseasonstinting.com/",
    "category": "Baby-Boomer-owned Window tinting in Pennsylvania",
    "description": "A family-owned business with over 35 years of experience in installing energy control window films for commercial and residential clients. They offer free estimates and work with brands like Panorama and Solar Gard",
    "hours": "Mon-Fri 9AM-6PM",
    "services": [
      "Baby-Boomer-owned Window tinting in Pennsylvania consultation",
      "Professional service",
      "Quality guarantee"
    ],
    "social_links": {}
  },
  {
    "name": "Black Diamond Tint",
    "address": "122 W Market St, Pottsville, PA 17901",
    "phone": "(570) 527-6962",
    "rating": 4.9,
    "reviews": 25,
    "website": "https://www.blackdiamondtint.com/",
    "category": "Baby-Boomer-owned Window tinting in Pennsylvania",
    "description": "Offers residential, commercial, and automotive window tinting services in the Lehigh Valley and surrounding areas. They are a Panorama Premier Plus dealer and provide lifetime residential warranties",
    "hours": "Mon-Fri 9AM-6PM",
    "services": [
      "Baby-Boomer-owned Window tinting in Pennsylvania consultation",
      "Professional service",
      "Quality guarantee"
    ],
    "social_links": {}
  },
  {
    "name": "Car-Optics",
    "address": "9523 Bustleton Ave, Philadelphia, PA 19115",
    "phone": "(215) 203-2000",
    "rating": 4.9,
    "reviews": 25,
    "website": "https://www.caroptics.com/",
    "category": "Baby-Boomer-owned Window tinting in Pennsylvania",
    "description": "Highly recommended for automotive window tinting in Philadelphia, with a long-standing reputation for quality work. They have been serving customers for over 20 years",
    "hours": "Mon-Fri 9AM-6PM",
    "services": [
      "Baby-Boomer-owned Window tinting in Pennsylvania consultation",
      "Professional service",
      "Quality guarantee"
    ],
    "social_links": {}
  },
  {
    "name": "Madd Tints Window Tinting",
    "address": "1700 W Main St, Lansdale, PA 19446",
    "phone": "(215) 692-7913",
    "rating": 4.8,
    "reviews": 25,
    "website": "https://www.maddtints.com/",
    "category": "Baby-Boomer-owned Window tinting in Pennsylvania",
    "description": "Provides automotive, residential, and commercial window tinting, as well as vehicle detailing and paint protection films in Montgomery County. They pride themselves on using top-of-the-line materials and professional service",
    "hours": "Mon-Fri 9AM-6PM",
    "services": [
      "Baby-Boomer-owned Window tinting in Pennsylvania consultation",
      "Professional service",
      "Quality guarantee"
    ],
    "social_links": {}
  },
  {
    "name": "Larry's Window Tint",
    "address": "3111 Cameron St, Harrisburg, PA 17111",
    "phone": "(717) 564-1111",
    "rating": 4.7,
    "reviews": 25,
    "website": "https://www.google.com/maps/search/Larry's+Window+Tint+in+Pennsylvania",
    "category": "Baby-Boomer-owned Window tinting in Pennsylvania",
    "description": "Recommended for good quality tint jobs on vehicles in the Harrisburg area, with repeat customers indicating satisfaction",
    "hours": "Mon-Fri 9AM-6PM",
    "services": [
      "Baby-Boomer-owned Window tinting in Pennsylvania consultation",
      "Professional service",
      "Quality guarantee"
    ],
    "social_links": {}
  },
  {
    "name": "Master Power Tints",
    "address": "(Specific address not found in search results, but serves south-central Pennsylvania)",
    "phone": "(717) 372-0001",
    "rating": 4.9,
    "reviews": 25,
    "website": "https://www.masterpowertints.com/",
    "category": "Baby-Boomer-owned Window tinting in Pennsylvania",
    "description": "Offers professional window tinting services for vehicles, homes, and businesses in south-central Pennsylvania, focusing on quality, affordability, and custom solutions",
    "hours": "Mon-Fri 9AM-6PM",
    "services": [
      "Baby-Boomer-owned Window tinting in Pennsylvania consultation",
      "Professional service",
      "Quality guarantee"
    ],
    "social_links": {}
  },
  {
    "name": "Paramount Window Tinting",
    "address": "111 W Chestnut St, Burnham, PA 17009",
    "phone": "(570) 246-0000",
    "rating": 4.9,
    "reviews": 25,
    "website": "https://www.paramountwindowtinting.com/",
    "category": "Baby-Boomer-owned Window tinting in Pennsylvania",
    "description": "Provides professional window tinting solutions for vehicles, homes, and businesses in Burnham, PA, emphasizing attention to detail and customer satisfaction",
    "hours": "Mon-Fri 9AM-6PM",
    "services": [
      "Baby-Boomer-owned Window tinting in Pennsylvania consultation",
      "Professional service",
      "Quality guarantee"
    ],
    "social_links": {}
  }
]