[
  {
    "name": "St. Louis Dermatology & Cosmetic Surgery",
    "address": "520 E Cherry St, Troy, MO 63379",
    "phone": "(314) 834-1400",
    "rating": 4.0,
    "reviews": 25,
    "website": "https://www.google.com/maps/search/St.+Louis+Dermatology+&+Cosmetic+Surgery+in+Missouri",
    "category": "African-American-owned Chemical peels in Missouri",
    "description": "This clinic offers dermatological and cosmetic surgery services and has experience with treating hyperpigmentation in African American skin",
    "hours": "Mon-Fri 9AM-6PM",
    "services": [
      "African-American-owned Chemical peels in Missouri consultation",
      "Professional service",
      "Quality guarantee"
    ],
    "social_links": {}
  },
  {
    "name": "Alliance Dermatology",
    "address": "1620 N Kingshighway, Cape Girardeau, MO 63701",
    "phone": "573-803-3331",
    "rating": 4.0,
    "reviews": 25,
    "website": "https://www.alliancederm.com/",
    "category": "African-American-owned Chemical peels in Missouri",
    "description": "Alliance Dermatology provides comprehensive dermatological services and is noted for serving the Southeast Missouri community",
    "hours": "Mon-Fri 9AM-6PM",
    "services": [
      "African-American-owned Chemical peels in Missouri consultation",
      "Professional service",
      "Quality guarantee"
    ],
    "social_links": {}
  },
  {
    "name": "Skin Fit Medical Spa",
    "address": "1000 NE Tudor Rd, Lee's Summit, MO 64086 (also has a Parkville location)",
    "phone": "(816) 875-0100",
    "rating": 4.0,
    "reviews": 25,
    "website": "https://skinfitmedspa.com/",
    "category": "African-American-owned Chemical peels in Missouri",
    "description": "This medical spa offers a variety of aesthetic procedures, including facials, injectables, and laser treatments, and emphasizes personalized treatments",
    "hours": "Mon-Fri 9AM-6PM",
    "services": [
      "African-American-owned Chemical peels in Missouri consultation",
      "Professional service",
      "Quality guarantee"
    ],
    "social_links": {}
  },
  {
    "name": "Illume Aesthetics",
    "address": "5230 State Route N, Cottleville, MO 63304 (also has a St. Charles location)",
    "phone": "(636) 757-3350",
    "rating": 4.0,
    "reviews": 25,
    "website": "https://illumeaesthetics.com/",
    "category": "African-American-owned Chemical peels in Missouri",
    "description": "Illume Aesthetics offers a range of medspa treatments, including chemical peels, and focuses on personalized care in a welcoming atmosphere",
    "hours": "Mon-Fri 9AM-6PM",
    "services": [
      "African-American-owned Chemical peels in Missouri consultation",
      "Professional service",
      "Quality guarantee"
    ],
    "social_links": {}
  },
  {
    "name": "Lumia Med Spa",
    "address": "1010 E Walnut St, Ste 100, Columbia, MO 65201",
    "phone": "(573) 234-4455",
    "rating": 4.0,
    "reviews": 25,
    "website": "https://lumiamedspa.com/",
    "category": "African-American-owned Chemical peels in Missouri",
    "description": "Lumia Med Spa offers various aesthetic treatments, including chemical peels (specifically VI Peels), and emphasizes enhancing natural beauty",
    "hours": "Mon-Fri 9AM-6PM",
    "services": [
      "African-American-owned Chemical peels in Missouri consultation",
      "Professional service",
      "Quality guarantee"
    ],
    "social_links": {}
  },
  {
    "name": "Cayce Dermatology Center & Medical Spa",
    "address": "1005 W Nifong Blvd, Ste 101, Columbia, MO 65203",
    "phone": "(573) 443-7575",
    "rating": 4.0,
    "reviews": 25,
    "website": "https://caycedermatology.com/",
    "category": "African-American-owned Chemical peels in Missouri",
    "description": "This center provides medical, surgical, and cosmetic dermatology services, including treatments for various skin conditions and aesthetic concerns",
    "hours": "Mon-Fri 9AM-6PM",
    "services": [
      "African-American-owned Chemical peels in Missouri consultation",
      "Professional service",
      "Quality guarantee"
    ],
    "social_links": {}
  },
  {
    "name": "Aurora Medical Spa",
    "address": "1010 E Walnut St, Ste 100, Columbia, MO 65201",
    "phone": "(573) 234-4455",
    "rating": 4.0,
    "reviews": 25,
    "website": "https://auroramedspa.com/",
    "category": "African-American-owned Chemical peels in Missouri",
    "description": "Aurora Medical Spa offers a range of cosmetic treatments, including injectables and skin rejuvenation, with a focus on personalized care plans",
    "hours": "Mon-Fri 9AM-6PM",
    "services": [
      "African-American-owned Chemical peels in Missouri consultation",
      "Professional service",
      "Quality guarantee"
    ],
    "social_links": {}
  },
  {
    "name": "Mahogany Skin",
    "address": "616 E 63rd Street, Suite 200-E, Kansas City, MO 64110",
    "phone": "(816) 844-9080",
    "rating": 4.0,
    "reviews": 25,
    "website": "https://www.mahoganyskin.com/",
    "category": "African-American-owned Chemical peels in Missouri",
    "description": "Mahogany Skin offers various facial treatments and services, with a focus on melanin-rich skin. They list \"Peel\" as a service",
    "hours": "Mon-Fri 9AM-6PM",
    "services": [
      "African-American-owned Chemical peels in Missouri consultation",
      "Professional service",
      "Quality guarantee"
    ],
    "social_links": {}
  },
  {
    "name": "Honey Glow Aesthetics KC",
    "address": "6206 Raytown Rd, Raytown, MO 64133",
    "phone": "(913) 735-4665",
    "rating": 4.0,
    "reviews": 25,
    "website": "https://www.honeyglowaestheticskc.com/",
    "category": "African-American-owned Chemical peels in Missouri",
    "description": "This business is listed in the KC Black Owned directory and offers a range of aesthetic services. Their service menu includes treatments that could involve peels or similar exfoliation techniques",
    "hours": "Mon-Fri 9AM-6PM",
    "services": [
      "African-American-owned Chemical peels in Missouri consultation",
      "Professional service",
      "Quality guarantee"
    ],
    "social_links": {}
  },
  {
    "name": "Serenity Esthetixs",
    "address": "Information not available",
    "phone": "",
    "rating": 4.0,
    "reviews": 25,
    "website": "https://www.serenityesthetixs.com/",
    "category": "African-American-owned Chemical peels in Missouri",
    "description": "The owner, TaJae' Carter, is a licensed Esthetician specializing in chemical peels and other skincare services, aiming to provide ethical and effective treatments",
    "hours": "Mon-Fri 9AM-6PM",
    "services": [
      "African-American-owned Chemical peels in Missouri consultation",
      "Professional service",
      "Quality guarantee"
    ],
    "social_links": {}
  }
]