[
  {
    "name": "Oklahoma City Community College (OCCC) Adult Learning Center",
    "address": "7777 S. May Ave., Oklahoma City, OK 73159",
    "phone": "(405) 682-7873",
    "rating": 4.0,
    "reviews": 25,
    "website": "https://www.google.com/maps/search/Oklahoma+City+Community+College+(OCCC)+Adult+Learning+Center+in+Oklahoma",
    "category": "Bengali-speaking ESL instruction in Oklahoma",
    "description": "Offers free ESL classes for adults, with morning and evening sessions available in-person or online. They emphasize improving speaking, listening, writing, and reading skills, as well as American culture",
    "hours": "Mon-Fri 9AM-6PM",
    "services": [
      "Bengali-speaking ESL instruction in Oklahoma consultation",
      "Professional service",
      "Quality guarantee"
    ],
    "social_links": {}
  },
  {
    "name": "Metro Tech Adult Education",
    "address": "South Bryant Campus: 4901 South Bryant Ave., Oklahoma City, OK 73129; American Job Center: 5005 North Lincoln, OKC, OK 73105",
    "phone": "(405) 595-4315",
    "rating": 4.0,
    "reviews": 25,
    "website": "https://www.google.com/maps/search/Metro+Tech+Adult+Education+in+Oklahoma",
    "category": "Bengali-speaking ESL instruction in Oklahoma",
    "description": "Offers GED and ESL sessions with day, evening, and online class options",
    "hours": "Mon-Fri 9AM-6PM",
    "services": [
      "Bengali-speaking ESL instruction in Oklahoma consultation",
      "Professional service",
      "Quality guarantee"
    ],
    "social_links": {}
  },
  {
    "name": "Community Literacy Centers",
    "address": "5131 N. Classen Circle, Suite 204, Oklahoma City, OK 73118",
    "phone": "405-524-7323",
    "rating": 4.0,
    "reviews": 25,
    "website": "https://www.google.com/maps/search/Community+Literacy+Centers+in+Oklahoma",
    "category": "Bengali-speaking ESL instruction in Oklahoma",
    "description": "Provides free ESL classes for adults, taught by certified instructors, with in-person and Zoom options",
    "hours": "Mon-Fri 9AM-6PM",
    "services": [
      "Bengali-speaking ESL instruction in Oklahoma consultation",
      "Professional service",
      "Quality guarantee"
    ],
    "social_links": {}
  },
  {
    "name": "CAP Tulsa",
    "address": "(Virtual-Zoom classes offered)",
    "phone": "",
    "rating": 4.0,
    "reviews": 25,
    "website": "https://www.google.com/maps/search/CAP+Tulsa+in+Oklahoma",
    "category": "Bengali-speaking ESL instruction in Oklahoma",
    "description": "Offers free ESL classes for families with children enrolled in their programs, focusing on conversational English for everyday life, school, and doctor's appointments. Classes are available in Beginning and Intermediate levels",
    "hours": "Mon-Fri 9AM-6PM",
    "services": [
      "Bengali-speaking ESL instruction in Oklahoma consultation",
      "Professional service",
      "Quality guarantee"
    ],
    "social_links": {}
  },
  {
    "name": "Norman Adult Learning Center",
    "address": "Norman Central Library: 103 West Acres Street, Norman, OK 73069; Dimensions Academy: 809 N Findlay, Norman, OK 73017",
    "phone": "405-366-1059",
    "rating": 4.0,
    "reviews": 25,
    "website": "https://www.google.com/maps/search/Norman+Adult+Learning+Center+in+Oklahoma",
    "category": "Bengali-speaking ESL instruction in Oklahoma",
    "description": "Offers free English classes at multiple locations in Norman",
    "hours": "Mon-Fri 9AM-6PM",
    "services": [
      "Bengali-speaking ESL instruction in Oklahoma consultation",
      "Professional service",
      "Quality guarantee"
    ],
    "social_links": {}
  },
  {
    "name": "OKC Trinity Church of the Nazarene",
    "address": "7301 S. Walker Ave., Oklahoma City, OK 73139",
    "phone": "405-632-3307 or trinitynazokc@gmail.com",
    "rating": 4.0,
    "reviews": 25,
    "website": "https://www.google.com/maps/search/OKC+Trinity+Church+of+the+Nazarene+in+Oklahoma",
    "category": "Bengali-speaking ESL instruction in Oklahoma",
    "description": "Offers free ESL, Spanish as a Second Language, and Citizenship classes every Tuesday evening. Childcare is available",
    "hours": "Mon-Fri 9AM-6PM",
    "services": [
      "Bengali-speaking ESL instruction in Oklahoma consultation",
      "Professional service",
      "Quality guarantee"
    ],
    "social_links": {}
  },
  {
    "name": "Friendship International",
    "address": "Henderson Hills Baptist Church (specific address not provided, but location is in OKC metro)",
    "phone": "Amanda Stulce at 405-206-7466 or Stacy Neuschaefer at 405-410-5567",
    "rating": 4.0,
    "reviews": 25,
    "website": "https://www.google.com/maps/search/Friendship+International+in+Oklahoma",
    "category": "Bengali-speaking ESL instruction in Oklahoma",
    "description": "Offers free English classes for women every Thursday morning. Free childcare is available",
    "hours": "Mon-Fri 9AM-6PM",
    "services": [
      "Bengali-speaking ESL instruction in Oklahoma consultation",
      "Professional service",
      "Quality guarantee"
    ],
    "social_links": {}
  },
  {
    "name": "Immigration Connection at May Avenue Wesleyan Church",
    "address": "(Specific address not provided, but located in OKC metro)",
    "phone": "405-684-3247",
    "rating": 4.0,
    "reviews": 25,
    "website": "https://www.google.com/maps/search/Immigration+Connection+at+May+Avenue+Wesleyan+Church+in+Oklahoma",
    "category": "Bengali-speaking ESL instruction in Oklahoma",
    "description": "Provides English classes, citizenship classes, and legal counsel related to immigration issues",
    "hours": "Mon-Fri 9AM-6PM",
    "services": [
      "Bengali-speaking ESL instruction in Oklahoma consultation",
      "Professional service",
      "Quality guarantee"
    ],
    "social_links": {}
  },
  {
    "name": "Putnam City Baptist Church",
    "address": "(Specific address not provided, but located in OKC metro)",
    "phone": "Tim or Pamela Stairs at 303-690-7314",
    "rating": 4.0,
    "reviews": 25,
    "website": "https://www.google.com/maps/search/Putnam+City+Baptist+Church+in+Oklahoma",
    "category": "Bengali-speaking ESL instruction in Oklahoma",
    "description": "Offers free classes in Conversational English on Tuesday evenings and Sunday mornings",
    "hours": "Mon-Fri 9AM-6PM",
    "services": [
      "Bengali-speaking ESL instruction in Oklahoma consultation",
      "Professional service",
      "Quality guarantee"
    ],
    "social_links": {}
  },
  {
    "name": "Oklahoma Christian University",
    "address": "Various churches in the OKC metro (specific locations vary)",
    "phone": "Gail Nash at 405-921-7740",
    "rating": 4.0,
    "reviews": 25,
    "website": "https://www.google.com/maps/search/Oklahoma+Christian+University+in+Oklahoma",
    "category": "Bengali-speaking ESL instruction in Oklahoma",
    "description": "Offers free English classes in the evenings once or twice per week at various churches",
    "hours": "Mon-Fri 9AM-6PM",
    "services": [
      "Bengali-speaking ESL instruction in Oklahoma consultation",
      "Professional service",
      "Quality guarantee"
    ],
    "social_links": {}
  }
]