[
  {
    "name": "ASIAN IMPORTS",
    "address": "10625 Duvall St, Glenn Dale MD 20769",
    "phone": "(301) 809-0600",
    "rating": 4.0,
    "reviews": 25,
    "website": "https://www.google.com/maps/search/ASIAN+IMPORTS+in+Maryland",
    "category": "Asian-owned Tire sales in Maryland",
    "description": "Auto repair and tire dealer",
    "hours": "Mon-Fri 9AM-6PM",
    "services": [
      "Asian-owned Tire sales in Maryland consultation",
      "Professional service",
      "Quality guarantee"
    ],
    "social_links": {}
  },
  {
    "name": "J.C. Discount Tires",
    "address": "2102 Pulaski Hwy, Edgewood, MD",
    "phone": "(410) 676-5020",
    "rating": 4.0,
    "reviews": 25,
    "website": "https://www.google.com/maps/search/J.C.+Discount+Tires+in+Maryland",
    "category": "Asian-owned Tire sales in Maryland",
    "description": "Family-owned tire and automotive repair facility",
    "hours": "Mon-Fri 9AM-6PM",
    "services": [
      "Asian-owned Tire sales in Maryland consultation",
      "Professional service",
      "Quality guarantee"
    ],
    "social_links": {}
  },
  {
    "name": "Radial Tire Company",
    "address": "9101 Brookville Rd, Silver Spring, MD",
    "phone": "(301) 585-2740",
    "rating": 4.0,
    "reviews": 25,
    "website": "https://www.google.com/maps/search/Radial+Tire+Company+in+Maryland",
    "category": "Asian-owned Tire sales in Maryland",
    "description": "Family-owned tire and service shop carrying various tire brands and custom wheels",
    "hours": "Mon-Fri 9AM-6PM",
    "services": [
      "Asian-owned Tire sales in Maryland consultation",
      "Professional service",
      "Quality guarantee"
    ],
    "social_links": {}
  },
  {
    "name": "Byrd Tire & Alignment",
    "address": "1835 Dual Highway, Hagerstown, MD",
    "phone": "(301) 797-0300",
    "rating": 4.0,
    "reviews": 25,
    "website": "https://www.google.com/maps/search/Byrd+Tire+&+Alignment+in+Maryland",
    "category": "Asian-owned Tire sales in Maryland",
    "description": "Family-owned auto repair and tire shop",
    "hours": "Mon-Fri 9AM-6PM",
    "services": [
      "Asian-owned Tire sales in Maryland consultation",
      "Professional service",
      "Quality guarantee"
    ],
    "social_links": {}
  },
  {
    "name": "Just Tires",
    "address": "6421 Reisterstown Road, Baltimore, MD",
    "phone": "",
    "rating": 4.0,
    "reviews": 25,
    "website": "https://www.google.com/maps/search/Just+Tires+in+Maryland",
    "category": "Asian-owned Tire sales in Maryland",
    "description": "Auto services center offering tire sales and installation, oil changes, brake services, and repairs",
    "hours": "Mon-Fri 9AM-6PM",
    "services": [
      "Asian-owned Tire sales in Maryland consultation",
      "Professional service",
      "Quality guarantee"
    ],
    "social_links": {}
  },
  {
    "name": "Bamboo Tire Shop",
    "address": "Mobile service throughout Maryland",
    "phone": "",
    "rating": 4.0,
    "reviews": 25,
    "website": "https://www.google.com/maps/search/Bamboo+Tire+Shop+in+Maryland",
    "category": "Asian-owned Tire sales in Maryland",
    "description": "Mobile tire and brake services, including emergency repairs",
    "hours": "Mon-Fri 9AM-6PM",
    "services": [
      "Asian-owned Tire sales in Maryland consultation",
      "Professional service",
      "Quality guarantee"
    ],
    "social_links": {}
  },
  {
    "name": "Rice Tire",
    "address": "3612 Washington Blvd, Halethorpe, MD 21227",
    "phone": "(410) 737-8010",
    "rating": 4.0,
    "reviews": 25,
    "website": "https://www.google.com/maps/search/Rice+Tire+in+Maryland",
    "category": "Asian-owned Tire sales in Maryland",
    "description": "Tire shop offering automotive services",
    "hours": "Mon-Fri 9AM-6PM",
    "services": [
      "Asian-owned Tire sales in Maryland consultation",
      "Professional service",
      "Quality guarantee"
    ],
    "social_links": {}
  },
  {
    "name": "Tires Plus Total Car Care",
    "address": "Multiple locations in Maryland (specific addresses not provided in search results)",
    "phone": "",
    "rating": 4.0,
    "reviews": 25,
    "website": "https://www.google.com/maps/search/Tires+Plus+Total+Car+Care+in+Maryland",
    "category": "Asian-owned Tire sales in Maryland",
    "description": "Offers tire sales and auto repair services",
    "hours": "Mon-Fri 9AM-6PM",
    "services": [
      "Asian-owned Tire sales in Maryland consultation",
      "Professional service",
      "Quality guarantee"
    ],
    "social_links": {}
  },
  {
    "name": "Scott's Speed Shop",
    "address": "(Located in Hagerstown, MD - specific address not provided in search results)",
    "phone": "301-791-2589",
    "rating": 4.0,
    "reviews": 25,
    "website": "https://www.google.com/maps/search/Scott's+Speed+Shop+in+Maryland",
    "category": "Asian-owned Tire sales in Maryland",
    "description": "Specializes in Asian vehicle repairs, but also offers general auto repair and maintenance",
    "hours": "Mon-Fri 9AM-6PM",
    "services": [
      "Asian-owned Tire sales in Maryland consultation",
      "Professional service",
      "Quality guarantee"
    ],
    "social_links": {}
  },
  {
    "name": "Ben's Tire Sales Inc.",
    "address": "629 Pulaski Hwy, Joppa, MD",
    "phone": "(410) 679-8298",
    "rating": 4.0,
    "reviews": 25,
    "website": "https://www.google.com/maps/search/Ben's+Tire+Sales+Inc.+in+Maryland",
    "category": "Asian-owned Tire sales in Maryland",
    "description": "Trusted name in residential and commercial tire sales and repairs since 1958",
    "hours": "Mon-Fri 9AM-6PM",
    "services": [
      "Asian-owned Tire sales in Maryland consultation",
      "Professional service",
      "Quality guarantee"
    ],
    "social_links": {}
  }
]