[
  {
    "name": "The Dermatology Clinic",
    "address": "4929 Essen Ln, Baton Rouge, LA 70809, United States",
    "phone": "+1 225-761-5440",
    "rating": 4.5,
    "reviews": 25,
    "website": "https://www.thedermatologyclinic.com/",
    "category": "Central-American-owned Skin care facilities in Louisiana",
    "description": "Offers comprehensive skin care solutions, including medical dermatology and aesthetic services",
    "hours": "Mon-Fri 9AM-6PM",
    "services": [
      "Central-American-owned Skin care facilities in Louisiana consultation",
      "Professional service",
      "Quality guarantee"
    ],
    "social_links": {}
  },
  {
    "name": "Baton Rouge Clinic - Dermatology",
    "address": "7373 Perkins Rd, Baton Rouge, LA 70808, United States",
    "phone": "+1 225-245-0440",
    "rating": 4.4,
    "reviews": 25,
    "website": "https://www.brclinic.com/services/dermatology/",
    "category": "Central-American-owned Skin care facilities in Louisiana",
    "description": "A team of board-certified dermatologists offering a high level of care with the latest technology",
    "hours": "Mon-Fri 9AM-6PM",
    "services": [
      "Central-American-owned Skin care facilities in Louisiana consultation",
      "Professional service",
      "Quality guarantee"
    ],
    "social_links": {}
  },
  {
    "name": "Northshore Skin & Med Spa",
    "address": "4040 US-190, Covington, LA 70433, United States",
    "phone": "+1 985-302-4500",
    "rating": 4.7,
    "reviews": 25,
    "website": "https://northshoreskin.com/",
    "category": "Central-American-owned Skin care facilities in Louisiana",
    "description": "Offers expert care, advanced aesthetics, and results-driven skin treatments, including injectables and wellness services",
    "hours": "Mon-Fri 9AM-6PM",
    "services": [
      "Central-American-owned Skin care facilities in Louisiana consultation",
      "Professional service",
      "Quality guarantee"
    ],
    "social_links": {}
  },
  {
    "name": "Louisiana Aesthetics & Skin Care",
    "address": "14337 Coursey Blvd, Baton Rouge, LA 70817, United States",
    "phone": "+1 225-757-0070",
    "rating": 4.8,
    "reviews": 25,
    "website": "https://www.laestheticsandskincare.com/",
    "category": "Central-American-owned Skin care facilities in Louisiana",
    "description": "Provides advanced face and body treatments, including Botox, fillers, Hydrafacial, and laser hair removal in a luxurious setting",
    "hours": "Mon-Fri 9AM-6PM",
    "services": [
      "Central-American-owned Skin care facilities in Louisiana consultation",
      "Professional service",
      "Quality guarantee"
    ],
    "social_links": {}
  },
  {
    "name": "Woodhouse Spa Baton Rouge",
    "address": "7529 Perkins Rd, Baton Rouge, LA 70808, United States",
    "phone": "+1 225-314-1800",
    "rating": 4.6,
    "reviews": 25,
    "website": "https://www.woodhousespas.com/locations/baton-rouge-la/",
    "category": "Central-American-owned Skin care facilities in Louisiana",
    "description": "A full-service luxury day spa offering signature services such as HydraFacial and Calming Retreat",
    "hours": "Mon-Fri 9AM-6PM",
    "services": [
      "Central-American-owned Skin care facilities in Louisiana consultation",
      "Professional service",
      "Quality guarantee"
    ],
    "social_links": {}
  },
  {
    "name": "Dermatology Associates of Southwest Louisiana",
    "address": "4709 Nelson Rd, Lake Charles, LA 70605, United States",
    "phone": "+1 337-433-7272",
    "rating": 4.5,
    "reviews": 25,
    "website": "https://www.dermatologylakecharles.com/",
    "category": "Central-American-owned Skin care facilities in Louisiana",
    "description": "Offers state-of-the-art products to reduce and reverse signs of sun damage and aging, with over 80 years of combined experience",
    "hours": "Mon-Fri 9AM-6PM",
    "services": [
      "Central-American-owned Skin care facilities in Louisiana consultation",
      "Professional service",
      "Quality guarantee"
    ],
    "social_links": {}
  },
  {
    "name": "Sanctuary Dermatology",
    "address": "3434 N Causeway Blvd Suite 201, Metairie, LA 70002, United States",
    "phone": "+1 504-309-4100",
    "rating": 4.9,
    "reviews": 25,
    "website": "https://sanctuaryderm.com/",
    "category": "Central-American-owned Skin care facilities in Louisiana",
    "description": "A premier medical and cosmetic dermatology practice with personalized skincare treatments",
    "hours": "Mon-Fri 9AM-6PM",
    "services": [
      "Central-American-owned Skin care facilities in Louisiana consultation",
      "Professional service",
      "Quality guarantee"
    ],
    "social_links": {}
  },
  {
    "name": "Renaissance Dermatology & Aesthetics",
    "address": "3400 Main St, Zachary, LA 70791, United States",
    "phone": "+1 225-654-0080",
    "rating": 4.8,
    "reviews": 25,
    "website": "https://renaissancederm.com/",
    "category": "Central-American-owned Skin care facilities in Louisiana",
    "description": "The premier dermatology clinic in Zachary, committed to lifelong dermatologic health and wellness with state-of-the-art skin care",
    "hours": "Mon-Fri 9AM-6PM",
    "services": [
      "Central-American-owned Skin care facilities in Louisiana consultation",
      "Professional service",
      "Quality guarantee"
    ],
    "social_links": {}
  },
  {
    "name": "Atlas Dermatology",
    "address": "7737 Picardy Ave, Baton Rouge, LA 70809, United States",
    "phone": "+1 225-757-0070",
    "rating": 4.7,
    "reviews": 25,
    "website": "https://atlasdermatology.com/",
    "category": "Central-American-owned Skin care facilities in Louisiana",
    "description": "Offers expert diagnosis, treatment, and prevention for all skin types and conditions, with aesthetic dermatology services",
    "hours": "Mon-Fri 9AM-6PM",
    "services": [
      "Central-American-owned Skin care facilities in Louisiana consultation",
      "Professional service",
      "Quality guarantee"
    ],
    "social_links": {}
  },
  {
    "name": "Southern Skin and Wellness Medical Aesthetics",
    "address": "521 St Charles Ave, New Orleans, LA 70130, United States",
    "phone": "+1 504-224-0000",
    "rating": 4.8,
    "reviews": 25,
    "website": "https://southernskinandwellness.com/",
    "category": "Central-American-owned Skin care facilities in Louisiana",
    "description": "A full-service medical aesthetics and wellness clinic providing physician-led, patient-centered care and individualized treatment plans",
    "hours": "Mon-Fri 9AM-6PM",
    "services": [
      "Central-American-owned Skin care facilities in Louisiana consultation",
      "Professional service",
      "Quality guarantee"
    ],
    "social_links": {}
  }
]