[
  {
    "name": "US - Bangla Auto",
    "address": "7866 Conant Dwyer St, Detroit, MI 48211",
    "phone": "313-330-8833",
    "rating": 4.0,
    "reviews": 25,
    "website": "http://www.usbanglaauto.com/",
    "category": "Bengali-speaking Brake pad replacement in Michigan",
    "description": "Offers services including brakes, tune-ups, and minor body repair",
    "hours": "Mon-Fri 9AM-6PM",
    "services": [
      "Bengali-speaking Brake pad replacement in Michigan consultation",
      "Professional service",
      "Quality guarantee"
    ],
    "social_links": {}
  },
  {
    "name": "Detroit Brake Repair",
    "address": "32694 Van Dyke, Warren, MI 48089 (near 14 Mile Road)",
    "phone": "586-239-8800",
    "rating": 4.0,
    "reviews": 25,
    "website": "http://www.detroitbrakerepair.com/",
    "category": "Bengali-speaking Brake pad replacement in Michigan",
    "description": "Specializes in brake repair services, including pad replacement and rotor replacement",
    "hours": "Mon-Fri 9AM-6PM",
    "services": [
      "Bengali-speaking Brake pad replacement in Michigan consultation",
      "Professional service",
      "Quality guarantee"
    ],
    "social_links": {}
  },
  {
    "name": "Stadium Auto Service",
    "address": "2405 W Stadium Blvd, Ann Arbor, MI 48103",
    "phone": "734-369-6787",
    "rating": 4.0,
    "reviews": 25,
    "website": "http://www.stadiumautoservice.com/",
    "category": "Bengali-speaking Brake pad replacement in Michigan",
    "description": "Offers brake service and repair for various vehicles",
    "hours": "Mon-Fri 9AM-6PM",
    "services": [
      "Bengali-speaking Brake pad replacement in Michigan consultation",
      "Professional service",
      "Quality guarantee"
    ],
    "social_links": {}
  },
  {
    "name": "Midas",
    "address": "Multiple locations across Michigan. (Example: 3180 Washtenaw Avenue, Ann Arbor, MI 48104)",
    "phone": "Varies by location. (Example: 734-971-0600 for Ann Arbor)",
    "rating": 4.0,
    "reviews": 25,
    "website": "https://www.midas.com/",
    "category": "Bengali-speaking Brake pad replacement in Michigan",
    "description": "A national chain offering a wide range of auto repair services, including brake repair",
    "hours": "Mon-Fri 9AM-6PM",
    "services": [
      "Bengali-speaking Brake pad replacement in Michigan consultation",
      "Professional service",
      "Quality guarantee"
    ],
    "social_links": {}
  },
  {
    "name": "Savaya Auto Service Inc.",
    "address": "24800 John R Rd, Hazel Park, MI 48030",
    "phone": "248-579-5424",
    "rating": 4.0,
    "reviews": 25,
    "website": "http://www.savayaautoservice.com/",
    "category": "Bengali-speaking Brake pad replacement in Michigan",
    "description": "Provides auto repair services, including transmission repair and routine maintenance",
    "hours": "Mon-Fri 9AM-6PM",
    "services": [
      "Bengali-speaking Brake pad replacement in Michigan consultation",
      "Professional service",
      "Quality guarantee"
    ],
    "social_links": {}
  },
  {
    "name": "Rey's Auto & Tire",
    "address": "45450 Schoenherr Rd, Shelby Township, MI 48315",
    "phone": "586-566-0009",
    "rating": 4.0,
    "reviews": 25,
    "website": "http://www.reysauto.net/",
    "category": "Bengali-speaking Brake pad replacement in Michigan",
    "description": "Offers tire and auto repair services, including brake repair and maintenance",
    "hours": "Mon-Fri 9AM-6PM",
    "services": [
      "Bengali-speaking Brake pad replacement in Michigan consultation",
      "Professional service",
      "Quality guarantee"
    ],
    "social_links": {}
  },
  {
    "name": "Genesee Auto Service & Tire",
    "address": "5235 N. Genesee Rd, Flint, MI 48506",
    "phone": "810-736-6500",
    "rating": 4.0,
    "reviews": 25,
    "website": "http://www.geneseeautoservice.com/",
    "category": "Bengali-speaking Brake pad replacement in Michigan",
    "description": "Provides comprehensive auto repair services, including brake repairs and tire services",
    "hours": "Mon-Fri 9AM-6PM",
    "services": [
      "Bengali-speaking Brake pad replacement in Michigan consultation",
      "Professional service",
      "Quality guarantee"
    ],
    "social_links": {}
  },
  {
    "name": "ABC Auto Repair",
    "address": "Multiple locations including Davison, Goodrich, Grand Blanc, and Flint, Michigan. (Example: 810-653-5555 for Goodrich)",
    "phone": "",
    "rating": 4.0,
    "reviews": 25,
    "website": "http://www.abcautorepairmi.com/",
    "category": "Bengali-speaking Brake pad replacement in Michigan",
    "description": "A family-owned auto repair shop specializing in all types of auto repair",
    "hours": "Mon-Fri 9AM-6PM",
    "services": [
      "Bengali-speaking Brake pad replacement in Michigan consultation",
      "Professional service",
      "Quality guarantee"
    ],
    "social_links": {}
  },
  {
    "name": "Brakes Xpress and More",
    "address": "Not explicitly listed in search results, but services are offered",
    "phone": "",
    "rating": 4.0,
    "reviews": 25,
    "website": "http://www.brakesxpressandmore.com/",
    "category": "Bengali-speaking Brake pad replacement in Michigan",
    "description": "Offers comprehensive auto repair services, including brake maintenance and engine diagnostics",
    "hours": "Mon-Fri 9AM-6PM",
    "services": [
      "Bengali-speaking Brake pad replacement in Michigan consultation",
      "Professional service",
      "Quality guarantee"
    ],
    "social_links": {}
  },
  {
    "name": "Autobahn Imports",
    "address": "2384 Niles Rd, St Joseph, MI 49085",
    "phone": "269-429-6236",
    "rating": 4.0,
    "reviews": 25,
    "website": "http://www.autobahnimports.com/",
    "category": "Bengali-speaking Brake pad replacement in Michigan",
    "description": "Provides auto repair services for domestic and import automobiles, including brake service",
    "hours": "Mon-Fri 9AM-6PM",
    "services": [
      "Bengali-speaking Brake pad replacement in Michigan consultation",
      "Professional service",
      "Quality guarantee"
    ],
    "social_links": {}
  }
]