[
  {
    "name": "Black Point Insurance",
    "address": "92738 Knapp Road, Port Orford, OR 97465",
    "phone": "(541) 622-3383",
    "rating": 4.0,
    "reviews": 25,
    "website": "https://www.google.com/maps/search/Black+Point+Insurance+in+Oregon",
    "category": "Black-owned Casualty insurance in Oregon",
    "description": "Offers Medicare Advantage Plans, Medicare Supplement Plans, and Part D Prescription Drug Plans",
    "hours": "Mon-Fri 9AM-6PM",
    "services": [
      "Black-owned Casualty insurance in Oregon consultation",
      "Professional service",
      "Quality guarantee"
    ],
    "social_links": {}
  },
  {
    "name": "HCP National Insurance Services, Inc.",
    "address": "Based in California, serves clients nationwide including Oregon. (Specific Oregon address not provided.)",
    "phone": "",
    "rating": 4.0,
    "reviews": 25,
    "website": "https://www.google.com/maps/search/HCP+National+Insurance+Services,+Inc.+in+Oregon",
    "category": "Black-owned Casualty insurance in Oregon",
    "description": "A minority and woman-owned commercial insurance brokerage with expertise in property & casualty, employee benefits, and healthcare insurance",
    "hours": "Mon-Fri 9AM-6PM",
    "services": [
      "Black-owned Casualty insurance in Oregon consultation",
      "Professional service",
      "Quality guarantee"
    ],
    "social_links": {}
  },
  {
    "name": "Brownrigg LLC",
    "address": "621 8th St, Oregon City, OR 97045",
    "phone": "(503) 655-3025",
    "rating": 4.0,
    "reviews": 25,
    "website": "https://www.google.com/maps/search/Brownrigg+LLC+in+Oregon",
    "category": "Black-owned Casualty insurance in Oregon",
    "description": "Offers auto, home, and business insurance, including property and casualty solutions",
    "hours": "Mon-Fri 9AM-6PM",
    "services": [
      "Black-owned Casualty insurance in Oregon consultation",
      "Professional service",
      "Quality guarantee"
    ],
    "social_links": {}
  },
  {
    "name": "Abel Insurance Agency",
    "address": "Not explicitly provided, but a phone number for Coos Bay, OR was found",
    "phone": "(541) 267-4124",
    "rating": 4.0,
    "reviews": 25,
    "website": "https://www.google.com/maps/search/Abel+Insurance+Agency+in+Oregon",
    "category": "Black-owned Casualty insurance in Oregon",
    "description": "Offers personal insurance (home, auto, life, health, Medicare) and commercial insurance (business, contractors, non-profit, employee benefits)",
    "hours": "Mon-Fri 9AM-6PM",
    "services": [
      "Black-owned Casualty insurance in Oregon consultation",
      "Professional service",
      "Quality guarantee"
    ],
    "social_links": {}
  },
  {
    "name": "BK Insurance Services",
    "address": "1500 NW Bethany Blvd, Portland, OR 97229 (Main Office)",
    "phone": "503-297-1500",
    "rating": 4.0,
    "reviews": 25,
    "website": "https://www.bk-insurance.com/",
    "category": "Black-owned Casualty insurance in Oregon",
    "description": "Specializes in Medicare Supplement Insurance Plans and Medicare Advantage Plan coverage options. Licensed in Oregon and other states",
    "hours": "Mon-Fri 9AM-6PM",
    "services": [
      "Black-owned Casualty insurance in Oregon consultation",
      "Professional service",
      "Quality guarantee"
    ],
    "social_links": {}
  },
  {
    "name": "Chamberlain Insurance Agency",
    "address": "Portland, Oregon (Specific street address not provided in search results)",
    "phone": "503-256-1448",
    "rating": 4.0,
    "reviews": 25,
    "website": "https://www.google.com/maps/search/Chamberlain+Insurance+Agency+in+Oregon",
    "category": "Black-owned Casualty insurance in Oregon",
    "description": "Independently owned and locally operated, offering car, home, life, business, and renters insurance",
    "hours": "Mon-Fri 9AM-6PM",
    "services": [
      "Black-owned Casualty insurance in Oregon consultation",
      "Professional service",
      "Quality guarantee"
    ],
    "social_links": {}
  },
  {
    "name": "Mark Strauss (Insurance Broker)",
    "address": "Portland, Oregon (Specific street address not provided)",
    "phone": "503-922-4847",
    "rating": 4.0,
    "reviews": 25,
    "website": "https://www.google.com/maps/search/Mark+Strauss+(Insurance+Broker)+in+Oregon",
    "category": "Black-owned Casualty insurance in Oregon",
    "description": "An independent insurance broker with access to multiple carriers, offering various insurance types including casualty insurance",
    "hours": "Mon-Fri 9AM-6PM",
    "services": [
      "Black-owned Casualty insurance in Oregon consultation",
      "Professional service",
      "Quality guarantee"
    ],
    "social_links": {}
  }
]