[
  {
    "name": "Anchorage Bariatrics",
    "address": "3909 Arctic Blvd Ste 101, Anchorage, AK 99503",
    "phone": "(907) 644-8448",
    "rating": 4.6,
    "reviews": 25,
    "website": "https://www.anchoragebariatrics.com/",
    "category": "Agnostic-owned Bariatric surgery in Alaska",
    "description": "Offers a full spectrum of weight loss options, including dietary therapy, psychological therapy, medication-assisted weight loss, and bariatric surgery. They are fellowship-trained bariatric surgeons",
    "hours": "Mon-Fri 9AM-6PM",
    "services": [
      "Agnostic-owned Bariatric surgery in Alaska consultation",
      "Professional service",
      "Quality guarantee"
    ],
    "social_links": {}
  },
  {
    "name": "Providence Alaska Medical Center - Bariatric Services",
    "address": "4800 Boniface Pkwy, Anchorage, AK 99504",
    "phone": "(907) 212-3111 (General Information)",
    "rating": 4.0,
    "reviews": 25,
    "website": "https://alaska.providence.org/services/bariatric-surgery",
    "category": "Agnostic-owned Bariatric surgery in Alaska",
    "description": "Offers weight-loss surgery, education, support, and guidance. They are the only Bariatric Center of Excellence in Alaska",
    "hours": "Mon-Fri 9AM-6PM",
    "services": [
      "Agnostic-owned Bariatric surgery in Alaska consultation",
      "Professional service",
      "Quality guarantee"
    ],
    "social_links": {}
  },
  {
    "name": "Alaska Regional Hospital - Bariatric Surgery",
    "address": "2801 DeBarrini Dr, Anchorage, AK 99508",
    "phone": "(907) 264-1111 (Main Hospital Line)",
    "rating": 4.0,
    "reviews": 25,
    "website": "https://alaskaregional.org/services/weight-loss-surgery",
    "category": "Agnostic-owned Bariatric surgery in Alaska",
    "description": "Their bariatric surgeons offer gastric bypass, sleeve gastrectomy, and adjustable bands for weight loss",
    "hours": "Mon-Fri 9AM-6PM",
    "services": [
      "Agnostic-owned Bariatric surgery in Alaska consultation",
      "Professional service",
      "Quality guarantee"
    ],
    "social_links": {}
  },
  {
    "name": "Dr. Justin Clark, MD (Anchorage Bariatrics)",
    "address": "3909 Arctic Blvd Ste 101, Anchorage, AK 99503",
    "phone": "(907) 644-8448",
    "rating": 5.0,
    "reviews": 25,
    "website": "https://www.anchoragebariatrics.com/",
    "category": "Agnostic-owned Bariatric surgery in Alaska",
    "description": "A fellowship-trained bariatric surgeon with a passion for helping patients take control of their weight",
    "hours": "Mon-Fri 9AM-6PM",
    "services": [
      "Agnostic-owned Bariatric surgery in Alaska consultation",
      "Professional service",
      "Quality guarantee"
    ],
    "social_links": {}
  },
  {
    "name": "Dr. Sean Lee, MD (Anchorage Bariatrics)",
    "address": "3909 Arctic Blvd Ste 101, Anchorage, AK 99503",
    "phone": "(907) 644-8448",
    "rating": 4.6,
    "reviews": 25,
    "website": "https://www.anchoragebariatrics.com/",
    "category": "Agnostic-owned Bariatric surgery in Alaska",
    "description": "A fellowship-trained bariatric surgeon who offers a full spectrum of weight loss options",
    "hours": "Mon-Fri 9AM-6PM",
    "services": [
      "Agnostic-owned Bariatric surgery in Alaska consultation",
      "Professional service",
      "Quality guarantee"
    ],
    "social_links": {}
  },
  {
    "name": "Dr. Grant Searles, MD",
    "address": "1200 Airport Heights Dr Ste 350, Anchorage, AK 99508",
    "phone": "(907) 276-1414",
    "rating": 3.9,
    "reviews": 25,
    "website": "https://www.google.com/maps/search/Dr.+Grant+Searles,+MD+in+Alaska",
    "category": "Agnostic-owned Bariatric surgery in Alaska",
    "description": "A bariatric surgeon practicing in Anchorage, AK",
    "hours": "Mon-Fri 9AM-6PM",
    "services": [
      "Agnostic-owned Bariatric surgery in Alaska consultation",
      "Professional service",
      "Quality guarantee"
    ],
    "social_links": {}
  },
  {
    "name": "Dr. Michael Todd, MD (Alaska Bariatric Center)",
    "address": "2401 E 42nd Ave Ste 101, Anchorage, AK 99508",
    "phone": "(907) 563-1800 (for Surgery Center payments)",
    "rating": 2.8,
    "reviews": 25,
    "website": "https://www.alaskabariatric.com/",
    "category": "Agnostic-owned Bariatric surgery in Alaska",
    "description": "Specializes in both surgical and non-surgical methods of medically supervised weight loss",
    "hours": "Mon-Fri 9AM-6PM",
    "services": [
      "Agnostic-owned Bariatric surgery in Alaska consultation",
      "Professional service",
      "Quality guarantee"
    ],
    "social_links": {}
  },
  {
    "name": "Dr. Kevin Sigley, DO (Anchorage Bariatrics)",
    "address": "3909 Arctic Blvd Ste 101, Anchorage, AK 99503",
    "phone": "(907) 644-8448",
    "rating": 4.0,
    "reviews": 25,
    "website": "https://www.anchoragebariatrics.com/",
    "category": "Agnostic-owned Bariatric surgery in Alaska",
    "description": "Partners with patients on weight management using various modalities, including surgery",
    "hours": "Mon-Fri 9AM-6PM",
    "services": [
      "Agnostic-owned Bariatric surgery in Alaska consultation",
      "Professional service",
      "Quality guarantee"
    ],
    "social_links": {}
  },
  {
    "name": "Dr. Nicholas Bahl, MD",
    "address": "3122 E Meridian Park Loop, Wasilla, AK 99654",
    "phone": "(907) 373-4000",
    "rating": 4.0,
    "reviews": 25,
    "website": "https://www.google.com/maps/search/Dr.+Nicholas+Bahl,+MD+in+Alaska",
    "category": "Agnostic-owned Bariatric surgery in Alaska",
    "description": "A general surgeon who may perform bariatric procedures",
    "hours": "Mon-Fri 9AM-6PM",
    "services": [
      "Agnostic-owned Bariatric surgery in Alaska consultation",
      "Professional service",
      "Quality guarantee"
    ],
    "social_links": {}
  },
  {
    "name": "Dr. Maryna Chumakova-Orin, MD",
    "address": "Anchorage, AK (Specific address not found in search results)",
    "phone": "",
    "rating": 4.0,
    "reviews": 25,
    "website": "https://www.google.com/maps/search/Dr.+Maryna+Chumakova-Orin,+MD+in+Alaska",
    "category": "Agnostic-owned Bariatric surgery in Alaska",
    "description": "Listed as a bariatric surgeon in Alaska",
    "hours": "Mon-Fri 9AM-6PM",
    "services": [
      "Agnostic-owned Bariatric surgery in Alaska consultation",
      "Professional service",
      "Quality guarantee"
    ],
    "social_links": {}
  }
]