[
  {
    "name": "Supply Event Rentals",
    "address": "1401 W 13th St, Kansas City, MO 64102 (Serves Kansas City area)",
    "phone": "(816) 842-5200",
    "rating": 4.8,
    "reviews": 25,
    "website": "https://supplyeventrentals.com/",
    "category": "Agnostic-owned Setup and teardown in Kansas",
    "description": "Offers full-service event rentals, including setup and breakdown for weddings and other events",
    "hours": "Mon-Fri 9AM-6PM",
    "services": [
      "Agnostic-owned Setup and teardown in Kansas consultation",
      "Professional service",
      "Quality guarantee"
    ],
    "social_links": {}
  },
  {
    "name": "AAA Event Rental",
    "address": "10000 W 87th St, Lenexa, KS 66214",
    "phone": "(913) 492-4321",
    "rating": 4.5,
    "reviews": 25,
    "website": "https://aaaeve.com/",
    "category": "Agnostic-owned Setup and teardown in Kansas",
    "description": "Provides party, tent, and event rentals with setup and installation services for the Kansas City region",
    "hours": "Mon-Fri 9AM-6PM",
    "services": [
      "Agnostic-owned Setup and teardown in Kansas consultation",
      "Professional service",
      "Quality guarantee"
    ],
    "social_links": {}
  },
  {
    "name": "Fun Services Midwest",
    "address": "7000 W 75th St, Merriam, KS 66204",
    "phone": "(913) 262-5000",
    "rating": 4.4,
    "reviews": 25,
    "website": "https://funservicesmidwest.com/",
    "category": "Agnostic-owned Setup and teardown in Kansas",
    "description": "Offers a wide range of event rentals and entertainment, including setup for various events",
    "hours": "Mon-Fri 9AM-6PM",
    "services": [
      "Agnostic-owned Setup and teardown in Kansas consultation",
      "Professional service",
      "Quality guarantee"
    ],
    "social_links": {}
  },
  {
    "name": "KCpartyrentals.com",
    "address": "1601 Swift Ave, Kansas City, MO 64116 (Serves Kansas City area)",
    "phone": "(816) 888-9980",
    "rating": 4.7,
    "reviews": 25,
    "website": "https://kcpartyrentals.com/",
    "category": "Agnostic-owned Setup and teardown in Kansas",
    "description": "Specializes in bounce houses and party rentals, including tents and event setup services",
    "hours": "Mon-Fri 9AM-6PM",
    "services": [
      "Agnostic-owned Setup and teardown in Kansas consultation",
      "Professional service",
      "Quality guarantee"
    ],
    "social_links": {}
  },
  {
    "name": "Quest Events",
    "address": "10900 Strang Line Rd, Lenexa, KS 66215",
    "phone": "(913) 492-4321",
    "rating": 4.5,
    "reviews": 25,
    "website": "https://questevents.com/",
    "category": "Agnostic-owned Setup and teardown in Kansas",
    "description": "Provides a full array of event rental furniture, linens, and pipe and drape, with full-service installation and dismantle",
    "hours": "Mon-Fri 9AM-6PM",
    "services": [
      "Agnostic-owned Setup and teardown in Kansas consultation",
      "Professional service",
      "Quality guarantee"
    ],
    "social_links": {}
  },
  {
    "name": "Veil Events",
    "address": "1010 E. Lincoln St., Ste. 100, Olathe, KS 66061",
    "phone": "(913) 735-4400",
    "rating": 4.9,
    "reviews": 25,
    "website": "https://www.veilevents.com/",
    "category": "Agnostic-owned Setup and teardown in Kansas",
    "description": "Offers wedding and event planning services, including day-of assistants and teardown crew",
    "hours": "Mon-Fri 9AM-6PM",
    "services": [
      "Agnostic-owned Setup and teardown in Kansas consultation",
      "Professional service",
      "Quality guarantee"
    ],
    "social_links": {}
  },
  {
    "name": "Chappelow Events",
    "address": "1111 W 10th St, Kansas City, MO 64101 (Serves Kansas City area)",
    "phone": "(816) 421-7777",
    "rating": 4.8,
    "reviews": 25,
    "website": "https://chappelow.com/",
    "category": "Agnostic-owned Setup and teardown in Kansas",
    "description": "Specializes in event design, planning, and creative consultancy, assisting with all details including setup and teardown",
    "hours": "Mon-Fri 9AM-6PM",
    "services": [
      "Agnostic-owned Setup and teardown in Kansas consultation",
      "Professional service",
      "Quality guarantee"
    ],
    "social_links": {}
  },
  {
    "name": "Madison Sanders Events",
    "address": "1000 E. 15th St., Kansas City, MO 64106 (Serves Kansas City area)",
    "phone": "(816) 531-5000",
    "rating": 4.9,
    "reviews": 25,
    "website": "https://madisonsandersevents.com/",
    "category": "Agnostic-owned Setup and teardown in Kansas",
    "description": "A full-service planning and design company that handles all aspects of events, including setup and breakdown",
    "hours": "Mon-Fri 9AM-6PM",
    "services": [
      "Agnostic-owned Setup and teardown in Kansas consultation",
      "Professional service",
      "Quality guarantee"
    ],
    "social_links": {}
  },
  {
    "name": "Big T Tents",
    "address": "10300 Kaw Dr, Kansas City, KS 66111",
    "phone": "(913) 307-0400",
    "rating": 4.6,
    "reviews": 25,
    "website": "https://bigttents.com/",
    "category": "Agnostic-owned Setup and teardown in Kansas",
    "description": "Specializes in tent rentals for events and provides setup and sales services",
    "hours": "Mon-Fri 9AM-6PM",
    "services": [
      "Agnostic-owned Setup and teardown in Kansas consultation",
      "Professional service",
      "Quality guarantee"
    ],
    "social_links": {}
  },
  {
    "name": "Vivid Events KC & Co.",
    "address": "3101 Gillham Rd, Kansas City, MO 64109 (Serves Kansas City area)",
    "phone": "(816) 895-1824",
    "rating": 4.7,
    "reviews": 25,
    "website": "https://vivideventskc.com/",
    "category": "Agnostic-owned Setup and teardown in Kansas",
    "description": "An all-inclusive event planning company offering event space rental, planning services, and setup/breakdown for various celebrations",
    "hours": "Mon-Fri 9AM-6PM",
    "services": [
      "Agnostic-owned Setup and teardown in Kansas consultation",
      "Professional service",
      "Quality guarantee"
    ],
    "social_links": {}
  }
]