[
  {
    "name": "Sunshine Academy",
    "address": "3655 S 2340 W, West Valley City, UT 84119",
    "phone": "(801) 963-3032",
    "rating": 4.0,
    "reviews": 25,
    "website": "https://sunshineacademyutah.com/",
    "category": "American-Indian-owned Drop-in daycare in Utah",
    "description": "Offers drop-in care for children of various ages in a safe and welcoming environment",
    "hours": "Mon-Fri 9AM-6PM",
    "services": [
      "American-Indian-owned Drop-in daycare in Utah consultation",
      "Professional service",
      "Quality guarantee"
    ],
    "social_links": {}
  },
  {
    "name": "ABC Great Beginnings",
    "address": "3424 S 3600 W, West Valley City, UT 84119",
    "phone": "(801) 969-9236",
    "rating": 4.0,
    "reviews": 25,
    "website": "https://www.abcgreatbeginnings.com/west-valley-city",
    "category": "American-Indian-owned Drop-in daycare in Utah",
    "description": "Provides childcare services for children from 12 months to 13 years old, with extended hours and transportation options",
    "hours": "Mon-Fri 9AM-6PM",
    "services": [
      "American-Indian-owned Drop-in daycare in Utah consultation",
      "Professional service",
      "Quality guarantee"
    ],
    "social_links": {}
  },
  {
    "name": "La Petite Academy of Sandy",
    "address": "9641 S 700 E, Sandy, UT 84070",
    "phone": "(801) 571-0111",
    "rating": 4.0,
    "reviews": 25,
    "website": "https://www.lapetiteacademy.com/locations/sandy-ut-84070/",
    "category": "American-Indian-owned Drop-in daycare in Utah",
    "description": "Offers daycare and preschool programs for children aged 6 weeks to 12 years in a safe and nurturing setting",
    "hours": "Mon-Fri 9AM-6PM",
    "services": [
      "American-Indian-owned Drop-in daycare in Utah consultation",
      "Professional service",
      "Quality guarantee"
    ],
    "social_links": {}
  },
  {
    "name": "YCC Child Care Center",
    "address": "2261 Adams Ave, Ogden, UT 84401",
    "phone": "(801) 394-9456",
    "rating": 4.0,
    "reviews": 25,
    "website": "https://yccogden.org/a-place-to-grow/",
    "category": "American-Indian-owned Drop-in daycare in Utah",
    "description": "Provides flexible care options including full-time, part-time, and drop-off services for children aged 6 weeks to 12 years",
    "hours": "Mon-Fri 9AM-6PM",
    "services": [
      "American-Indian-owned Drop-in daycare in Utah consultation",
      "Professional service",
      "Quality guarantee"
    ],
    "social_links": {}
  },
  {
    "name": "Kidz Town 12th Street",
    "address": "677 12th St, Ogden, UT 84404",
    "phone": "",
    "rating": 4.0,
    "reviews": 25,
    "website": "https://www.google.com/maps/search/Kidz+Town+12th+Street+in+Utah",
    "category": "American-Indian-owned Drop-in daycare in Utah",
    "description": "A licensed child care center offering daycare programs",
    "hours": "Mon-Fri 9AM-6PM",
    "services": [
      "American-Indian-owned Drop-in daycare in Utah consultation",
      "Professional service",
      "Quality guarantee"
    ],
    "social_links": {}
  },
  {
    "name": "Country Kids Academy Home Daycare",
    "address": "Sandy, UT (Specific address not provided in search results)",
    "phone": "(801) 971-5927",
    "rating": 4.0,
    "reviews": 25,
    "website": "https://www.google.com/maps/search/Country+Kids+Academy+Home+Daycare+in+Utah",
    "category": "American-Indian-owned Drop-in daycare in Utah",
    "description": "Offers daycare programs with a focus on fun and learning",
    "hours": "Mon-Fri 9AM-6PM",
    "services": [
      "American-Indian-owned Drop-in daycare in Utah consultation",
      "Professional service",
      "Quality guarantee"
    ],
    "social_links": {}
  },
  {
    "name": "Home Away From Home (St. George)",
    "address": "494 E 900 S, St. George, UT 84790",
    "phone": "",
    "rating": 4.0,
    "reviews": 25,
    "website": "https://www.winnie.app/home-away-from-home-st-george-st-george-ut-6044580109558000",
    "category": "American-Indian-owned Drop-in daycare in Utah",
    "description": "A licensed child care center offering daycare and preschool programs with drop-in options",
    "hours": "Mon-Fri 9AM-6PM",
    "services": [
      "American-Indian-owned Drop-in daycare in Utah consultation",
      "Professional service",
      "Quality guarantee"
    ],
    "social_links": {}
  },
  {
    "name": "Discovery Kids Sandy",
    "address": "9641 S 700 E, Sandy, UT 84070",
    "phone": "",
    "rating": 4.0,
    "reviews": 25,
    "website": "https://www.google.com/maps/search/Discovery+Kids+Sandy+in+Utah",
    "category": "American-Indian-owned Drop-in daycare in Utah",
    "description": "A licensed child care center offering daycare programs",
    "hours": "Mon-Fri 9AM-6PM",
    "services": [
      "American-Indian-owned Drop-in daycare in Utah consultation",
      "Professional service",
      "Quality guarantee"
    ],
    "social_links": {}
  },
  {
    "name": "The Sammy Center",
    "address": "Salt Lake City, UT (Specific address not provided in search results)",
    "phone": "",
    "rating": 4.0,
    "reviews": 25,
    "website": "https://www.google.com/maps/search/The+Sammy+Center+in+Utah",
    "category": "American-Indian-owned Drop-in daycare in Utah",
    "description": "Listed as a drop-in daycare option in Salt Lake City",
    "hours": "Mon-Fri 9AM-6PM",
    "services": [
      "American-Indian-owned Drop-in daycare in Utah consultation",
      "Professional service",
      "Quality guarantee"
    ],
    "social_links": {}
  },
  {
    "name": "R-Kids Child Care Center/Uvrmc",
    "address": "1041 N 500 W, Provo, UT 84604",
    "phone": "",
    "rating": 4.0,
    "reviews": 25,
    "website": "https://www.google.com/maps/search/R-Kids+Child+Care+Center/Uvrmc+in+Utah",
    "category": "American-Indian-owned Drop-in daycare in Utah",
    "description": "A licensed child care center offering daycare programs",
    "hours": "Mon-Fri 9AM-6PM",
    "services": [
      "American-Indian-owned Drop-in daycare in Utah consultation",
      "Professional service",
      "Quality guarantee"
    ],
    "social_links": {}
  }
]