[
  {
    "name": "Adeline Wellness Spa",
    "address": "Located within The Westin Portland Harborview Hotel, 157 High St, Portland, ME 04101",
    "phone": "(207) 613-7000",
    "rating": 4.9,
    "reviews": 25,
    "website": "https://www.adelinewellness.com/",
    "category": "Atheist-owned Spa Facials in Maine",
    "description": "Offers a range of spa treatments including massages, body treatments, and facials in a relaxing environment",
    "hours": "Mon-Fri 9AM-6PM",
    "services": [
      "Atheist-owned Spa Facials in Maine consultation",
      "Professional service",
      "Quality guarantee"
    ],
    "social_links": {}
  },
  {
    "name": "Nine Stones Spa",
    "address": "533 Forest Ave, Portland, ME 04101",
    "phone": "(207) 772-1400",
    "rating": 4.0,
    "reviews": 25,
    "website": "https://www.ninestones.com/",
    "category": "Atheist-owned Spa Facials in Maine",
    "description": "A premier destination for massages, facials, and natural nail services, featuring eight treatment rooms and a serene lounge",
    "hours": "Mon-Fri 9AM-6PM",
    "services": [
      "Atheist-owned Spa Facials in Maine consultation",
      "Professional service",
      "Quality guarantee"
    ],
    "social_links": {}
  },
  {
    "name": "Rejuvenations Medi Spa",
    "address": "Multiple locations, including 482 US-1, Falmouth, ME 04105 and 433 Western Ave, South Portland, ME 04106",
    "phone": "(207) 847-3100 (Falmouth)",
    "rating": 4.0,
    "reviews": 25,
    "website": "https://www.rejuvenationsmedispa.com/",
    "category": "Atheist-owned Spa Facials in Maine",
    "description": "Offers medical aesthetic treatments and spa services, including injectables, laser skin resurfacing, microneedling, peels, and DiamondGlow\u00ae facials",
    "hours": "Mon-Fri 9AM-6PM",
    "services": [
      "Atheist-owned Spa Facials in Maine consultation",
      "Professional service",
      "Quality guarantee"
    ],
    "social_links": {}
  },
  {
    "name": "Atlantic Aesthetics Maine",
    "address": "100 Western Ave, Suite 202, South Portland, ME 04106",
    "phone": "(207) 805-4000",
    "rating": 4.0,
    "reviews": 25,
    "website": "https://www.atlanticaestheticsmaine.com/",
    "category": "Atheist-owned Spa Facials in Maine",
    "description": "A luxury medi-spa offering aesthetic services such as rejuvenation facials, body treatments, and advanced skincare solutions",
    "hours": "Mon-Fri 9AM-6PM",
    "services": [
      "Atheist-owned Spa Facials in Maine consultation",
      "Professional service",
      "Quality guarantee"
    ],
    "social_links": {}
  },
  {
    "name": "Esthetic Medspa Portland",
    "address": "1331 Washington Ave, Portland, ME 04103",
    "phone": "(207) 618-5792",
    "rating": 4.0,
    "reviews": 25,
    "website": "https://www.estheticmedspa.com/",
    "category": "Atheist-owned Spa Facials in Maine",
    "description": "Provides advanced aesthetic care, including DiamondGlow facials, injectables, and other skin rejuvenation treatments",
    "hours": "Mon-Fri 9AM-6PM",
    "services": [
      "Atheist-owned Spa Facials in Maine consultation",
      "Professional service",
      "Quality guarantee"
    ],
    "social_links": {}
  },
  {
    "name": "Beauty Barn and Wellness",
    "address": "102 Main St, Yarmouth, ME 04096",
    "phone": "(207) 632-5823",
    "rating": 4.0,
    "reviews": 25,
    "website": "https://www.beautybarnandwellness.com/",
    "category": "Atheist-owned Spa Facials in Maine",
    "description": "Offers a variety of customized facials, massage therapy, and spa treatments designed to rejuvenate the skin",
    "hours": "Mon-Fri 9AM-6PM",
    "services": [
      "Atheist-owned Spa Facials in Maine consultation",
      "Professional service",
      "Quality guarantee"
    ],
    "social_links": {}
  },
  {
    "name": "Jordan Spa at Sunday River Resort",
    "address": "15 South Ridge Rd, Newry, ME 04261",
    "phone": "(207) 824-5000",
    "rating": 4.0,
    "reviews": 25,
    "website": "https://www.sundayriver.com/plan-your-trip/activities-and-events/jordan-spa",
    "category": "Atheist-owned Spa Facials in Maine",
    "description": "Offers a variety of spa services including hot stone therapy, customizable facials, and body treatments",
    "hours": "Mon-Fri 9AM-6PM",
    "services": [
      "Atheist-owned Spa Facials in Maine consultation",
      "Professional service",
      "Quality guarantee"
    ],
    "social_links": {}
  },
  {
    "name": "Southern Maine Massage & Wellness",
    "address": "173 Ocean St, South Portland, ME 04106",
    "phone": "(207) 799-3300",
    "rating": 4.0,
    "reviews": 25,
    "website": "https://www.southernmainemassage.com/",
    "category": "Atheist-owned Spa Facials in Maine",
    "description": "Provides massage therapy and wellness services, with mentions of facials as part of their offerings",
    "hours": "Mon-Fri 9AM-6PM",
    "services": [
      "Atheist-owned Spa Facials in Maine consultation",
      "Professional service",
      "Quality guarantee"
    ],
    "social_links": {}
  },
  {
    "name": "The Spa at The Nonantum Resort",
    "address": "95 Ocean Ave, Kennebunkport, ME 04046",
    "phone": "(207) 967-4050",
    "rating": 4.0,
    "reviews": 25,
    "website": "https://www.nonantumresort.com/spa",
    "category": "Atheist-owned Spa Facials in Maine",
    "description": "Offers a range of spa treatments, including facials, designed for relaxation and rejuvenation",
    "hours": "Mon-Fri 9AM-6PM",
    "services": [
      "Atheist-owned Spa Facials in Maine consultation",
      "Professional service",
      "Quality guarantee"
    ],
    "social_links": {}
  },
  {
    "name": "The Spa at The Cliff House",
    "address": "111 South St, Ogunquit, ME 03907",
    "phone": "(207) 361-6000",
    "rating": 4.0,
    "reviews": 25,
    "website": "https://www.cliffhousemaine.com/spa",
    "category": "Atheist-owned Spa Facials in Maine",
    "description": "A luxurious spa offering a variety of treatments, including facials, with ocean views",
    "hours": "Mon-Fri 9AM-6PM",
    "services": [
      "Atheist-owned Spa Facials in Maine consultation",
      "Professional service",
      "Quality guarantee"
    ],
    "social_links": {}
  }
]