[
  {
    "name": "Modern Electrical Solutions",
    "address": "(Not specified in search results)",
    "phone": "",
    "rating": 4.0,
    "reviews": 25,
    "website": "https://www.google.com/maps/search/Modern+Electrical+Solutions+in+Minnesota",
    "category": "Asian-owned Emergency repair services in Minnesota",
    "description": "An electrical contractor business",
    "hours": "Mon-Fri 9AM-6PM",
    "services": [
      "Asian-owned Emergency repair services in Minnesota consultation",
      "Professional service",
      "Quality guarantee"
    ],
    "social_links": {}
  },
  {
    "name": "Damyans Electric Inc.",
    "address": "Hopkins, MN",
    "phone": "612-616-9251",
    "rating": 4.0,
    "reviews": 25,
    "website": "https://www.google.com/maps/search/Damyans+Electric+Inc.+in+Minnesota",
    "category": "Asian-owned Emergency repair services in Minnesota",
    "description": "Offers 24/7 emergency electrical services",
    "hours": "Mon-Fri 9AM-6PM",
    "services": [
      "Asian-owned Emergency repair services in Minnesota consultation",
      "Professional service",
      "Quality guarantee"
    ],
    "social_links": {}
  },
  {
    "name": "Restoration Alliance Services",
    "address": "Elk River, MN",
    "phone": "",
    "rating": 4.0,
    "reviews": 25,
    "website": "https://www.google.com/maps/search/Restoration+Alliance+Services+in+Minnesota",
    "category": "Asian-owned Emergency repair services in Minnesota",
    "description": "Provides 24/7 emergency restoration services for water, fire, mold, and storm damage",
    "hours": "Mon-Fri 9AM-6PM",
    "services": [
      "Asian-owned Emergency repair services in Minnesota consultation",
      "Professional service",
      "Quality guarantee"
    ],
    "social_links": {}
  },
  {
    "name": "St. Paul Water Damage Restoration Services",
    "address": "St. Paul, MN",
    "phone": "651-316-2584",
    "rating": 4.0,
    "reviews": 25,
    "website": "https://www.google.com/maps/search/St.+Paul+Water+Damage+Restoration+Services+in+Minnesota",
    "category": "Asian-owned Emergency repair services in Minnesota",
    "description": "Offers 24/7 emergency water, fire, and mold damage restoration",
    "hours": "Mon-Fri 9AM-6PM",
    "services": [
      "Asian-owned Emergency repair services in Minnesota consultation",
      "Professional service",
      "Quality guarantee"
    ],
    "social_links": {}
  },
  {
    "name": "Green Clean",
    "address": "5301 East River Road, Minneapolis, MN",
    "phone": "",
    "rating": 4.0,
    "reviews": 25,
    "website": "https://www.google.com/maps/search/Green+Clean+in+Minnesota",
    "category": "Asian-owned Emergency repair services in Minnesota",
    "description": "Provides 24/7 emergency water damage restoration services",
    "hours": "Mon-Fri 9AM-6PM",
    "services": [
      "Asian-owned Emergency repair services in Minnesota consultation",
      "Professional service",
      "Quality guarantee"
    ],
    "social_links": {}
  },
  {
    "name": "American Restores Group",
    "address": "Minneapolis and Saint Paul, MN",
    "phone": "",
    "rating": 4.0,
    "reviews": 25,
    "website": "https://www.google.com/maps/search/American+Restores+Group+in+Minnesota",
    "category": "Asian-owned Emergency repair services in Minnesota",
    "description": "Offers 24/7 emergency services for water, fire, and sewage damage cleanup",
    "hours": "Mon-Fri 9AM-6PM",
    "services": [
      "Asian-owned Emergency repair services in Minnesota consultation",
      "Professional service",
      "Quality guarantee"
    ],
    "social_links": {}
  },
  {
    "name": "LionStar",
    "address": "Twin Cities and Greater Minnesota",
    "phone": "(612) 464-7699",
    "rating": 4.0,
    "reviews": 25,
    "website": "https://www.google.com/maps/search/LionStar+in+Minnesota",
    "category": "Asian-owned Emergency repair services in Minnesota",
    "description": "Provides 24/7 emergency commercial roof repair services",
    "hours": "Mon-Fri 9AM-6PM",
    "services": [
      "Asian-owned Emergency repair services in Minnesota consultation",
      "Professional service",
      "Quality guarantee"
    ],
    "social_links": {}
  },
  {
    "name": "Valiant Roofing",
    "address": "Minneapolis, MN",
    "phone": "",
    "rating": 4.0,
    "reviews": 25,
    "website": "https://www.google.com/maps/search/Valiant+Roofing+in+Minnesota",
    "category": "Asian-owned Emergency repair services in Minnesota",
    "description": "Offers emergency roof repair services 24/7",
    "hours": "Mon-Fri 9AM-6PM",
    "services": [
      "Asian-owned Emergency repair services in Minnesota consultation",
      "Professional service",
      "Quality guarantee"
    ],
    "social_links": {}
  },
  {
    "name": "Trinity Exteriors",
    "address": "Greater Twin Cities Metro Area",
    "phone": "1-952-920-9520",
    "rating": 4.0,
    "reviews": 25,
    "website": "https://www.google.com/maps/search/Trinity+Exteriors+in+Minnesota",
    "category": "Asian-owned Emergency repair services in Minnesota",
    "description": "Provides fast and efficient emergency roof repair services",
    "hours": "Mon-Fri 9AM-6PM",
    "services": [
      "Asian-owned Emergency repair services in Minnesota consultation",
      "Professional service",
      "Quality guarantee"
    ],
    "social_links": {}
  },
  {
    "name": "American Eagle Home Improvement",
    "address": "Minneapolis & The Surrounding Areas",
    "phone": "",
    "rating": 4.0,
    "reviews": 25,
    "website": "https://www.google.com/maps/search/American+Eagle+Home+Improvement+in+Minnesota",
    "category": "Asian-owned Emergency repair services in Minnesota",
    "description": "Offers 24/7 emergency roof repair services",
    "hours": "Mon-Fri 9AM-6PM",
    "services": [
      "Asian-owned Emergency repair services in Minnesota consultation",
      "Professional service",
      "Quality guarantee"
    ],
    "social_links": {}
  }
]