[
  {
    "name": "LTD Driving School",
    "address": "1000 Lindley St, Bridgeport, CT 06606",
    "phone": "(203) 374-5111",
    "rating": 4.0,
    "reviews": 25,
    "website": "http://www.ltddrivingschool.com/",
    "category": "Armenian-speaking Driving instruction in Connecticut",
    "description": "A family-owned driving school with over 30 years of experience helping teens and adults become confident drivers. They offer in-person and online classes",
    "hours": "Mon-Fri 9AM-6PM",
    "services": [
      "Armenian-speaking Driving instruction in Connecticut consultation",
      "Professional service",
      "Quality guarantee"
    ],
    "social_links": {}
  },
  {
    "name": "Epic Driving School",
    "address": "1006 Boston Post Road, West Haven, CT 06516",
    "phone": "(203) 212-3000",
    "rating": 4.0,
    "reviews": 25,
    "website": "https://www.epicdrivingct.com/",
    "category": "Armenian-speaking Driving instruction in Connecticut",
    "description": "Offers tailored driving courses for drivers of all ages and skill levels, with a focus on individual needs. They are known for their hands-on programs",
    "hours": "Mon-Fri 9AM-6PM",
    "services": [
      "Armenian-speaking Driving instruction in Connecticut consultation",
      "Professional service",
      "Quality guarantee"
    ],
    "social_links": {}
  },
  {
    "name": "A1 Driving School",
    "address": "Multiple locations including Bridgeport, Stratford, and Waterbury. For specific addresses, please visit their website",
    "phone": "(203) 302-5707",
    "rating": 4.0,
    "reviews": 25,
    "website": "http://www.a1-driving.com/",
    "category": "Armenian-speaking Driving instruction in Connecticut",
    "description": "Offers driving instruction in Spanish and English, with in-person and online classes. They aim to guide students to become safe and reliable drivers",
    "hours": "Mon-Fri 9AM-6PM",
    "services": [
      "Armenian-speaking Driving instruction in Connecticut consultation",
      "Professional service",
      "Quality guarantee"
    ],
    "social_links": {}
  },
  {
    "name": "Santo Driving School, LLC",
    "address": "Multiple locations including Hartford and Rocky Hill. For specific addresses, please visit their website",
    "phone": "(860) 521-0200 (Hartford)",
    "rating": 4.0,
    "reviews": 25,
    "website": "https://www.santodrivingschool.com/",
    "category": "Armenian-speaking Driving instruction in Connecticut",
    "description": "Specializes in teaching correct driving habits to teenagers and adults. Their instructors are fluent in English, Italian, and Spanish",
    "hours": "Mon-Fri 9AM-6PM",
    "services": [
      "Armenian-speaking Driving instruction in Connecticut consultation",
      "Professional service",
      "Quality guarantee"
    ],
    "social_links": {}
  },
  {
    "name": "Eyes on the Road Driving School",
    "address": "Offices in East Lyme and Norwich. For specific addresses, please visit their website",
    "phone": "(860) 301-2005 (East Lyme)",
    "rating": 4.0,
    "reviews": 25,
    "website": "https://www.eotrdriving.com/",
    "category": "Armenian-speaking Driving instruction in Connecticut",
    "description": "Offers driver education packages, including classroom instruction and behind-the-wheel lessons, with flexible scheduling. They also offer road tests at their locations",
    "hours": "Mon-Fri 9AM-6PM",
    "services": [
      "Armenian-speaking Driving instruction in Connecticut consultation",
      "Professional service",
      "Quality guarantee"
    ],
    "social_links": {}
  },
  {
    "name": "Chase Driving School LLC",
    "address": "25 Chase Street, West Haven, CT 06516",
    "phone": "(203) 934-7070",
    "rating": 4.0,
    "reviews": 25,
    "website": "https://www.google.com/maps/search/Chase+Driving+School+LLC+in+Connecticut",
    "category": "Armenian-speaking Driving instruction in Connecticut",
    "description": "Focuses on teaching quality driver education to teens and adults with little to no experience",
    "hours": "Mon-Fri 9AM-6PM",
    "services": [
      "Armenian-speaking Driving instruction in Connecticut consultation",
      "Professional service",
      "Quality guarantee"
    ],
    "social_links": {}
  },
  {
    "name": "Thayer Driver Education Center",
    "address": "222 Danbury Road, New Milford, CT 06776",
    "phone": "(860) 350-2000",
    "rating": 4.0,
    "reviews": 25,
    "website": "https://www.google.com/maps/search/Thayer+Driver+Education+Center+in+Connecticut",
    "category": "Armenian-speaking Driving instruction in Connecticut",
    "description": "Committed to providing a complete program for teenagers and adults, with experienced instructors dedicated to making new drivers safe",
    "hours": "Mon-Fri 9AM-6PM",
    "services": [
      "Armenian-speaking Driving instruction in Connecticut consultation",
      "Professional service",
      "Quality guarantee"
    ],
    "social_links": {}
  },
  {
    "name": "Edwards Driving School",
    "address": "116 Cottage Grove Road, Bloomfield, CT 06002",
    "phone": "(860) 243-3400",
    "rating": 4.0,
    "reviews": 25,
    "website": "https://www.google.com/maps/search/Edwards+Driving+School+in+Connecticut",
    "category": "Armenian-speaking Driving instruction in Connecticut",
    "description": "Offers DMV road tests at their location, saving students time. They focus on teaching safe driving practices",
    "hours": "Mon-Fri 9AM-6PM",
    "services": [
      "Armenian-speaking Driving instruction in Connecticut consultation",
      "Professional service",
      "Quality guarantee"
    ],
    "social_links": {}
  },
  {
    "name": "Avon Driving School",
    "address": "Multiple locations including Simsbury. For specific addresses, please visit their website",
    "phone": "(860) 658-7777",
    "rating": 4.0,
    "reviews": 25,
    "website": "https://www.avondriving.com/",
    "category": "Armenian-speaking Driving instruction in Connecticut",
    "description": "Serving the Farmington Valley since 1991, they have a high success rate and were awarded \"Best Driving School\" multiple times",
    "hours": "Mon-Fri 9AM-6PM",
    "services": [
      "Armenian-speaking Driving instruction in Connecticut consultation",
      "Professional service",
      "Quality guarantee"
    ],
    "social_links": {}
  },
  {
    "name": "Rae's Driving School",
    "address": "Serving the Greater Madison, North Haven, Stonington, & Waterford, CT Area. For specific addresses, please visit their website",
    "phone": "(203) 215-5000",
    "rating": 4.0,
    "reviews": 25,
    "website": "https://www.raesdrivingschool.com/",
    "category": "Armenian-speaking Driving instruction in Connecticut",
    "description": "A driving school with a high success rate, providing individual attention to students of all ages and needs",
    "hours": "Mon-Fri 9AM-6PM",
    "services": [
      "Armenian-speaking Driving instruction in Connecticut consultation",
      "Professional service",
      "Quality guarantee"
    ],
    "social_links": {}
  }
]