[
  {
    "name": "GraphiColor Exhibits",
    "address": "24901 Northwestern Hwy, Southfield, MI 48075",
    "phone": "(248) 350-9000",
    "rating": 4.0,
    "reviews": 25,
    "website": "https://www.graphicolor.com/",
    "category": "Atheist-owned Trade show support in Michigan",
    "description": "Offers custom trade show exhibit design and fabrication services, including graphics, production, and installation",
    "hours": "Mon-Fri 9AM-6PM",
    "services": [
      "Atheist-owned Trade show support in Michigan consultation",
      "Professional service",
      "Quality guarantee"
    ],
    "social_links": {}
  },
  {
    "name": "Lindsay Exhibit Group, Inc.",
    "address": "256 Garden Street SE, Grand Rapids, MI 49507",
    "phone": "(616) 241-1600",
    "rating": 4.0,
    "reviews": 25,
    "website": "https://www.lindsayexhibits.com/",
    "category": "Atheist-owned Trade show support in Michigan",
    "description": "Provides trade show display design, fabrication, and rental services, along with full event support",
    "hours": "Mon-Fri 9AM-6PM",
    "services": [
      "Atheist-owned Trade show support in Michigan consultation",
      "Professional service",
      "Quality guarantee"
    ],
    "social_links": {}
  },
  {
    "name": "LA Exhibits",
    "address": "24901 Northwestern Hwy, Suite 300, Southfield, MI 48075",
    "phone": "(248) 350-9000",
    "rating": 4.0,
    "reviews": 25,
    "website": "https://www.la-exhibits.com/",
    "category": "Atheist-owned Trade show support in Michigan",
    "description": "Specializes in custom exhibit designs, portable displays, and turn-key trade show services",
    "hours": "Mon-Fri 9AM-6PM",
    "services": [
      "Atheist-owned Trade show support in Michigan consultation",
      "Professional service",
      "Quality guarantee"
    ],
    "social_links": {}
  },
  {
    "name": "E&E Exhibit Solutions",
    "address": "800-709-6935 (Contact Number)",
    "phone": "800-709-6935",
    "rating": 4.0,
    "reviews": 25,
    "website": "https://www.eandess.com/",
    "category": "Atheist-owned Trade show support in Michigan",
    "description": "Offers trade show display design, fabrication, and rental services with a focus on interactive elements and project management",
    "hours": "Mon-Fri 9AM-6PM",
    "services": [
      "Atheist-owned Trade show support in Michigan consultation",
      "Professional service",
      "Quality guarantee"
    ],
    "social_links": {}
  },
  {
    "name": "Xibitz",
    "address": "5809 Crossroads Commerce Pkwy SW, Grand Rapids, MI 49519",
    "phone": "(616) 247-3500",
    "rating": 4.0,
    "reviews": 25,
    "website": "https://www.xibitz.com/",
    "category": "Atheist-owned Trade show support in Michigan",
    "description": "Provides exhibition design and fabrication services for corporate, educational, and museum exhibits",
    "hours": "Mon-Fri 9AM-6PM",
    "services": [
      "Atheist-owned Trade show support in Michigan consultation",
      "Professional service",
      "Quality guarantee"
    ],
    "social_links": {}
  },
  {
    "name": "Devonshire Exhibit Design",
    "address": "24901 Northwestern Hwy, Southfield, MI 48075",
    "phone": "",
    "rating": 4.0,
    "reviews": 25,
    "website": "https://www.devonshireexhibits.com/",
    "category": "Atheist-owned Trade show support in Michigan",
    "description": "Offers custom exhibit design and fabrication, specializing in portable and modular displays",
    "hours": "Mon-Fri 9AM-6PM",
    "services": [
      "Atheist-owned Trade show support in Michigan consultation",
      "Professional service",
      "Quality guarantee"
    ],
    "social_links": {}
  },
  {
    "name": "New Paradigm Promotional Marketing",
    "address": "31000 Plymouth Rd, Livonia, MI 48150",
    "phone": "(734) 425-0010",
    "rating": 4.0,
    "reviews": 25,
    "website": "https://www.newparadigm.biz/",
    "category": "Atheist-owned Trade show support in Michigan",
    "description": "A full-service promotional marketing agency offering custom solutions and branded merchandise for events and trade shows",
    "hours": "Mon-Fri 9AM-6PM",
    "services": [
      "Atheist-owned Trade show support in Michigan consultation",
      "Professional service",
      "Quality guarantee"
    ],
    "social_links": {}
  },
  {
    "name": "Kairos Promotional Agency",
    "address": "Troy, MI (Specific address not readily available)",
    "phone": "(248) 720-1628",
    "rating": 4.0,
    "reviews": 25,
    "website": "https://kairospromotionalagency.com/",
    "category": "Atheist-owned Trade show support in Michigan",
    "description": "Specializes in high-quality branded promotional products and apparel for businesses, including trade show giveaways",
    "hours": "Mon-Fri 9AM-6PM",
    "services": [
      "Atheist-owned Trade show support in Michigan consultation",
      "Professional service",
      "Quality guarantee"
    ],
    "social_links": {}
  },
  {
    "name": "Michigan Event Services",
    "address": "Information not available",
    "phone": "",
    "rating": 4.0,
    "reviews": 25,
    "website": "https://www.michiganeventservices.com/",
    "category": "Atheist-owned Trade show support in Michigan",
    "description": "Offers a wide array of event planning solutions, including services that can support trade show needs",
    "hours": "Mon-Fri 9AM-6PM",
    "services": [
      "Atheist-owned Trade show support in Michigan consultation",
      "Professional service",
      "Quality guarantee"
    ],
    "social_links": {}
  },
  {
    "name": "Michigan Premier Events",
    "address": "Information not available",
    "phone": "",
    "rating": 4.0,
    "reviews": 25,
    "website": "https://www.michiganpremierevents.com/",
    "category": "Atheist-owned Trade show support in Michigan",
    "description": "Provides comprehensive corporate and association event management services, which can be applied to trade show support",
    "hours": "Mon-Fri 9AM-6PM",
    "services": [
      "Atheist-owned Trade show support in Michigan consultation",
      "Professional service",
      "Quality guarantee"
    ],
    "social_links": {}
  }
]