[
  {
    "name": "Super Cao Nguyen",
    "address": "2668 N Military Ave, Oklahoma City, OK 73106",
    "phone": "(405) 525-7650",
    "rating": 4.5,
    "reviews": 25,
    "website": "https://www.google.com/maps/search/Super+Cao+Nguyen+in+Oklahoma",
    "category": "Asian-owned Seeding in Oklahoma",
    "description": "A large international grocery store offering a wide variety of Asian and international products, including fresh produce, meats, seafood, and specialty items",
    "hours": "Mon-Fri 9AM-6PM",
    "services": [
      "Asian-owned Seeding in Oklahoma consultation",
      "Professional service",
      "Quality guarantee"
    ],
    "social_links": {}
  },
  {
    "name": "Chinatown Supermarket",
    "address": "1228 NW 27th St, Oklahoma City, OK 73106",
    "phone": "(405) 528-8188",
    "rating": 4.0,
    "reviews": 25,
    "website": "https://www.google.com/maps/search/Chinatown+Supermarket+in+Oklahoma",
    "category": "Asian-owned Seeding in Oklahoma",
    "description": "An authentic Chinese supermarket offering a variety of Asian and Vietnamese products, including herbs, spices, and dry food items",
    "hours": "Mon-Fri 9AM-6PM",
    "services": [
      "Asian-owned Seeding in Oklahoma consultation",
      "Professional service",
      "Quality guarantee"
    ],
    "social_links": {}
  },
  {
    "name": "Pan-Asia Supermarket",
    "address": "12919 E 31st St, Tulsa, OK 74133",
    "phone": "(918) 940-7570",
    "rating": 4.0,
    "reviews": 25,
    "website": "https://www.google.com/maps/search/Pan-Asia+Supermarket+in+Oklahoma",
    "category": "Asian-owned Seeding in Oklahoma",
    "description": "A large Asian supermarket offering a wide variety of products, including fresh meat, seafood, fruits, and vegetables",
    "hours": "Mon-Fri 9AM-6PM",
    "services": [
      "Asian-owned Seeding in Oklahoma consultation",
      "Professional service",
      "Quality guarantee"
    ],
    "social_links": {}
  },
  {
    "name": "Kabayan Asian Store LLC",
    "address": "1305 W Gore Blvd Suite B, Lawton, OK 73501",
    "phone": "(580) 354-9207",
    "rating": 4.0,
    "reviews": 25,
    "website": "https://www.google.com/maps/search/Kabayan+Asian+Store+LLC+in+Oklahoma",
    "category": "Asian-owned Seeding in Oklahoma",
    "description": "A family-owned grocery store in Lawton specializing in authentic Filipino and Asian groceries, snacks, and beverages, also offering Balikbayan Box services",
    "hours": "Mon-Fri 9AM-6PM",
    "services": [
      "Asian-owned Seeding in Oklahoma consultation",
      "Professional service",
      "Quality guarantee"
    ],
    "social_links": {}
  },
  {
    "name": "DBK Desserts by Kou See",
    "address": "949 N Elm Place, Broken Arrow, OK 74012",
    "phone": "",
    "rating": 4.0,
    "reviews": 25,
    "website": "https://www.google.com/maps/search/DBK+Desserts+by+Kou+See+in+Oklahoma",
    "category": "Asian-owned Seeding in Oklahoma",
    "description": "An Asian bakery specializing in Asian sponge cakes and desserts, founded by Kou See Vang",
    "hours": "Mon-Fri 9AM-6PM",
    "services": [
      "Asian-owned Seeding in Oklahoma consultation",
      "Professional service",
      "Quality guarantee"
    ],
    "social_links": {}
  },
  {
    "name": "JK by Chef King",
    "address": "612 North Robinson Avenue, Oklahoma City, OK 73102",
    "phone": "",
    "rating": 4.0,
    "reviews": 25,
    "website": "https://www.google.com/maps/search/JK+by+Chef+King+in+Oklahoma",
    "category": "Asian-owned Seeding in Oklahoma",
    "description": "A restaurant offering a modern Asian culinary experience with a focus on friendly service and an artful ambiance",
    "hours": "Mon-Fri 9AM-6PM",
    "services": [
      "Asian-owned Seeding in Oklahoma consultation",
      "Professional service",
      "Quality guarantee"
    ],
    "social_links": {}
  },
  {
    "name": "VII Asian Bistro",
    "address": "Not explicitly provided, but located in Oklahoma City, OK",
    "phone": "",
    "rating": 4.0,
    "reviews": 25,
    "website": "https://www.google.com/maps/search/VII+Asian+Bistro+in+Oklahoma",
    "category": "Asian-owned Seeding in Oklahoma",
    "description": "A restaurant that blends Vietnamese and Chinese culinary traditions, offering lunch options and bistro-style dishes with a focus on fresh ingredients",
    "hours": "Mon-Fri 9AM-6PM",
    "services": [
      "Asian-owned Seeding in Oklahoma consultation",
      "Professional service",
      "Quality guarantee"
    ],
    "social_links": {}
  },
  {
    "name": "Quoc Bao Bakery",
    "address": "2501 N Classen Blvd, Oklahoma City, OK 73106",
    "phone": "(405) 760-6322",
    "rating": 4.0,
    "reviews": 25,
    "website": "https://www.google.com/maps/search/Quoc+Bao+Bakery+in+Oklahoma",
    "category": "Asian-owned Seeding in Oklahoma",
    "description": "A Vietnamese bakery in the Oklahoma City Asian District known for its Bahn Mi and honeycomb cake",
    "hours": "Mon-Fri 9AM-6PM",
    "services": [
      "Asian-owned Seeding in Oklahoma consultation",
      "Professional service",
      "Quality guarantee"
    ],
    "social_links": {}
  },
  {
    "name": "Nam Hai International Market",
    "address": "10003 E 71st St, Tulsa, OK 74133",
    "phone": "",
    "rating": 4.0,
    "reviews": 25,
    "website": "https://www.google.com/maps/search/Nam+Hai+International+Market+in+Oklahoma",
    "category": "Asian-owned Seeding in Oklahoma",
    "description": "An Asian grocery market offering a wide range of products, including fresh produce, frozen goods, sauces, and snacks",
    "hours": "Mon-Fri 9AM-6PM",
    "services": [
      "Asian-owned Seeding in Oklahoma consultation",
      "Professional service",
      "Quality guarantee"
    ],
    "social_links": {}
  },
  {
    "name": "Asian Oriental Market",
    "address": "1132 S Garnett Rd, Tulsa, OK 74128",
    "phone": "(539) 867-2073",
    "rating": 4.0,
    "reviews": 25,
    "website": "https://www.google.com/maps/search/Asian+Oriental+Market+in+Oklahoma",
    "category": "Asian-owned Seeding in Oklahoma",
    "description": "A Hmong-owned Asian store offering a variety of Asian products",
    "hours": "Mon-Fri 9AM-6PM",
    "services": [
      "Asian-owned Seeding in Oklahoma consultation",
      "Professional service",
      "Quality guarantee"
    ],
    "social_links": {}
  }
]