[
  {
    "name": "Citta CPA",
    "address": "Serving in Nashville, TN",
    "phone": "323-800-4939",
    "rating": 4.0,
    "reviews": 25,
    "website": "https://www.google.com/maps/search/Citta+CPA+in+Tennessee",
    "category": "Bengali-speaking Accountants in Tennessee",
    "description": "Offers accounting services in Nashville, TN",
    "hours": "Mon-Fri 9AM-6PM",
    "services": [
      "Bengali-speaking Accountants in Tennessee consultation",
      "Professional service",
      "Quality guarantee"
    ],
    "social_links": {}
  },
  {
    "name": "FBS Group",
    "address": "Serving in Nashville, TN",
    "phone": "617-299-8445",
    "rating": 4.0,
    "reviews": 25,
    "website": "https://www.google.com/maps/search/FBS+Group+in+Tennessee",
    "category": "Bengali-speaking Accountants in Tennessee",
    "description": "Offers accounting services in Nashville, TN",
    "hours": "Mon-Fri 9AM-6PM",
    "services": [
      "Bengali-speaking Accountants in Tennessee consultation",
      "Professional service",
      "Quality guarantee"
    ],
    "social_links": {}
  },
  {
    "name": "Dattani & Partners, CPA",
    "address": "Nashville, TN",
    "phone": "408-560-4939",
    "rating": 4.0,
    "reviews": 25,
    "website": "https://www.google.com/maps/search/Dattani+&+Partners,+CPA+in+Tennessee",
    "category": "Bengali-speaking Accountants in Tennessee",
    "description": "Offers accounting and tax services",
    "hours": "Mon-Fri 9AM-6PM",
    "services": [
      "Bengali-speaking Accountants in Tennessee consultation",
      "Professional service",
      "Quality guarantee"
    ],
    "social_links": {}
  },
  {
    "name": "Devesh Pathak CPA",
    "address": "Serving in Nashville, TN and Chattanooga, TN",
    "phone": "617-299-8445",
    "rating": 4.0,
    "reviews": 25,
    "website": "https://www.google.com/maps/search/Devesh+Pathak+CPA+in+Tennessee",
    "category": "Bengali-speaking Accountants in Tennessee",
    "description": "Offers accounting services",
    "hours": "Mon-Fri 9AM-6PM",
    "services": [
      "Bengali-speaking Accountants in Tennessee consultation",
      "Professional service",
      "Quality guarantee"
    ],
    "social_links": {}
  },
  {
    "name": "Northeast Solution CPA",
    "address": "Serving in Nashville, TN and Memphis, TN",
    "phone": "512-515-9579",
    "rating": 4.0,
    "reviews": 25,
    "website": "https://www.google.com/maps/search/Northeast+Solution+CPA+in+Tennessee",
    "category": "Bengali-speaking Accountants in Tennessee",
    "description": "Offers accounting services",
    "hours": "Mon-Fri 9AM-6PM",
    "services": [
      "Bengali-speaking Accountants in Tennessee consultation",
      "Professional service",
      "Quality guarantee"
    ],
    "social_links": {}
  },
  {
    "name": "NSKT Global",
    "address": "Serving in Nashville, TN",
    "phone": "318-722-2221",
    "rating": 4.0,
    "reviews": 25,
    "website": "https://www.google.com/maps/search/NSKT+Global+in+Tennessee",
    "category": "Bengali-speaking Accountants in Tennessee",
    "description": "Offers accounting services",
    "hours": "Mon-Fri 9AM-6PM",
    "services": [
      "Bengali-speaking Accountants in Tennessee consultation",
      "Professional service",
      "Quality guarantee"
    ],
    "social_links": {}
  },
  {
    "name": "Alam One Stop Tax And Accounting Services INC.",
    "address": "Serving in Knoxville, TN and Chattanooga, TN",
    "phone": "424-400-2358",
    "rating": 4.0,
    "reviews": 25,
    "website": "https://www.google.com/maps/search/Alam+One+Stop+Tax+And+Accounting+Services+INC.+in+Tennessee",
    "category": "Bengali-speaking Accountants in Tennessee",
    "description": "Offers tax and accounting services",
    "hours": "Mon-Fri 9AM-6PM",
    "services": [
      "Bengali-speaking Accountants in Tennessee consultation",
      "Professional service",
      "Quality guarantee"
    ],
    "social_links": {}
  },
  {
    "name": "Neelkanth Accountants",
    "address": "Serving in Knoxville, TN and Nashville, TN",
    "phone": "424-400-2358",
    "rating": 4.0,
    "reviews": 25,
    "website": "https://www.google.com/maps/search/Neelkanth+Accountants+in+Tennessee",
    "category": "Bengali-speaking Accountants in Tennessee",
    "description": "Offers accounting services",
    "hours": "Mon-Fri 9AM-6PM",
    "services": [
      "Bengali-speaking Accountants in Tennessee consultation",
      "Professional service",
      "Quality guarantee"
    ],
    "social_links": {}
  },
  {
    "name": "Jain Consulting - Vinita Chaudhary CPA",
    "address": "Serving in Chattanooga, TN and Nashville, TN",
    "phone": "973-850-4353",
    "rating": 4.0,
    "reviews": 25,
    "website": "https://www.google.com/maps/search/Jain+Consulting+-+Vinita+Chaudhary+CPA+in+Tennessee",
    "category": "Bengali-speaking Accountants in Tennessee",
    "description": "Offers CPA services",
    "hours": "Mon-Fri 9AM-6PM",
    "services": [
      "Bengali-speaking Accountants in Tennessee consultation",
      "Professional service",
      "Quality guarantee"
    ],
    "social_links": {}
  },
  {
    "name": "Sajwani CPA",
    "address": "Memphis, TN",
    "phone": "",
    "rating": 4.0,
    "reviews": 25,
    "website": "https://www.google.com/maps/search/Sajwani+CPA+in+Tennessee",
    "category": "Bengali-speaking Accountants in Tennessee",
    "description": "Offers business payroll, bookkeeping, and accounting services",
    "hours": "Mon-Fri 9AM-6PM",
    "services": [
      "Bengali-speaking Accountants in Tennessee consultation",
      "Professional service",
      "Quality guarantee"
    ],
    "social_links": {}
  }
]