[
  {
    "name": "Utah State University Analytical Laboratories (USUAL)",
    "address": "Logan, UT (specific address not provided in search results)",
    "phone": "",
    "rating": 4.0,
    "reviews": 25,
    "website": "https://usual.usu.edu/",
    "category": "Bengali-speaking Soil analysis in Utah",
    "description": "Offers a range of soil testing services for agriculture, construction, gardening, and more. They provide analysis for nutrients, pH, salinity, and texture",
    "hours": "Mon-Fri 9AM-6PM",
    "services": [
      "Bengali-speaking Soil analysis in Utah consultation",
      "Professional service",
      "Quality guarantee"
    ],
    "social_links": {}
  },
  {
    "name": "Environmental Chemistry Program - Utah Public Health Lab",
    "address": "443 N. 400 W., Salt Lake City, UT 84103",
    "phone": "(801) 965-2400",
    "rating": 4.0,
    "reviews": 25,
    "website": "https://health.utah.gov/lab/chem/",
    "category": "Bengali-speaking Soil analysis in Utah",
    "description": "Provides testing services for environmental chemical and biological contaminants in soils, water, and other environmental matrices",
    "hours": "Mon-Fri 9AM-6PM",
    "services": [
      "Bengali-speaking Soil analysis in Utah consultation",
      "Professional service",
      "Quality guarantee"
    ],
    "social_links": {}
  },
  {
    "name": "Chemtech-Ford Laboratories",
    "address": "9632 South 500 West, Sandy, UT 84070 (also has an Orem location)",
    "phone": "(801) 262-7299",
    "rating": 4.0,
    "reviews": 25,
    "website": "https://chemtech-ford.com/",
    "category": "Bengali-speaking Soil analysis in Utah",
    "description": "Offers environmental and analytical services, including soil, groundwater, and surface water testing for various assessments and monitoring programs",
    "hours": "Mon-Fri 9AM-6PM",
    "services": [
      "Bengali-speaking Soil analysis in Utah consultation",
      "Professional service",
      "Quality guarantee"
    ],
    "social_links": {}
  },
  {
    "name": "Intermountain Testing Services, Inc.",
    "address": "Roy, UT (specific address not provided in search results)",
    "phone": "(801) 731-2200",
    "rating": 4.0,
    "reviews": 25,
    "website": "https://www.intermountaintesting.com/",
    "category": "Bengali-speaking Soil analysis in Utah",
    "description": "Provides soil and construction materials testing, including in-place density, hydrometer analysis, and permeability testing",
    "hours": "Mon-Fri 9AM-6PM",
    "services": [
      "Bengali-speaking Soil analysis in Utah consultation",
      "Professional service",
      "Quality guarantee"
    ],
    "social_links": {}
  },
  {
    "name": "Geostrata",
    "address": "Bluffdale, UT (specific address not provided in search results)",
    "phone": "(801) 748-4044 (Draper office)",
    "rating": 4.0,
    "reviews": 25,
    "website": "https://geostrata.com/",
    "category": "Bengali-speaking Soil analysis in Utah",
    "description": "Offers geotechnical, geological, and environmental consulting, with materials testing and special inspections",
    "hours": "Mon-Fri 9AM-6PM",
    "services": [
      "Bengali-speaking Soil analysis in Utah consultation",
      "Professional service",
      "Quality guarantee"
    ],
    "social_links": {}
  },
  {
    "name": "Gordon Geotechnical Engineering, Inc. (G2)",
    "address": "Salt Lake City, UT (specific address not provided in search results)",
    "phone": "(801) 571-1100",
    "rating": 4.0,
    "reviews": 25,
    "website": "https://g2geotechnical.com/",
    "category": "Bengali-speaking Soil analysis in Utah",
    "description": "A geotechnical and geological engineering firm providing site feasibility studies, foundation design, and hazard assessments",
    "hours": "Mon-Fri 9AM-6PM",
    "services": [
      "Bengali-speaking Soil analysis in Utah consultation",
      "Professional service",
      "Quality guarantee"
    ],
    "social_links": {}
  },
  {
    "name": "Infinity Consultants",
    "address": "Salt Lake City, UT (specific address not provided in search results)",
    "phone": "(801) 263-1000",
    "rating": 4.0,
    "reviews": 25,
    "website": "https://infinityconsultants.com/",
    "category": "Bengali-speaking Soil analysis in Utah",
    "description": "Provides geotechnical engineering consulting services, including pre-design site assessments, construction services, and materials testing",
    "hours": "Mon-Fri 9AM-6PM",
    "services": [
      "Bengali-speaking Soil analysis in Utah consultation",
      "Professional service",
      "Quality guarantee"
    ],
    "social_links": {}
  },
  {
    "name": "Intermountain GeoEnvironmental Services, Inc. (IGES)",
    "address": "2702 South 1030 West, Suite 10, South Salt Lake, UT 84119",
    "phone": "(801) 270-9400",
    "rating": 4.0,
    "reviews": 25,
    "website": "https://www.igesinc.com/",
    "category": "Bengali-speaking Soil analysis in Utah",
    "description": "Offers geotechnical engineering, waste management, and environmental remediation services, with a state-of-the-art geotechnical testing laboratory",
    "hours": "Mon-Fri 9AM-6PM",
    "services": [
      "Bengali-speaking Soil analysis in Utah consultation",
      "Professional service",
      "Quality guarantee"
    ],
    "social_links": {}
  },
  {
    "name": "Arbor Works",
    "address": "5664 S St Charles Pl, Salt Lake City, UT 84121",
    "phone": "(801) 647-0009",
    "rating": 4.0,
    "reviews": 25,
    "website": "https://www.arborworksutah.com/",
    "category": "Bengali-speaking Soil analysis in Utah",
    "description": "While primarily an arborist service, they offer soil testing to determine fertilizer use and plant health",
    "hours": "Mon-Fri 9AM-6PM",
    "services": [
      "Bengali-speaking Soil analysis in Utah consultation",
      "Professional service",
      "Quality guarantee"
    ],
    "social_links": {}
  },
  {
    "name": "Civil Solutions Group",
    "address": "498 West 100 South, Providence, Utah 84332 (Cache Valley Office) and Salt Lake City Office (address not provided)",
    "phone": "(435) 213-3762 (Cache Valley Office) and (801) 216-3192 (Salt Lake City Office)",
    "rating": 4.0,
    "reviews": 25,
    "website": "https://civilsolutionsgroup.com/",
    "category": "Bengali-speaking Soil analysis in Utah",
    "description": "Provides geotechnical engineering services, including in-situ testing, laboratory analysis, and engineering evaluations for various projects",
    "hours": "Mon-Fri 9AM-6PM",
    "services": [
      "Bengali-speaking Soil analysis in Utah consultation",
      "Professional service",
      "Quality guarantee"
    ],
    "social_links": {}
  }
]