[
  {
    "name": "Elevation Training Center",
    "address": "6762 S Airport Rd, West Jordan, UT 84084",
    "phone": "(801) 569-4404",
    "rating": 4.0,
    "reviews": 25,
    "website": "https://www.elevationtrainingcenter.com/",
    "category": "Arabic-speaking Wrestling classes in Utah",
    "description": "Offers youth, junior, and elite wrestling programs with expert coaching and state-of-the-art training facilities",
    "hours": "Mon-Fri 9AM-6PM",
    "services": [
      "Arabic-speaking Wrestling classes in Utah consultation",
      "Professional service",
      "Quality guarantee"
    ],
    "social_links": {}
  },
  {
    "name": "Absolute MMA",
    "address": "7051 S 400 W, West Jordan, UT 84084",
    "phone": "(801) 562-9222",
    "rating": 4.0,
    "reviews": 25,
    "website": "https://absolutemmautah.com/",
    "category": "Arabic-speaking Wrestling classes in Utah",
    "description": "Focuses on MMA wrestling, emphasizing takedowns and control for mixed martial arts and sport Jiu Jitsu",
    "hours": "Mon-Fri 9AM-6PM",
    "services": [
      "Arabic-speaking Wrestling classes in Utah consultation",
      "Professional service",
      "Quality guarantee"
    ],
    "social_links": {}
  },
  {
    "name": "UCW-ZERO (Ultra Championship Wrestling-Zero)",
    "address": "Salt Lake City, UT (Specific address not provided, but contact via email/phone)",
    "phone": "801-699-7977",
    "rating": 4.0,
    "reviews": 25,
    "website": "https://www.google.com/maps/search/UCW-ZERO+(Ultra+Championship+Wrestling-Zero)+in+Utah",
    "category": "Arabic-speaking Wrestling classes in Utah",
    "description": "Offers affordable professional wrestling training with an emphasis on working televised professional wrestling shows",
    "hours": "Mon-Fri 9AM-6PM",
    "services": [
      "Arabic-speaking Wrestling classes in Utah consultation",
      "Professional service",
      "Quality guarantee"
    ],
    "social_links": {}
  },
  {
    "name": "Timpanogos Wrestling",
    "address": "Orem, UT (Specific address not provided, serves Orem, Provo, Pleasant Grove, Lindon, and surrounding areas)",
    "phone": "801-602-1037",
    "rating": 4.0,
    "reviews": 25,
    "website": "https://www.timpanogoswrestling.com/",
    "category": "Arabic-speaking Wrestling classes in Utah",
    "description": "Provides opportunities for youth in grades Pre-K-12 to learn valuable wrestling skills",
    "hours": "Mon-Fri 9AM-6PM",
    "services": [
      "Arabic-speaking Wrestling classes in Utah consultation",
      "Professional service",
      "Quality guarantee"
    ],
    "social_links": {}
  },
  {
    "name": "Shootbox Wrestling Club",
    "address": "1562 Arabian Way, St. George, UT 84780",
    "phone": "435-773-7100",
    "rating": 4.0,
    "reviews": 25,
    "website": "https://www.shootboxwrestling.com/",
    "category": "Arabic-speaking Wrestling classes in Utah",
    "description": "Offers year-round youth wrestling programs for experienced wrestlers and beginners",
    "hours": "Mon-Fri 9AM-6PM",
    "services": [
      "Arabic-speaking Wrestling classes in Utah consultation",
      "Professional service",
      "Quality guarantee"
    ],
    "social_links": {}
  },
  {
    "name": "Southern Utah Elite Wrestling",
    "address": "St. George, UT (Specific address not provided, but contact via email)",
    "phone": "435-632-1431",
    "rating": 4.0,
    "reviews": 25,
    "website": "https://www.suelitewrestling.com/",
    "category": "Arabic-speaking Wrestling classes in Utah",
    "description": "Focuses on providing top-notch wrestling training, skill development, and competition coaching to children from Kindergarten to 8th grade",
    "hours": "Mon-Fri 9AM-6PM",
    "services": [
      "Arabic-speaking Wrestling classes in Utah consultation",
      "Professional service",
      "Quality guarantee"
    ],
    "social_links": {}
  },
  {
    "name": "Charger Wrestling Club",
    "address": "Draper, UT (Specific address not provided, but contact via email)",
    "phone": "(No specific phone number found, but contact via email: jeffreynewby@hotmail.com for Westlake Wrestling Club, and 801-425-8419 for Charger Wrestling Club)",
    "rating": 4.0,
    "reviews": 25,
    "website": "https://chargerwrestling.com/",
    "category": "Arabic-speaking Wrestling classes in Utah",
    "description": "A family-oriented club dedicated to building character, discipline, and a pursuit of excellence in wrestling",
    "hours": "Mon-Fri 9AM-6PM",
    "services": [
      "Arabic-speaking Wrestling classes in Utah consultation",
      "Professional service",
      "Quality guarantee"
    ],
    "social_links": {}
  },
  {
    "name": "Westlake Wrestling Club",
    "address": "Saratoga Springs, UT (Specific address not provided, but contact via email)",
    "phone": "",
    "rating": 4.0,
    "reviews": 25,
    "website": "https://www.google.com/maps/search/Westlake+Wrestling+Club+in+Utah",
    "category": "Arabic-speaking Wrestling classes in Utah",
    "description": "Established in 2014, this club has teams for all levels from beginner to advanced",
    "hours": "Mon-Fri 9AM-6PM",
    "services": [
      "Arabic-speaking Wrestling classes in Utah consultation",
      "Professional service",
      "Quality guarantee"
    ],
    "social_links": {}
  },
  {
    "name": "Lotus Blossom School of Martial Arts",
    "address": "Salt Lake City, UT (Specific address not provided, but contact via website)",
    "phone": "",
    "rating": 4.0,
    "reviews": 25,
    "website": "https://www.lotusblossomma.com/",
    "category": "Arabic-speaking Wrestling classes in Utah",
    "description": "Offers martial arts classes for kids, youth, teenagers, families, and adults, focusing on mind, body, and will",
    "hours": "Mon-Fri 9AM-6PM",
    "services": [
      "Arabic-speaking Wrestling classes in Utah consultation",
      "Professional service",
      "Quality guarantee"
    ],
    "social_links": {}
  },
  {
    "name": "Bernales Institute of Martial Arts (BIMA)",
    "address": "Salt Lake City, UT (Specific address not provided, but contact via website)",
    "phone": "",
    "rating": 4.0,
    "reviews": 25,
    "website": "https://www.bima.us/",
    "category": "Arabic-speaking Wrestling classes in Utah",
    "description": "Offers classes for kids and adults in Brazilian Jiu-Jitsu, Muay Thai, Kali/Eskrima, Jeet Kune Do, Silat, and Combat Submission Wrestling/Mixed Martial Arts",
    "hours": "Mon-Fri 9AM-6PM",
    "services": [
      "Arabic-speaking Wrestling classes in Utah consultation",
      "Professional service",
      "Quality guarantee"
    ],
    "social_links": {}
  }
]