[
  {
    "name": "The Audio Experience",
    "address": "7130 S. Lewis Ave, Tulsa, OK 74136",
    "phone": "(918) 970-4000",
    "rating": 4.8,
    "reviews": 25,
    "website": "https://www.theaudioexperience.com/",
    "category": "Central-American-owned Car audio installation in Oklahoma",
    "description": "Tulsa's premier car audio specialists offering professional installation and custom sound systems with certified technicians and premium brands",
    "hours": "Mon-Fri 9AM-6PM",
    "services": [
      "Central-American-owned Car audio installation in Oklahoma consultation",
      "Professional service",
      "Quality guarantee"
    ],
    "social_links": {}
  },
  {
    "name": "Intense Audio & Performance",
    "address": "6034 S Western Ave, Oklahoma City, OK 73139",
    "phone": "(405) 609-2828",
    "rating": 4.8,
    "reviews": 25,
    "website": "https://intenseaudio.com/",
    "category": "Central-American-owned Car audio installation in Oklahoma",
    "description": "Oklahoma City's custom car audio and performance shop, specializing in custom installations, upgrades, and repairs for various vehicles",
    "hours": "Mon-Fri 9AM-6PM",
    "services": [
      "Central-American-owned Car audio installation in Oklahoma consultation",
      "Professional service",
      "Quality guarantee"
    ],
    "social_links": {}
  },
  {
    "name": "Audio Extremist",
    "address": "1101 NW 50th St, Oklahoma City, OK 73118",
    "phone": "(405) 609-2828",
    "rating": 4.7,
    "reviews": 25,
    "website": "https://audioextremist.com/",
    "category": "Central-American-owned Car audio installation in Oklahoma",
    "description": "Car audio specialist in Oklahoma City with 15 years of experience, offering professional installation of audio, video, and security systems",
    "hours": "Mon-Fri 9AM-6PM",
    "services": [
      "Central-American-owned Car audio installation in Oklahoma consultation",
      "Professional service",
      "Quality guarantee"
    ],
    "social_links": {}
  },
  {
    "name": "Audio Advice Tulsa",
    "address": "7051 S. Zurich Ave, Tulsa, OK 74136",
    "phone": "(918) 664-4400",
    "rating": 4.7,
    "reviews": 25,
    "website": "https://www.audioadvice.com/",
    "category": "Central-American-owned Car audio installation in Oklahoma",
    "description": "Tulsa's audio-visual specialists for home and car stereos, automation, and security, locally owned for over 40 years",
    "hours": "Mon-Fri 9AM-6PM",
    "services": [
      "Central-American-owned Car audio installation in Oklahoma consultation",
      "Professional service",
      "Quality guarantee"
    ],
    "social_links": {}
  },
  {
    "name": "Audio Midwest (Edmond & Stillwater)",
    "address": "1701 S Broadway Ste 100, Edmond, OK 73013",
    "phone": "(405) 341-3255",
    "rating": 4.6,
    "reviews": 25,
    "website": "https://audiomidwest.com/",
    "category": "Central-American-owned Car audio installation in Oklahoma",
    "description": "Offers car audio, window tint, and car wraps with experienced, certified installers and a large selection of car audio products",
    "hours": "Mon-Fri 9AM-6PM",
    "services": [
      "Central-American-owned Car audio installation in Oklahoma consultation",
      "Professional service",
      "Quality guarantee"
    ],
    "social_links": {}
  },
  {
    "name": "Custom Sounds & Tint - OKC",
    "address": "6800 Northwest Expy, Oklahoma City, OK 73132",
    "phone": "(405) 721-8468",
    "rating": 4.5,
    "reviews": 25,
    "website": "https://customsoundsandtint.com/",
    "category": "Central-American-owned Car audio installation in Oklahoma",
    "description": "Provides car audio, window tint, and other automotive accessory customizations",
    "hours": "Mon-Fri 9AM-6PM",
    "services": [
      "Central-American-owned Car audio installation in Oklahoma consultation",
      "Professional service",
      "Quality guarantee"
    ],
    "social_links": {}
  },
  {
    "name": "Jackie Cooper Tint & Electronics",
    "address": "1501 N. Classen Blvd, Oklahoma City, OK 73103",
    "phone": "(405) 605-1100",
    "rating": 4.5,
    "reviews": 25,
    "website": "https://jce.com/",
    "category": "Central-American-owned Car audio installation in Oklahoma",
    "description": "Offers premium car audio systems, professional installation, system tuning, and marine audio for boats or off-road vehicles",
    "hours": "Mon-Fri 9AM-6PM",
    "services": [
      "Central-American-owned Car audio installation in Oklahoma consultation",
      "Professional service",
      "Quality guarantee"
    ],
    "social_links": {}
  },
  {
    "name": "Code Zero Customs",
    "address": "9920 East 55th Place, Tulsa, OK 74146",
    "phone": "(918) 940-4270",
    "rating": 4.9,
    "reviews": 25,
    "website": "https://codezerocustoms.com/",
    "category": "Central-American-owned Car audio installation in Oklahoma",
    "description": "Premier custom audio, electronics, and automotive accessory specialists for cars, trucks, marine, and power sports equipment",
    "hours": "Mon-Fri 9AM-6PM",
    "services": [
      "Central-American-owned Car audio installation in Oklahoma consultation",
      "Professional service",
      "Quality guarantee"
    ],
    "social_links": {}
  },
  {
    "name": "DD Audio",
    "address": "4025 NW 36th Street, Oklahoma City, OK 73112",
    "phone": "(405) 235-3451",
    "rating": 4.5,
    "reviews": 25,
    "website": "https://ddaudio.com/",
    "category": "Central-American-owned Car audio installation in Oklahoma",
    "description": "Offers car audio products and partners with local dealers for expert installation and customer satisfaction",
    "hours": "Mon-Fri 9AM-6PM",
    "services": [
      "Central-American-owned Car audio installation in Oklahoma consultation",
      "Professional service",
      "Quality guarantee"
    ],
    "social_links": {}
  },
  {
    "name": "405 Car Audio",
    "address": "(Primarily operates via Facebook and mobile services)",
    "phone": "",
    "rating": 4.0,
    "reviews": 25,
    "website": "https://www.facebook.com/405caraudio/",
    "category": "Central-American-owned Car audio installation in Oklahoma",
    "description": "Specializes in car audio installations, with examples of their work showcased on their Facebook page",
    "hours": "Mon-Fri 9AM-6PM",
    "services": [
      "Central-American-owned Car audio installation in Oklahoma consultation",
      "Professional service",
      "Quality guarantee"
    ],
    "social_links": {}
  }
]