[
  {
    "name": "The Brow Lab",
    "address": "5150 Sugarloaf Pkwy, Ste 100, Lawrenceville, GA 30043",
    "phone": "(470) 359-7738",
    "rating": 4.8,
    "reviews": 25,
    "website": "https://www.thebrowlab.com/",
    "category": "Buddhist-owned Eyebrow tinting in Georgia",
    "description": "Offers custom brow services including waxing, tinting, and lamination, focusing on personalized shaping and skin health",
    "hours": "Mon-Fri 9AM-6PM",
    "services": [
      "Buddhist-owned Eyebrow tinting in Georgia consultation",
      "Professional service",
      "Quality guarantee"
    ],
    "social_links": {}
  },
  {
    "name": "O'Some Brows",
    "address": "4475 Roswell Rd Suite 1540, Marietta, GA 30062",
    "phone": "(470) 645-0077",
    "rating": 4.9,
    "reviews": 25,
    "website": "https://osomebrows.com/",
    "category": "Buddhist-owned Eyebrow tinting in Georgia",
    "description": "Specializes in professional eyebrow and eyelash tinting using a hybrid tint for long-lasting results, also offering permanent makeup solutions",
    "hours": "Mon-Fri 9AM-6PM",
    "services": [
      "Buddhist-owned Eyebrow tinting in Georgia consultation",
      "Professional service",
      "Quality guarantee"
    ],
    "social_links": {}
  },
  {
    "name": "Blink & Wink",
    "address": "3167 Peachtree Rd NE, Atlanta, GA 30305",
    "phone": "(404) 491-7277",
    "rating": 4.7,
    "reviews": 25,
    "website": "https://blinkandwink.com/",
    "category": "Buddhist-owned Eyebrow tinting in Georgia",
    "description": "Provides expert eyebrow design and tinting services, including shaping, henna brow coloring, and microblading, with a focus on tailored approaches",
    "hours": "Mon-Fri 9AM-6PM",
    "services": [
      "Buddhist-owned Eyebrow tinting in Georgia consultation",
      "Professional service",
      "Quality guarantee"
    ],
    "social_links": {}
  },
  {
    "name": "Marrowy Threading Wax & Hair",
    "address": "3059 Lawrenceville Hwy Suite C, Lawrenceville, GA 30044",
    "phone": "(404) 990-3353",
    "rating": 4.5,
    "reviews": 25,
    "website": "https://www.fresha.com/providers/marrowy-threading-wax-hair-p47826",
    "category": "Buddhist-owned Eyebrow tinting in Georgia",
    "description": "Offers a range of services including threading, waxing, and eyebrow tinting",
    "hours": "Mon-Fri 9AM-6PM",
    "services": [
      "Buddhist-owned Eyebrow tinting in Georgia consultation",
      "Professional service",
      "Quality guarantee"
    ],
    "social_links": {}
  },
  {
    "name": "Sweet Heart Brazilian Wax & Sugaring",
    "address": "3320 Sugarloaf Pkwy Ste 130, Lawrenceville, GA 30044",
    "phone": "(470) 359-7738",
    "rating": 4.6,
    "reviews": 25,
    "website": "https://www.fresha.com/providers/sweet-heart-brazilian-wax-sugaring-p47825",
    "category": "Buddhist-owned Eyebrow tinting in Georgia",
    "description": "Provides various waxing services, including options for brow shaping and tinting",
    "hours": "Mon-Fri 9AM-6PM",
    "services": [
      "Buddhist-owned Eyebrow tinting in Georgia consultation",
      "Professional service",
      "Quality guarantee"
    ],
    "social_links": {}
  },
  {
    "name": "Brazilian Wax by Andreia",
    "address": "3370 Sugarloaf Pkwy d1, Lawrenceville, GA 30044",
    "phone": "(678) 377-6111",
    "rating": 4.7,
    "reviews": 25,
    "website": "https://www.fresha.com/providers/brazilian-wax-by-andreia-p47824",
    "category": "Buddhist-owned Eyebrow tinting in Georgia",
    "description": "Offers professional waxing services, with potential for brow tinting as part of their beauty treatments",
    "hours": "Mon-Fri 9AM-6PM",
    "services": [
      "Buddhist-owned Eyebrow tinting in Georgia consultation",
      "Professional service",
      "Quality guarantee"
    ],
    "social_links": {}
  },
  {
    "name": "The Perfect Brows",
    "address": "2000 Powers Ferry Rd SE, Suite 150, Atlanta, GA 30339",
    "phone": "(404) 831-0600",
    "rating": 4.9,
    "reviews": 25,
    "website": "https://www.theperfectbrows.com/",
    "category": "Buddhist-owned Eyebrow tinting in Georgia",
    "description": "Known for expert eyebrow shaping, tinting, and microblading services, founded by Leza Bennett",
    "hours": "Mon-Fri 9AM-6PM",
    "services": [
      "Buddhist-owned Eyebrow tinting in Georgia consultation",
      "Professional service",
      "Quality guarantee"
    ],
    "social_links": {}
  },
  {
    "name": "The Lash Lounge Alpharetta \u2013 Old Alabama Square",
    "address": "11970 Alpharetta Hwy, Suite 100, Alpharetta, GA 30009",
    "phone": "(770) 674-0007",
    "rating": 4.8,
    "reviews": 25,
    "website": "https://www.thelashlounge.com/ga/alpharetta-old-alabama-square/",
    "category": "Buddhist-owned Eyebrow tinting in Georgia",
    "description": "Offers professional eyebrow and eyelash tinting services designed to enhance natural beauty and reduce makeup time",
    "hours": "Mon-Fri 9AM-6PM",
    "services": [
      "Buddhist-owned Eyebrow tinting in Georgia consultation",
      "Professional service",
      "Quality guarantee"
    ],
    "social_links": {}
  },
  {
    "name": "Brow Bar NYC",
    "address": "1071 Howell Mill Rd NW, Atlanta, GA 30318",
    "phone": "(404) 835-7500",
    "rating": 4.6,
    "reviews": 25,
    "website": "https://www.browbarnyc.com/locations/atlanta-howell-mill-road/",
    "category": "Buddhist-owned Eyebrow tinting in Georgia",
    "description": "Specializes in brow shaping, tinting, and other brow services to create perfectly sculpted eyebrows",
    "hours": "Mon-Fri 9AM-6PM",
    "services": [
      "Buddhist-owned Eyebrow tinting in Georgia consultation",
      "Professional service",
      "Quality guarantee"
    ],
    "social_links": {}
  },
  {
    "name": "The Brow Fixx",
    "address": "101 W. Washington St., Ste 102, Suwanee, GA 30024",
    "phone": "(470) 336-1000",
    "rating": 4.9,
    "reviews": 25,
    "website": "https://www.thebrowfixx.com/",
    "category": "Buddhist-owned Eyebrow tinting in Georgia",
    "description": "Offers a comprehensive range of brow services including shaping, tinting, lamination, and waxing",
    "hours": "Mon-Fri 9AM-6PM",
    "services": [
      "Buddhist-owned Eyebrow tinting in Georgia consultation",
      "Professional service",
      "Quality guarantee"
    ],
    "social_links": {}
  }
]