[
  {
    "name": "Artis Senior Living of South Hills",
    "address": "1000 Artis Way, Bethel Park, PA 15102",
    "phone": "(412) 854-0700",
    "rating": 4.5,
    "reviews": 25,
    "website": "https://www.artisret.com/communities/artis-senior-living-of-south-hills/",
    "category": "American-Indian-owned Memory care units in Pennsylvania",
    "description": "Offers personalized memory care services for seniors with dementia and Alzheimer's",
    "hours": "Mon-Fri 9AM-6PM",
    "services": [
      "American-Indian-owned Memory care units in Pennsylvania consultation",
      "Professional service",
      "Quality guarantee"
    ],
    "social_links": {}
  },
  {
    "name": "Brightview East Norriton",
    "address": "700 Eisenhower Blvd, East Norriton, PA 19403",
    "phone": "(610) 420-0300",
    "rating": 4.3,
    "reviews": 25,
    "website": "https://www.brightviewseniorliving.com/pennsylvania/east-norriton/brightview-east-norriton",
    "category": "American-Indian-owned Memory care units in Pennsylvania",
    "description": "Memory care assisted living community fostering an empowering and encouraging atmosphere",
    "hours": "Mon-Fri 9AM-6PM",
    "services": [
      "American-Indian-owned Memory care units in Pennsylvania consultation",
      "Professional service",
      "Quality guarantee"
    ],
    "social_links": {}
  },
  {
    "name": "Brightview Devon",
    "address": "300 Old Lincoln Hwy, Devon, PA 19333",
    "phone": "(610) 719-1300",
    "rating": 4.4,
    "reviews": 25,
    "website": "https://www.brightviewseniorliving.com/pennsylvania/devon/brightview-devon",
    "category": "American-Indian-owned Memory care units in Pennsylvania",
    "description": "Memory care assisted living community focused on learning about all elements of a person",
    "hours": "Mon-Fri 9AM-6PM",
    "services": [
      "American-Indian-owned Memory care units in Pennsylvania consultation",
      "Professional service",
      "Quality guarantee"
    ],
    "social_links": {}
  },
  {
    "name": "Arden Courts Of Susquehanna",
    "address": "2625 Ailanthus Lane, Harrisburg, PA 17110",
    "phone": "(717) 657-0200",
    "rating": 4.0,
    "reviews": 25,
    "website": "https://www.ardencourt.com/locations/harrisburg-pa/",
    "category": "American-Indian-owned Memory care units in Pennsylvania",
    "description": "Dementia care center offering services like medication monitoring and emergency call response",
    "hours": "Mon-Fri 9AM-6PM",
    "services": [
      "American-Indian-owned Memory care units in Pennsylvania consultation",
      "Professional service",
      "Quality guarantee"
    ],
    "social_links": {}
  },
  {
    "name": "Ecumenical Retirement Community Of Harrisburg Iii",
    "address": "1017 N 15th St, Harrisburg, PA 17103",
    "phone": "(717) 234-1070",
    "rating": 4.2,
    "reviews": 25,
    "website": "https://www.ecumenicalretirement.org/",
    "category": "American-Indian-owned Memory care units in Pennsylvania",
    "description": "Memory care assisted living with services like dementia-trained staff and therapy options",
    "hours": "Mon-Fri 9AM-6PM",
    "services": [
      "American-Indian-owned Memory care units in Pennsylvania consultation",
      "Professional service",
      "Quality guarantee"
    ],
    "social_links": {}
  },
  {
    "name": "Homeland Center",
    "address": "1901 N 5th St, Harrisburg, PA 17102",
    "phone": "(717) 221-7800",
    "rating": 4.1,
    "reviews": 25,
    "website": "https://homelandcenter.org/",
    "category": "American-Indian-owned Memory care units in Pennsylvania",
    "description": "Provides Alzheimer's care with amenities like secure outdoor areas and dementia-trained nurses",
    "hours": "Mon-Fri 9AM-6PM",
    "services": [
      "American-Indian-owned Memory care units in Pennsylvania consultation",
      "Professional service",
      "Quality guarantee"
    ],
    "social_links": {}
  },
  {
    "name": "Paxton Street Home Benevolent Society",
    "address": "2001 Paxton St, Harrisburg, PA 17111",
    "phone": "(717) 564-0100",
    "rating": 3.9,
    "reviews": 25,
    "website": "https://www.paxtonstreet.org/",
    "category": "American-Indian-owned Memory care units in Pennsylvania",
    "description": "Offers Alzheimer's care with amenities like faith-based services and color-coordinated rooms",
    "hours": "Mon-Fri 9AM-6PM",
    "services": [
      "American-Indian-owned Memory care units in Pennsylvania consultation",
      "Professional service",
      "Quality guarantee"
    ],
    "social_links": {}
  },
  {
    "name": "Juniper Village at Forest Hills",
    "address": "107 Fall Run Road, Pittsburgh, PA 15221",
    "phone": "(412) 351-2200",
    "rating": 4.5,
    "reviews": 25,
    "website": "https://www.junipercommunities.com/communities/juniper-village-at-forest-hills/",
    "category": "American-Indian-owned Memory care units in Pennsylvania",
    "description": "Memory care community with various floor plans and services",
    "hours": "Mon-Fri 9AM-6PM",
    "services": [
      "American-Indian-owned Memory care units in Pennsylvania consultation",
      "Professional service",
      "Quality guarantee"
    ],
    "social_links": {}
  },
  {
    "name": "Discovery Commons Bethel Park",
    "address": "2000 Cool Springs Dr, Pittsburgh, PA 15234",
    "phone": "(412) 854-0100",
    "rating": 4.2,
    "reviews": 25,
    "website": "https://www.discoverycommonsbethelpark.com/",
    "category": "American-Indian-owned Memory care units in Pennsylvania",
    "description": "Memory care community offering a supportive environment for seniors",
    "hours": "Mon-Fri 9AM-6PM",
    "services": [
      "American-Indian-owned Memory care units in Pennsylvania consultation",
      "Professional service",
      "Quality guarantee"
    ],
    "social_links": {}
  },
  {
    "name": "South Mountain Memory Care",
    "address": "1000 E Macada Rd, Allentown, PA 18109",
    "phone": "(610) 435-1111",
    "rating": 4.6,
    "reviews": 25,
    "website": "https://www.southmountainmemorycare.com/",
    "category": "American-Indian-owned Memory care units in Pennsylvania",
    "description": "Specializes in individualized, compassionate memory care in a safe and comfortable environment",
    "hours": "Mon-Fri 9AM-6PM",
    "services": [
      "American-Indian-owned Memory care units in Pennsylvania consultation",
      "Professional service",
      "Quality guarantee"
    ],
    "social_links": {}
  }
]