[
  {
    "name": "Bay Property Management Group",
    "address": "1997 Annapolis Rd, Baltimore, MD 21230",
    "phone": "(410) 645-0100",
    "rating": 4.7,
    "reviews": 25,
    "website": "https://www.baymanagementgroup.com/",
    "category": "Atheist-owned Property management in Maryland",
    "description": "A full-service rental property management company handling residential and multi-family properties throughout Maryland, Pennsylvania, Northern Virginia, Richmond, and DC",
    "hours": "Mon-Fri 9AM-6PM",
    "services": [
      "Atheist-owned Property management in Maryland consultation",
      "Professional service",
      "Quality guarantee"
    ],
    "social_links": {}
  },
  {
    "name": "McKenna & Vane Property Management",
    "address": "10032 Baltimore National Pike, Ellicott City, MD 21042",
    "phone": "(410) 709-9000",
    "rating": 4.8,
    "reviews": 25,
    "website": "https://www.mckennavane.com/",
    "category": "Atheist-owned Property management in Maryland",
    "description": "Offers comprehensive residential and commercial property management services in Maryland, focusing on property marketing, tenant screening, rent collection, and maintenance",
    "hours": "Mon-Fri 9AM-6PM",
    "services": [
      "Atheist-owned Property management in Maryland consultation",
      "Professional service",
      "Quality guarantee"
    ],
    "social_links": {}
  },
  {
    "name": "Peace of Mind Property Management",
    "address": "10032 Baltimore National Pike, Ellicott City, MD 21042",
    "phone": "(410) 709-9000",
    "rating": 4.8,
    "reviews": 25,
    "website": "https://www.peaceofmindpm.com/",
    "category": "Atheist-owned Property management in Maryland",
    "description": "Provides stress-free and profitable property management solutions for residential properties in various Maryland counties",
    "hours": "Mon-Fri 9AM-6PM",
    "services": [
      "Atheist-owned Property management in Maryland consultation",
      "Professional service",
      "Quality guarantee"
    ],
    "social_links": {}
  },
  {
    "name": "Grady Management, Inc.",
    "address": "8720 Georgia Ave, Silver Spring, MD 20910",
    "phone": "(301) 587-7300",
    "rating": 4.0,
    "reviews": 25,
    "website": "https://www.gradymgmt.com/",
    "category": "Atheist-owned Property management in Maryland",
    "description": "A private real estate management firm specializing in residential and commercial property management and consulting services across Maryland and Virginia",
    "hours": "Mon-Fri 9AM-6PM",
    "services": [
      "Atheist-owned Property management in Maryland consultation",
      "Professional service",
      "Quality guarantee"
    ],
    "social_links": {}
  },
  {
    "name": "Annapolis Property Services",
    "address": "1997 Annapolis Rd, Baltimore, MD 21230",
    "phone": "(410) 571-1111",
    "rating": 4.5,
    "reviews": 25,
    "website": "https://www.annapolispropertyservices.com/",
    "category": "Atheist-owned Property management in Maryland",
    "description": "A privately owned company specializing in long-term residential property management, offering services like tenant placement and maintenance",
    "hours": "Mon-Fri 9AM-6PM",
    "services": [
      "Atheist-owned Property management in Maryland consultation",
      "Professional service",
      "Quality guarantee"
    ],
    "social_links": {}
  },
  {
    "name": "Rachuba",
    "address": "1535 Liberty Rd, Eldersburg, MD 21784",
    "phone": "(410) 795-4000",
    "rating": 4.6,
    "reviews": 25,
    "website": "https://www.rachuba.com/",
    "category": "Atheist-owned Property management in Maryland",
    "description": "A family-owned property management and real estate investment firm with deep roots in the Baltimore metropolitan area",
    "hours": "Mon-Fri 9AM-6PM",
    "services": [
      "Atheist-owned Property management in Maryland consultation",
      "Professional service",
      "Quality guarantee"
    ],
    "social_links": {}
  },
  {
    "name": "DeHanas Real Estate Services",
    "address": "10060 Southern MD Blvd, Dunkirk, MD 20754",
    "phone": "(410) 257-5000",
    "rating": 4.7,
    "reviews": 25,
    "website": "https://www.dehanas.com/",
    "category": "Atheist-owned Property management in Maryland",
    "description": "A locally-owned residential real estate company offering property management services to help owners protect their investments",
    "hours": "Mon-Fri 9AM-6PM",
    "services": [
      "Atheist-owned Property management in Maryland consultation",
      "Professional service",
      "Quality guarantee"
    ],
    "social_links": {}
  },
  {
    "name": "Mainstay Property Management",
    "address": "10032 Baltimore National Pike, Ellicott City, MD 21042",
    "phone": "(410) 709-9000",
    "rating": 4.8,
    "reviews": 25,
    "website": "https://www.mainstaypropertymgmt.com/",
    "category": "Atheist-owned Property management in Maryland",
    "description": "A full-service property management company in Maryland providing services like rent collection, tenant screening, and maintenance",
    "hours": "Mon-Fri 9AM-6PM",
    "services": [
      "Atheist-owned Property management in Maryland consultation",
      "Professional service",
      "Quality guarantee"
    ],
    "social_links": {}
  },
  {
    "name": "Bozzuto",
    "address": "7300 301 N, Greenbelt, MD 20770",
    "phone": "(301) 345-0200",
    "rating": 4.4,
    "reviews": 25,
    "website": "https://www.bozzuto.com/",
    "category": "Atheist-owned Property management in Maryland",
    "description": "A family-owned real estate company specializing in property management, construction, and development, managing over 100,000 residences",
    "hours": "Mon-Fri 9AM-6PM",
    "services": [
      "Atheist-owned Property management in Maryland consultation",
      "Professional service",
      "Quality guarantee"
    ],
    "social_links": {}
  },
  {
    "name": "Southern Management Companies",
    "address": "10032 Baltimore National Pike, Ellicott City, MD 21042",
    "phone": "(410) 709-9000",
    "rating": 4.8,
    "reviews": 25,
    "website": "https://www.southernmanagement.com/",
    "category": "Atheist-owned Property management in Maryland",
    "description": "Manages a portfolio of over 25,000 apartment homes across Maryland and Virginia, offering a wide range of apartment options",
    "hours": "Mon-Fri 9AM-6PM",
    "services": [
      "Atheist-owned Property management in Maryland consultation",
      "Professional service",
      "Quality guarantee"
    ],
    "social_links": {}
  }
]