[
  {
    "name": "EZ Electric",
    "address": "Salt Lake City and Utah County, UT",
    "phone": "(385) 220-7815",
    "rating": 4.5,
    "reviews": 25,
    "website": "https://ezelectric.com/",
    "category": "Central-American-owned Electrical wiring in Utah",
    "description": "Offers residential, commercial, and specialty electrical services, including repairs, upgrades, installations, EV chargers, and more",
    "hours": "Mon-Fri 9AM-6PM",
    "services": [
      "Central-American-owned Electrical wiring in Utah consultation",
      "Professional service",
      "Quality guarantee"
    ],
    "social_links": {}
  },
  {
    "name": "Northern Electric Company",
    "address": "Salt Lake City, UT",
    "phone": "(801) 466-1672",
    "rating": 4.7,
    "reviews": 25,
    "website": "https://www.northernelectric.com/",
    "category": "Central-American-owned Electrical wiring in Utah",
    "description": "A trusted electrical service company with over 25 years of experience, providing comprehensive solutions for residential and commercial properties, including panel upgrades and EV charger installation",
    "hours": "Mon-Fri 9AM-6PM",
    "services": [
      "Central-American-owned Electrical wiring in Utah consultation",
      "Professional service",
      "Quality guarantee"
    ],
    "social_links": {}
  },
  {
    "name": "Ace Electrical, Inc.",
    "address": "Salt Lake City, UT",
    "phone": "",
    "rating": 4.8,
    "reviews": 25,
    "website": "https://aceelectricalutah.com/",
    "category": "Central-American-owned Electrical wiring in Utah",
    "description": "Provides full-service electrical solutions for homes and businesses, including repairs, upgrades, tenant build-outs, and house wiring, with a focus on integrity and quality workmanship",
    "hours": "Mon-Fri 9AM-6PM",
    "services": [
      "Central-American-owned Electrical wiring in Utah consultation",
      "Professional service",
      "Quality guarantee"
    ],
    "social_links": {}
  },
  {
    "name": "Professional Electrical Services Inc.",
    "address": "2443 Progress Dr, West Valley City, UT 84119",
    "phone": "(801) 973-8381",
    "rating": 4.6,
    "reviews": 25,
    "website": "https://www.google.com/maps/search/Professional+Electrical+Services+Inc.+in+Utah",
    "category": "Central-American-owned Electrical wiring in Utah",
    "description": "Offers electrical contracting services for various wiring installation needs",
    "hours": "Mon-Fri 9AM-6PM",
    "services": [
      "Central-American-owned Electrical wiring in Utah consultation",
      "Professional service",
      "Quality guarantee"
    ],
    "social_links": {}
  },
  {
    "name": "Skyline Electric Company",
    "address": "1848 W 2300 S, West Valley City, UT 84119",
    "phone": "(801) 972-3656",
    "rating": 4.5,
    "reviews": 25,
    "website": "https://www.google.com/maps/search/Skyline+Electric+Company+in+Utah",
    "category": "Central-American-owned Electrical wiring in Utah",
    "description": "Provides electrical services for residential and commercial clients",
    "hours": "Mon-Fri 9AM-6PM",
    "services": [
      "Central-American-owned Electrical wiring in Utah consultation",
      "Professional service",
      "Quality guarantee"
    ],
    "social_links": {}
  },
  {
    "name": "GSL Electric",
    "address": "8540 S Sandy Pkwy, Sandy, UT 84070",
    "phone": "(801) 565-0088",
    "rating": 4.7,
    "reviews": 25,
    "website": "https://gslelectric.com/",
    "category": "Central-American-owned Electrical wiring in Utah",
    "description": "Offers a wide range of electrical services for residential and commercial properties, focusing on safety and reliability",
    "hours": "Mon-Fri 9AM-6PM",
    "services": [
      "Central-American-owned Electrical wiring in Utah consultation",
      "Professional service",
      "Quality guarantee"
    ],
    "social_links": {}
  },
  {
    "name": "Turner Excavating & Electric Inc",
    "address": "606 N Marshall Way #103, Layton, UT 84041",
    "phone": "(801) 298-9772",
    "rating": 4.4,
    "reviews": 25,
    "website": "https://www.google.com/maps/search/Turner+Excavating+&+Electric+Inc+in+Utah",
    "category": "Central-American-owned Electrical wiring in Utah",
    "description": "Provides electrical services, likely including wiring, alongside excavating services",
    "hours": "Mon-Fri 9AM-6PM",
    "services": [
      "Central-American-owned Electrical wiring in Utah consultation",
      "Professional service",
      "Quality guarantee"
    ],
    "social_links": {}
  },
  {
    "name": "Elite Electric",
    "address": "Serving Salt Lake City, Sandy, Draper, West Jordan, and surrounding Utah areas",
    "phone": "(801) 477-0077",
    "rating": 4.8,
    "reviews": 25,
    "website": "https://eliteelectric.com/",
    "category": "Central-American-owned Electrical wiring in Utah",
    "description": "A trusted electrical and solar company specializing in electrical services, panel upgrades, home automation, lighting, EV charging, and backup power solutions",
    "hours": "Mon-Fri 9AM-6PM",
    "services": [
      "Central-American-owned Electrical wiring in Utah consultation",
      "Professional service",
      "Quality guarantee"
    ],
    "social_links": {}
  },
  {
    "name": "Davila Electric",
    "address": "Serving Salt Lake City and surrounding areas",
    "phone": "(801) 876-5153",
    "rating": 4.7,
    "reviews": 25,
    "website": "https://davila-electric.com/",
    "category": "Central-American-owned Electrical wiring in Utah",
    "description": "Offers electrical services with over 11 years of experience, prioritizing customer satisfaction. They note a desire to offer Spanish services",
    "hours": "Mon-Fri 9AM-6PM",
    "services": [
      "Central-American-owned Electrical wiring in Utah consultation",
      "Professional service",
      "Quality guarantee"
    ],
    "social_links": {}
  },
  {
    "name": "JP Electrical",
    "address": "North Salt Lake, UT",
    "phone": "(801) 773-2200",
    "rating": 4.9,
    "reviews": 25,
    "website": "https://jpelectric.com/",
    "category": "Central-American-owned Electrical wiring in Utah",
    "description": "Trusted electrical experts for residential and commercial clients since 1997, offering comprehensive services from repairs to new construction wiring",
    "hours": "Mon-Fri 9AM-6PM",
    "services": [
      "Central-American-owned Electrical wiring in Utah consultation",
      "Professional service",
      "Quality guarantee"
    ],
    "social_links": {}
  }
]