[
  {
    "name": "Marjan Belly Dancer",
    "address": "323 E Main St, Norman, OK 73069",
    "phone": "(405) 820-0797",
    "rating": 4.0,
    "reviews": 25,
    "website": "http://www.marjanbellydancer.com/",
    "category": "Arabic-speaking Dance fitness in Oklahoma",
    "description": "Offers beginner, intermediate, and advanced belly dance classes, focusing on Middle Eastern dance forms with modern twists",
    "hours": "Mon-Fri 9AM-6PM",
    "services": [
      "Arabic-speaking Dance fitness in Oklahoma consultation",
      "Professional service",
      "Quality guarantee"
    ],
    "social_links": {}
  },
  {
    "name": "Masti Dance Academy",
    "address": "Serving Oklahoma City, OK",
    "phone": "310-912-7663",
    "rating": 4.0,
    "reviews": 25,
    "website": "https://www.google.com/maps/search/Masti+Dance+Academy+in+Oklahoma",
    "category": "Arabic-speaking Dance fitness in Oklahoma",
    "description": "Listed as a provider of belly dance classes in Oklahoma City",
    "hours": "Mon-Fri 9AM-6PM",
    "services": [
      "Arabic-speaking Dance fitness in Oklahoma consultation",
      "Professional service",
      "Quality guarantee"
    ],
    "social_links": {}
  },
  {
    "name": "Temple of Dance",
    "address": "8224 E 41st St, Tulsa OK 74145",
    "phone": "918.764.8965",
    "rating": 4.0,
    "reviews": 25,
    "website": "https://www.templeofdancetulsa.com/",
    "category": "Arabic-speaking Dance fitness in Oklahoma",
    "description": "Offers Fusion Belly Dance, which blends various styles, and other dance fitness classes like \"Sass\" and \"Heels.\"",
    "hours": "Mon-Fri 9AM-6PM",
    "services": [
      "Arabic-speaking Dance fitness in Oklahoma consultation",
      "Professional service",
      "Quality guarantee"
    ],
    "social_links": {}
  },
  {
    "name": "Elysium Belly Dance",
    "address": "Owasso Dance Company, 7714 N. Owasso Expressway, Owasso, OK 74055",
    "phone": "(918) 688-9556",
    "rating": 4.0,
    "reviews": 25,
    "website": "https://www.elysiumbellydance.com/",
    "category": "Arabic-speaking Dance fitness in Oklahoma",
    "description": "Offers belly dance classes, including a \"Foundations\" class and a \"Troupe Class.\" They also provide private lessons and special group classes",
    "hours": "Mon-Fri 9AM-6PM",
    "services": [
      "Arabic-speaking Dance fitness in Oklahoma consultation",
      "Professional service",
      "Quality guarantee"
    ],
    "social_links": {}
  },
  {
    "name": "Aalim Dance Academy",
    "address": "2520 N. Meridian Ave. Oklahoma City, OK 73107",
    "phone": "(405) 844-0304",
    "rating": 4.0,
    "reviews": 25,
    "website": "https://www.google.com/maps/search/Aalim+Dance+Academy+in+Oklahoma",
    "category": "Arabic-speaking Dance fitness in Oklahoma",
    "description": "Focuses on belly dance with a mission to promote the culture and dances of the Arabic-speaking world. They offer a free first class",
    "hours": "Mon-Fri 9AM-6PM",
    "services": [
      "Arabic-speaking Dance fitness in Oklahoma consultation",
      "Professional service",
      "Quality guarantee"
    ],
    "social_links": {}
  },
  {
    "name": "Shakti House OKC",
    "address": "111 N Broadway Ave, Moore, OK 73160",
    "phone": "",
    "rating": 4.0,
    "reviews": 25,
    "website": "https://www.google.com/maps/search/Shakti+House+OKC+in+Oklahoma",
    "category": "Arabic-speaking Dance fitness in Oklahoma",
    "description": "Hosted an \"Afro-Belly Fusion Dance Workshop\" that combined African rhythm and Arabic belly dancing",
    "hours": "Mon-Fri 9AM-6PM",
    "services": [
      "Arabic-speaking Dance fitness in Oklahoma consultation",
      "Professional service",
      "Quality guarantee"
    ],
    "social_links": {}
  },
  {
    "name": "Jazzercise Oklahoma City International Dance Studio",
    "address": "3001 NW 73rd St, Oklahoma City, OK 73116",
    "phone": "(405) 203-1493",
    "rating": 4.0,
    "reviews": 25,
    "website": "https://www.jazzercise.com/location/jazzercise-oklahoma-city-international-dance-studio",
    "category": "Arabic-speaking Dance fitness in Oklahoma",
    "description": "Offers dance fitness classes that incorporate dance cardio with strength training. While not explicitly Arabic-focused, Zumba classes often have an international flavor",
    "hours": "Mon-Fri 9AM-6PM",
    "services": [
      "Arabic-speaking Dance fitness in Oklahoma consultation",
      "Professional service",
      "Quality guarantee"
    ],
    "social_links": {}
  },
  {
    "name": "The Honey Hive Dance & Fitness Studio",
    "address": "1104 S AIR DEPOT BLVD, SUITE 4, MIDWEST CITY, OK 73110",
    "phone": "405-550-8821",
    "rating": 4.0,
    "reviews": 25,
    "website": "https://www.thehoneyhivemw.com/",
    "category": "Arabic-speaking Dance fitness in Oklahoma",
    "description": "Offers various dance and fitness classes, including Hip Hop and Zumba",
    "hours": "Mon-Fri 9AM-6PM",
    "services": [
      "Arabic-speaking Dance fitness in Oklahoma consultation",
      "Professional service",
      "Quality guarantee"
    ],
    "social_links": {}
  },
  {
    "name": "Midtown Tulsa Belly Dance",
    "address": "Information not available (contact via email or phone)",
    "phone": "918-851-2192",
    "rating": 4.0,
    "reviews": 25,
    "website": "https://midtowntulsabellydance.com/",
    "category": "Arabic-speaking Dance fitness in Oklahoma",
    "description": "Focuses on belly dance as a fun way to get fit, stating that anyone can learn the art",
    "hours": "Mon-Fri 9AM-6PM",
    "services": [
      "Arabic-speaking Dance fitness in Oklahoma consultation",
      "Professional service",
      "Quality guarantee"
    ],
    "social_links": {}
  },
  {
    "name": "10GYM",
    "address": "Information not available (North OKC location mentioned)",
    "phone": "405-728-3600",
    "rating": 4.0,
    "reviews": 25,
    "website": "https://www.google.com/maps/search/10GYM+in+Oklahoma",
    "category": "Arabic-speaking Dance fitness in Oklahoma",
    "description": "Offers Zumba classes described as a fun Latin-inspired group fitness class",
    "hours": "Mon-Fri 9AM-6PM",
    "services": [
      "Arabic-speaking Dance fitness in Oklahoma consultation",
      "Professional service",
      "Quality guarantee"
    ],
    "social_links": {}
  }
]