[
  {
    "name": "BuildPro Roofing",
    "address": "Boise, ID",
    "phone": "(208) 209-7000",
    "rating": 4.5,
    "reviews": 25,
    "website": "https://buildpro-roofing.com/",
    "category": "Buddhist-owned Tile roofing in Idaho",
    "description": "Specializes in tile roofing installation with a focus on quality materials and craftsmanship, offering a variety of modern ceramic tiles",
    "hours": "Mon-Fri 9AM-6PM",
    "services": [
      "Buddhist-owned Tile roofing in Idaho consultation",
      "Professional service",
      "Quality guarantee"
    ],
    "social_links": {}
  },
  {
    "name": "LaFever Roofing",
    "address": "Boise, ID",
    "phone": "(208) 888-5285",
    "rating": 4.7,
    "reviews": 25,
    "website": "https://lafeverroofing.com/",
    "category": "Buddhist-owned Tile roofing in Idaho",
    "description": "Offers tile roof installation, repair, and maintenance services, emphasizing durability and longevity with a variety of customization options",
    "hours": "Mon-Fri 9AM-6PM",
    "services": [
      "Buddhist-owned Tile roofing in Idaho consultation",
      "Professional service",
      "Quality guarantee"
    ],
    "social_links": {}
  },
  {
    "name": "Idaho Falls Roofing Pros",
    "address": "Idaho Falls, ID",
    "phone": "(208) 692-7088",
    "rating": 4.6,
    "reviews": 25,
    "website": "https://idahofallsroofingpros.com/",
    "category": "Buddhist-owned Tile roofing in Idaho",
    "description": "Provides top-notch tile roofing services, including new installations, repairs, and maintenance, understanding the unique challenges of the local climate",
    "hours": "Mon-Fri 9AM-6PM",
    "services": [
      "Buddhist-owned Tile roofing in Idaho consultation",
      "Professional service",
      "Quality guarantee"
    ],
    "social_links": {}
  },
  {
    "name": "Quality Tile Roofing Inc.",
    "address": "2711 S Curtis Road, Boise, ID 83705",
    "phone": "(208) 362-2711",
    "rating": 4.3,
    "reviews": 25,
    "website": "https://www.qualitytileroofinginc.com/",
    "category": "Buddhist-owned Tile roofing in Idaho",
    "description": "A roofing contractor offering a range of roofing products and solutions, including tile roofing",
    "hours": "Mon-Fri 9AM-6PM",
    "services": [
      "Buddhist-owned Tile roofing in Idaho consultation",
      "Professional service",
      "Quality guarantee"
    ],
    "social_links": {}
  },
  {
    "name": "Aztec Construction",
    "address": "Nampa, ID",
    "phone": "",
    "rating": 4.8,
    "reviews": 25,
    "website": "https://aztecconstruction.com/",
    "category": "Buddhist-owned Tile roofing in Idaho",
    "description": "Offers reliable residential clay tile roofing services, specializing in installation and repairs that provide beauty and long-lasting protection",
    "hours": "Mon-Fri 9AM-6PM",
    "services": [
      "Buddhist-owned Tile roofing in Idaho consultation",
      "Professional service",
      "Quality guarantee"
    ],
    "social_links": {}
  },
  {
    "name": "Intermountain Roofing Company",
    "address": "Boise, Meridian, Nampa, Caldwell, Eagle, Kuna, ID (Service Area)",
    "phone": "(208) 713-5871",
    "rating": 4.4,
    "reviews": 25,
    "website": "https://www.intermountainroofing.com/",
    "category": "Buddhist-owned Tile roofing in Idaho",
    "description": "Provides tile roof installation and repair services across the Treasure Valley, focusing on keeping homes sturdy and protected",
    "hours": "Mon-Fri 9AM-6PM",
    "services": [
      "Buddhist-owned Tile roofing in Idaho consultation",
      "Professional service",
      "Quality guarantee"
    ],
    "social_links": {}
  },
  {
    "name": "EZ Exteriors",
    "address": "1335 Enterprise St, Idaho Falls, ID 83402",
    "phone": "(208) 521-1088",
    "rating": 4.2,
    "reviews": 25,
    "website": "https://www.ezexteriors.com/",
    "category": "Buddhist-owned Tile roofing in Idaho",
    "description": "A preferred installer of Brava Roof Tile composites, offering synthetic shake, slate, and Spanish tile options",
    "hours": "Mon-Fri 9AM-6PM",
    "services": [
      "Buddhist-owned Tile roofing in Idaho consultation",
      "Professional service",
      "Quality guarantee"
    ],
    "social_links": {}
  },
  {
    "name": "Precision Gutters & Roofing CDA",
    "address": "11863 N Tracey Rd, Dalton Gardens, ID 83815",
    "phone": "(208) 755-2320",
    "rating": 4.5,
    "reviews": 25,
    "website": "https://www.precisionroofingcda.com/",
    "category": "Buddhist-owned Tile roofing in Idaho",
    "description": "A preferred installer of Brava Roof Tile composites, offering a range of roofing solutions",
    "hours": "Mon-Fri 9AM-6PM",
    "services": [
      "Buddhist-owned Tile roofing in Idaho consultation",
      "Professional service",
      "Quality guarantee"
    ],
    "social_links": {}
  },
  {
    "name": "Valley Roofing",
    "address": "1510 E. Watertower Street, Suite 120, Meridian, ID 83642",
    "phone": "(208) 830-4890",
    "rating": 4.3,
    "reviews": 25,
    "website": "https://www.valleyroofing.com/",
    "category": "Buddhist-owned Tile roofing in Idaho",
    "description": "A preferred installer of Brava Roof Tile composites, providing comprehensive roofing services",
    "hours": "Mon-Fri 9AM-6PM",
    "services": [
      "Buddhist-owned Tile roofing in Idaho consultation",
      "Professional service",
      "Quality guarantee"
    ],
    "social_links": {}
  },
  {
    "name": "Western Construction & Roofing, North Idaho",
    "address": "955 Innovation Way Suite A, Post Falls, ID 83854",
    "phone": "(208) 398-6178",
    "rating": 4.4,
    "reviews": 25,
    "website": "https://www.westernconstructionidaho.com/",
    "category": "Buddhist-owned Tile roofing in Idaho",
    "description": "A preferred installer of Brava Roof Tile composites, offering a wide range of construction and roofing services",
    "hours": "Mon-Fri 9AM-6PM",
    "services": [
      "Buddhist-owned Tile roofing in Idaho consultation",
      "Professional service",
      "Quality guarantee"
    ],
    "social_links": {}
  }
]