[
  {
    "name": "Resurrection University Parish Kitchen",
    "address": "1725 S 11th Ave, Bozeman, MT 59715",
    "phone": "406-586-924",
    "rating": 4.0,
    "reviews": 25,
    "website": "http://www.rup.org/kitchen-rental-agreement/",
    "category": "Catholic-owned Commercial kitchen rentals in Montana",
    "description": "This parish kitchen is available for rent and has specific guidelines and fees. It is noted that activities in conflict with the teachings of the Catholic Church are not permitted",
    "hours": "Mon-Fri 9AM-6PM",
    "services": [
      "Catholic-owned Commercial kitchen rentals in Montana consultation",
      "Professional service",
      "Quality guarantee"
    ],
    "social_links": {}
  },
  {
    "name": "St. Anthony Parish, Missoula - Parish Life Center Kitchen",
    "address": "Missoula, MT (Specific street address not provided in search results, but contact information is available)",
    "phone": "406-543-3129",
    "rating": 4.0,
    "reviews": 25,
    "website": "https://www.stanthonyparish.org/parishlife-center",
    "category": "Catholic-owned Commercial kitchen rentals in Montana",
    "description": "This kitchen is FDA approved and equipped with various appliances, including a convection oven, gas oven, range, grill, and microwave. It can accommodate up to 15 kitchen workers",
    "hours": "Mon-Fri 9AM-6PM",
    "services": [
      "Catholic-owned Commercial kitchen rentals in Montana consultation",
      "Professional service",
      "Quality guarantee"
    ],
    "social_links": {}
  },
  {
    "name": "St. Richard's Catholic Church (Community Kitchen)",
    "address": "1210 9th St W, Columbia Falls, MT 59912",
    "phone": "406-892-5142",
    "rating": 4.0,
    "reviews": 25,
    "website": "https://abundantmt.org/st-richards-catholic-church-community-kitchen/",
    "category": "Catholic-owned Commercial kitchen rentals in Montana",
    "description": "This is a community kitchen located at St. Richard's Catholic Church",
    "hours": "Mon-Fri 9AM-6PM",
    "services": [
      "Catholic-owned Commercial kitchen rentals in Montana consultation",
      "Professional service",
      "Quality guarantee"
    ],
    "social_links": {}
  },
  {
    "name": "The Commercial Kitchen at Veterans Camp Ponderosa",
    "address": "(Location not specified, but contact number provided)",
    "phone": "406-754-2552",
    "rating": 4.0,
    "reviews": 25,
    "website": "https://www.veteranscampponderosa.org/group-use",
    "category": "Catholic-owned Commercial kitchen rentals in Montana",
    "description": "This kitchen is available for group use and is equipped with a grill, ovens, and a steam table",
    "hours": "Mon-Fri 9AM-6PM",
    "services": [
      "Catholic-owned Commercial kitchen rentals in Montana consultation",
      "Professional service",
      "Quality guarantee"
    ],
    "social_links": {}
  },
  {
    "name": "Moonlight Kitchens, LLC",
    "address": "Missoula, MT (Specific street address not provided in search results, but contact information is available)",
    "phone": "406-926-2720",
    "rating": 4.0,
    "reviews": 25,
    "website": "mailto:cook@moonlightkitchens.com",
    "category": "Catholic-owned Commercial kitchen rentals in Montana",
    "description": "Offers two full commercial kitchens, a work room, storage, and a cleaning area",
    "hours": "Mon-Fri 9AM-6PM",
    "services": [
      "Catholic-owned Commercial kitchen rentals in Montana consultation",
      "Professional service",
      "Quality guarantee"
    ],
    "social_links": {}
  },
  {
    "name": "Plant Perks Commissary Kitchen",
    "address": "1500 Burns St Ste A, Missoula, MT 59802",
    "phone": "406-830-3077",
    "rating": 4.0,
    "reviews": 25,
    "website": "https://www.google.com/maps/search/Plant+Perks+Commissary+Kitchen+in+Montana",
    "category": "Catholic-owned Commercial kitchen rentals in Montana",
    "description": "A full-service commissary kitchen space that supports food entrepreneurs with equipment, consulting, and community support",
    "hours": "Mon-Fri 9AM-6PM",
    "services": [
      "Catholic-owned Commercial kitchen rentals in Montana consultation",
      "Professional service",
      "Quality guarantee"
    ],
    "social_links": {}
  },
  {
    "name": "Hi-Line Kitchen Processing and Garden Center",
    "address": "47466 US Highway 2, Malta, MT 59538",
    "phone": "406-654-4428",
    "rating": 4.0,
    "reviews": 25,
    "website": "https://www.google.com/maps/search/Hi-Line+Kitchen+Processing+and+Garden+Center+in+Montana",
    "category": "Catholic-owned Commercial kitchen rentals in Montana",
    "description": "A certified commercial kitchen for cooks to prepare their wares",
    "hours": "Mon-Fri 9AM-6PM",
    "services": [
      "Catholic-owned Commercial kitchen rentals in Montana consultation",
      "Professional service",
      "Quality guarantee"
    ],
    "social_links": {}
  },
  {
    "name": "Mission Mountain Food Enterprise Center",
    "address": "407 Main St SW, Ronan, MT 59864",
    "phone": "406-676-5901",
    "rating": 4.0,
    "reviews": 25,
    "website": "https://www.google.com/maps/search/Mission+Mountain+Food+Enterprise+Center+in+Montana",
    "category": "Catholic-owned Commercial kitchen rentals in Montana",
    "description": "Provides resources and facilities for food entrepreneurs",
    "hours": "Mon-Fri 9AM-6PM",
    "services": [
      "Catholic-owned Commercial kitchen rentals in Montana consultation",
      "Professional service",
      "Quality guarantee"
    ],
    "social_links": {}
  },
  {
    "name": "Ghostland Kitchen",
    "address": "Kalispell, MT (Specific street address not provided in search results, but contact information is available)",
    "phone": "",
    "rating": 4.0,
    "reviews": 25,
    "website": "https://ghostlandkitchen.com/",
    "category": "Catholic-owned Commercial kitchen rentals in Montana",
    "description": "Offers shared commercial kitchen, ghost kitchen, and food truck support space",
    "hours": "Mon-Fri 9AM-6PM",
    "services": [
      "Catholic-owned Commercial kitchen rentals in Montana consultation",
      "Professional service",
      "Quality guarantee"
    ],
    "social_links": {}
  },
  {
    "name": "The Heisey",
    "address": "313 7th Street North, Great Falls, MT 59401",
    "phone": "406-453-1211",
    "rating": 4.0,
    "reviews": 25,
    "website": "https://www.heiseycommunitycenter.org/rent-the-heisey",
    "category": "Catholic-owned Commercial kitchen rentals in Montana",
    "description": "This facility includes a commercial kitchen and is suitable for various programs",
    "hours": "Mon-Fri 9AM-6PM",
    "services": [
      "Catholic-owned Commercial kitchen rentals in Montana consultation",
      "Professional service",
      "Quality guarantee"
    ],
    "social_links": {}
  }
]