[
  {
    "name": "SuperTech HVAC Services",
    "address": "9590 Deereco Rd, Timonium, MD 21093",
    "phone": "(443) 383-6898",
    "rating": 4.9,
    "reviews": 25,
    "website": "https://www.google.com/maps/search/SuperTech+HVAC+Services+in+Maryland",
    "category": "Arabic-speaking Furnaces in Maryland",
    "description": "Offers comprehensive HVAC services including furnace maintenance, repairs, and installations for various systems. They have an A+ rating from the Better Business Bureau",
    "hours": "Mon-Fri 9AM-6PM",
    "services": [
      "Arabic-speaking Furnaces in Maryland consultation",
      "Professional service",
      "Quality guarantee"
    ],
    "social_links": {}
  },
  {
    "name": "A Supreme Heating & Air Conditioning",
    "address": "152 Blades Ln, Glen Burnie, MD 21060",
    "phone": "(410) 588-0163",
    "rating": 4.0,
    "reviews": 25,
    "website": "https://www.google.com/maps/search/A+Supreme+Heating+&+Air+Conditioning+in+Maryland",
    "category": "Arabic-speaking Furnaces in Maryland",
    "description": "Provides heating and air conditioning services",
    "hours": "Mon-Fri 9AM-6PM",
    "services": [
      "Arabic-speaking Furnaces in Maryland consultation",
      "Professional service",
      "Quality guarantee"
    ],
    "social_links": {}
  },
  {
    "name": "F.H. Furr Plumbing, Heating, Air Conditioning & Electrical",
    "address": "Multiple locations, including 9675 Liberia Ave, Manassas, VA 20110 (serving MD)",
    "phone": "(703) 659-1446",
    "rating": 4.0,
    "reviews": 25,
    "website": "https://www.google.com/maps/search/F.H.+Furr+Plumbing,+Heating,+Air+Conditioning+&+Electrical+in+Maryland",
    "category": "Arabic-speaking Furnaces in Maryland",
    "description": "A premier provider of plumbing, HVAC, and electrical services in the DC, Maryland, and Northern Virginia area",
    "hours": "Mon-Fri 9AM-6PM",
    "services": [
      "Arabic-speaking Furnaces in Maryland consultation",
      "Professional service",
      "Quality guarantee"
    ],
    "social_links": {}
  },
  {
    "name": "Beltway Air Conditioning & Heating",
    "address": "7433 Coca Cola Dr, Hanover, MD 21076",
    "phone": "(410) 799-0000",
    "rating": 4.0,
    "reviews": 25,
    "website": "https://www.google.com/maps/search/Beltway+Air+Conditioning+&+Heating+in+Maryland",
    "category": "Arabic-speaking Furnaces in Maryland",
    "description": "Locally owned and operated, specializing in the installation and servicing of heating, cooling, and ventilation equipment",
    "hours": "Mon-Fri 9AM-6PM",
    "services": [
      "Arabic-speaking Furnaces in Maryland consultation",
      "Professional service",
      "Quality guarantee"
    ],
    "social_links": {}
  },
  {
    "name": "Hughes Mechanical",
    "address": "1587 Sulphur Spring Rd, Halethorpe, MD 21227",
    "phone": "(410) 247-5000",
    "rating": 5.0,
    "reviews": 25,
    "website": "https://www.google.com/maps/search/Hughes+Mechanical+in+Maryland",
    "category": "Arabic-speaking Furnaces in Maryland",
    "description": "Offers competitive rates and honest assessments for HVAC system replacements and services",
    "hours": "Mon-Fri 9AM-6PM",
    "services": [
      "Arabic-speaking Furnaces in Maryland consultation",
      "Professional service",
      "Quality guarantee"
    ],
    "social_links": {}
  },
  {
    "name": "Amazing Heating & Air Conditioning",
    "address": "Multiple locations in Maryland",
    "phone": "(800) 722-2270",
    "rating": 4.6,
    "reviews": 25,
    "website": "https://www.google.com/maps/search/Amazing+Heating+&+Air+Conditioning+in+Maryland",
    "category": "Arabic-speaking Furnaces in Maryland",
    "description": "Founded on the principle of providing the highest quality customer service, serving eight locations in Maryland",
    "hours": "Mon-Fri 9AM-6PM",
    "services": [
      "Arabic-speaking Furnaces in Maryland consultation",
      "Professional service",
      "Quality guarantee"
    ],
    "social_links": {}
  },
  {
    "name": "James A. Wheat & Sons, Inc.",
    "address": "Multiple locations, including 13031 Wenschap Rd, Gaithersburg, MD 20878",
    "phone": "(301) 830-0700",
    "rating": 4.0,
    "reviews": 25,
    "website": "https://www.google.com/maps/search/James+A.+Wheat+&+Sons,+Inc.+in+Maryland",
    "category": "Arabic-speaking Furnaces in Maryland",
    "description": "A trusted HVAC and plumbing company with over 40 years of experience, committed to providing excellent service",
    "hours": "Mon-Fri 9AM-6PM",
    "services": [
      "Arabic-speaking Furnaces in Maryland consultation",
      "Professional service",
      "Quality guarantee"
    ],
    "social_links": {}
  },
  {
    "name": "Minnick's",
    "address": "900 W. Laurel Ave, Laurel, MD 20707",
    "phone": "(301) 470-9090",
    "rating": 4.7,
    "reviews": 25,
    "website": "https://www.google.com/maps/search/Minnick's+in+Maryland",
    "category": "Arabic-speaking Furnaces in Maryland",
    "description": "A local, family-owned company with almost 70 years in business, providing HVAC services with certified technicians",
    "hours": "Mon-Fri 9AM-6PM",
    "services": [
      "Arabic-speaking Furnaces in Maryland consultation",
      "Professional service",
      "Quality guarantee"
    ],
    "social_links": {}
  },
  {
    "name": "Albright's Mechanical Services",
    "address": "1402 Broening Hwy, Essex, MD 21221",
    "phone": "(410) 834-0148",
    "rating": 4.0,
    "reviews": 25,
    "website": "https://www.google.com/maps/search/Albright's+Mechanical+Services+in+Maryland",
    "category": "Arabic-speaking Furnaces in Maryland",
    "description": "Provides high-quality plumbing, heating, air conditioning, and indoor air quality services in the Baltimore area",
    "hours": "Mon-Fri 9AM-6PM",
    "services": [
      "Arabic-speaking Furnaces in Maryland consultation",
      "Professional service",
      "Quality guarantee"
    ],
    "social_links": {}
  },
  {
    "name": "Tarim Cooling & Heating LLC",
    "address": "Annapolis, MD (Specific address not provided in search results)",
    "phone": "(202) 631-2114",
    "rating": 4.0,
    "reviews": 25,
    "website": "https://www.google.com/maps/search/Tarim+Cooling+&+Heating+LLC+in+Maryland",
    "category": "Arabic-speaking Furnaces in Maryland",
    "description": "Offers expert oil furnace repair and service contracts, as well as comprehensive HVAC services",
    "hours": "Mon-Fri 9AM-6PM",
    "services": [
      "Arabic-speaking Furnaces in Maryland consultation",
      "Professional service",
      "Quality guarantee"
    ],
    "social_links": {}
  }
]