[
  {
    "name": "Aesthetic Dermatology Associates",
    "address": "Media & Paoli, PA (Specific addresses can be found on their website)",
    "phone": "(610) 565-0600",
    "rating": 4.0,
    "reviews": 25,
    "website": "https://www.aestheticdermatologyassociates.com/",
    "category": "Catholic-owned Skin care facilities in Pennsylvania",
    "description": "Offers comprehensive medical, cosmetic, and surgical skin care, including treatments for acne, eczema, and skin cancer",
    "hours": "Mon-Fri 9AM-6PM",
    "services": [
      "Catholic-owned Skin care facilities in Pennsylvania consultation",
      "Professional service",
      "Quality guarantee"
    ],
    "social_links": {}
  },
  {
    "name": "Dermatology Partners",
    "address": "Multiple locations across PA, DE, and MD. (e.g., Kutztown, PA)",
    "phone": "(888) 895-3376",
    "rating": 4.0,
    "reviews": 25,
    "website": "https://www.dermatologypartners.com/",
    "category": "Catholic-owned Skin care facilities in Pennsylvania",
    "description": "Treats a full spectrum of skin, hair, and nail diseases, specializing in skin cancer detection and treatment with Mohs surgery",
    "hours": "Mon-Fri 9AM-6PM",
    "services": [
      "Catholic-owned Skin care facilities in Pennsylvania consultation",
      "Professional service",
      "Quality guarantee"
    ],
    "social_links": {}
  },
  {
    "name": "Philadelphia Center for Dermatology",
    "address": "Jenkintown, PA (Specific address available on their website)",
    "phone": "(215) 885-2500",
    "rating": 4.0,
    "reviews": 25,
    "website": "https://www.philadelphiacenterfordermatology.com/",
    "category": "Catholic-owned Skin care facilities in Pennsylvania",
    "description": "Provides leading dermatological services with a focus on medical, surgical, and cosmetic treatments",
    "hours": "Mon-Fri 9AM-6PM",
    "services": [
      "Catholic-owned Skin care facilities in Pennsylvania consultation",
      "Professional service",
      "Quality guarantee"
    ],
    "social_links": {}
  },
  {
    "name": "Skin and Laser Surgery Center of PA",
    "address": "Philadelphia, PA (Specific address available on their website)",
    "phone": "(215) 885-2500 (This appears to be the same number as Philadelphia Center for Dermatology, suggesting a potential affiliation or shared administrative line)",
    "rating": 4.0,
    "reviews": 25,
    "website": "https://www.skinandlasersurgerycenter.com/",
    "category": "Catholic-owned Skin care facilities in Pennsylvania",
    "description": "Specializes in treating skin cancers and offers various cosmetic procedures, including laser treatments and injectables",
    "hours": "Mon-Fri 9AM-6PM",
    "services": [
      "Catholic-owned Skin care facilities in Pennsylvania consultation",
      "Professional service",
      "Quality guarantee"
    ],
    "social_links": {}
  },
  {
    "name": "UPMC Cosmetic Surgery and Skin Health Center",
    "address": "Wexford, PA and Shadyside, Pittsburgh, PA (Specific addresses available on their website)",
    "phone": "Wexford: (724) 940-7546; Shadyside: (412) 621-3000",
    "rating": 4.0,
    "reviews": 25,
    "website": "https://www.upmc.com/locations/departments/cosmetic-surgery-skin-health",
    "category": "Catholic-owned Skin care facilities in Pennsylvania",
    "description": "Merges medical center resources with spa comforts, offering comprehensive care for all ages with a team of medical and aesthetic professionals",
    "hours": "Mon-Fri 9AM-6PM",
    "services": [
      "Catholic-owned Skin care facilities in Pennsylvania consultation",
      "Professional service",
      "Quality guarantee"
    ],
    "social_links": {}
  },
  {
    "name": "Grace & Purity Medi Spa",
    "address": "5048 Route 982, Latrobe, PA 15650",
    "phone": "(724) 858-0562",
    "rating": 4.0,
    "reviews": 25,
    "website": "https://www.graceandpuritymedispa.com/",
    "category": "Catholic-owned Skin care facilities in Pennsylvania",
    "description": "Offers permanent makeup, skin care, and laser services, aiming to enhance natural beauty and boost client confidence",
    "hours": "Mon-Fri 9AM-6PM",
    "services": [
      "Catholic-owned Skin care facilities in Pennsylvania consultation",
      "Professional service",
      "Quality guarantee"
    ],
    "social_links": {}
  },
  {
    "name": "The Med Spa - St. Luke's",
    "address": "3151 Walbert Avenue, Suite 300, Allentown, PA 18104",
    "phone": "(484) 658-7777",
    "rating": 4.0,
    "reviews": 25,
    "website": "https://www.slhn.org/locations/st-lukes-medical-offices-walbert-avenue/the-med-spa",
    "category": "Catholic-owned Skin care facilities in Pennsylvania",
    "description": "Provides medical spa services focused on enhancing natural beauty with personalized care and innovative aesthetic treatments",
    "hours": "Mon-Fri 9AM-6PM",
    "services": [
      "Catholic-owned Skin care facilities in Pennsylvania consultation",
      "Professional service",
      "Quality guarantee"
    ],
    "social_links": {}
  },
  {
    "name": "Resolutions Med Spa",
    "address": "Monroeville, PA (Specific address available on their website)",
    "phone": "(412) 373-0100",
    "rating": 4.0,
    "reviews": 25,
    "website": "https://resolutionsmedspa.com/",
    "category": "Catholic-owned Skin care facilities in Pennsylvania",
    "description": "Offers a range of services including dermal fillers, laser hair removal, facial services, and massage therapy, focusing on wellness and beauty",
    "hours": "Mon-Fri 9AM-6PM",
    "services": [
      "Catholic-owned Skin care facilities in Pennsylvania consultation",
      "Professional service",
      "Quality guarantee"
    ],
    "social_links": {}
  },
  {
    "name": "Simply Skin Medical Spa",
    "address": "Clarion, PA (Specific address available on their website)",
    "phone": "(814) 227-2727",
    "rating": 4.0,
    "reviews": 25,
    "website": "https://www.simplyskinmedicalspa.com/",
    "category": "Catholic-owned Skin care facilities in Pennsylvania",
    "description": "Offers advanced skincare treatments, personalized attention, and transformative services to enhance well-being and natural beauty",
    "hours": "Mon-Fri 9AM-6PM",
    "services": [
      "Catholic-owned Skin care facilities in Pennsylvania consultation",
      "Professional service",
      "Quality guarantee"
    ],
    "social_links": {}
  },
  {
    "name": "Catholic Charities (Various Locations)",
    "address": "Multiple locations across Pennsylvania (e.g., Pittsburgh, Allentown, Reading)",
    "phone": "Pittsburgh: (412) 456-6999; Allentown: (610) 435-1541",
    "rating": 4.0,
    "reviews": 25,
    "website": "https://www.ccpgh.org/",
    "category": "Catholic-owned Skin care facilities in Pennsylvania",
    "description": "While not a skin care facility, Catholic Charities offers various health and wellness programs, including free health care centers, which may provide some basic dermatological services or referrals for underserved populations",
    "hours": "Mon-Fri 9AM-6PM",
    "services": [
      "Catholic-owned Skin care facilities in Pennsylvania consultation",
      "Professional service",
      "Quality guarantee"
    ],
    "social_links": {}
  }
]