[
  {
    "name": "Secure Data Recovery Services",
    "address": "7920 Brooklyn Boulevard, Minneapolis, MN 55443",
    "phone": "(612) 435-0660",
    "rating": 4.8,
    "reviews": 25,
    "website": "https://www.securedatarecovery.com/",
    "category": "Arabic-speaking Data recovery solutions in Minnesota",
    "description": "Specializes in hard drive, SSD, and RAID recovery with a 96% success rate. They offer free consultations and a \"No Data, No Recovery Fee\" guarantee",
    "hours": "Mon-Fri 9AM-6PM",
    "services": [
      "Arabic-speaking Data recovery solutions in Minnesota consultation",
      "Professional service",
      "Quality guarantee"
    ],
    "social_links": {}
  },
  {
    "name": "eProvided Data Recovery",
    "address": "While eProvided operates nationally, they have a strong presence and service area in Minneapolis. Their primary contact is online or via phone",
    "phone": "1-866-857-5950",
    "rating": 4.9,
    "reviews": 25,
    "website": "https://www.eprovided.com/",
    "category": "Arabic-speaking Data recovery solutions in Minnesota",
    "description": "Offers data recovery for a wide range of devices, including severely damaged ones, with a 98% success rate and affordable pricing",
    "hours": "Mon-Fri 9AM-6PM",
    "services": [
      "Arabic-speaking Data recovery solutions in Minnesota consultation",
      "Professional service",
      "Quality guarantee"
    ],
    "social_links": {}
  },
  {
    "name": "Micro Center",
    "address": "1680 West End Ave, St. Louis Park, MN 55416",
    "phone": "(952) 841-2400",
    "rating": 4.5,
    "reviews": 25,
    "website": "https://www.microcenter.com/site/stores/st-louis-park.aspx",
    "category": "Arabic-speaking Data recovery solutions in Minnesota",
    "description": "Provides expert data recovery and backup services for individuals and businesses, with a \"No Data, No Charge\" guarantee",
    "hours": "Mon-Fri 9AM-6PM",
    "services": [
      "Arabic-speaking Data recovery solutions in Minnesota consultation",
      "Professional service",
      "Quality guarantee"
    ],
    "social_links": {}
  },
  {
    "name": "ACE Data Recovery",
    "address": "While ACE Data Recovery operates nationally with advanced facilities, they serve clients in Minnesota. Their primary contact is via phone or their website",
    "phone": "877-304-7189",
    "rating": 4.8,
    "reviews": 25,
    "website": "https://www.acedatarecovery.com/",
    "category": "Arabic-speaking Data recovery solutions in Minnesota",
    "description": "Offers a wide range of data recovery services with over 35 years of experience, specializing in complex cases and proprietary lab operations",
    "hours": "Mon-Fri 9AM-6PM",
    "services": [
      "Arabic-speaking Data recovery solutions in Minnesota consultation",
      "Professional service",
      "Quality guarantee"
    ],
    "social_links": {}
  },
  {
    "name": "Fusion Data Recovery",
    "address": "Multiple locations, including a presence in St. Paul, MN. Specific office addresses can be found on their website",
    "phone": "(651) 760-8713 (for Minnesota clients)",
    "rating": 4.7,
    "reviews": 25,
    "website": "https://www.fusiondatarecovery.com/minnesota/",
    "category": "Arabic-speaking Data recovery solutions in Minnesota",
    "description": "Provides 24-hour emergency data recovery services for businesses and individuals, with a \"No Data, No Charge\" guarantee",
    "hours": "Mon-Fri 9AM-6PM",
    "services": [
      "Arabic-speaking Data recovery solutions in Minnesota consultation",
      "Professional service",
      "Quality guarantee"
    ],
    "social_links": {}
  },
  {
    "name": "SalvageData",
    "address": "1300 Nicollet Mall, Minneapolis, MN 55403 (Service office)",
    "phone": "1-800-972-3282",
    "rating": 4.7,
    "reviews": 25,
    "website": "https://www.salvagedata.com/locations/minneapolis-mn/",
    "category": "Arabic-speaking Data recovery solutions in Minnesota",
    "description": "Offers world-class data recovery services with ISO-5 certified cleanrooms and expertise in various devices and complex data loss scenarios",
    "hours": "Mon-Fri 9AM-6PM",
    "services": [
      "Arabic-speaking Data recovery solutions in Minnesota consultation",
      "Professional service",
      "Quality guarantee"
    ],
    "social_links": {}
  },
  {
    "name": "Ontrack Data Recovery",
    "address": "9023 Columbine Road, Minneapolis, MN 55447",
    "phone": "855-558-3856",
    "rating": 4.6,
    "reviews": 25,
    "website": "https://www.ontrack.com/us/data-recovery/minneapolis",
    "category": "Arabic-speaking Data recovery solutions in Minnesota",
    "description": "A global leader with over 30 years of experience, offering efficient and reliable data recovery for all types of media and devices with free evaluations",
    "hours": "Mon-Fri 9AM-6PM",
    "services": [
      "Arabic-speaking Data recovery solutions in Minnesota consultation",
      "Professional service",
      "Quality guarantee"
    ],
    "social_links": {}
  },
  {
    "name": "DataRecoup Recovery Services",
    "address": "Serves clients throughout Minnesota, with primary contact via phone",
    "phone": "(651) 760-8713",
    "rating": 4.8,
    "reviews": 25,
    "website": "https://www.datarecoup.com/",
    "category": "Arabic-speaking Data recovery solutions in Minnesota",
    "description": "Certified local recovery experts in Minnesota for hard drive, RAID, and server data retrieval, offering 24/7 emergency services",
    "hours": "Mon-Fri 9AM-6PM",
    "services": [
      "Arabic-speaking Data recovery solutions in Minnesota consultation",
      "Professional service",
      "Quality guarantee"
    ],
    "social_links": {}
  },
  {
    "name": "Technical Reinforcements",
    "address": "Minneapolis, MN (Specific address not publicly listed, primary contact via phone)",
    "phone": "(612) 720-0233",
    "rating": 4.5,
    "reviews": 25,
    "website": "https://www.technicalreinforcements.com/data-recovery",
    "category": "Arabic-speaking Data recovery solutions in Minnesota",
    "description": "Offers a range of data recovery options, including non-destructive software tools, and provides advice on backup solutions",
    "hours": "Mon-Fri 9AM-6PM",
    "services": [
      "Arabic-speaking Data recovery solutions in Minnesota consultation",
      "Professional service",
      "Quality guarantee"
    ],
    "social_links": {}
  },
  {
    "name": "Cellectronix",
    "address": "Multiple locations, including Anoka and Rogers, MN",
    "phone": "(763) 421-0000 (Anoka location)",
    "rating": 4.6,
    "reviews": 25,
    "website": "https://cellectronix.com/",
    "category": "Arabic-speaking Data recovery solutions in Minnesota",
    "description": "Provides phone, tablet, PC repair, and data recovery services. They are a local Minnesota-owned company",
    "hours": "Mon-Fri 9AM-6PM",
    "services": [
      "Arabic-speaking Data recovery solutions in Minnesota consultation",
      "Professional service",
      "Quality guarantee"
    ],
    "social_links": {}
  }
]