[
  {
    "name": "The Stephens Group, LLC",
    "address": "111 Center St, Little Rock, AR 72201, USA",
    "phone": "(501) 377-2000",
    "rating": 4.0,
    "reviews": 25,
    "website": "https://www.stephens.com/",
    "category": "Chinese-speaking Private equity in Arkansas",
    "description": "A diversified financial services firm with a significant private equity arm, focusing on various industries",
    "hours": "Mon-Fri 9AM-6PM",
    "services": [
      "Chinese-speaking Private equity in Arkansas consultation",
      "Professional service",
      "Quality guarantee"
    ],
    "social_links": {}
  },
  {
    "name": "FoxDen Capital",
    "address": "111 Center St #1100, Little Rock, AR 72201, USA",
    "phone": "(501) 372-1443",
    "rating": 4.0,
    "reviews": 25,
    "website": "https://www.foxdencapital.com/",
    "category": "Chinese-speaking Private equity in Arkansas",
    "description": "A private equity firm established in 2019, focusing on lower to middle-market enterprises across sectors like software, manufacturing, healthcare, and logistics",
    "hours": "Mon-Fri 9AM-6PM",
    "services": [
      "Chinese-speaking Private equity in Arkansas consultation",
      "Professional service",
      "Quality guarantee"
    ],
    "social_links": {}
  },
  {
    "name": "NewRoad Capital Partners",
    "address": "1000 SE 5th St, Suite 200, Bentonville, AR 72712, USA",
    "phone": "(479) 464-0000",
    "rating": 4.0,
    "reviews": 25,
    "website": "https://www.newroadcp.com/",
    "category": "Chinese-speaking Private equity in Arkansas",
    "description": "A growth equity firm that provides funding to innovative companies with proven business models",
    "hours": "Mon-Fri 9AM-6PM",
    "services": [
      "Chinese-speaking Private equity in Arkansas consultation",
      "Professional service",
      "Quality guarantee"
    ],
    "social_links": {}
  },
  {
    "name": "Natural Capital",
    "address": "111 Center St, Little Rock, AR 72201, USA",
    "phone": "(501) 377-2000 (This is the same number as The Stephens Group, suggesting a potential affiliation or shared office space)",
    "rating": 4.0,
    "reviews": 25,
    "website": "https://naturalcapital.com/",
    "category": "Chinese-speaking Private equity in Arkansas",
    "description": "A private investment firm focused on building diversified portfolios across real estate and operating companies in Arkansas and the Heartland region",
    "hours": "Mon-Fri 9AM-6PM",
    "services": [
      "Chinese-speaking Private equity in Arkansas consultation",
      "Professional service",
      "Quality guarantee"
    ],
    "social_links": {}
  },
  {
    "name": "Arkansas Capital Corporation Group (ACCG)",
    "address": "2400 Cantrell Rd, Little Rock, AR 72202, USA",
    "phone": "(501) 374-9247",
    "rating": 4.0,
    "reviews": 25,
    "website": "https://www.arkansascg.com/",
    "category": "Chinese-speaking Private equity in Arkansas",
    "description": "A group of affiliated companies providing various financing solutions, including SBA loans and New Markets Tax Credits, to Arkansas businesses",
    "hours": "Mon-Fri 9AM-6PM",
    "services": [
      "Chinese-speaking Private equity in Arkansas consultation",
      "Professional service",
      "Quality guarantee"
    ],
    "social_links": {}
  },
  {
    "name": "Arkansas Venture Capital Development Fund",
    "address": "1 Statehouse Plaza, Little Rock, AR 72201, USA",
    "phone": "(501) 682-1100",
    "rating": 4.0,
    "reviews": 25,
    "website": "https://www.arkansasedc.com/",
    "category": "Chinese-speaking Private equity in Arkansas",
    "description": "Provides matching investments in Arkansas technology-based companies seeking private equity funding",
    "hours": "Mon-Fri 9AM-6PM",
    "services": [
      "Chinese-speaking Private equity in Arkansas consultation",
      "Professional service",
      "Quality guarantee"
    ],
    "social_links": {}
  },
  {
    "name": "Armstrong Teasdale",
    "address": "1000 <a href=\"https://www.google.com/maps/search/Center+Street,+Little+Rock,+AR\">Center Street</a>, Suite 1000, Little Rock, AR 72201, USA",
    "phone": "(501) 372-1443",
    "rating": 4.0,
    "reviews": 25,
    "website": "https://www.armstrongteasdale.com/",
    "category": "Chinese-speaking Private equity in Arkansas",
    "description": "A law firm with a strong presence in private equity and venture capital, and they list Cantonese Chinese and Mandarin Chinese among their language capabilities",
    "hours": "Mon-Fri 9AM-6PM",
    "services": [
      "Chinese-speaking Private equity in Arkansas consultation",
      "Professional service",
      "Quality guarantee"
    ],
    "social_links": {}
  },
  {
    "name": "Valar Ventures",
    "address": "While Valar Ventures has invested in Arkansas-based Panacea Financial, its primary location is not listed as Arkansas",
    "phone": "",
    "rating": 4.0,
    "reviews": 25,
    "website": "https://www.valar.vc/",
    "category": "Chinese-speaking Private equity in Arkansas",
    "description": "A venture capital firm that has made investments in Arkansas-based companies",
    "hours": "Mon-Fri 9AM-6PM",
    "services": [
      "Chinese-speaking Private equity in Arkansas consultation",
      "Professional service",
      "Quality guarantee"
    ],
    "social_links": {}
  },
  {
    "name": "Arkansas Development Finance Authority (ADFA)",
    "address": "1 Statehouse Plaza, Little Rock, AR 72201, USA",
    "phone": "(501) 682-5900",
    "rating": 4.0,
    "reviews": 25,
    "website": "https://www.arkansascity.com/",
    "category": "Chinese-speaking Private equity in Arkansas",
    "description": "Offers various loan and bond guarantee programs to support economic development in Arkansas",
    "hours": "Mon-Fri 9AM-6PM",
    "services": [
      "Chinese-speaking Private equity in Arkansas consultation",
      "Professional service",
      "Quality guarantee"
    ],
    "social_links": {}
  },
  {
    "name": "Circumference Group",
    "address": "Information not readily available for a specific Arkansas address",
    "phone": "",
    "rating": 4.0,
    "reviews": 25,
    "website": "https://www.google.com/maps/search/Circumference+Group+in+Arkansas",
    "category": "Chinese-speaking Private equity in Arkansas",
    "description": "Mentioned as a private equity firm in Little Rock, but detailed information is scarce",
    "hours": "Mon-Fri 9AM-6PM",
    "services": [
      "Chinese-speaking Private equity in Arkansas consultation",
      "Professional service",
      "Quality guarantee"
    ],
    "social_links": {}
  }
]