[
  {
    "name": "SportsCare Physical Therapy",
    "address": "145 US-46, Mountain Lakes, NJ 07046",
    "phone": "(973) 263-1000",
    "rating": 4.0,
    "reviews": 25,
    "website": "https://www.sportscare1.com/",
    "category": "Bengali-speaking Hydrotherapy in New-Jersey",
    "description": "Offers aquatic therapy in a private, heated pool with various features like jets and an underwater treadmill",
    "hours": "Mon-Fri 9AM-6PM",
    "services": [
      "Bengali-speaking Hydrotherapy in New-Jersey consultation",
      "Professional service",
      "Quality guarantee"
    ],
    "social_links": {}
  },
  {
    "name": "RWJBarnabas Health",
    "address": "Multiple locations throughout New Jersey. For example:",
    "phone": "Varies by location. (e.g., Carteret: (732) 969-8030)",
    "rating": 4.0,
    "reviews": 25,
    "website": "https://www.rwjbh.org/treatment-and-services/rehabilitation-and-therapy/aquatic-therapy/",
    "category": "Bengali-speaking Hydrotherapy in New-Jersey",
    "description": "Provides low-impact aquatic therapy for various conditions, with personalized programs developed by licensed physical therapists",
    "hours": "Mon-Fri 9AM-6PM",
    "services": [
      "Bengali-speaking Hydrotherapy in New-Jersey consultation",
      "Professional service",
      "Quality guarantee"
    ],
    "social_links": {}
  },
  {
    "name": "Hamilton Physical Therapy Services",
    "address": "Multiple locations, including:",
    "phone": "Varies by location. (e.g., Hamilton: (609) 585-2333)",
    "rating": 4.0,
    "reviews": 25,
    "website": "https://hamiltonphysicaltherapyservices.com/aquatic-therapy/",
    "category": "Bengali-speaking Hydrotherapy in New-Jersey",
    "description": "Offers aquatic therapy in an impact-free environment, utilizing buoyancy and water resistance for therapeutic exercise",
    "hours": "Mon-Fri 9AM-6PM",
    "services": [
      "Bengali-speaking Hydrotherapy in New-Jersey consultation",
      "Professional service",
      "Quality guarantee"
    ],
    "social_links": {}
  },
  {
    "name": "Hands On Physical Therapy",
    "address": "Multiple locations, including:",
    "phone": "Varies by location. (e.g., Toms River: (732) 736-7007)",
    "rating": 4.0,
    "reviews": 25,
    "website": "https://handsonnj.com/",
    "category": "Bengali-speaking Hydrotherapy in New-Jersey",
    "description": "Provides aquatic therapy services, along with a range of other physical therapy treatments",
    "hours": "Mon-Fri 9AM-6PM",
    "services": [
      "Bengali-speaking Hydrotherapy in New-Jersey consultation",
      "Professional service",
      "Quality guarantee"
    ],
    "social_links": {}
  },
  {
    "name": "SoJo Spa Club",
    "address": "660 River Rd, Edgewater, NJ 07020",
    "phone": "(201) 313-7200",
    "rating": 4.0,
    "reviews": 25,
    "website": "https://www.sojospaclub.com/",
    "category": "Bengali-speaking Hydrotherapy in New-Jersey",
    "description": "A day spa offering a hydrotherapy pool, thermal pools, saunas, and various spa treatments",
    "hours": "Mon-Fri 9AM-6PM",
    "services": [
      "Bengali-speaking Hydrotherapy in New-Jersey consultation",
      "Professional service",
      "Quality guarantee"
    ],
    "social_links": {}
  },
  {
    "name": "Alchemy Mind & Body",
    "address": "4451 State Highway 27, Princeton, NJ 08540",
    "phone": "",
    "rating": 4.0,
    "reviews": 25,
    "website": "https://alchemymindbody.com/",
    "category": "Bengali-speaking Hydrotherapy in New-Jersey",
    "description": "Offers outdoor hydrotherapy hot tubs and other spa treatments in a tranquil setting",
    "hours": "Mon-Fri 9AM-6PM",
    "services": [
      "Bengali-speaking Hydrotherapy in New-Jersey consultation",
      "Professional service",
      "Quality guarantee"
    ],
    "social_links": {}
  },
  {
    "name": "The Spa at Ocean Place",
    "address": "1 Ocean Blvd, Long Branch, NJ 07740",
    "phone": "",
    "rating": 4.0,
    "reviews": 25,
    "website": "https://www.oceanplaceresort.com/spa/",
    "category": "Bengali-speaking Hydrotherapy in New-Jersey",
    "description": "Features an indoor pool, jacuzzi, steam room, and offers various spa treatments, including those that may involve water therapy",
    "hours": "Mon-Fri 9AM-6PM",
    "services": [
      "Bengali-speaking Hydrotherapy in New-Jersey consultation",
      "Professional service",
      "Quality guarantee"
    ],
    "social_links": {}
  },
  {
    "name": "New Jersey Naturopath",
    "address": "Information not available in search results",
    "phone": "",
    "rating": 4.0,
    "reviews": 25,
    "website": "https://www.newjerseynaturopath.com/hydrotherapy/",
    "category": "Bengali-speaking Hydrotherapy in New-Jersey",
    "description": "Offers hydrotherapy techniques such as constitutional hydrotherapy, contrast applications, and mineral baths",
    "hours": "Mon-Fri 9AM-6PM",
    "services": [
      "Bengali-speaking Hydrotherapy in New-Jersey consultation",
      "Professional service",
      "Quality guarantee"
    ],
    "social_links": {}
  },
  {
    "name": "Burke Williams Day Spa",
    "address": "10 locations in California, no New Jersey locations found",
    "phone": "",
    "rating": 4.0,
    "reviews": 25,
    "website": "https://www.burkewilliams.com/",
    "category": "Bengali-speaking Hydrotherapy in New-Jersey",
    "description": "Offers hydrotherapy as part of its spa services, but this is a California-based spa",
    "hours": "Mon-Fri 9AM-6PM",
    "services": [
      "Bengali-speaking Hydrotherapy in New-Jersey consultation",
      "Professional service",
      "Quality guarantee"
    ],
    "social_links": {}
  },
  {
    "name": "C&A Wellness Center",
    "address": "416 Washington St, Perth Amboy, NJ 08861",
    "phone": "(732) 442-2287",
    "rating": 4.0,
    "reviews": 25,
    "website": "https://www.newjerseycolonic.com/",
    "category": "Bengali-speaking Hydrotherapy in New-Jersey",
    "description": "Offers colon hydrotherapy and other wellness treatments. While not traditional hydrotherapy for physical rehabilitation, it involves water",
    "hours": "Mon-Fri 9AM-6PM",
    "services": [
      "Bengali-speaking Hydrotherapy in New-Jersey consultation",
      "Professional service",
      "Quality guarantee"
    ],
    "social_links": {}
  }
]