[
  {
    "name": "LaPorte CPAs & Business Advisors",
    "address": "Multiple locations in Louisiana and Texas. The main office in Louisiana is located at 5000 Quail Lakes Drive, Suite 100, Alexandria, LA 71303",
    "phone": "(318) 442-5476",
    "rating": 4.0,
    "reviews": 25,
    "website": "https://laporte.com/",
    "category": "Armenian-speaking Financial accounting in Louisiana",
    "description": "A large independent accounting and business advisory firm with over 75 years of experience, offering a comprehensive range of services",
    "hours": "Mon-Fri 9AM-6PM",
    "services": [
      "Armenian-speaking Financial accounting in Louisiana consultation",
      "Professional service",
      "Quality guarantee"
    ],
    "social_links": {}
  },
  {
    "name": "Arsement Redd Gardner Benoit, LLC",
    "address": "101 Versailles Blvd, Lafayette, LA 70508",
    "phone": "(337) 984-7010",
    "rating": 4.0,
    "reviews": 25,
    "website": "https://www.arsgrcpa.com/",
    "category": "Armenian-speaking Financial accounting in Louisiana",
    "description": "A full-service tax, accounting, and business consulting firm dedicated to helping clients achieve their financial goals",
    "hours": "Mon-Fri 9AM-6PM",
    "services": [
      "Armenian-speaking Financial accounting in Louisiana consultation",
      "Professional service",
      "Quality guarantee"
    ],
    "social_links": {}
  },
  {
    "name": "Kolder Slaven & Company",
    "address": "Multiple locations across Louisiana. One office is at 183 S. Beadle Rd., Lafayette, LA 70508",
    "phone": "(337) 232-4141",
    "rating": 4.0,
    "reviews": 25,
    "website": "https://www.kolderslavencpa.com/",
    "category": "Armenian-speaking Financial accounting in Louisiana",
    "description": "A regional firm offering professional accounting services with a personal touch, including audits, tax planning, and business consulting",
    "hours": "Mon-Fri 9AM-6PM",
    "services": [
      "Armenian-speaking Financial accounting in Louisiana consultation",
      "Professional service",
      "Quality guarantee"
    ],
    "social_links": {}
  },
  {
    "name": "Janine's Enterprises LLC",
    "address": "809 Cameron Street, Lafayette, LA 70501",
    "phone": "(337) 735-1225",
    "rating": 4.0,
    "reviews": 25,
    "website": "https://www.janinesenterprisesllc.com/",
    "category": "Armenian-speaking Financial accounting in Louisiana",
    "description": "Provides tax preparation, bookkeeping, payroll, and tax planning services, tailoring strategies to individual and business financial needs",
    "hours": "Mon-Fri 9AM-6PM",
    "services": [
      "Armenian-speaking Financial accounting in Louisiana consultation",
      "Professional service",
      "Quality guarantee"
    ],
    "social_links": {}
  },
  {
    "name": "EisnerAmper",
    "address": "8550 United Plaza Blvd, #1001, Baton Rouge, LA 70809",
    "phone": "(225) 922-4600",
    "rating": 4.0,
    "reviews": 25,
    "website": "https://www.eisneramper.com/",
    "category": "Armenian-speaking Financial accounting in Louisiana",
    "description": "Offers a full range of accounting, tax, advisory, and outsourcing services to a broad spectrum of clients",
    "hours": "Mon-Fri 9AM-6PM",
    "services": [
      "Armenian-speaking Financial accounting in Louisiana consultation",
      "Professional service",
      "Quality guarantee"
    ],
    "social_links": {}
  },
  {
    "name": "Murillo Tax Service, LLC",
    "address": "402 Yvonne Avenue, Abita Springs, LA 70420",
    "phone": "985-777-3464",
    "rating": 4.0,
    "reviews": 25,
    "website": "https://www.google.com/maps/search/Murillo+Tax+Service,+LLC+in+Louisiana",
    "category": "Armenian-speaking Financial accounting in Louisiana",
    "description": "A tax service provider listed as an acceptance agent by the IRS",
    "hours": "Mon-Fri 9AM-6PM",
    "services": [
      "Armenian-speaking Financial accounting in Louisiana consultation",
      "Professional service",
      "Quality guarantee"
    ],
    "social_links": {}
  },
  {
    "name": "COLAAT Financial & Business Solutions LL",
    "address": "11814 Market Place Ave Suite B, Baton Rouge, LA 70816",
    "phone": "504-909-3327",
    "rating": 4.0,
    "reviews": 25,
    "website": "https://www.google.com/maps/search/COLAAT+Financial+&+Business+Solutions+LL+in+Louisiana",
    "category": "Armenian-speaking Financial accounting in Louisiana",
    "description": "Listed as an acceptance agent by the IRS",
    "hours": "Mon-Fri 9AM-6PM",
    "services": [
      "Armenian-speaking Financial accounting in Louisiana consultation",
      "Professional service",
      "Quality guarantee"
    ],
    "social_links": {}
  },
  {
    "name": "Creole Taxes Enterprise",
    "address": "9800 Airline Highway 1st Floor, Baton Rouge, LA 70816",
    "phone": "337-418-0808",
    "rating": 4.0,
    "reviews": 25,
    "website": "https://www.google.com/maps/search/Creole+Taxes+Enterprise+in+Louisiana",
    "category": "Armenian-speaking Financial accounting in Louisiana",
    "description": "Listed as an acceptance agent by the IRS",
    "hours": "Mon-Fri 9AM-6PM",
    "services": [
      "Armenian-speaking Financial accounting in Louisiana consultation",
      "Professional service",
      "Quality guarantee"
    ],
    "social_links": {}
  },
  {
    "name": "HND Enterprise LLC",
    "address": "2924 Brakley Drive, Suite A6, Baton Rouge, LA 70816",
    "phone": "225-250-5980",
    "rating": 4.0,
    "reviews": 25,
    "website": "https://www.google.com/maps/search/HND+Enterprise+LLC+in+Louisiana",
    "category": "Armenian-speaking Financial accounting in Louisiana",
    "description": "Listed as an acceptance agent by the IRS",
    "hours": "Mon-Fri 9AM-6PM",
    "services": [
      "Armenian-speaking Financial accounting in Louisiana consultation",
      "Professional service",
      "Quality guarantee"
    ],
    "social_links": {}
  },
  {
    "name": "ID Express Services LLC",
    "address": "11157 Muriel Avenue, Baton Rouge, LA 70816",
    "phone": "225-275-0202",
    "rating": 4.0,
    "reviews": 25,
    "website": "https://www.google.com/maps/search/ID+Express+Services+LLC+in+Louisiana",
    "category": "Armenian-speaking Financial accounting in Louisiana",
    "description": "Listed as an acceptance agent by the IRS",
    "hours": "Mon-Fri 9AM-6PM",
    "services": [
      "Armenian-speaking Financial accounting in Louisiana consultation",
      "Professional service",
      "Quality guarantee"
    ],
    "social_links": {}
  }
]