[
  {
    "name": "Elite Roofing & Solar",
    "address": "5475 Peoria St Ste 4-106, Denver, CO 80239",
    "phone": "(303) 296-0361",
    "rating": 4.9,
    "reviews": 25,
    "website": "https://www.eliteroofingandsolar.com/",
    "category": "Arabic-speaking Roofing installation in Colorado",
    "description": "A family-run business offering residential and commercial roofing and solar services, known for quality installations and customer service",
    "hours": "Mon-Fri 9AM-6PM",
    "services": [
      "Arabic-speaking Roofing installation in Colorado consultation",
      "Professional service",
      "Quality guarantee"
    ],
    "social_links": {}
  },
  {
    "name": "Horn Brothers Roofing",
    "address": "2325 S Jason St, Denver, CO 80223",
    "phone": "(303) 274-1111",
    "rating": 4.9,
    "reviews": 25,
    "website": "https://hornbrothersroofing.com/",
    "category": "Arabic-speaking Roofing installation in Colorado",
    "description": "With over 25 years of experience, they offer residential and commercial roofing services, specializing in energy-efficient solutions",
    "hours": "Mon-Fri 9AM-6PM",
    "services": [
      "Arabic-speaking Roofing installation in Colorado consultation",
      "Professional service",
      "Quality guarantee"
    ],
    "social_links": {}
  },
  {
    "name": "A-Denver Roofing Company",
    "address": "Multiple locations, including 1500 W 48th Ave, Denver, CO 80211",
    "phone": "(303) 781-1111",
    "rating": 4.9,
    "reviews": 25,
    "website": "https://www.a-denverroofing.com/",
    "category": "Arabic-speaking Roofing installation in Colorado",
    "description": "In business since 1977, they specialize in residential and commercial projects, including storm damage restoration, and also offer siding and painting services",
    "hours": "Mon-Fri 9AM-6PM",
    "services": [
      "Arabic-speaking Roofing installation in Colorado consultation",
      "Professional service",
      "Quality guarantee"
    ],
    "social_links": {}
  },
  {
    "name": "Colorado's Best Roofing",
    "address": "Multiple locations, including Parker, CO",
    "phone": "(303) 900-0474",
    "rating": 4.9,
    "reviews": 25,
    "website": "https://coloradosbestroofing.com/",
    "category": "Arabic-speaking Roofing installation in Colorado",
    "description": "Offers residential and commercial roofing solutions, storm damage repairs, and has over 50 years of combined experience",
    "hours": "Mon-Fri 9AM-6PM",
    "services": [
      "Arabic-speaking Roofing installation in Colorado consultation",
      "Professional service",
      "Quality guarantee"
    ],
    "social_links": {}
  },
  {
    "name": "Interstate Roofing",
    "address": "Multiple locations, including Denver, CO",
    "phone": "(303) 781-1111",
    "rating": 4.7,
    "reviews": 25,
    "website": "https://www.interstateroofing.com/",
    "category": "Arabic-speaking Roofing installation in Colorado",
    "description": "A large roofing contractor with extensive experience in residential and commercial projects, known for customer satisfaction and community support",
    "hours": "Mon-Fri 9AM-6PM",
    "services": [
      "Arabic-speaking Roofing installation in Colorado consultation",
      "Professional service",
      "Quality guarantee"
    ],
    "social_links": {}
  },
  {
    "name": "Tectum Roofing",
    "address": "Multiple locations, including Colorado Springs, CO",
    "phone": "(719) 309-4255",
    "rating": 4.0,
    "reviews": 25,
    "website": "https://tectumroofing.com/",
    "category": "Arabic-speaking Roofing installation in Colorado",
    "description": "Specializes in commercial roofing and offers superior customer service, high-quality craftsmanship, and solutions for challenging projects",
    "hours": "Mon-Fri 9AM-6PM",
    "services": [
      "Arabic-speaking Roofing installation in Colorado consultation",
      "Professional service",
      "Quality guarantee"
    ],
    "social_links": {}
  },
  {
    "name": "Robbins Roofing Specialists, Inc.",
    "address": "Colorado Springs, CO",
    "phone": "(719) 575-9539",
    "rating": 4.0,
    "reviews": 25,
    "website": "https://www.robbinsroofingspecialists.com/",
    "category": "Arabic-speaking Roofing installation in Colorado",
    "description": "Provides expert roofing services tailored to customer needs, with a commitment to customer satisfaction and high-quality workmanship",
    "hours": "Mon-Fri 9AM-6PM",
    "services": [
      "Arabic-speaking Roofing installation in Colorado consultation",
      "Professional service",
      "Quality guarantee"
    ],
    "social_links": {}
  },
  {
    "name": "Boulder Roofing",
    "address": "3551 Pearl Street, Boulder, CO",
    "phone": "303.443.4646",
    "rating": 4.0,
    "reviews": 25,
    "website": "https://www.boulderroofing.com/",
    "category": "Arabic-speaking Roofing installation in Colorado",
    "description": "An award-winning, full-service residential and commercial roofing company serving the Colorado Front Range since 1988, emphasizing attention to detail and customer service",
    "hours": "Mon-Fri 9AM-6PM",
    "services": [
      "Arabic-speaking Roofing installation in Colorado consultation",
      "Professional service",
      "Quality guarantee"
    ],
    "social_links": {}
  },
  {
    "name": "Atlas Roof Roofing Companies & Roof Repair",
    "address": "Aurora, CO",
    "phone": "",
    "rating": 4.0,
    "reviews": 25,
    "website": "https://atlasroof.com/",
    "category": "Arabic-speaking Roofing installation in Colorado",
    "description": "Offers expert roof repair and a comprehensive range of roofing services for residential and commercial properties, focusing on energy-efficient systems",
    "hours": "Mon-Fri 9AM-6PM",
    "services": [
      "Arabic-speaking Roofing installation in Colorado consultation",
      "Professional service",
      "Quality guarantee"
    ],
    "social_links": {}
  },
  {
    "name": "Infinity Roofing & Siding",
    "address": "Aurora, CO",
    "phone": "",
    "rating": 4.0,
    "reviews": 25,
    "website": "https://www.infinityroofingandsiding.com/",
    "category": "Arabic-speaking Roofing installation in Colorado",
    "description": "A family-owned and customer-focused company offering a wide range of roofing services, including storm damage restoration, and is certified by prominent brands",
    "hours": "Mon-Fri 9AM-6PM",
    "services": [
      "Arabic-speaking Roofing installation in Colorado consultation",
      "Professional service",
      "Quality guarantee"
    ],
    "social_links": {}
  }
]