[
  {
    "name": "Alabama Coastal Radiology, P.C.",
    "address": "Multiple locations in the Mobile area, including Mobile, Daphne, Saraland, Bay Minette, and Fairhope",
    "phone": "(251) 435-2255 (General Inquiries for Infirmary Health, which partners with Alabama Coastal Radiology)",
    "rating": 4.0,
    "reviews": 25,
    "website": "https://www.alabamacoastalradiology.com/",
    "category": "Arabic-speaking PET scan services in Alabama",
    "description": "Offers PET/CT scans and a wide range of other diagnostic imaging services",
    "hours": "Mon-Fri 9AM-6PM",
    "services": [
      "Arabic-speaking PET scan services in Alabama consultation",
      "Professional service",
      "Quality guarantee"
    ],
    "social_links": {}
  },
  {
    "name": "Northeast Alabama Regional Medical Center",
    "address": "400 East 10th Street, Anniston, AL 36207",
    "phone": "(256) 235-5100",
    "rating": 4.0,
    "reviews": 25,
    "website": "https://www.neremc.org/services/radiology-imaging-care/pet-ct-mri/",
    "category": "Arabic-speaking PET scan services in Alabama",
    "description": "Provides advanced PET/CT scanning technology for diagnostic imaging",
    "hours": "Mon-Fri 9AM-6PM",
    "services": [
      "Arabic-speaking PET scan services in Alabama consultation",
      "Professional service",
      "Quality guarantee"
    ],
    "social_links": {}
  },
  {
    "name": "Marshall Imaging Center for PET/CT Scans",
    "address": "Marshall Professional Center, Guntersville, AL (Specific street address not provided in search results, but located on Highway 431)",
    "phone": "(256) 894-6950",
    "rating": 4.0,
    "reviews": 25,
    "website": "https://www.marshallmedical.org/services/imaging-services/pet-ct-scans/",
    "category": "Arabic-speaking PET scan services in Alabama",
    "description": "Offers PET/CT scans and other imaging services, conveniently located",
    "hours": "Mon-Fri 9AM-6PM",
    "services": [
      "Arabic-speaking PET scan services in Alabama consultation",
      "Professional service",
      "Quality guarantee"
    ],
    "social_links": {}
  },
  {
    "name": "Baldwin Health",
    "address": "1613 N. McKenzie Street, Foley, AL 36535",
    "phone": "(251) 949-3508",
    "rating": 4.0,
    "reviews": 25,
    "website": "https://www.baldwinhealth.org/services/diagnostic-imaging/pet-ct-ct-scan/",
    "category": "Arabic-speaking PET scan services in Alabama",
    "description": "Provides PET/CT scanning technology that combines physiological and anatomical information",
    "hours": "Mon-Fri 9AM-6PM",
    "services": [
      "Arabic-speaking PET scan services in Alabama consultation",
      "Professional service",
      "Quality guarantee"
    ],
    "social_links": {}
  },
  {
    "name": "Carmichael Imaging Center",
    "address": "4145 Carmichael Road, Montgomery, AL 36106",
    "phone": "(334) 387-1100",
    "rating": 4.0,
    "reviews": 25,
    "website": "https://www.baptisthealthal.org/locations/carmichael-imaging-center",
    "category": "Arabic-speaking PET scan services in Alabama",
    "description": "An accredited imaging center offering PET/CT scans, MRIs, and other advanced imaging services",
    "hours": "Mon-Fri 9AM-6PM",
    "services": [
      "Arabic-speaking PET scan services in Alabama consultation",
      "Professional service",
      "Quality guarantee"
    ],
    "social_links": {}
  },
  {
    "name": "American Health Imaging",
    "address": "Multiple locations across Alabama. (Specific addresses vary, search for your nearest location)",
    "phone": "(877) 600-2444 (General Contact Number)",
    "rating": 4.0,
    "reviews": 25,
    "website": "https://www.americanhealthimaging.com/locations/alabama/",
    "category": "Arabic-speaking PET scan services in Alabama",
    "description": "Offers state-of-the-art imaging equipment for high-quality diagnostic images, including PET/CT services at some locations",
    "hours": "Mon-Fri 9AM-6PM",
    "services": [
      "Arabic-speaking PET scan services in Alabama consultation",
      "Professional service",
      "Quality guarantee"
    ],
    "social_links": {}
  },
  {
    "name": "Infirmary Health - Imaging & Diagnostic Services",
    "address": "Various locations across Mobile and Baldwin counties. (Specific addresses vary, search for your nearest location)",
    "phone": "(251) 435-2255",
    "rating": 4.0,
    "reviews": 25,
    "website": "https://www.infirmaryhealth.org/services/imaging-diagnostic-services/",
    "category": "Arabic-speaking PET scan services in Alabama",
    "description": "Provides a wide range of imaging services, including PET/CT imaging",
    "hours": "Mon-Fri 9AM-6PM",
    "services": [
      "Arabic-speaking PET scan services in Alabama consultation",
      "Professional service",
      "Quality guarantee"
    ],
    "social_links": {}
  },
  {
    "name": "UAB Diagnostic Imaging Bessemer",
    "address": "950 9th Avenue, Bessemer, AL 35020",
    "phone": "(205) 481-7155",
    "rating": 4.0,
    "reviews": 25,
    "website": "https://www.uabmedicine.org/locations/diagnostic-imaging-center-bessemer",
    "category": "Arabic-speaking PET scan services in Alabama",
    "description": "Offers state-of-the-art medical imaging technology, including CT and MRI, and likely PET scan capabilities through UAB Medicine",
    "hours": "Mon-Fri 9AM-6PM",
    "services": [
      "Arabic-speaking PET scan services in Alabama consultation",
      "Professional service",
      "Quality guarantee"
    ],
    "social_links": {}
  },
  {
    "name": "North Alabama Medical Center",
    "address": "1701 Veterans Drive, Florence, AL 35630",
    "phone": "(256) 768-4100",
    "rating": 4.0,
    "reviews": 25,
    "website": "https://www.northalabamahealth.org/services/radiology-imaging/",
    "category": "Arabic-speaking PET scan services in Alabama",
    "description": "Provides PET/CT services as part of their comprehensive diagnostic imaging offerings",
    "hours": "Mon-Fri 9AM-6PM",
    "services": [
      "Arabic-speaking PET scan services in Alabama consultation",
      "Professional service",
      "Quality guarantee"
    ],
    "social_links": {}
  },
  {
    "name": "USA Health - Radiology Department",
    "address": "1700 Springhill Ave, Mobile, AL 36604 (Main location, other facilities may exist)",
    "phone": "(251) 415-1660",
    "rating": 4.0,
    "reviews": 25,
    "website": "https://www.usahealthsystem.com/services/radiology",
    "category": "Arabic-speaking PET scan services in Alabama",
    "description": "Offers a wide range of diagnostic imaging procedures, including advanced diagnostics like MRI and nuclear medicine, and likely PET scans",
    "hours": "Mon-Fri 9AM-6PM",
    "services": [
      "Arabic-speaking PET scan services in Alabama consultation",
      "Professional service",
      "Quality guarantee"
    ],
    "social_links": {}
  }
]