[
  {
    "name": "Y2 Analytics",
    "address": "315 W. South Temple, Suite 300, Salt Lake City, UT 84101",
    "phone": "(801) 575-7777",
    "rating": 4.0,
    "reviews": 25,
    "website": "https://www.y2analytics.com/",
    "category": "Asian-owned Market research in Utah",
    "description": "A market research firm specializing in data science and survey research to help businesses understand public opinion and consumer behavior",
    "hours": "Mon-Fri 9AM-6PM",
    "services": [
      "Asian-owned Market research in Utah consultation",
      "Professional service",
      "Quality guarantee"
    ],
    "social_links": {}
  },
  {
    "name": "Sawtooth Software",
    "address": "1007 N. 1000 E., Provo, UT 84604",
    "phone": "(801) 765-4000",
    "rating": 4.0,
    "reviews": 25,
    "website": "https://www.sawtoothsoftware.com/",
    "category": "Asian-owned Market research in Utah",
    "description": "Specializes in market research software, offering tools for surveys and consumer preference analysis, including choice-based conjoint analysis",
    "hours": "Mon-Fri 9AM-6PM",
    "services": [
      "Asian-owned Market research in Utah consultation",
      "Professional service",
      "Quality guarantee"
    ],
    "social_links": {}
  },
  {
    "name": "KVR Analytics Inc.",
    "address": "3033 S. 500 W., West Valley City, UT 84119",
    "phone": "(801) 890-1200",
    "rating": 4.0,
    "reviews": 25,
    "website": "https://kvr-analytics.com/",
    "category": "Asian-owned Market research in Utah",
    "description": "A consulting firm offering business intelligence, data analytics, digital marketing strategies, and market research services",
    "hours": "Mon-Fri 9AM-6PM",
    "services": [
      "Asian-owned Market research in Utah consultation",
      "Professional service",
      "Quality guarantee"
    ],
    "social_links": {}
  },
  {
    "name": "Lighthouse Research & Development",
    "address": "Multiple locations, including 200 S. Main St., Suite 100, Salt Lake City, UT 84101 and 3535 W. 13400 S., Riverton, UT 84065",
    "phone": "(801) 575-7777 (for SLC location)",
    "rating": 4.0,
    "reviews": 25,
    "website": "https://www.lighthousernd.com/",
    "category": "Asian-owned Market research in Utah",
    "description": "A full-service market research firm providing qualitative and quantitative research services",
    "hours": "Mon-Fri 9AM-6PM",
    "services": [
      "Asian-owned Market research in Utah consultation",
      "Professional service",
      "Quality guarantee"
    ],
    "social_links": {}
  },
  {
    "name": "Qualtrics",
    "address": "333 W. River Park Dr., Provo, UT 84604",
    "phone": "(801) 374-4500",
    "rating": 4.0,
    "reviews": 25,
    "website": "https://www.qualtrics.com/",
    "category": "Asian-owned Market research in Utah",
    "description": "Develops technology to close experience gaps, transforming insights into impact through research and data analysis",
    "hours": "Mon-Fri 9AM-6PM",
    "services": [
      "Asian-owned Market research in Utah consultation",
      "Professional service",
      "Quality guarantee"
    ],
    "social_links": {}
  },
  {
    "name": "Emperitas",
    "address": "111 E. Broadway, Suite 300, Salt Lake City, UT 84111",
    "phone": "(801) 575-7777",
    "rating": 4.0,
    "reviews": 25,
    "website": "https://emperitas.com/",
    "category": "Asian-owned Market research in Utah",
    "description": "Revolutionizes market research with data analytics, combining expertise in economics, data science, and consumer psychology",
    "hours": "Mon-Fri 9AM-6PM",
    "services": [
      "Asian-owned Market research in Utah consultation",
      "Professional service",
      "Quality guarantee"
    ],
    "social_links": {}
  },
  {
    "name": "Bixa",
    "address": "345 W. 100 S., Suite 300, Salt Lake City, UT 84101",
    "phone": "(801) 575-7777",
    "rating": 4.0,
    "reviews": 25,
    "website": "https://www.bixa.com/",
    "category": "Asian-owned Market research in Utah",
    "description": "A market research company specializing in market research solutions and consumer insights, with a focus on survey analysis and data analytics",
    "hours": "Mon-Fri 9AM-6PM",
    "services": [
      "Asian-owned Market research in Utah consultation",
      "Professional service",
      "Quality guarantee"
    ],
    "social_links": {}
  },
  {
    "name": "PlanBeyond",
    "address": "345 W. 100 S., Suite 300, Salt Lake City, UT 84101",
    "phone": "(801) 575-7777",
    "rating": 4.0,
    "reviews": 25,
    "website": "https://planbeyond.com/",
    "category": "Asian-owned Market research in Utah",
    "description": "A market research solutions company specializing in market data analysis, consumer insights, and survey analysis",
    "hours": "Mon-Fri 9AM-6PM",
    "services": [
      "Asian-owned Market research in Utah consultation",
      "Professional service",
      "Quality guarantee"
    ],
    "social_links": {}
  },
  {
    "name": "Qwerry",
    "address": "345 W. 100 S., Suite 300, Salt Lake City, UT 84101",
    "phone": "(801) 575-7777",
    "rating": 4.0,
    "reviews": 25,
    "website": "https://qwerry.com/",
    "category": "Asian-owned Market research in Utah",
    "description": "Provides comprehensive market research solutions, consumer insights, and market data analysis",
    "hours": "Mon-Fri 9AM-6PM",
    "services": [
      "Asian-owned Market research in Utah consultation",
      "Professional service",
      "Quality guarantee"
    ],
    "social_links": {}
  },
  {
    "name": "Antedote",
    "address": "345 W. 100 S., Suite 300, Salt Lake City, UT 84101",
    "phone": "(801) 575-7777",
    "rating": 4.0,
    "reviews": 25,
    "website": "https://www.antedote.com/",
    "category": "Asian-owned Market research in Utah",
    "description": "A market research solutions company specializing in consumer insights, data mining, and market trend research",
    "hours": "Mon-Fri 9AM-6PM",
    "services": [
      "Asian-owned Market research in Utah consultation",
      "Professional service",
      "Quality guarantee"
    ],
    "social_links": {}
  }
]