[
  {
    "name": "Hawaiian Properties, Ltd.",
    "address": "Multiple locations across Hawaii, including Honolulu",
    "phone": "(808) 539-9777",
    "rating": 4.0,
    "reviews": 25,
    "website": "https://www.hawaiianproperties.com/",
    "category": "Catholic-owned HOA management in Hawaii",
    "description": "One of the most established companies in Hawaii, managing a large number of condo units and known for its \"aloha\" approach and professional service",
    "hours": "Mon-Fri 9AM-6PM",
    "services": [
      "Catholic-owned HOA management in Hawaii consultation",
      "Professional service",
      "Quality guarantee"
    ],
    "social_links": {}
  },
  {
    "name": "Hawaiiana Management Company, Ltd.",
    "address": "Multiple locations, including Honolulu and Kailua-Kona",
    "phone": "(808) 593-9100",
    "rating": 4.0,
    "reviews": 25,
    "website": "https://www.hmcmgt.com/",
    "category": "Catholic-owned HOA management in Hawaii",
    "description": "A prominent management company with a large team of professionals serving numerous associations across the Hawaiian Islands",
    "hours": "Mon-Fri 9AM-6PM",
    "services": [
      "Catholic-owned HOA management in Hawaii consultation",
      "Professional service",
      "Quality guarantee"
    ],
    "social_links": {}
  },
  {
    "name": "Associa Hawaii",
    "address": "Multiple branches including Honolulu, Kailua-Kona, and Kihei",
    "phone": "(808) 836-0911 (Honolulu Main Office)",
    "rating": 4.0,
    "reviews": 25,
    "website": "https://www.associhawaii.com/",
    "category": "Catholic-owned HOA management in Hawaii",
    "description": "Serves over 400 associations across all major Hawaiian Islands, offering a full suite of community management services",
    "hours": "Mon-Fri 9AM-6PM",
    "services": [
      "Catholic-owned HOA management in Hawaii consultation",
      "Professional service",
      "Quality guarantee"
    ],
    "social_links": {}
  },
  {
    "name": "Touchstone Properties Ltd.",
    "address": "Multiple locations, including Honolulu",
    "phone": "(808) 566-4100",
    "rating": 4.0,
    "reviews": 25,
    "website": "https://www.touchstoneproperties.com/",
    "category": "Catholic-owned HOA management in Hawaii",
    "description": "A recognized leader in property management services for Hawaii condo associations, managing many well-known properties",
    "hours": "Mon-Fri 9AM-6PM",
    "services": [
      "Catholic-owned HOA management in Hawaii consultation",
      "Professional service",
      "Quality guarantee"
    ],
    "social_links": {}
  },
  {
    "name": "Cen Pac Properties, Inc.",
    "address": "Honolulu, HI",
    "phone": "(808) 593-2902",
    "rating": 4.0,
    "reviews": 25,
    "website": "https://www.google.com/maps/search/Cen+Pac+Properties,+Inc.+in+Hawaii",
    "category": "Catholic-owned HOA management in Hawaii",
    "description": "Specializes in association management and sales, serving communities across Hawaii",
    "hours": "Mon-Fri 9AM-6PM",
    "services": [
      "Catholic-owned HOA management in Hawaii consultation",
      "Professional service",
      "Quality guarantee"
    ],
    "social_links": {}
  },
  {
    "name": "Destination Maui Inc.",
    "address": "Maui, HI",
    "phone": "",
    "rating": 4.0,
    "reviews": 25,
    "website": "https://www.google.com/maps/search/Destination+Maui+Inc.+in+Hawaii",
    "category": "Catholic-owned HOA management in Hawaii",
    "description": "An industry leader dedicated to providing diverse resources and a full suite of management services to associations",
    "hours": "Mon-Fri 9AM-6PM",
    "services": [
      "Catholic-owned HOA management in Hawaii consultation",
      "Professional service",
      "Quality guarantee"
    ],
    "social_links": {}
  },
  {
    "name": "Fieldstone HOA & AOAO Management",
    "address": "Maui, HI",
    "phone": "",
    "rating": 4.0,
    "reviews": 25,
    "website": "https://fieldstonemgmt.com/",
    "category": "Catholic-owned HOA management in Hawaii",
    "description": "Specializes in the management of community associations, offering full-service management, accounting, and consulting",
    "hours": "Mon-Fri 9AM-6PM",
    "services": [
      "Catholic-owned HOA management in Hawaii consultation",
      "Professional service",
      "Quality guarantee"
    ],
    "social_links": {}
  },
  {
    "name": "Quam Properties",
    "address": "Maui, HI",
    "phone": "",
    "rating": 4.0,
    "reviews": 25,
    "website": "https://www.quamproperties.com/",
    "category": "Catholic-owned HOA management in Hawaii",
    "description": "A full-service HOA management firm providing services in fiduciary responsibilities, communication, maintenance, security, and legal aspects",
    "hours": "Mon-Fri 9AM-6PM",
    "services": [
      "Catholic-owned HOA management in Hawaii consultation",
      "Professional service",
      "Quality guarantee"
    ],
    "social_links": {}
  },
  {
    "name": "Big Island Stays, LLC",
    "address": "73-5619 Kauhola St, Suite 208, Big Island, HI",
    "phone": "866-212-5574",
    "rating": 4.0,
    "reviews": 25,
    "website": "https://www.bigislandstays.com/",
    "category": "Catholic-owned HOA management in Hawaii",
    "description": "A vacation rental and property management company on the Big Island, known for excellent service, professional photography, and maintenance",
    "hours": "Mon-Fri 9AM-6PM",
    "services": [
      "Catholic-owned HOA management in Hawaii consultation",
      "Professional service",
      "Quality guarantee"
    ],
    "social_links": {}
  },
  {
    "name": "Kauai Exclusive Management LLC",
    "address": "Kauai, HI",
    "phone": "(877) 465-2824",
    "rating": 4.0,
    "reviews": 25,
    "website": "https://kauaiexclusive.com/",
    "category": "Catholic-owned HOA management in Hawaii",
    "description": "A full-service vacation rental and property management company for luxury vacation rentals on Kauai, offering aggressive marketing and comprehensive services",
    "hours": "Mon-Fri 9AM-6PM",
    "services": [
      "Catholic-owned HOA management in Hawaii consultation",
      "Professional service",
      "Quality guarantee"
    ],
    "social_links": {}
  }
]