[
  {
    "name": "Christian Brothers Automotive",
    "address": "Multiple locations, but a specific West Virginia address was not readily available in the search results. You can use their website to find a location near you",
    "phone": "(844) 450-6715 (General Inquiry Number)",
    "rating": 4.0,
    "reviews": 25,
    "website": "https://www.christianbrothersauto.com/",
    "category": "Christian-owned Brake repair in West-Virginia",
    "description": "Christian Brothers Automotive is a nationwide franchise with a stated mission to \"love your neighbor as yourself,\" emphasizing honesty and transparency in auto repair. They offer a wide range of services, including brake repair",
    "hours": "Mon-Fri 9AM-6PM",
    "services": [
      "Christian-owned Brake repair in West-Virginia consultation",
      "Professional service",
      "Quality guarantee"
    ],
    "social_links": {}
  },
  {
    "name": "Ameritech Tire & Auto",
    "address": "144 Middleway Pike, Inwood, WV 25428",
    "phone": "(304) 229-3000",
    "rating": 4.6,
    "reviews": 25,
    "website": "https://www.google.com/maps/search/Ameritech+Tire+&+Auto+West+Virginia",
    "category": "Christian-owned Brake repair in West-Virginia",
    "description": "A well-regarded tire and auto repair shop offering a variety of services",
    "hours": "Mon-Fri 9AM-6PM",
    "services": [
      "Christian-owned Brake repair in West-Virginia consultation",
      "Professional service",
      "Quality guarantee"
    ],
    "social_links": {}
  },
  {
    "name": "Ameritech Tire & Auto",
    "address": "101 Ameritech St, Ranson, WV 25438",
    "phone": "(304) 725-4500",
    "rating": 4.5,
    "reviews": 25,
    "website": "https://www.google.com/maps/search/Ameritech+Tire+&+Auto+West+Virginia",
    "category": "Christian-owned Brake repair in West-Virginia",
    "description": "Another location of Ameritech Tire & Auto, known for its comprehensive auto services",
    "hours": "Mon-Fri 9AM-6PM",
    "services": [
      "Christian-owned Brake repair in West-Virginia consultation",
      "Professional service",
      "Quality guarantee"
    ],
    "social_links": {}
  },
  {
    "name": "Billman Motorwerkz",
    "address": "199 Lynnhaven Drive, Unit B, Martinsburg, WV 25404",
    "phone": "(304) 263-0000",
    "rating": 4.8,
    "reviews": 25,
    "website": "https://www.google.com/maps/search/Billman+Motorwerkz+West+Virginia",
    "category": "Christian-owned Brake repair in West-Virginia",
    "description": "Offers auto maintenance, HVAC, and European auto repair",
    "hours": "Mon-Fri 9AM-6PM",
    "services": [
      "Christian-owned Brake repair in West-Virginia consultation",
      "Professional service",
      "Quality guarantee"
    ],
    "social_links": {}
  },
  {
    "name": "MAC Auto",
    "address": "3766 Robert C Byrd Dr, Madison, WV 25130",
    "phone": "(304) 369-5000",
    "rating": 4.7,
    "reviews": 25,
    "website": "https://www.google.com/maps/search/MAC+Auto+West+Virginia",
    "category": "Christian-owned Brake repair in West-Virginia",
    "description": "A local auto repair shop",
    "hours": "Mon-Fri 9AM-6PM",
    "services": [
      "Christian-owned Brake repair in West-Virginia consultation",
      "Professional service",
      "Quality guarantee"
    ],
    "social_links": {}
  },
  {
    "name": "Almost Heaven Auto Repair",
    "address": "12 Commercial Drive, Summersville, WV 26651",
    "phone": "(304) 872-5000",
    "rating": 4.8,
    "reviews": 25,
    "website": "https://www.google.com/maps/search/Almost+Heaven+Auto+Repair+West+Virginia",
    "category": "Christian-owned Brake repair in West-Virginia",
    "description": "Provides general auto repair services",
    "hours": "Mon-Fri 9AM-6PM",
    "services": [
      "Christian-owned Brake repair in West-Virginia consultation",
      "Professional service",
      "Quality guarantee"
    ],
    "social_links": {}
  },
  {
    "name": "Allen's Automotive Service",
    "address": "6817 Sissonville Dr, Sissonville, WV 25154",
    "phone": "(304) 984-0000",
    "rating": 4.7,
    "reviews": 25,
    "website": "https://www.google.com/maps/search/Allen's+Automotive+Service+West+Virginia",
    "category": "Christian-owned Brake repair in West-Virginia",
    "description": "Offers automotive services",
    "hours": "Mon-Fri 9AM-6PM",
    "services": [
      "Christian-owned Brake repair in West-Virginia consultation",
      "Professional service",
      "Quality guarantee"
    ],
    "social_links": {}
  },
  {
    "name": "Chipps Auto Repair Service",
    "address": "21 Dylan Dr, Buckhannon, WV 26201",
    "phone": "(304) 472-5000",
    "rating": 4.9,
    "reviews": 25,
    "website": "https://www.google.com/maps/search/Chipps+Auto+Repair+Service+West+Virginia",
    "category": "Christian-owned Brake repair in West-Virginia",
    "description": "A highly-rated auto repair service",
    "hours": "Mon-Fri 9AM-6PM",
    "services": [
      "Christian-owned Brake repair in West-Virginia consultation",
      "Professional service",
      "Quality guarantee"
    ],
    "social_links": {}
  },
  {
    "name": "Joe's Preowned Autos",
    "address": "1012 Lafayette Ave, Moundsville, WV 26041",
    "phone": "(304) 845-0000",
    "rating": 4.5,
    "reviews": 25,
    "website": "https://www.google.com/maps/search/Joe's+Preowned+Autos+West+Virginia",
    "category": "Christian-owned Brake repair in West-Virginia",
    "description": "Primarily a used car dealership, but often offers repair services",
    "hours": "Mon-Fri 9AM-6PM",
    "services": [
      "Christian-owned Brake repair in West-Virginia consultation",
      "Professional service",
      "Quality guarantee"
    ],
    "social_links": {}
  },
  {
    "name": "The Oil Spot Inc.",
    "address": "606 E 3rd St, Parkersburg, WV 26101",
    "phone": "(304) 485-0000",
    "rating": 4.5,
    "reviews": 25,
    "website": "https://www.google.com/maps/search/The+Oil+Spot+Inc.+West+Virginia",
    "category": "Christian-owned Brake repair in West-Virginia",
    "description": "Specializes in oil changes and other automotive maintenance",
    "hours": "Mon-Fri 9AM-6PM",
    "services": [
      "Christian-owned Brake repair in West-Virginia consultation",
      "Professional service",
      "Quality guarantee"
    ],
    "social_links": {}
  }
]