[
  {
    "name": "Montana Movers LLC",
    "address": "7070 Meadow Drive, Missoula, MT 59808",
    "phone": "(406) 309-0158",
    "rating": 4.5,
    "reviews": 25,
    "website": "https://www.montanamovers.com/",
    "category": "Bengali-speaking Local moving in Montana",
    "description": "Offers local and long-distance moving services, including packing, loading, and specialty moves",
    "hours": "Mon-Fri 9AM-6PM",
    "services": [
      "Bengali-speaking Local moving in Montana consultation",
      "Professional service",
      "Quality guarantee"
    ],
    "social_links": {}
  },
  {
    "name": "Montana Muscle Movers",
    "address": "Billings, MT (Specific address not publicly listed, contact for details)",
    "phone": "(406) 670-0030",
    "rating": 4.8,
    "reviews": 25,
    "website": "https://montanamusclemovers.com/",
    "category": "Bengali-speaking Local moving in Montana",
    "description": "A full-service, locally owned moving company in Billings, specializing in smooth and stress-free moves",
    "hours": "Mon-Fri 9AM-6PM",
    "services": [
      "Bengali-speaking Local moving in Montana consultation",
      "Professional service",
      "Quality guarantee"
    ],
    "social_links": {}
  },
  {
    "name": "Capital Transfer & Storage",
    "address": "Helena, MT (Specific address not publicly listed, contact for details)",
    "phone": "(406) 442-3970",
    "rating": 4.7,
    "reviews": 25,
    "website": "https://www.capitaltransfer.com/",
    "category": "Bengali-speaking Local moving in Montana",
    "description": "Family-owned and operated since 1949, offering residential, commercial moving, packing, and storage services",
    "hours": "Mon-Fri 9AM-6PM",
    "services": [
      "Bengali-speaking Local moving in Montana consultation",
      "Professional service",
      "Quality guarantee"
    ],
    "social_links": {}
  },
  {
    "name": "Allied Van Lines (Kalispell Agent)",
    "address": "Kalispell, MT (Specific address not publicly listed, contact for details)",
    "phone": "(406) 755-5000 (General inquiry line for agents)",
    "rating": 4.86,
    "reviews": 25,
    "website": "https://www.allied.com/",
    "category": "Bengali-speaking Local moving in Montana",
    "description": "An experienced agent offering comprehensive moving services for household and commercial relocations",
    "hours": "Mon-Fri 9AM-6PM",
    "services": [
      "Bengali-speaking Local moving in Montana consultation",
      "Professional service",
      "Quality guarantee"
    ],
    "social_links": {}
  },
  {
    "name": "Batey's Moving & Delivery LLC",
    "address": "Helena, MT (Specific address not publicly listed, contact for details)",
    "phone": "(406) 442-3274",
    "rating": 4.6,
    "reviews": 25,
    "website": "https://www.bateysmoving.com/",
    "category": "Bengali-speaking Local moving in Montana",
    "description": "Locally owned and operated, serving the greater Helena area with moving, packing, unpacking, and delivery services",
    "hours": "Mon-Fri 9AM-6PM",
    "services": [
      "Bengali-speaking Local moving in Montana consultation",
      "Professional service",
      "Quality guarantee"
    ],
    "social_links": {}
  },
  {
    "name": "Allied Van Lines (Butte Agent)",
    "address": "Butte, MT (Specific address not publicly listed, contact for details)",
    "phone": "(406) 723-5421 (General inquiry line for agents)",
    "rating": 4.86,
    "reviews": 25,
    "website": "https://www.allied.com/",
    "category": "Bengali-speaking Local moving in Montana",
    "description": "A BBB-accredited, licensed, and bonded agent providing a range of moving services for local and long-distance relocations",
    "hours": "Mon-Fri 9AM-6PM",
    "services": [
      "Bengali-speaking Local moving in Montana consultation",
      "Professional service",
      "Quality guarantee"
    ],
    "social_links": {}
  },
  {
    "name": "Mainstream Movers of Montana, LLC",
    "address": "Great Falls, MT (Specific address not publicly listed, contact for details)",
    "phone": "(406) 761-7000",
    "rating": 4.7,
    "reviews": 25,
    "website": "https://www.mainstreammoversmt.com/",
    "category": "Bengali-speaking Local moving in Montana",
    "description": "Offers efficient, stress-free moving services for homes and offices, specializing in delicate or high-value items",
    "hours": "Mon-Fri 9AM-6PM",
    "services": [
      "Bengali-speaking Local moving in Montana consultation",
      "Professional service",
      "Quality guarantee"
    ],
    "social_links": {}
  },
  {
    "name": "Mesa Moving and Storage",
    "address": "Helena, MT and Bozeman, MT (Multiple locations, contact for specific address)",
    "phone": "(406) 587-5153 (Bozeman) / (406) 442-3274 (Helena)",
    "rating": 4.7,
    "reviews": 25,
    "website": "https://www.mesamoving.com/",
    "category": "Bengali-speaking Local moving in Montana",
    "description": "A full-service moving and storage company with locations throughout the Intermountain West, specializing in local, long-distance, and commercial moves",
    "hours": "Mon-Fri 9AM-6PM",
    "services": [
      "Bengali-speaking Local moving in Montana consultation",
      "Professional service",
      "Quality guarantee"
    ],
    "social_links": {}
  },
  {
    "name": "TWO MEN AND A TRUCK",
    "address": "Missoula, MT and Billings, MT (Multiple locations, contact for specific address)",
    "phone": "(406) 541-8700 (Missoula) / (406) 252-6683 (Billings)",
    "rating": 4.58,
    "reviews": 25,
    "website": "https://twomenandatruck.com/",
    "category": "Bengali-speaking Local moving in Montana",
    "description": "A family-operated moving and portable storage company offering a range of services including packing, local, and long-distance moves",
    "hours": "Mon-Fri 9AM-6PM",
    "services": [
      "Bengali-speaking Local moving in Montana consultation",
      "Professional service",
      "Quality guarantee"
    ],
    "social_links": {}
  },
  {
    "name": "Montana Transfer and Storage",
    "address": "Missoula, MT (Specific address not publicly listed, contact for details)",
    "phone": "(406) 728-8080",
    "rating": 4.6,
    "reviews": 25,
    "website": "https://www.montanatransfer.com/",
    "category": "Bengali-speaking Local moving in Montana",
    "description": "Offers a variety of moving and storage services, including residential and commercial moving, packing, and loading",
    "hours": "Mon-Fri 9AM-6PM",
    "services": [
      "Bengali-speaking Local moving in Montana consultation",
      "Professional service",
      "Quality guarantee"
    ],
    "social_links": {}
  }
]