[
  {
    "name": "Detroit Barber Co.",
    "address": "Multiple locations including 2000 Michigan Ave, Detroit, MI 48216 (Corktown) and 14940 Kercheval Ave, Grosse Pointe Park, MI 48230",
    "phone": "(313) 945-0005 (Corktown)",
    "rating": 4.0,
    "reviews": 25,
    "website": "https://www.detroitbarberco.com/",
    "category": "Arabic-speaking Beard styling in Michigan",
    "description": "Offers a range of services including beard trims, shaping, and hot towel shaves in a cozy, contemporary atmosphere",
    "hours": "Mon-Fri 9AM-6PM",
    "services": [
      "Arabic-speaking Beard styling in Michigan consultation",
      "Professional service",
      "Quality guarantee"
    ],
    "social_links": {}
  },
  {
    "name": "Jude's Barbershop",
    "address": "Not explicitly listed in search results, but mentioned as a \"go-to barbershop for beards in town.\"",
    "phone": "",
    "rating": 4.0,
    "reviews": 25,
    "website": "https://www.google.com/maps/search/Jude's+Barbershop+in+Michigan",
    "category": "Arabic-speaking Beard styling in Michigan",
    "description": "Specializes in beard grooming, offering trims, shaping, and conditioning treatments",
    "hours": "Mon-Fri 9AM-6PM",
    "services": [
      "Arabic-speaking Beard styling in Michigan consultation",
      "Professional service",
      "Quality guarantee"
    ],
    "social_links": {}
  },
  {
    "name": "Eastgate Barbershop",
    "address": "Eastgate neighborhood of Grand Rapids, MI. Specific address not provided in search results",
    "phone": "",
    "rating": 4.0,
    "reviews": 25,
    "website": "https://www.google.com/maps/search/Eastgate+Barbershop+in+Michigan",
    "category": "Arabic-speaking Beard styling in Michigan",
    "description": "Offers haircuts and beard trims with a focus on personalized styling",
    "hours": "Mon-Fri 9AM-6PM",
    "services": [
      "Arabic-speaking Beard styling in Michigan consultation",
      "Professional service",
      "Quality guarantee"
    ],
    "social_links": {}
  },
  {
    "name": "Barber MoeB",
    "address": "1905 S Haggerty Rd, Canton, MI 48188",
    "phone": "(734) 747-4902",
    "rating": 4.0,
    "reviews": 25,
    "website": "https://www.google.com/maps/search/Barber+MoeB+in+Michigan",
    "category": "Arabic-speaking Beard styling in Michigan",
    "description": "A private studio offering precision fades and beard detailing with one-on-one service",
    "hours": "Mon-Fri 9AM-6PM",
    "services": [
      "Arabic-speaking Beard styling in Michigan consultation",
      "Professional service",
      "Quality guarantee"
    ],
    "social_links": {}
  },
  {
    "name": "Henchmen House",
    "address": "Creston Neighborhood, Grand Rapids, MI. Specific address not provided in search results",
    "phone": "",
    "rating": 4.0,
    "reviews": 25,
    "website": "https://www.henchmenhouse.com/",
    "category": "Arabic-speaking Beard styling in Michigan",
    "description": "Specializes in custom haircuts, beard sculpting, and shaves in a modern-meets-classic atmosphere",
    "hours": "Mon-Fri 9AM-6PM",
    "services": [
      "Arabic-speaking Beard styling in Michigan consultation",
      "Professional service",
      "Quality guarantee"
    ],
    "social_links": {}
  },
  {
    "name": "Jerry's Barbershop",
    "address": "39439 Joy Rd, Canton, MI 48187",
    "phone": "(734) 454-0920",
    "rating": 4.0,
    "reviews": 25,
    "website": "https://www.google.com/maps/search/Jerry's+Barbershop+in+Michigan",
    "category": "Arabic-speaking Beard styling in Michigan",
    "description": "Offers classic cuts, fades, and beard styling, trimming, and shaves in a welcoming environment",
    "hours": "Mon-Fri 9AM-6PM",
    "services": [
      "Arabic-speaking Beard styling in Michigan consultation",
      "Professional service",
      "Quality guarantee"
    ],
    "social_links": {}
  },
  {
    "name": "Arthur Barbershop",
    "address": "28444 Joy Rd, Livonia, MI 48150",
    "phone": "+1 734-744-4674",
    "rating": 4.0,
    "reviews": 25,
    "website": "https://www.google.com/maps/search/Arthur+Barbershop+in+Michigan",
    "category": "Arabic-speaking Beard styling in Michigan",
    "description": "Blends cutting-edge styles with expert craftsmanship, offering beard trimming and other grooming services",
    "hours": "Mon-Fri 9AM-6PM",
    "services": [
      "Arabic-speaking Beard styling in Michigan consultation",
      "Professional service",
      "Quality guarantee"
    ],
    "social_links": {}
  },
  {
    "name": "Hair Mechanix",
    "address": "Multiple locations including 508 W. 14 Mile Rd, Troy, MI 48083 and 36729 Van Dyke Ave, Sterling Heights, MI 48312",
    "phone": "(248) 206-7935 (Troy) and (586) 722-7896 (Sterling Heights)",
    "rating": 4.0,
    "reviews": 25,
    "website": "https://hairmechanix.com/",
    "category": "Arabic-speaking Beard styling in Michigan",
    "description": "Provides a range of services including haircuts and beard trimming, with a focus on men's grooming",
    "hours": "Mon-Fri 9AM-6PM",
    "services": [
      "Arabic-speaking Beard styling in Michigan consultation",
      "Professional service",
      "Quality guarantee"
    ],
    "social_links": {}
  },
  {
    "name": "Yousifcutz",
    "address": "3554 15 Mile Rd, Sterling Heights, 48310",
    "phone": "",
    "rating": 4.0,
    "reviews": 25,
    "website": "https://www.google.com/maps/search/Yousifcutz+in+Michigan",
    "category": "Arabic-speaking Beard styling in Michigan",
    "description": "Offers professional haircuts and beard services, with a focus on creating a transformative look",
    "hours": "Mon-Fri 9AM-6PM",
    "services": [
      "Arabic-speaking Beard styling in Michigan consultation",
      "Professional service",
      "Quality guarantee"
    ],
    "social_links": {}
  },
  {
    "name": "Forefathers Grooming Barber Shop",
    "address": "Sterling Heights, MI. Specific address not provided in search results",
    "phone": "(586) 580-3591",
    "rating": 4.0,
    "reviews": 25,
    "website": "https://www.forefathersgrooming.com/",
    "category": "Arabic-speaking Beard styling in Michigan",
    "description": "A premier barbershop specializing in men's styling and grooming, with a relaxed, family-friendly atmosphere",
    "hours": "Mon-Fri 9AM-6PM",
    "services": [
      "Arabic-speaking Beard styling in Michigan consultation",
      "Professional service",
      "Quality guarantee"
    ],
    "social_links": {}
  }
]