[
  {
    "name": "Iris Eye Care & Contact Lens Gallery",
    "address": "6550 Holly Avenue NE, Suite D1-B, Albuquerque, NM 87113",
    "phone": "505-294-3000",
    "rating": 4.0,
    "reviews": 25,
    "website": "https://www.irismedicalgroup.com/",
    "category": "Alaska-Native-owned Contact lens fitting in New-Mexico",
    "description": "Offers comprehensive preventive and general optometry services, including contact lens options",
    "hours": "Mon-Fri 9AM-6PM",
    "services": [
      "Alaska-Native-owned Contact lens fitting in New-Mexico consultation",
      "Professional service",
      "Quality guarantee"
    ],
    "social_links": {}
  },
  {
    "name": "Albuquerque Vision Care and Advanced Eyewear",
    "address": "(Multiple locations, one listed is in Albuquerque, NM)",
    "phone": "505-332-2020",
    "rating": 4.0,
    "reviews": 25,
    "website": "https://www.albuquerquevisioncare.com/",
    "category": "Alaska-Native-owned Contact lens fitting in New-Mexico",
    "description": "Provides a full range of optometry services, including contact lenses and specialty contact lenses",
    "hours": "Mon-Fri 9AM-6PM",
    "services": [
      "Alaska-Native-owned Contact lens fitting in New-Mexico consultation",
      "Professional service",
      "Quality guarantee"
    ],
    "social_links": {}
  },
  {
    "name": "Eye Associates of New Mexico",
    "address": "Multiple locations across New Mexico, including Farmington, Los Alamos, Los Lunas, Rio Rancho, and Roswell",
    "phone": "(505) 983-6613 (General Inquiries)",
    "rating": 4.0,
    "reviews": 25,
    "website": "https://www.eyeassociatesofnewmexico.com/",
    "category": "Alaska-Native-owned Contact lens fitting in New-Mexico",
    "description": "Offers a wide range of contact lens services, including fittings for specialty contacts",
    "hours": "Mon-Fri 9AM-6PM",
    "services": [
      "Alaska-Native-owned Contact lens fitting in New-Mexico consultation",
      "Professional service",
      "Quality guarantee"
    ],
    "social_links": {}
  },
  {
    "name": "Eyes of NM",
    "address": "Albuquerque, NM (Specific address not detailed in search snippet)",
    "phone": "505-828-3937",
    "rating": 4.0,
    "reviews": 25,
    "website": "https://www.eyesofnm.com/",
    "category": "Alaska-Native-owned Contact lens fitting in New-Mexico",
    "description": "Provides family eye care, including specialty contact lenses",
    "hours": "Mon-Fri 9AM-6PM",
    "services": [
      "Alaska-Native-owned Contact lens fitting in New-Mexico consultation",
      "Professional service",
      "Quality guarantee"
    ],
    "social_links": {}
  },
  {
    "name": "Contact Lens Gallery",
    "address": "6321 Riverside Plaza Lane, Suite B, Albuquerque, NM 87120",
    "phone": "",
    "rating": 4.0,
    "reviews": 25,
    "website": "https://www.contactlensgallery.com/",
    "category": "Alaska-Native-owned Contact lens fitting in New-Mexico",
    "description": "Offers a wide selection of frames, lens options, and contacts",
    "hours": "Mon-Fri 9AM-6PM",
    "services": [
      "Alaska-Native-owned Contact lens fitting in New-Mexico consultation",
      "Professional service",
      "Quality guarantee"
    ],
    "social_links": {}
  },
  {
    "name": "Casey Optical Co.",
    "address": "Albuquerque, NM (Specific address not detailed in search snippet)",
    "phone": "",
    "rating": 4.0,
    "reviews": 25,
    "website": "https://www.caseyoptical.com/",
    "category": "Alaska-Native-owned Contact lens fitting in New-Mexico",
    "description": "Provides eye care, including services for contacts and glasses",
    "hours": "Mon-Fri 9AM-6PM",
    "services": [
      "Alaska-Native-owned Contact lens fitting in New-Mexico consultation",
      "Professional service",
      "Quality guarantee"
    ],
    "social_links": {}
  },
  {
    "name": "Contact Lens Associates",
    "address": "4253 Montgomery Blvd NE Suite 110, Albuquerque, NM 87109",
    "phone": "505-883-2550",
    "rating": 4.0,
    "reviews": 25,
    "website": "https://www.contactlensassociatesnm.com/",
    "category": "Alaska-Native-owned Contact lens fitting in New-Mexico",
    "description": "Offers comprehensive eye exams, contact lenses, and eyeglasses, with a focus on individual vision needs",
    "hours": "Mon-Fri 9AM-6PM",
    "services": [
      "Alaska-Native-owned Contact lens fitting in New-Mexico consultation",
      "Professional service",
      "Quality guarantee"
    ],
    "social_links": {}
  },
  {
    "name": "Sandia Vision Clinic",
    "address": "Heights Office: 3701 Eubank Blvd. NE, Albuquerque, NM 87111; Nob Hill Office: 112 Hermosa Dr. SE, Albuquerque, NM 87108",
    "phone": "505-298-2020 (Heights Office)",
    "rating": 4.0,
    "reviews": 25,
    "website": "https://www.sandiavision.com/",
    "category": "Alaska-Native-owned Contact lens fitting in New-Mexico",
    "description": "Provides contact lens exams and fittings, including specialty contacts for hard-to-fit eyes",
    "hours": "Mon-Fri 9AM-6PM",
    "services": [
      "Alaska-Native-owned Contact lens fitting in New-Mexico consultation",
      "Professional service",
      "Quality guarantee"
    ],
    "social_links": {}
  },
  {
    "name": "Modern Eyez",
    "address": "Rio Rancho, NM (Specific address not detailed in search snippet)",
    "phone": "505-896-2010",
    "rating": 4.0,
    "reviews": 25,
    "website": "https://www.modern-eyez.com/",
    "category": "Alaska-Native-owned Contact lens fitting in New-Mexico",
    "description": "Offers comprehensive eye exams and quality lenses and frames in Rio Rancho",
    "hours": "Mon-Fri 9AM-6PM",
    "services": [
      "Alaska-Native-owned Contact lens fitting in New-Mexico consultation",
      "Professional service",
      "Quality guarantee"
    ],
    "social_links": {}
  },
  {
    "name": "First Nations Community HealthSource - Vision Clinic",
    "address": "505 Madeira Dr SE, Albuquerque, NM 87108",
    "phone": "505-944-7397",
    "rating": 4.0,
    "reviews": 25,
    "website": "https://www.fnch.org/vision-clinic/",
    "category": "Alaska-Native-owned Contact lens fitting in New-Mexico",
    "description": "Offers a comprehensive range of optometry services, including eye examinations and treatment of eye diseases. They also have a Free Eyeglass Program for Native Americans",
    "hours": "Mon-Fri 9AM-6PM",
    "services": [
      "Alaska-Native-owned Contact lens fitting in New-Mexico consultation",
      "Professional service",
      "Quality guarantee"
    ],
    "social_links": {}
  }
]