[
  {
    "name": "Palmer Moving Services",
    "address": "1010 Souter St, Dearborn, MI 48124",
    "phone": "(313) 584-0000",
    "rating": 4.7,
    "reviews": 25,
    "website": "https://palmermoving.com/",
    "category": "Atheist-owned Office moving in Michigan",
    "description": "Palmer Moving Services has been helping families and businesses move throughout Michigan for over 100 years, offering customized solutions for office moves, including packing, storage, and IT equipment transport",
    "hours": "Mon-Fri 9AM-6PM",
    "services": [
      "Atheist-owned Office moving in Michigan consultation",
      "Professional service",
      "Quality guarantee"
    ],
    "social_links": {}
  },
  {
    "name": "Michigan Office Movers",
    "address": "30300 W 8 Mile Rd, Livonia, MI 48152",
    "phone": "(248) 243-1000",
    "rating": 4.5,
    "reviews": 25,
    "website": "https://www.michiganofficemovers.com/",
    "category": "Atheist-owned Office moving in Michigan",
    "description": "Michigan Office Movers provides comprehensive commercial moving and relocation services, storage, warehousing, and office furniture sales and support across Southern Michigan",
    "hours": "Mon-Fri 9AM-6PM",
    "services": [
      "Atheist-owned Office moving in Michigan consultation",
      "Professional service",
      "Quality guarantee"
    ],
    "social_links": {}
  },
  {
    "name": "Big Lake Movers",
    "address": "1117 W 17th St, Holland, MI 49423",
    "phone": "(616) 422-4500",
    "rating": 4.9,
    "reviews": 25,
    "website": "https://biglakemovers.com/",
    "category": "Atheist-owned Office moving in Michigan",
    "description": "Big Lake Movers offers efficient and hassle-free office moves throughout Michigan, with services tailored to business needs, including strategic loading, unpacking, and furniture reassembly",
    "hours": "Mon-Fri 9AM-6PM",
    "services": [
      "Atheist-owned Office moving in Michigan consultation",
      "Professional service",
      "Quality guarantee"
    ],
    "social_links": {}
  },
  {
    "name": "University Moving and Storage",
    "address": "37500 W 12 Mile Rd, Farmington Hills, MI 48331",
    "phone": "(248) 474-4400",
    "rating": 4.6,
    "reviews": 25,
    "website": "https://www.universitymoving.com/",
    "category": "Atheist-owned Office moving in Michigan",
    "description": "University Moving and Storage provides experienced office moving and storage services in Farmington Hills and surrounding areas, focusing on efficient and cost-effective moves to get businesses back to work quickly",
    "hours": "Mon-Fri 9AM-6PM",
    "services": [
      "Atheist-owned Office moving in Michigan consultation",
      "Professional service",
      "Quality guarantee"
    ],
    "social_links": {}
  },
  {
    "name": "TWO MEN AND A TRUCK",
    "address": "3521 East Cork Street, Kalamazoo, MI 49001",
    "phone": "(269) 503-8488",
    "rating": 4.62,
    "reviews": 25,
    "website": "https://twomenandatruck.com/",
    "category": "Atheist-owned Office moving in Michigan",
    "description": "TWO MEN AND A TRUCK offers professional local and long-distance moving services, including seamless corporate and commercial moving with efficient packing, storage, and furniture assembly/disassembly",
    "hours": "Mon-Fri 9AM-6PM",
    "services": [
      "Atheist-owned Office moving in Michigan consultation",
      "Professional service",
      "Quality guarantee"
    ],
    "social_links": {}
  },
  {
    "name": "Colonial Van Lines",
    "address": "10800 W. Outer Drive, Detroit, MI 48235 (This is a general service area, specific office may vary)",
    "phone": "(800) 825-5500",
    "rating": 4.7,
    "reviews": 25,
    "website": "https://www.colonialvanlines.com/",
    "category": "Atheist-owned Office moving in Michigan",
    "description": "Colonial Van Lines provides professional packing, storage, and interstate transportation services throughout Michigan, with extensively trained crews and an intuitive mobile app for quotes",
    "hours": "Mon-Fri 9AM-6PM",
    "services": [
      "Atheist-owned Office moving in Michigan consultation",
      "Professional service",
      "Quality guarantee"
    ],
    "social_links": {}
  },
  {
    "name": "Elite Haulerz",
    "address": "1100 S Main St, Berrien Springs, MI 49103",
    "phone": "(269) 240-3518",
    "rating": 4.8,
    "reviews": 25,
    "website": "https://elitehaulerz.com/",
    "category": "Atheist-owned Office moving in Michigan",
    "description": "Elite Haulerz is a locally owned and operated moving company serving Michigan and Northern Indiana, offering secure and stress-free moving solutions for both household and office relocations at reasonable costs",
    "hours": "Mon-Fri 9AM-6PM",
    "services": [
      "Atheist-owned Office moving in Michigan consultation",
      "Professional service",
      "Quality guarantee"
    ],
    "social_links": {}
  },
  {
    "name": "Men on the Move",
    "address": "30000 Arnold Dr, New Boston, MI 48164",
    "phone": "(734) 721-6666",
    "rating": 4.5,
    "reviews": 25,
    "website": "https://www.menonthemove.com/",
    "category": "Atheist-owned Office moving in Michigan",
    "description": "Men on the Move has been providing professional local and long-distance moving services in Michigan since 1991, offering free moving quotes, packaging supplies, and handling short-notice or emergency moves",
    "hours": "Mon-Fri 9AM-6PM",
    "services": [
      "Atheist-owned Office moving in Michigan consultation",
      "Professional service",
      "Quality guarantee"
    ],
    "social_links": {}
  },
  {
    "name": "Handle With Care Moving",
    "address": "3070 Lakeview Dr, Ann Arbor, MI 48103",
    "phone": "(734) 429-7777",
    "rating": 4.8,
    "reviews": 25,
    "website": "https://handlewithcaremoving.com/",
    "category": "Atheist-owned Office moving in Michigan",
    "description": "Handle With Care Moving specializes in local residential and commercial moving services in Ann Arbor, MI, known for reliability and professionalism, offering packing, unpacking, and fragile-only packing",
    "hours": "Mon-Fri 9AM-6PM",
    "services": [
      "Atheist-owned Office moving in Michigan consultation",
      "Professional service",
      "Quality guarantee"
    ],
    "social_links": {}
  },
  {
    "name": "Powell Relocation Group",
    "address": "5435 Corporate Dr, Ste 100, Grand Rapids, MI 49512",
    "phone": "(616) 949-1000",
    "rating": 5.0,
    "reviews": 25,
    "website": "https://powellrelocation.com/",
    "category": "Atheist-owned Office moving in Michigan",
    "description": "Powell Relocation Group, serving the Grand Rapids, MI area since 1963, offers a comprehensive array of services including packing, crating, and moving valuable items, with a strong reputation for customer satisfaction",
    "hours": "Mon-Fri 9AM-6PM",
    "services": [
      "Atheist-owned Office moving in Michigan consultation",
      "Professional service",
      "Quality guarantee"
    ],
    "social_links": {}
  }
]