[
  {
    "name": "Silk Rose Spa",
    "address": "6911 Richmond Hwy, Suite 405B, Alexandria, VA 22306",
    "phone": "(703) 338-6658",
    "rating": 4.0,
    "reviews": 25,
    "website": "https://www.silkrosespa.com/",
    "category": "Black-owned Spa services in Virginia",
    "description": "Silk Rose Spa offers a serene retreat focused on renewal, with services like luxurious facials and soothing massages designed to nurture body and soul",
    "hours": "Mon-Fri 9AM-6PM",
    "services": [
      "Black-owned Spa services in Virginia consultation",
      "Professional service",
      "Quality guarantee"
    ],
    "social_links": {}
  },
  {
    "name": "Unique Skin And Beauty Bar llc",
    "address": "3707 Virginia Beach Boulevard Suite 210, Virginia Beach 23452, Virginia, United States",
    "phone": "7575290808",
    "rating": 4.0,
    "reviews": 25,
    "website": "http://Uniqueskinbar.com",
    "category": "Black-owned Spa services in Virginia",
    "description": "This business offers a range of services including spa lymphatic massages, facials, waxing, foot detox, body contouring, chemical peels, and full body massages, aiming for overall wellness for all clients",
    "hours": "Mon-Fri 9AM-6PM",
    "services": [
      "Black-owned Spa services in Virginia consultation",
      "Professional service",
      "Quality guarantee"
    ],
    "social_links": {}
  },
  {
    "name": "DMV Therapeutics",
    "address": "Alexandria, VA 22314 (specific street address not provided in search results)",
    "phone": "",
    "rating": 4.0,
    "reviews": 25,
    "website": "https://www.massagebook.com/Massage-Therapists/us/va/alexandria/DMV-Therapeutics/",
    "category": "Black-owned Spa services in Virginia",
    "description": "DMV Therapeutics offers a combination of relaxation massage and bodywork therapy for pain management in an upscale, beautiful, and serene environment. They are also in-network with Aetna Healthcare",
    "hours": "Mon-Fri 9AM-6PM",
    "services": [
      "Black-owned Spa services in Virginia consultation",
      "Professional service",
      "Quality guarantee"
    ],
    "social_links": {}
  },
  {
    "name": "Main Street Spa and Wellness Center",
    "address": "24 South Auburn Avenue, Richmond, VA 23221",
    "phone": "(804) 644-1084",
    "rating": 4.0,
    "reviews": 25,
    "website": "https://www.google.com/maps/search/Main+Street+Spa+and+Wellness+Center+in+Virginia",
    "category": "Black-owned Spa services in Virginia",
    "description": "This spa and wellness center is listed as a Black-owned business offering spa services",
    "hours": "Mon-Fri 9AM-6PM",
    "services": [
      "Black-owned Spa services in Virginia consultation",
      "Professional service",
      "Quality guarantee"
    ],
    "social_links": {}
  },
  {
    "name": "Browz & Esthetics Spa by Jamelle Monet",
    "address": "3016 W Mercury Blvd, Hampton, VA 23666",
    "phone": "(757) 833-4054",
    "rating": 4.0,
    "reviews": 25,
    "website": "https://www.google.com/maps/search/Browz+&+Esthetics+Spa+by+Jamelle+Monet+in+Virginia",
    "category": "Black-owned Spa services in Virginia",
    "description": "This spa offers esthetic services and is listed as a Black-owned business",
    "hours": "Mon-Fri 9AM-6PM",
    "services": [
      "Black-owned Spa services in Virginia consultation",
      "Professional service",
      "Quality guarantee"
    ],
    "social_links": {}
  },
  {
    "name": "Fredericksburg Mobile Massage",
    "address": "9681 Patriot Hwy., suite 12, Fredericksburg, VA 22407",
    "phone": "(540) 881-0774",
    "rating": 4.0,
    "reviews": 25,
    "website": "https://www.google.com/maps/search/Fredericksburg+Mobile+Massage+in+Virginia",
    "category": "Black-owned Spa services in Virginia",
    "description": "This business provides mobile massage services and is listed as a Black-owned spa service",
    "hours": "Mon-Fri 9AM-6PM",
    "services": [
      "Black-owned Spa services in Virginia consultation",
      "Professional service",
      "Quality guarantee"
    ],
    "social_links": {}
  },
  {
    "name": "Adiva Naturals",
    "address": "1802 E Franklin St, Richmond, VA 23223",
    "phone": "804-683-3738",
    "rating": 4.0,
    "reviews": 25,
    "website": "https://www.google.com/maps/search/Adiva+Naturals+in+Virginia",
    "category": "Black-owned Spa services in Virginia",
    "description": "Adiva Naturals is a Black-owned business offering natural health and wellness products and services",
    "hours": "Mon-Fri 9AM-6PM",
    "services": [
      "Black-owned Spa services in Virginia consultation",
      "Professional service",
      "Quality guarantee"
    ],
    "social_links": {}
  },
  {
    "name": "Attevle Massage Therapy, LLC",
    "address": "2505 Pocoshock Pl, Ste 203, Richmond, VA 23236",
    "phone": "804-518-8450",
    "rating": 4.0,
    "reviews": 25,
    "website": "https://www.google.com/maps/search/Attevle+Massage+Therapy,+LLC+in+Virginia",
    "category": "Black-owned Spa services in Virginia",
    "description": "This is a Black-owned massage therapy service located in Richmond, Virginia",
    "hours": "Mon-Fri 9AM-6PM",
    "services": [
      "Black-owned Spa services in Virginia consultation",
      "Professional service",
      "Quality guarantee"
    ],
    "social_links": {}
  },
  {
    "name": "Healing Well Therapy",
    "address": "2801 McRae Rd., Ste 2-C, Richmond, VA 23235",
    "phone": "804-878-5810",
    "rating": 4.0,
    "reviews": 25,
    "website": "https://www.google.com/maps/search/Healing+Well+Therapy+in+Virginia",
    "category": "Black-owned Spa services in Virginia",
    "description": "Healing Well Therapy is a Black-owned business offering therapeutic services in Richmond, Virginia",
    "hours": "Mon-Fri 9AM-6PM",
    "services": [
      "Black-owned Spa services in Virginia consultation",
      "Professional service",
      "Quality guarantee"
    ],
    "social_links": {}
  },
  {
    "name": "Dawne Horizons Spa & Wellness Center",
    "address": "3174 Golansky Blvd Suite 202, Woodbridge, VA 22192 (located within Step Up Beauty Lounge)",
    "phone": "",
    "rating": 4.0,
    "reviews": 25,
    "website": "https://www.dawnehorizons.com/",
    "category": "Black-owned Spa services in Virginia",
    "description": "Dawne Horizons Spa & Wellness Center offers a spa experience with aromatherapy and gentle touch, aiming to help clients achieve pain-free and stress-free days. They also offer beauty services and wellness services such as detox and post-op BBL",
    "hours": "Mon-Fri 9AM-6PM",
    "services": [
      "Black-owned Spa services in Virginia consultation",
      "Professional service",
      "Quality guarantee"
    ],
    "social_links": {}
  }
]