[
  {
    "name": "Mac's Motors",
    "address": "245 E Main St Unit A, Pen Argyl, PA 18072",
    "phone": "(610) 881-4029",
    "rating": 4.0,
    "reviews": 25,
    "website": "https://www.google.com/maps/search/Mac's+Motors+in+Pennsylvania",
    "category": "Bengali-speaking State inspections in Pennsylvania",
    "description": "Offers Pennsylvania State Safety and Emissions Inspections",
    "hours": "Mon-Fri 9AM-6PM",
    "services": [
      "Bengali-speaking State inspections in Pennsylvania consultation",
      "Professional service",
      "Quality guarantee"
    ],
    "social_links": {}
  },
  {
    "name": "Goodyear Auto Service - Cranberry Township",
    "address": "1337 Old Freedom Road, Cranberry Township, PA 16066",
    "phone": "724-772-1780",
    "rating": 4.0,
    "reviews": 25,
    "website": "https://www.google.com/maps/search/Goodyear+Auto+Service+-+Cranberry+Township+in+Pennsylvania",
    "category": "Bengali-speaking State inspections in Pennsylvania",
    "description": "Offers Pennsylvania State Inspections",
    "hours": "Mon-Fri 9AM-6PM",
    "services": [
      "Bengali-speaking State inspections in Pennsylvania consultation",
      "Professional service",
      "Quality guarantee"
    ],
    "social_links": {}
  },
  {
    "name": "Goodyear Auto Service - West Mifflin",
    "address": "2055 Lebanon Church Road, West Mifflin, PA 15122",
    "phone": "412-655-4771",
    "rating": 4.0,
    "reviews": 25,
    "website": "https://www.google.com/maps/search/Goodyear+Auto+Service+-+West+Mifflin+in+Pennsylvania",
    "category": "Bengali-speaking State inspections in Pennsylvania",
    "description": "Offers Pennsylvania State Inspections",
    "hours": "Mon-Fri 9AM-6PM",
    "services": [
      "Bengali-speaking State inspections in Pennsylvania consultation",
      "Professional service",
      "Quality guarantee"
    ],
    "social_links": {}
  },
  {
    "name": "Goodyear Auto Service - Pittsburgh",
    "address": "5913 Station Street, Pittsburgh, PA 15206",
    "phone": "412-362-2660",
    "rating": 4.0,
    "reviews": 25,
    "website": "https://www.google.com/maps/search/Goodyear+Auto+Service+-+Pittsburgh+in+Pennsylvania",
    "category": "Bengali-speaking State inspections in Pennsylvania",
    "description": "Offers Pennsylvania State Inspections",
    "hours": "Mon-Fri 9AM-6PM",
    "services": [
      "Bengali-speaking State inspections in Pennsylvania consultation",
      "Professional service",
      "Quality guarantee"
    ],
    "social_links": {}
  },
  {
    "name": "Fred Beans Ford of Doylestown",
    "address": "175 Old Dublin Pike, Doylestown, PA 18901",
    "phone": "(215) 345-1000",
    "rating": 4.0,
    "reviews": 25,
    "website": "https://www.google.com/maps/search/Fred+Beans+Ford+of+Doylestown+in+Pennsylvania",
    "category": "Bengali-speaking State inspections in Pennsylvania",
    "description": "An official PennDOT Inspection Station offering state vehicle inspections",
    "hours": "Mon-Fri 9AM-6PM",
    "services": [
      "Bengali-speaking State inspections in Pennsylvania consultation",
      "Professional service",
      "Quality guarantee"
    ],
    "social_links": {}
  },
  {
    "name": "Fred Beans Ford of Langhorne",
    "address": "191 W. Lincoln Hwy, Langhorne, PA 19047",
    "phone": "(215) 750-2100",
    "rating": 4.0,
    "reviews": 25,
    "website": "https://www.google.com/maps/search/Fred+Beans+Ford+of+Langhorne+in+Pennsylvania",
    "category": "Bengali-speaking State inspections in Pennsylvania",
    "description": "An official PennDOT Inspection Station offering state vehicle inspections",
    "hours": "Mon-Fri 9AM-6PM",
    "services": [
      "Bengali-speaking State inspections in Pennsylvania consultation",
      "Professional service",
      "Quality guarantee"
    ],
    "social_links": {}
  },
  {
    "name": "Westhill Automotive Inc.",
    "address": "3586 Hubbard Middlesex Road, West Middlesex, PA 16159",
    "phone": "724-906-8013",
    "rating": 4.0,
    "reviews": 25,
    "website": "https://www.google.com/maps/search/Westhill+Automotive+Inc.+in+Pennsylvania",
    "category": "Bengali-speaking State inspections in Pennsylvania",
    "description": "A PA state inspection station that also offers emissions testing and repairs",
    "hours": "Mon-Fri 9AM-6PM",
    "services": [
      "Bengali-speaking State inspections in Pennsylvania consultation",
      "Professional service",
      "Quality guarantee"
    ],
    "social_links": {}
  },
  {
    "name": "Mavis Discount Tire - Philadelphia",
    "address": "4000 Chestnut St, Philadelphia, PA 19104",
    "phone": "215-386-1111",
    "rating": 4.0,
    "reviews": 25,
    "website": "https://www.google.com/maps/search/Mavis+Discount+Tire+-+Philadelphia+in+Pennsylvania",
    "category": "Bengali-speaking State inspections in Pennsylvania",
    "description": "Offers Pennsylvania vehicle inspections and emissions tests",
    "hours": "Mon-Fri 9AM-6PM",
    "services": [
      "Bengali-speaking State inspections in Pennsylvania consultation",
      "Professional service",
      "Quality guarantee"
    ],
    "social_links": {}
  },
  {
    "name": "Bill Ballon Automotive",
    "address": "164 39th St, Pittsburgh, PA 15201",
    "phone": "(412) 681-0433",
    "rating": 4.0,
    "reviews": 25,
    "website": "https://www.google.com/maps/search/Bill+Ballon+Automotive+in+Pennsylvania",
    "category": "Bengali-speaking State inspections in Pennsylvania",
    "description": "Offers PA State and Emissions Inspections",
    "hours": "Mon-Fri 9AM-6PM",
    "services": [
      "Bengali-speaking State inspections in Pennsylvania consultation",
      "Professional service",
      "Quality guarantee"
    ],
    "social_links": {}
  },
  {
    "name": "Engle's Body Shop",
    "address": "1000 E Main St, Lebanon, PA 17042",
    "phone": "(717) 273-7111",
    "rating": 4.0,
    "reviews": 25,
    "website": "https://www.google.com/maps/search/Engle's+Body+Shop+in+Pennsylvania",
    "category": "Bengali-speaking State inspections in Pennsylvania",
    "description": "Offers automotive repair services and is likely a state inspection station",
    "hours": "Mon-Fri 9AM-6PM",
    "services": [
      "Bengali-speaking State inspections in Pennsylvania consultation",
      "Professional service",
      "Quality guarantee"
    ],
    "social_links": {}
  }
]