[
  {
    "name": "Ace Primary Care",
    "address": "9280 W. Post Road, Suite 120, Las Vegas, NV 89148",
    "phone": "(702) 476-1000",
    "rating": 4.0,
    "reviews": 25,
    "website": "https://aceprimarycare.com/",
    "category": "Asian-owned Primary care physicians in Nevada",
    "description": "Founded by Dr. Apeksha Desai, who was trained in India, this practice focuses on patient-centered care and long-term wellness. They also have Raghav Mishra, MD, and Jennilyn Chiu, APRN, on their team",
    "hours": "Mon-Fri 9AM-6PM",
    "services": [
      "Asian-owned Primary care physicians in Nevada consultation",
      "Professional service",
      "Quality guarantee"
    ],
    "social_links": {}
  },
  {
    "name": "Siena Hills Primary Care",
    "address": "2789 Sunridge Hts Pkwy Suite 100, Henderson, NV 89052",
    "phone": "(702) 614-0850",
    "rating": 4.0,
    "reviews": 25,
    "website": "https://www.sienahillspc.com/",
    "category": "Asian-owned Primary care physicians in Nevada",
    "description": "This practice includes Dr. Robert Gong, MD, who specializes in Internal Medicine",
    "hours": "Mon-Fri 9AM-6PM",
    "services": [
      "Asian-owned Primary care physicians in Nevada consultation",
      "Professional service",
      "Quality guarantee"
    ],
    "social_links": {}
  },
  {
    "name": "Health First Medical Center",
    "address": "2651 Paseo Verde Pkwy #170, Henderson, NV 89074",
    "phone": "(702) 734-4377",
    "rating": 4.0,
    "reviews": 25,
    "website": "https://www.healthfirstnv.com/",
    "category": "Asian-owned Primary care physicians in Nevada",
    "description": "Dr. Hussain, the Medical Director, graduated from Dow Medical College in Karachi, Pakistan, and specializes in Internal Medicine and Geriatrics",
    "hours": "Mon-Fri 9AM-6PM",
    "services": [
      "Asian-owned Primary care physicians in Nevada consultation",
      "Professional service",
      "Quality guarantee"
    ],
    "social_links": {}
  },
  {
    "name": "Chamian Medical Group",
    "address": "7325 South Pecos Road Suite 102, Las Vegas, Nevada 89120",
    "phone": "(702) 982-6402",
    "rating": 4.0,
    "reviews": 25,
    "website": "https://chamianmedicalgroup.com/",
    "category": "Asian-owned Primary care physicians in Nevada",
    "description": "This primary care practice has providers including Noel M. Chamian, MD, and Francesca Chamian, MD",
    "hours": "Mon-Fri 9AM-6PM",
    "services": [
      "Asian-owned Primary care physicians in Nevada consultation",
      "Professional service",
      "Quality guarantee"
    ],
    "social_links": {}
  },
  {
    "name": "Sunrise Primary Care",
    "address": "2075 East Flamingo Road, Las Vegas, NV 89119",
    "phone": "(702) 867-9339",
    "rating": 4.0,
    "reviews": 25,
    "website": "https://www.valleyhealthsystem.org/doctors/sunrise-primary-care",
    "category": "Asian-owned Primary care physicians in Nevada",
    "description": "This practice specializes in Internal Medicine",
    "hours": "Mon-Fri 9AM-6PM",
    "services": [
      "Asian-owned Primary care physicians in Nevada consultation",
      "Professional service",
      "Quality guarantee"
    ],
    "social_links": {}
  },
  {
    "name": "Spring Valley Primary Care",
    "address": "5380 S. Rainbow Blvd, Las Vegas, NV 89118",
    "phone": "(702) 867-9339",
    "rating": 4.0,
    "reviews": 25,
    "website": "https://www.valleyhealthsystem.org/doctors/spring-valley-primary-care",
    "category": "Asian-owned Primary care physicians in Nevada",
    "description": "This facility offers Family Medicine services",
    "hours": "Mon-Fri 9AM-6PM",
    "services": [
      "Asian-owned Primary care physicians in Nevada consultation",
      "Professional service",
      "Quality guarantee"
    ],
    "social_links": {}
  },
  {
    "name": "Dr. Jenny Ha, MD",
    "address": "Henderson, NV (Specific address not provided in search results)",
    "phone": "",
    "rating": 4.0,
    "reviews": 25,
    "website": "https://www.google.com/maps/search/Dr.+Jenny+Ha,+MD+in+Nevada",
    "category": "Asian-owned Primary care physicians in Nevada",
    "description": "A family medicine physician with over 20 years of experience, who graduated from the University of California, Irvine School of Medicine",
    "hours": "Mon-Fri 9AM-6PM",
    "services": [
      "Asian-owned Primary care physicians in Nevada consultation",
      "Professional service",
      "Quality guarantee"
    ],
    "social_links": {}
  },
  {
    "name": "Park's Oriental Medical Clinic",
    "address": "120 Continental Dr, Reno, NV 89509",
    "phone": "(775) 786-3302",
    "rating": 4.0,
    "reviews": 25,
    "website": "https://www.google.com/maps/search/Park's+Oriental+Medical+Clinic+in+Nevada",
    "category": "Asian-owned Primary care physicians in Nevada",
    "description": "This clinic specializes in Oncology and is located in Reno",
    "hours": "Mon-Fri 9AM-6PM",
    "services": [
      "Asian-owned Primary care physicians in Nevada consultation",
      "Professional service",
      "Quality guarantee"
    ],
    "social_links": {}
  },
  {
    "name": "Dr. Chima Osuoha MD",
    "address": "Las Vegas, NV (Specific address not provided in search results)",
    "phone": "",
    "rating": 5.0,
    "reviews": 25,
    "website": "https://www.google.com/maps/search/Dr.+Chima+Osuoha+MD+in+Nevada",
    "category": "Asian-owned Primary care physicians in Nevada",
    "description": "Board-certified in internal medicine with over 11 years of clinical experience in Las Vegas",
    "hours": "Mon-Fri 9AM-6PM",
    "services": [
      "Asian-owned Primary care physicians in Nevada consultation",
      "Professional service",
      "Quality guarantee"
    ],
    "social_links": {}
  },
  {
    "name": "Renown Medical Group \u2013 Los Altos North",
    "address": "Sparks, NV (Specific address not provided in search results)",
    "phone": "(775) 982-5000",
    "rating": 4.0,
    "reviews": 25,
    "website": "https://renown.org/medical-groups/renown-medical-group-los-altos-north",
    "category": "Asian-owned Primary care physicians in Nevada",
    "description": "This group offers primary care for all ages and includes Dr. Tim Nguyen, MD",
    "hours": "Mon-Fri 9AM-6PM",
    "services": [
      "Asian-owned Primary care physicians in Nevada consultation",
      "Professional service",
      "Quality guarantee"
    ],
    "social_links": {}
  }
]