[
  {
    "name": "Straight Talk CPAs",
    "address": "104 E. 2nd Street, Suite 200, Casper, WY 82601",
    "phone": "(307) 224-1000",
    "rating": 4.0,
    "reviews": 25,
    "website": "https://straighttalkcpas.com/",
    "category": "Agnostic-owned Accounts payable management in Wyoming",
    "description": "Offers accounts payable management, consulting, and outsourcing services, utilizing cloud-based systems",
    "hours": "Mon-Fri 9AM-6PM",
    "services": [
      "Agnostic-owned Accounts payable management in Wyoming consultation",
      "Professional service",
      "Quality guarantee"
    ],
    "social_links": {}
  },
  {
    "name": "Adams Brown, Strategic Allies and CPAs",
    "address": "1710 Carey Ave, Cheyenne, WY 82001",
    "phone": "(307) 632-7000",
    "rating": 4.0,
    "reviews": 25,
    "website": "https://www.adamsbrown.com/",
    "category": "Agnostic-owned Accounts payable management in Wyoming",
    "description": "Provides outsourced accounting services, including accounts payable management, for businesses in Wyoming",
    "hours": "Mon-Fri 9AM-6PM",
    "services": [
      "Agnostic-owned Accounts payable management in Wyoming consultation",
      "Professional service",
      "Quality guarantee"
    ],
    "social_links": {}
  },
  {
    "name": "Clockwork Accounting & Financial Services",
    "address": "1050 S. Sheridan Ave, Suite 200, Casper, WY 82601",
    "phone": "(307) 672-2401",
    "rating": 4.0,
    "reviews": 25,
    "website": "https://clockworkaccounting.com/",
    "category": "Agnostic-owned Accounts payable management in Wyoming",
    "description": "Offers outsourced accounting and bookkeeping services, including accounts payable and receivables management",
    "hours": "Mon-Fri 9AM-6PM",
    "services": [
      "Agnostic-owned Accounts payable management in Wyoming consultation",
      "Professional service",
      "Quality guarantee"
    ],
    "social_links": {}
  },
  {
    "name": "Accurate Accounting",
    "address": "100 E. 5th Street, Suite 200, Casper, WY 82601",
    "phone": "(307) 234-0900",
    "rating": 4.0,
    "reviews": 25,
    "website": "https://accurateaccounting.net/",
    "category": "Agnostic-owned Accounts payable management in Wyoming",
    "description": "Provides comprehensive accounting services, including accounts payable and receivable management",
    "hours": "Mon-Fri 9AM-6PM",
    "services": [
      "Agnostic-owned Accounts payable management in Wyoming consultation",
      "Professional service",
      "Quality guarantee"
    ],
    "social_links": {}
  },
  {
    "name": "Wyoming State Auditor's Office - Accounts Payable",
    "address": "Herschler Building East, 122 W. 25th Street, Suite E400, Cheyenne, WY 82002",
    "phone": "(307) 777-7831",
    "rating": 4.0,
    "reviews": 25,
    "website": "https://audit.wyo.gov/",
    "category": "Agnostic-owned Accounts payable management in Wyoming",
    "description": "Manages accounts payable for the state of Wyoming",
    "hours": "Mon-Fri 9AM-6PM",
    "services": [
      "Agnostic-owned Accounts payable management in Wyoming consultation",
      "Professional service",
      "Quality guarantee"
    ],
    "social_links": {}
  },
  {
    "name": "Indinero",
    "address": "While Indinero serves clients nationwide, their Wyoming presence is not specified with a physical address. They have offices in various locations, and their services can be accessed remotely",
    "phone": "(800) 220-1294",
    "rating": 5.0,
    "reviews": 25,
    "website": "https://www.indinero.com/",
    "category": "Agnostic-owned Accounts payable management in Wyoming",
    "description": "Offers finance and accounting outsourcing, including financial process optimization and accounting management",
    "hours": "Mon-Fri 9AM-6PM",
    "services": [
      "Agnostic-owned Accounts payable management in Wyoming consultation",
      "Professional service",
      "Quality guarantee"
    ],
    "social_links": {}
  }
]