[
  {
    "name": "ProFix Printer Repair",
    "address": "(Serves Denver Metro Area, home base in south Denver Metro)",
    "phone": "720-242-6583",
    "rating": 4.0,
    "reviews": 25,
    "website": "https://www.profixprinterrepair.com/",
    "category": "Catholic-owned On-site printer repair in Colorado",
    "description": "Offers on-site laser printer, copier, and fax repair, specializing in HP printers. They serve the Denver Metro area and offer a 90-day warranty on parts and a 30-day warranty on labor",
    "hours": "Mon-Fri 9AM-6PM",
    "services": [
      "Catholic-owned On-site printer repair in Colorado consultation",
      "Professional service",
      "Quality guarantee"
    ],
    "social_links": {}
  },
  {
    "name": "MIDCOM Service Group",
    "address": "(Serves Colorado, with hubs for dispatch)",
    "phone": "800-643-2664",
    "rating": 4.0,
    "reviews": 25,
    "website": "https://www.midcomdata.com/",
    "category": "Catholic-owned On-site printer repair in Colorado",
    "description": "Provides fast on-site printer repair for various printer types including thermal label, line, dot-matrix, laser, and HP DesignJet plotters. They offer a 30-day warranty",
    "hours": "Mon-Fri 9AM-6PM",
    "services": [
      "Catholic-owned On-site printer repair in Colorado consultation",
      "Professional service",
      "Quality guarantee"
    ],
    "social_links": {}
  },
  {
    "name": "MIDCOM Data Technologies (Denver)",
    "address": "(Serves Denver, CO)",
    "phone": "303-536-6684",
    "rating": 4.0,
    "reviews": 25,
    "website": "https://www.midcomdata.com/printer-repair-denver/",
    "category": "Catholic-owned On-site printer repair in Colorado",
    "description": "Offers fast and on-site printer repair in Denver for thermal label, line, dot-matrix, laser printers, and plotters. They also provide printer maintenance contracts",
    "hours": "Mon-Fri 9AM-6PM",
    "services": [
      "Catholic-owned On-site printer repair in Colorado consultation",
      "Professional service",
      "Quality guarantee"
    ],
    "social_links": {}
  },
  {
    "name": "Zs Tech Solutions LLC",
    "address": "Colorado Springs, CO",
    "phone": "719-330-0799",
    "rating": 4.0,
    "reviews": 25,
    "website": "https://www.zstechsolutionco.com/",
    "category": "Catholic-owned On-site printer repair in Colorado",
    "description": "Offers professional printer repair services in Colorado Springs for HP, Canon, Epson, and other brands, including cleaning, maintenance, and ink refills",
    "hours": "Mon-Fri 9AM-6PM",
    "services": [
      "Catholic-owned On-site printer repair in Colorado consultation",
      "Professional service",
      "Quality guarantee"
    ],
    "social_links": {}
  },
  {
    "name": "B2B Direct",
    "address": "Denver/Boulder metro area, CO",
    "phone": "303-684-8725",
    "rating": 4.0,
    "reviews": 25,
    "website": "https://www.b2bdirect.com/printer-repair-service/",
    "category": "Catholic-owned On-site printer repair in Colorado",
    "description": "Provides on-site laser printer repair for brands like Hewlett Packard, Brother, Canon, Dell, Kyocera, and Lexmark in the Denver/Boulder metro area. They also offer Managed Print Services",
    "hours": "Mon-Fri 9AM-6PM",
    "services": [
      "Catholic-owned On-site printer repair in Colorado consultation",
      "Professional service",
      "Quality guarantee"
    ],
    "social_links": {}
  },
  {
    "name": "NETSIC's",
    "address": "Denver, Boulder, Ft Collins, CO (and north to Cheyenne)",
    "phone": "303-999-0428",
    "rating": 4.0,
    "reviews": 25,
    "website": "https://www.netsic.com/printer-repair-services/",
    "category": "Catholic-owned On-site printer repair in Colorado",
    "description": "Offers timely on-site and remote printer repair services in Denver and surrounding areas, servicing various printer types and brands",
    "hours": "Mon-Fri 9AM-6PM",
    "services": [
      "Catholic-owned On-site printer repair in Colorado consultation",
      "Professional service",
      "Quality guarantee"
    ],
    "social_links": {}
  },
  {
    "name": "MIDCOM Data Technologies (Colorado Springs)",
    "address": "Colorado Springs, CO",
    "phone": "719-476-0550",
    "rating": 4.0,
    "reviews": 25,
    "website": "https://www.midcomdata.com/printer-repair-colorado-springs/",
    "category": "Catholic-owned On-site printer repair in Colorado",
    "description": "Provides reliable printer repair services in Colorado Springs for various printer types, including thermal, laser, and dot-matrix printers. They also offer maintenance contracts",
    "hours": "Mon-Fri 9AM-6PM",
    "services": [
      "Catholic-owned On-site printer repair in Colorado consultation",
      "Professional service",
      "Quality guarantee"
    ],
    "social_links": {}
  },
  {
    "name": "Printer Repair Denver",
    "address": "16350 E Arapahoe Rd Ste 108 #208, Foxfield, CO 80016 (Mailing Address); Repairs received at: ABT | 11999 E Caley Ave. Centennial, CO 80111",
    "phone": "",
    "rating": 4.0,
    "reviews": 25,
    "website": "https://printerrepairdenver.com/",
    "category": "Catholic-owned On-site printer repair in Colorado",
    "description": "Offers on-site and walk-in repair services for printers, copiers, and fax machines in the Denver Metro area, servicing a wide range of brands",
    "hours": "Mon-Fri 9AM-6PM",
    "services": [
      "Catholic-owned On-site printer repair in Colorado consultation",
      "Professional service",
      "Quality guarantee"
    ],
    "social_links": {}
  },
  {
    "name": "The Printer Repair Group of Denver, CO",
    "address": "Denver, CO and surrounding areas",
    "phone": "720-204-5964",
    "rating": 4.0,
    "reviews": 25,
    "website": "https://www.printerrepairgroup.com/denver/",
    "category": "Catholic-owned On-site printer repair in Colorado",
    "description": "Provides fast, affordable on-site printer repairs for businesses in Denver and surrounding areas, specializing in laser printer repairs",
    "hours": "Mon-Fri 9AM-6PM",
    "services": [
      "Catholic-owned On-site printer repair in Colorado consultation",
      "Professional service",
      "Quality guarantee"
    ],
    "social_links": {}
  },
  {
    "name": "Complete Business Systems",
    "address": "(Serves Colorado Front Range)",
    "phone": "303-467-9080",
    "rating": 4.0,
    "reviews": 25,
    "website": "https://www.completebusinesssystems.com/",
    "category": "Catholic-owned On-site printer repair in Colorado",
    "description": "A locally owned company offering office printers, copiers, managed network services, and IT support. They are factory-trained and authorized to service many brands",
    "hours": "Mon-Fri 9AM-6PM",
    "services": [
      "Catholic-owned On-site printer repair in Colorado consultation",
      "Professional service",
      "Quality guarantee"
    ],
    "social_links": {}
  }
]