[
  {
    "name": "Moss Adams",
    "address": "Multiple locations, including Denver, CO. (Specific address not provided in search results)",
    "phone": "(303) 291-3100 (Denver office)",
    "rating": 4.0,
    "reviews": 25,
    "website": "https://www.mossadams.com/",
    "category": "American-Indian-owned Tax strategy in Colorado",
    "description": "A large accounting, consulting, and wealth management firm that serves various industries, including potentially tribal organizations",
    "hours": "Mon-Fri 9AM-6PM",
    "services": [
      "American-Indian-owned Tax strategy in Colorado consultation",
      "Professional service",
      "Quality guarantee"
    ],
    "social_links": {}
  },
  {
    "name": "Baker Tilly",
    "address": "Multiple locations, including Denver, CO. (Specific address not provided in search results)",
    "phone": "(303) 830-0400 (Denver office)",
    "rating": 4.0,
    "reviews": 25,
    "website": "https://www.bakertilly.com/",
    "category": "American-Indian-owned Tax strategy in Colorado",
    "description": "Provides tribal consulting services, navigating regulatory requirements and supporting community initiatives",
    "hours": "Mon-Fri 9AM-6PM",
    "services": [
      "American-Indian-owned Tax strategy in Colorado consultation",
      "Professional service",
      "Quality guarantee"
    ],
    "social_links": {}
  },
  {
    "name": "Origin CPA Group",
    "address": "Boulder, CO (Specific address not provided in search results)",
    "phone": "(303) 442-3300",
    "rating": 4.0,
    "reviews": 25,
    "website": "https://www.origincpagroup.com/",
    "category": "American-Indian-owned Tax strategy in Colorado",
    "description": "A full-service CPA firm providing tax advisory, tax consultancy, and accounting services to businesses and individuals",
    "hours": "Mon-Fri 9AM-6PM",
    "services": [
      "American-Indian-owned Tax strategy in Colorado consultation",
      "Professional service",
      "Quality guarantee"
    ],
    "social_links": {}
  },
  {
    "name": "365 Tax Strategy",
    "address": "Fort Collins, CO: 4025 Automation Way, Unit D3, Fort Collins, Colorado. Denver, CO: 2145 Kipling Ave, Lakewood, Colorado",
    "phone": "Fort Collins: 970-430-5167; Denver: 303-237-2221",
    "rating": 4.0,
    "reviews": 25,
    "website": "https://www.365taxstrategy.com/",
    "category": "American-Indian-owned Tax strategy in Colorado",
    "description": "Offers tax preparation and lifetime tax strategy planning for high-income individuals and business owners",
    "hours": "Mon-Fri 9AM-6PM",
    "services": [
      "American-Indian-owned Tax strategy in Colorado consultation",
      "Professional service",
      "Quality guarantee"
    ],
    "social_links": {}
  },
  {
    "name": "Hinkle + Landers, PC",
    "address": "Not specified for Colorado, but serves New Mexico Indian Tribes and Pueblos",
    "phone": "",
    "rating": 4.0,
    "reviews": 25,
    "website": "https://www.hinkle-cpas.com/",
    "category": "American-Indian-owned Tax strategy in Colorado",
    "description": "Provides accounting and auditing services for Indian Tribes and Pueblos, with expertise in tribal finances",
    "hours": "Mon-Fri 9AM-6PM",
    "services": [
      "American-Indian-owned Tax strategy in Colorado consultation",
      "Professional service",
      "Quality guarantee"
    ],
    "social_links": {}
  }
]