[
  {
    "name": "Native American Rehabilitation Association of the Northwest (NARA NW Dental Clinic)",
    "address": "12750 Southeast Stark Street, Building E, Portland, OR 97233",
    "phone": "(971) 347-3009",
    "rating": 4.0,
    "reviews": 25,
    "website": "https://www.naranorthwest.org/projects/dental-clinic/",
    "category": "Alaska-Native-owned Endodontics in Washington",
    "description": "Provides comprehensive dental care, including endodontics, with a focus on serving Native Americans and Alaskan Natives",
    "hours": "Mon-Fri 9AM-6PM",
    "services": [
      "Alaska-Native-owned Endodontics in Washington consultation",
      "Professional service",
      "Quality guarantee"
    ],
    "social_links": {}
  },
  {
    "name": "The NATIVE Project",
    "address": "1803 W Maxwell, Spokane, WA, 99201",
    "phone": "(509) 483-7535",
    "rating": 4.0,
    "reviews": 25,
    "website": "https://www.nativeproject.org/",
    "category": "Alaska-Native-owned Endodontics in Washington",
    "description": "Offers comprehensive dental care for all people, including preventative, repair, and emergency services",
    "hours": "Mon-Fri 9AM-6PM",
    "services": [
      "Alaska-Native-owned Endodontics in Washington consultation",
      "Professional service",
      "Quality guarantee"
    ],
    "social_links": {}
  },
  {
    "name": "Seattle Indian Health Board",
    "address": "611 12th Avenue South, Seattle, WA 98144",
    "phone": "(206) 324\u20139360",
    "rating": 4.0,
    "reviews": 25,
    "website": "https://www.sihb.org/",
    "category": "Alaska-Native-owned Endodontics in Washington",
    "description": "Provides a range of dental services, including root canals, for the Native community",
    "hours": "Mon-Fri 9AM-6PM",
    "services": [
      "Alaska-Native-owned Endodontics in Washington consultation",
      "Professional service",
      "Quality guarantee"
    ],
    "social_links": {}
  },
  {
    "name": "Chehalis Tribal Health Clinic",
    "address": "420 Nowanut Road, Oakville WA 98568",
    "phone": "360-273-5911",
    "rating": 4.0,
    "reviews": 25,
    "website": "http://www.chehalistribe.org/resources-services/index.html",
    "category": "Alaska-Native-owned Endodontics in Washington",
    "description": "Offers health services including dental care",
    "hours": "Mon-Fri 9AM-6PM",
    "services": [
      "Alaska-Native-owned Endodontics in Washington consultation",
      "Professional service",
      "Quality guarantee"
    ],
    "social_links": {}
  },
  {
    "name": "Colville Indian Health Center",
    "address": "29 Sandpoil Street, Nespelem WA 99155",
    "phone": "509-634-2920",
    "rating": 4.0,
    "reviews": 25,
    "website": "http://www.colvilletribes.com/tribalclinic.htm",
    "category": "Alaska-Native-owned Endodontics in Washington",
    "description": "Provides tribal health services, including dental care",
    "hours": "Mon-Fri 9AM-6PM",
    "services": [
      "Alaska-Native-owned Endodontics in Washington consultation",
      "Professional service",
      "Quality guarantee"
    ],
    "social_links": {}
  },
  {
    "name": "Hoh Tribe",
    "address": "2464 Lower Hoh Road, Forks WA 98331",
    "phone": "360-374-6582",
    "rating": 4.0,
    "reviews": 25,
    "website": "http://hohtribe-nsn.org/index.html",
    "category": "Alaska-Native-owned Endodontics in Washington",
    "description": "Offers various tribal services, which may include dental care",
    "hours": "Mon-Fri 9AM-6PM",
    "services": [
      "Alaska-Native-owned Endodontics in Washington consultation",
      "Professional service",
      "Quality guarantee"
    ],
    "social_links": {}
  },
  {
    "name": "Jamestown Family Health Center",
    "address": "1033 Old Blyn Highway, Sequim WA 98382",
    "phone": "360-683-1109",
    "rating": 4.0,
    "reviews": 25,
    "website": "http://www.jamestowntribe.org/programs/hhs/hhs_dental.htm",
    "category": "Alaska-Native-owned Endodontics in Washington",
    "description": "Provides health and human services, including dental care",
    "hours": "Mon-Fri 9AM-6PM",
    "services": [
      "Alaska-Native-owned Endodontics in Washington consultation",
      "Professional service",
      "Quality guarantee"
    ],
    "social_links": {}
  },
  {
    "name": "Kalispel Tribe Community Center",
    "address": "1821 N. LeClerc Road, Usk, WA 99280",
    "phone": "509-445-1147",
    "rating": 4.0,
    "reviews": 25,
    "website": "http://www.kalispeltribe.com/medical-dental-clinic/",
    "category": "Alaska-Native-owned Endodontics in Washington",
    "description": "Offers medical and dental clinic services",
    "hours": "Mon-Fri 9AM-6PM",
    "services": [
      "Alaska-Native-owned Endodontics in Washington consultation",
      "Professional service",
      "Quality guarantee"
    ],
    "social_links": {}
  },
  {
    "name": "Lower Elwha Health Center",
    "address": "243511 Highway 101 W, Port Angeles WA 98363",
    "phone": "360-452-6252 ext 18",
    "rating": 4.0,
    "reviews": 25,
    "website": "https://www.google.com/maps/search/Lower+Elwha+Health+Center+in+Washington",
    "category": "Alaska-Native-owned Endodontics in Washington",
    "description": "Provides health center services",
    "hours": "Mon-Fri 9AM-6PM",
    "services": [
      "Alaska-Native-owned Endodontics in Washington consultation",
      "Professional service",
      "Quality guarantee"
    ],
    "social_links": {}
  },
  {
    "name": "Squaxin Island Dental Clinic",
    "address": "(Specific address not provided in search results, but serves the Squaxin Island Community)",
    "phone": "",
    "rating": 4.0,
    "reviews": 25,
    "website": "https://www.google.com/maps/search/Squaxin+Island+Dental+Clinic+in+Washington",
    "category": "Alaska-Native-owned Endodontics in Washington",
    "description": "Provides dental care to the Squaxin Island Community, with dentists specializing in various procedures",
    "hours": "Mon-Fri 9AM-6PM",
    "services": [
      "Alaska-Native-owned Endodontics in Washington consultation",
      "Professional service",
      "Quality guarantee"
    ],
    "social_links": {}
  }
]