[
  {
    "name": "Ingram Insurance",
    "address": "Bowling Green, KY",
    "phone": "(270) 781-8181",
    "rating": 4.0,
    "reviews": 25,
    "website": "https://www.google.com/maps/search/Ingram+Insurance+in+Kentucky",
    "category": "Arabic-speaking Casualty insurance in Kentucky",
    "description": "Offers policies for auto, home, business, health, and life insurance",
    "hours": "Mon-Fri 9AM-6PM",
    "services": [
      "Arabic-speaking Casualty insurance in Kentucky consultation",
      "Professional service",
      "Quality guarantee"
    ],
    "social_links": {}
  },
  {
    "name": "Bennett Insurance Agency",
    "address": "Owensboro, KY",
    "phone": "",
    "rating": 4.0,
    "reviews": 25,
    "website": "https://www.google.com/maps/search/Bennett+Insurance+Agency+in+Kentucky",
    "category": "Arabic-speaking Casualty insurance in Kentucky",
    "description": "Provides personal and business insurance, specializing in home, auto, life, and business",
    "hours": "Mon-Fri 9AM-6PM",
    "services": [
      "Arabic-speaking Casualty insurance in Kentucky consultation",
      "Professional service",
      "Quality guarantee"
    ],
    "social_links": {}
  },
  {
    "name": "AssuredPartners (Covington Office)",
    "address": "Covington, KY",
    "phone": "(859) 581-2088",
    "rating": 4.0,
    "reviews": 25,
    "website": "https://www.google.com/maps/search/AssuredPartners+(Covington+Office)+in+Kentucky",
    "category": "Arabic-speaking Casualty insurance in Kentucky",
    "description": "Specializes in property & casualty insurance, employee benefits, and personal insurance",
    "hours": "Mon-Fri 9AM-6PM",
    "services": [
      "Arabic-speaking Casualty insurance in Kentucky consultation",
      "Professional service",
      "Quality guarantee"
    ],
    "social_links": {}
  },
  {
    "name": "Storm Insurance LLC",
    "address": "Owensboro, KY",
    "phone": "270-685-2438",
    "rating": 4.0,
    "reviews": 25,
    "website": "https://www.google.com/maps/search/Storm+Insurance+LLC+in+Kentucky",
    "category": "Arabic-speaking Casualty insurance in Kentucky",
    "description": "Provides property and casualty insurance coverage for homeowners and business owners",
    "hours": "Mon-Fri 9AM-6PM",
    "services": [
      "Arabic-speaking Casualty insurance in Kentucky consultation",
      "Professional service",
      "Quality guarantee"
    ],
    "social_links": {}
  },
  {
    "name": "AssuredPartners (Bowling Green Office)",
    "address": "Bowling Green, KY",
    "phone": "(270) 781-8181",
    "rating": 4.0,
    "reviews": 25,
    "website": "https://www.google.com/maps/search/AssuredPartners+(Bowling+Green+Office)+in+Kentucky",
    "category": "Arabic-speaking Casualty insurance in Kentucky",
    "description": "Helps clients manage risk and meet financial goals with property and casualty, employee benefits, and personal insurance",
    "hours": "Mon-Fri 9AM-6PM",
    "services": [
      "Arabic-speaking Casualty insurance in Kentucky consultation",
      "Professional service",
      "Quality guarantee"
    ],
    "social_links": {}
  },
  {
    "name": "Ohio Valley Insurance",
    "address": "Owensboro, KY",
    "phone": "",
    "rating": 4.0,
    "reviews": 25,
    "website": "https://www.google.com/maps/search/Ohio+Valley+Insurance+in+Kentucky",
    "category": "Arabic-speaking Casualty insurance in Kentucky",
    "description": "Offers life and health insurance along with a full line of property and casualty products",
    "hours": "Mon-Fri 9AM-6PM",
    "services": [
      "Arabic-speaking Casualty insurance in Kentucky consultation",
      "Professional service",
      "Quality guarantee"
    ],
    "social_links": {}
  },
  {
    "name": "Greater Lexington Insurance Agency, Inc.",
    "address": "Lexington, KY",
    "phone": "859-224-2477",
    "rating": 4.0,
    "reviews": 25,
    "website": "https://www.google.com/maps/search/Greater+Lexington+Insurance+Agency,+Inc.+in+Kentucky",
    "category": "Arabic-speaking Casualty insurance in Kentucky",
    "description": "Offers business insurance, personal insurance, and employee benefits solutions",
    "hours": "Mon-Fri 9AM-6PM",
    "services": [
      "Arabic-speaking Casualty insurance in Kentucky consultation",
      "Professional service",
      "Quality guarantee"
    ],
    "social_links": {}
  },
  {
    "name": "The Downs Agency",
    "address": "Bowling Green, KY",
    "phone": "",
    "rating": 4.0,
    "reviews": 25,
    "website": "https://www.google.com/maps/search/The+Downs+Agency+in+Kentucky",
    "category": "Arabic-speaking Casualty insurance in Kentucky",
    "description": "Provides auto, homeowners, and business/commercial insurance",
    "hours": "Mon-Fri 9AM-6PM",
    "services": [
      "Arabic-speaking Casualty insurance in Kentucky consultation",
      "Professional service",
      "Quality guarantee"
    ],
    "social_links": {}
  },
  {
    "name": "Carr Insurance Agency",
    "address": "Bowling Green, KY",
    "phone": "(270) 781-5300",
    "rating": 4.0,
    "reviews": 25,
    "website": "https://www.google.com/maps/search/Carr+Insurance+Agency+in+Kentucky",
    "category": "Arabic-speaking Casualty insurance in Kentucky",
    "description": "Offers auto, health, life, and business insurance",
    "hours": "Mon-Fri 9AM-6PM",
    "services": [
      "Arabic-speaking Casualty insurance in Kentucky consultation",
      "Professional service",
      "Quality guarantee"
    ],
    "social_links": {}
  },
  {
    "name": "Bray And Oakley Insurance Agency",
    "address": "3061 Fieldstone Way Ste 300, Lexington, KY 40513",
    "phone": "800-353-9517",
    "rating": 4.0,
    "reviews": 25,
    "website": "https://www.google.com/maps/search/Bray+And+Oakley+Insurance+Agency+in+Kentucky",
    "category": "Arabic-speaking Casualty insurance in Kentucky",
    "description": "An independent insurance agency serving individuals, families, and businesses",
    "hours": "Mon-Fri 9AM-6PM",
    "services": [
      "Arabic-speaking Casualty insurance in Kentucky consultation",
      "Professional service",
      "Quality guarantee"
    ],
    "social_links": {}
  }
]