[
  {
    "name": "Beauregard Equipment",
    "address": "28 Jasper Mine Rd, Colchester, VT 05446",
    "phone": "(802) 655-1000",
    "rating": 4.0,
    "reviews": 25,
    "website": "http://www.beauregardequipment.com/",
    "category": "Catholic-owned Equipment procurement in Vermont",
    "description": "Dealer of construction, municipal, forestry, and agricultural equipment",
    "hours": "Mon-Fri 9AM-6PM",
    "services": [
      "Catholic-owned Equipment procurement in Vermont consultation",
      "Professional service",
      "Quality guarantee"
    ],
    "social_links": {}
  },
  {
    "name": "Wood's CRW Corp.",
    "address": "1077 US-2, Williston, VT 05495",
    "phone": "(802) 864-7000",
    "rating": 4.0,
    "reviews": 25,
    "website": "https://www.woodscrw.com/",
    "category": "Catholic-owned Equipment procurement in Vermont",
    "description": "Heavy equipment distributor specializing in construction equipment solutions",
    "hours": "Mon-Fri 9AM-6PM",
    "services": [
      "Catholic-owned Equipment procurement in Vermont consultation",
      "Professional service",
      "Quality guarantee"
    ],
    "social_links": {}
  },
  {
    "name": "EquipNet",
    "address": "While EquipNet operates nationally, their services are available in Vermont. Specific Vermont office address not provided",
    "phone": "(781) 817-1600",
    "rating": 4.0,
    "reviews": 25,
    "website": "https://www.equipnet.com/",
    "category": "Catholic-owned Equipment procurement in Vermont",
    "description": "Offers an Equipment Procurement Program for savings on new and used equipment",
    "hours": "Mon-Fri 9AM-6PM",
    "services": [
      "Catholic-owned Equipment procurement in Vermont consultation",
      "Professional service",
      "Quality guarantee"
    ],
    "social_links": {}
  },
  {
    "name": "Alta Material Handling",
    "address": "While the search result mentions East Syracuse, NY, they serve Vermont. Specific Vermont office address not provided",
    "phone": "(315) 452-0000",
    "rating": 4.0,
    "reviews": 25,
    "website": "https://www.google.com/maps/search/Alta+Material+Handling+in+Vermont",
    "category": "Catholic-owned Equipment procurement in Vermont",
    "description": "Distributor of new and pre-owned heavy and material handling equipment",
    "hours": "Mon-Fri 9AM-6PM",
    "services": [
      "Catholic-owned Equipment procurement in Vermont consultation",
      "Professional service",
      "Quality guarantee"
    ],
    "social_links": {}
  },
  {
    "name": "F.W. Webb Company",
    "address": "Multiple locations, including in Vermont. A specific procurement-focused address is not listed",
    "phone": "(800) 272-0770",
    "rating": 4.0,
    "reviews": 25,
    "website": "https://www.fwwebb.com/",
    "category": "Catholic-owned Equipment procurement in Vermont",
    "description": "Distributor of material handling containers and equipment",
    "hours": "Mon-Fri 9AM-6PM",
    "services": [
      "Catholic-owned Equipment procurement in Vermont consultation",
      "Professional service",
      "Quality guarantee"
    ],
    "social_links": {}
  },
  {
    "name": "Motion Industries, Inc.",
    "address": "Multiple locations, including in Vermont. A specific procurement-focused address is not listed",
    "phone": "(800) 526-9328",
    "rating": 4.0,
    "reviews": 25,
    "website": "https://www.motionindustries.com/",
    "category": "Catholic-owned Equipment procurement in Vermont",
    "description": "Distributor of material handling equipment",
    "hours": "Mon-Fri 9AM-6PM",
    "services": [
      "Catholic-owned Equipment procurement in Vermont consultation",
      "Professional service",
      "Quality guarantee"
    ],
    "social_links": {}
  },
  {
    "name": "Fastenal Company",
    "address": "1000 Brattleboro Rd, Brattleboro, VT 05301",
    "phone": "(802) 257-5100",
    "rating": 4.0,
    "reviews": 25,
    "website": "https://www.fastenal.com/",
    "category": "Catholic-owned Equipment procurement in Vermont",
    "description": "Distributor of material handling equipment, including carts, trucks, and conveyors",
    "hours": "Mon-Fri 9AM-6PM",
    "services": [
      "Catholic-owned Equipment procurement in Vermont consultation",
      "Professional service",
      "Quality guarantee"
    ],
    "social_links": {}
  },
  {
    "name": "Vermont Catholic Charities Inc.",
    "address": "47 Center St, Rutland, VT 05701 (This is one of their locations; they have multiple)",
    "phone": "(802) 775-5650 (General inquiries for Rutland)",
    "rating": 4.0,
    "reviews": 25,
    "website": "https://www.vermontcatholic.org/services/vermont-catholic-charities/",
    "category": "Catholic-owned Equipment procurement in Vermont",
    "description": "Provides social services and support, not directly equipment procurement, but is a Catholic-affiliated organization",
    "hours": "Mon-Fri 9AM-6PM",
    "services": [
      "Catholic-owned Equipment procurement in Vermont consultation",
      "Professional service",
      "Quality guarantee"
    ],
    "social_links": {}
  },
  {
    "name": "Roman Catholic Diocese of Burlington",
    "address": "55 Joy Drive, South Burlington, VT 05403",
    "phone": "(802) 658-6110",
    "rating": 4.0,
    "reviews": 25,
    "website": "https://www.vermontcatholic.org/",
    "category": "Catholic-owned Equipment procurement in Vermont",
    "description": "The administrative body for Catholic parishes and organizations in Vermont. They oversee insurance and facilities, which may involve procurement indirectly",
    "hours": "Mon-Fri 9AM-6PM",
    "services": [
      "Catholic-owned Equipment procurement in Vermont consultation",
      "Professional service",
      "Quality guarantee"
    ],
    "social_links": {}
  },
  {
    "name": "Vermont Catholic Professionals (VCP)",
    "address": "55 Joy Drive, South Burlington, VT 05403 (Diocesan Offices)",
    "phone": "(802) 858-1100 (General inquiries for VCP)",
    "rating": 4.0,
    "reviews": 25,
    "website": "https://www.vermontcatholic.org/vermont-catholic-professionals/",
    "category": "Catholic-owned Equipment procurement in Vermont",
    "description": "A professional organization for Catholics in Vermont, focused on networking and service, not direct equipment procurement",
    "hours": "Mon-Fri 9AM-6PM",
    "services": [
      "Catholic-owned Equipment procurement in Vermont consultation",
      "Professional service",
      "Quality guarantee"
    ],
    "social_links": {}
  }
]