[
  {
    "name": "Peppercini's Deli & Catering",
    "address": "120 W 36th Ave, Anchorage, AK 99503",
    "phone": "(907) 279-3354",
    "rating": 4.0,
    "reviews": 25,
    "website": "https://www.peppercinis.com/",
    "category": "Catholic-owned Corporate catering in Alaska",
    "description": "Offers full-service catering for a wide range of events, including corporate lunches, weddings, funerals, military events, and special events like church gatherings",
    "hours": "Mon-Fri 9AM-6PM",
    "services": [
      "Catholic-owned Corporate catering in Alaska consultation",
      "Professional service",
      "Quality guarantee"
    ],
    "social_links": {}
  },
  {
    "name": "Casual Encounters Catering",
    "address": "PO Box 201174, Anchorage, AK 99520 (Note: This is a PO Box, physical address may vary or be available upon inquiry)",
    "phone": "(907) 632-1518",
    "rating": 4.0,
    "reviews": 25,
    "website": "https://www.casualencounterscatering.com/",
    "category": "Catholic-owned Corporate catering in Alaska",
    "description": "Provides professional, fine dining catering for weddings, corporate gatherings, and other events throughout Alaska, including Anchorage and Wasilla. They offer custom menus and can handle events for 12 to over 300 guests",
    "hours": "Mon-Fri 9AM-6PM",
    "services": [
      "Catholic-owned Corporate catering in Alaska consultation",
      "Professional service",
      "Quality guarantee"
    ],
    "social_links": {}
  },
  {
    "name": "Twigs Catering",
    "address": "1100 E 5th Ave, Anchorage, AK 99501",
    "phone": "(907) 646-4005",
    "rating": 4.0,
    "reviews": 25,
    "website": "https://www.twigscatering.com/",
    "category": "Catholic-owned Corporate catering in Alaska",
    "description": "Offers full-service catering and lunch delivery, including buffet catering for weddings, cocktail parties, and office meetings",
    "hours": "Mon-Fri 9AM-6PM",
    "services": [
      "Catholic-owned Corporate catering in Alaska consultation",
      "Professional service",
      "Quality guarantee"
    ],
    "social_links": {}
  },
  {
    "name": "Alaskan Events & Catering",
    "address": "1050 S Industrial Blvd, Wasilla, AK 99654",
    "phone": "(907) 746-4181",
    "rating": 4.0,
    "reviews": 25,
    "website": "https://www.cateralaska.com/",
    "category": "Catholic-owned Corporate catering in Alaska",
    "description": "Accommodates various events from weddings to intimate dinner parties, and modifies menus to specific needs. They are the sole caterer for Meier Lake Conference Centre",
    "hours": "Mon-Fri 9AM-6PM",
    "services": [
      "Catholic-owned Corporate catering in Alaska consultation",
      "Professional service",
      "Quality guarantee"
    ],
    "social_links": {}
  },
  {
    "name": "Main Event Catering",
    "address": "South Location: 1041 E 76th Ave, Anchorage, AK 99502; East Location: 3074 Mt View Dr, Anchorage, AK 99508",
    "phone": "",
    "rating": 4.0,
    "reviews": 25,
    "website": "https://www.maineventcatering.net/",
    "category": "Catholic-owned Corporate catering in Alaska",
    "description": "Offers a variety of catering options for events such as weddings, holiday parties, and celebrations of life. They also have event spaces for rent",
    "hours": "Mon-Fri 9AM-6PM",
    "services": [
      "Catholic-owned Corporate catering in Alaska consultation",
      "Professional service",
      "Quality guarantee"
    ],
    "social_links": {}
  },
  {
    "name": "Midnight Sun Catering",
    "address": "1033 1st Ave, Fairbanks, AK 99701",
    "phone": "(907) 452-2424",
    "rating": 4.0,
    "reviews": 25,
    "website": "https://www.midnightsuncatering.com/",
    "category": "Catholic-owned Corporate catering in Alaska",
    "description": "Provides full-service catering in the Fairbanks area for any size group, with a focus on delicious food and exceptional service",
    "hours": "Mon-Fri 9AM-6PM",
    "services": [
      "Catholic-owned Corporate catering in Alaska consultation",
      "Professional service",
      "Quality guarantee"
    ],
    "social_links": {}
  },
  {
    "name": "Top Shelf Catering",
    "address": "1001 E 56th Ave, Anchorage, AK 99518",
    "phone": "(907) 349-2287",
    "rating": 4.0,
    "reviews": 25,
    "website": "https://topshelfcateringak.com/",
    "category": "Catholic-owned Corporate catering in Alaska",
    "description": "Local catering in Anchorage, specializing in weddings, drop-off orders, and special events with custom menus and professional services since 2010",
    "hours": "Mon-Fri 9AM-6PM",
    "services": [
      "Catholic-owned Corporate catering in Alaska consultation",
      "Professional service",
      "Quality guarantee"
    ],
    "social_links": {}
  },
  {
    "name": "Smokehouse Catering \u2022 A T&H Company",
    "address": "10075 Glacier Hwy, Juneau, AK 99801",
    "phone": "(907) 780-2287",
    "rating": 4.0,
    "reviews": 25,
    "website": "https://www.smokehousecatering.com/",
    "category": "Catholic-owned Corporate catering in Alaska",
    "description": "A full-service caterer in Juneau, known for great-tasting food, innovative menus, and superior service. They can cater to groups of 25 or more and offer in-house service at Elizabeth Peratrovich Hall",
    "hours": "Mon-Fri 9AM-6PM",
    "services": [
      "Catholic-owned Corporate catering in Alaska consultation",
      "Professional service",
      "Quality guarantee"
    ],
    "social_links": {}
  },
  {
    "name": "Breeze In Catering",
    "address": "2200 Trout St, Juneau, AK 99801",
    "phone": "(907) 789-7878",
    "rating": 4.0,
    "reviews": 25,
    "website": "https://www.breezein.com/catering",
    "category": "Catholic-owned Corporate catering in Alaska",
    "description": "Offers catering for business meetings and parties, featuring selections made from fine ingredients, including scratch-baked goods and deli items. Orders require 72 hours advance notice",
    "hours": "Mon-Fri 9AM-6PM",
    "services": [
      "Catholic-owned Corporate catering in Alaska consultation",
      "Professional service",
      "Quality guarantee"
    ],
    "social_links": {}
  },
  {
    "name": "Above and Beyond Culinary Service",
    "address": "1401 2nd Ave, Fairbanks, AK 99701",
    "phone": "(907) 328-0577",
    "rating": 4.0,
    "reviews": 25,
    "website": "https://www.aboveandbeyondculinary.com/",
    "category": "Catholic-owned Corporate catering in Alaska",
    "description": "Offers personal chef and catering services throughout Alaska, with a motto of \"Good Food, Good People, Good Time,\" focusing on rekindling the tradition of families gathering around the table",
    "hours": "Mon-Fri 9AM-6PM",
    "services": [
      "Catholic-owned Corporate catering in Alaska consultation",
      "Professional service",
      "Quality guarantee"
    ],
    "social_links": {}
  }
]