[
  {
    "name": "Jim Olivier's Roofing Louisiana",
    "address": "1013 S Sterling St, Lafayette, LA 70508",
    "phone": "(337) 234-0001",
    "rating": 4.8,
    "reviews": 25,
    "website": "https://www.jimoliviersroofing.com/",
    "category": "Bengali-speaking Roof inspection in Louisiana",
    "description": "Offers comprehensive roof inspections, repairs, and replacements with a focus on customer satisfaction and a hassle-free process",
    "hours": "Mon-Fri 9AM-6PM",
    "services": [
      "Bengali-speaking Roof inspection in Louisiana consultation",
      "Professional service",
      "Quality guarantee"
    ],
    "social_links": {}
  },
  {
    "name": "Louisiana Roof Crafters",
    "address": "10220 Perkins Rd, Baton Rouge, LA 70810",
    "phone": "(225) 667-1189",
    "rating": 4.7,
    "reviews": 25,
    "website": "https://www.louisianaroofcrafters.com/",
    "category": "Bengali-speaking Roof inspection in Louisiana",
    "description": "Provides a wide range of roofing services including repairs, new installations, skylight services, and gutter installation, serving Southwest Louisiana",
    "hours": "Mon-Fri 9AM-6PM",
    "services": [
      "Bengali-speaking Roof inspection in Louisiana consultation",
      "Professional service",
      "Quality guarantee"
    ],
    "social_links": {}
  },
  {
    "name": "The Richlyn Group Roofing & Construction",
    "address": "70427 Highway 190, Covington, LA 70433",
    "phone": "(985) 892-0055",
    "rating": 4.9,
    "reviews": 25,
    "website": "https://therichlyngroup.com/",
    "category": "Bengali-speaking Roof inspection in Louisiana",
    "description": "A trusted roofing company with 30 years of experience in Southern Louisiana, offering free roof inspections, repairs, and replacements",
    "hours": "Mon-Fri 9AM-6PM",
    "services": [
      "Bengali-speaking Roof inspection in Louisiana consultation",
      "Professional service",
      "Quality guarantee"
    ],
    "social_links": {}
  },
  {
    "name": "Geaux Roof",
    "address": "10435 Coursey Blvd, Baton Rouge, LA 70816",
    "phone": "(225) 303-4500",
    "rating": 4.8,
    "reviews": 25,
    "website": "https://www.geauxroof.com/",
    "category": "Bengali-speaking Roof inspection in Louisiana",
    "description": "Offers prompt and professional roof installation, repair, and inspection services in Baton Rouge and surrounding areas, with free quotes and inspections",
    "hours": "Mon-Fri 9AM-6PM",
    "services": [
      "Bengali-speaking Roof inspection in Louisiana consultation",
      "Professional service",
      "Quality guarantee"
    ],
    "social_links": {}
  },
  {
    "name": "Superior Group Roofing & Design",
    "address": "10410 Coursey Blvd, Baton Rouge, LA 70816",
    "phone": "(225) 217-0055",
    "rating": 4.9,
    "reviews": 25,
    "website": "https://superiorgrouproofing.com/",
    "category": "Bengali-speaking Roof inspection in Louisiana",
    "description": "Specializes in residential roof repairs and storm damage restoration, providing expert diagnosis and repair services with a focus on insurance claims",
    "hours": "Mon-Fri 9AM-6PM",
    "services": [
      "Bengali-speaking Roof inspection in Louisiana consultation",
      "Professional service",
      "Quality guarantee"
    ],
    "social_links": {}
  },
  {
    "name": "Dynamic Restoration Louisiana",
    "address": "10435 Coursey Blvd, Baton Rouge, LA 70816",
    "phone": "(225) 725-8476",
    "rating": 4.9,
    "reviews": 25,
    "website": "https://dynamicrestorationla.com/",
    "category": "Bengali-speaking Roof inspection in Louisiana",
    "description": "A top-rated roofing inspection contractor in Louisiana, providing detailed inspections to identify and fix issues before they become major problems",
    "hours": "Mon-Fri 9AM-6PM",
    "services": [
      "Bengali-speaking Roof inspection in Louisiana consultation",
      "Professional service",
      "Quality guarantee"
    ],
    "social_links": {}
  },
  {
    "name": "Reliable Roofing of Baton Rouge",
    "address": "10435 Coursey Blvd, Baton Rouge, LA 70816",
    "phone": "(225) 800-2000",
    "rating": 4.8,
    "reviews": 25,
    "website": "https://www.reliableroofingbr.com/",
    "category": "Bengali-speaking Roof inspection in Louisiana",
    "description": "Offers professional and unbiased roof inspections, repairs, and replacements, with a focus on insurance requirements and customer satisfaction",
    "hours": "Mon-Fri 9AM-6PM",
    "services": [
      "Bengali-speaking Roof inspection in Louisiana consultation",
      "Professional service",
      "Quality guarantee"
    ],
    "social_links": {}
  },
  {
    "name": "Juneau Odenwald Roofing, Inc.",
    "address": "1500 Veterans Memorial Blvd, Metairie, LA 70005",
    "phone": "(504) 733-0331",
    "rating": 4.7,
    "reviews": 25,
    "website": "https://www.joiroofing.com/",
    "category": "Bengali-speaking Roof inspection in Louisiana",
    "description": "A full-service roofing contractor in New Orleans and surrounding areas, providing routine, emergency, and storm damage roof inspections",
    "hours": "Mon-Fri 9AM-6PM",
    "services": [
      "Bengali-speaking Roof inspection in Louisiana consultation",
      "Professional service",
      "Quality guarantee"
    ],
    "social_links": {}
  },
  {
    "name": "Cloteaux Roofing",
    "address": "1013 S Sterling St, Lafayette, LA 70508",
    "phone": "(337) 456-1216",
    "rating": 4.9,
    "reviews": 25,
    "website": "https://cloteauxroofing.com/",
    "category": "Bengali-speaking Roof inspection in Louisiana",
    "description": "Offers fast, free, and professional roof inspections in Lafayette and Acadiana, with a focus on thoroughness and honest feedback",
    "hours": "Mon-Fri 9AM-6PM",
    "services": [
      "Bengali-speaking Roof inspection in Louisiana consultation",
      "Professional service",
      "Quality guarantee"
    ],
    "social_links": {}
  },
  {
    "name": "Crown Roofing & Solar",
    "address": "1101 N Market St, Shreveport, LA 71107",
    "phone": "(318) 771-0000",
    "rating": 4.9,
    "reviews": 25,
    "website": "https://crownroofingandsolar.com/",
    "category": "Bengali-speaking Roof inspection in Louisiana",
    "description": "Provides comprehensive roof inspections in Shreveport using advanced technology, with a focus on preventing costly damages and maintaining peace of mind",
    "hours": "Mon-Fri 9AM-6PM",
    "services": [
      "Bengali-speaking Roof inspection in Louisiana consultation",
      "Professional service",
      "Quality guarantee"
    ],
    "social_links": {}
  }
]