[
  {
    "name": "Kountry Kitchen Soul Food Place",
    "address": "1831 E 38th St, Indianapolis, IN 46218",
    "phone": "(317) 545-9979",
    "rating": 4.5,
    "reviews": 25,
    "website": "https://www.google.com/maps/search/Kountry+Kitchen+Soul+Food+Place+in+Indiana",
    "category": "Black-owned Diners in Indiana",
    "description": "A beloved spot known for its authentic soul food, including dishes like fried chicken, mac and cheese, and other comfort food classics",
    "hours": "Mon-Fri 9AM-6PM",
    "services": [
      "Black-owned Diners in Indiana consultation",
      "Professional service",
      "Quality guarantee"
    ],
    "social_links": {}
  },
  {
    "name": "The Block Bistro & Grill",
    "address": "115 W Market St, Indianapolis, IN 46204",
    "phone": "(317) 426-3900",
    "rating": 4.2,
    "reviews": 25,
    "website": "https://www.google.com/maps/search/The+Block+Bistro+&+Grill+in+Indiana",
    "category": "Black-owned Diners in Indiana",
    "description": "Offers a diverse menu with American and soul food influences in a downtown Indianapolis setting",
    "hours": "Mon-Fri 9AM-6PM",
    "services": [
      "Black-owned Diners in Indiana consultation",
      "Professional service",
      "Quality guarantee"
    ],
    "social_links": {}
  },
  {
    "name": "His Place Eatery",
    "address": "6916 E 30th St, Indianapolis, IN 46219",
    "phone": "(317) 250-4611",
    "rating": 4.7,
    "reviews": 25,
    "website": "https://www.google.com/maps/search/His+Place+Eatery+in+Indiana",
    "category": "Black-owned Diners in Indiana",
    "description": "Known for its delicious soul food and welcoming atmosphere, serving up hearty portions of classic dishes",
    "hours": "Mon-Fri 9AM-6PM",
    "services": [
      "Black-owned Diners in Indiana consultation",
      "Professional service",
      "Quality guarantee"
    ],
    "social_links": {}
  },
  {
    "name": "SouthPaw Soul Kitchen",
    "address": "3351 Central Ave, Indianapolis, IN 46205",
    "phone": "(317) 926-7685",
    "rating": 4.6,
    "reviews": 25,
    "website": "https://www.google.com/maps/search/SouthPaw+Soul+Kitchen+in+Indiana",
    "category": "Black-owned Diners in Indiana",
    "description": "A popular spot for soul food, offering generous portions of favorites like pot roast, fried chicken, and mac and cheese",
    "hours": "Mon-Fri 9AM-6PM",
    "services": [
      "Black-owned Diners in Indiana consultation",
      "Professional service",
      "Quality guarantee"
    ],
    "social_links": {}
  },
  {
    "name": "Michael's Soul Kitchen",
    "address": "115 E Ohio St, Indianapolis, IN 46204",
    "phone": "(317) 855-6161",
    "rating": 4.8,
    "reviews": 25,
    "website": "https://www.google.com/maps/search/Michael's+Soul+Kitchen+in+Indiana",
    "category": "Black-owned Diners in Indiana",
    "description": "Serves sophisticated soul food in an elegant environment, often featuring live entertainment",
    "hours": "Mon-Fri 9AM-6PM",
    "services": [
      "Black-owned Diners in Indiana consultation",
      "Professional service",
      "Quality guarantee"
    ],
    "social_links": {}
  },
  {
    "name": "The Flying Cupcake",
    "address": "423 Massachusetts Ave, Indianapolis, IN 46204",
    "phone": "(317) 396-2696",
    "rating": 4.4,
    "reviews": 25,
    "website": "https://www.theflyingcupcakebakery.com/",
    "category": "Black-owned Diners in Indiana",
    "description": "While primarily a bakery, they offer a variety of treats and are a well-loved local business",
    "hours": "Mon-Fri 9AM-6PM",
    "services": [
      "Black-owned Diners in Indiana consultation",
      "Professional service",
      "Quality guarantee"
    ],
    "social_links": {}
  },
  {
    "name": "Yats",
    "address": "",
    "phone": "(317) 257-5500 (for College Ave location)",
    "rating": 4.5,
    "reviews": 25,
    "website": "https://www.yats.biz/",
    "category": "Black-owned Diners in Indiana",
    "description": "Known for its authentic Cajun and Creole cuisine, offering flavorful dishes like gumbo and \u00e9touff\u00e9e in a casual setting",
    "hours": "Mon-Fri 9AM-6PM",
    "services": [
      "Black-owned Diners in Indiana consultation",
      "Professional service",
      "Quality guarantee"
    ],
    "social_links": {}
  },
  {
    "name": "Shapiro's Delicatessen",
    "address": "808 S Meridian St, Indianapolis, IN 46225",
    "phone": "(317) 631-4041",
    "rating": 4.1,
    "reviews": 25,
    "website": "https://shapiros.com/",
    "category": "Black-owned Diners in Indiana",
    "description": "A historic Indianapolis landmark serving classic deli fare, including corned beef, pastrami, and brisket sandwiches",
    "hours": "Mon-Fri 9AM-6PM",
    "services": [
      "Black-owned Diners in Indiana consultation",
      "Professional service",
      "Quality guarantee"
    ],
    "social_links": {}
  },
  {
    "name": "Cafe Patachou",
    "address": "",
    "phone": "(317) 632-0765 (for Downtown Indy location)",
    "rating": 4.3,
    "reviews": 25,
    "website": "https://www.cafepatachou.com/",
    "category": "Black-owned Diners in Indiana",
    "description": "An award-winning all-day cafe offering an elevated breakfast and lunch experience with locally sourced ingredients",
    "hours": "Mon-Fri 9AM-6PM",
    "services": [
      "Black-owned Diners in Indiana consultation",
      "Professional service",
      "Quality guarantee"
    ],
    "social_links": {}
  },
  {
    "name": "The Tamale Place",
    "address": "1143 Shelby St, Indianapolis, IN 46203",
    "phone": "(317) 979-0420",
    "rating": 4.7,
    "reviews": 25,
    "website": "https://www.thetamaleplace.com/",
    "category": "Black-owned Diners in Indiana",
    "description": "Offers authentic Mexican cuisine with a focus on delicious tamales, tacos, and tortas",
    "hours": "Mon-Fri 9AM-6PM",
    "services": [
      "Black-owned Diners in Indiana consultation",
      "Professional service",
      "Quality guarantee"
    ],
    "social_links": {}
  }
]