[
  {
    "name": "Cumming Lawn Service",
    "address": "Cumming, GA",
    "phone": "(770) 337-8502",
    "rating": 4.0,
    "reviews": 25,
    "website": "https://www.google.com/maps/search/Cumming+Lawn+Service+in+Georgia",
    "category": "Chinese-speaking Planting services in Georgia",
    "description": "A lawn care and landscaping company serving Cumming and North Fulton County for over 18 years",
    "hours": "Mon-Fri 9AM-6PM",
    "services": [
      "Chinese-speaking Planting services in Georgia consultation",
      "Professional service",
      "Quality guarantee"
    ],
    "social_links": {}
  },
  {
    "name": "Unlimited Lawn Care\u2122",
    "address": "Georgia, Alabama, and South Carolina",
    "phone": "678-325-7255",
    "rating": 4.0,
    "reviews": 25,
    "website": "https://www.google.com/maps/search/Unlimited+Lawn+Care\u2122+in+Georgia",
    "category": "Chinese-speaking Planting services in Georgia",
    "description": "A local company providing comprehensive lawn care services since 1998",
    "hours": "Mon-Fri 9AM-6PM",
    "services": [
      "Chinese-speaking Planting services in Georgia consultation",
      "Professional service",
      "Quality guarantee"
    ],
    "social_links": {}
  },
  {
    "name": "Tender Lawn Care",
    "address": "Cumming, GA 30041",
    "phone": "",
    "rating": 4.0,
    "reviews": 25,
    "website": "https://www.google.com/maps/search/Tender+Lawn+Care+in+Georgia",
    "category": "Chinese-speaking Planting services in Georgia",
    "description": "Offers lawn care, overseeding, core aeration, and tree & shrub care services in the North Atlanta metro area",
    "hours": "Mon-Fri 9AM-6PM",
    "services": [
      "Chinese-speaking Planting services in Georgia consultation",
      "Professional service",
      "Quality guarantee"
    ],
    "social_links": {}
  },
  {
    "name": "Twin Branch Nursery",
    "address": "1169 West Wylie Bridge Rd, Woodstock, Georgia 30188",
    "phone": "(770) 926-8566",
    "rating": 4.0,
    "reviews": 25,
    "website": "https://www.google.com/maps/search/Twin+Branch+Nursery+in+Georgia",
    "category": "Chinese-speaking Planting services in Georgia",
    "description": "Offers a wide selection of trees, shrubs, perennials, and hardgoods, along with sales, design, and installation services",
    "hours": "Mon-Fri 9AM-6PM",
    "services": [
      "Chinese-speaking Planting services in Georgia consultation",
      "Professional service",
      "Quality guarantee"
    ],
    "social_links": {}
  },
  {
    "name": "Autumn Hill Nursery",
    "address": "Woodstock, GA",
    "phone": "",
    "rating": 4.0,
    "reviews": 25,
    "website": "https://www.google.com/maps/search/Autumn+Hill+Nursery+in+Georgia",
    "category": "Chinese-speaking Planting services in Georgia",
    "description": "A plant nursery and gardening center offering annuals, perennials, roses, trees, and shrubs, as well as design services",
    "hours": "Mon-Fri 9AM-6PM",
    "services": [
      "Chinese-speaking Planting services in Georgia consultation",
      "Professional service",
      "Quality guarantee"
    ],
    "social_links": {}
  },
  {
    "name": "Garden*Hood",
    "address": "353 Boulevard, SE, Atlanta, GA 30312",
    "phone": "",
    "rating": 4.0,
    "reviews": 25,
    "website": "https://www.google.com/maps/search/Garden*Hood+in+Georgia",
    "category": "Chinese-speaking Planting services in Georgia",
    "description": "A retail nursery offering a wide selection of plants, including rare and hard-to-find varieties, as well as pottery and soil amendments",
    "hours": "Mon-Fri 9AM-6PM",
    "services": [
      "Chinese-speaking Planting services in Georgia consultation",
      "Professional service",
      "Quality guarantee"
    ],
    "social_links": {}
  },
  {
    "name": "Seed Atlanta",
    "address": "75 Bennett St NW Ste J2, Atlanta, GA 30309",
    "phone": "(470) 316-9416",
    "rating": 4.0,
    "reviews": 25,
    "website": "https://www.google.com/maps/search/Seed+Atlanta+in+Georgia",
    "category": "Chinese-speaking Planting services in Georgia",
    "description": "A plant shop offering houseplants, repotting services, and workshops",
    "hours": "Mon-Fri 9AM-6PM",
    "services": [
      "Chinese-speaking Planting services in Georgia consultation",
      "Professional service",
      "Quality guarantee"
    ],
    "social_links": {}
  },
  {
    "name": "North Georgia Native Plant Nursery",
    "address": "Canton, GA",
    "phone": "",
    "rating": 4.0,
    "reviews": 25,
    "website": "https://www.google.com/maps/search/North+Georgia+Native+Plant+Nursery+in+Georgia",
    "category": "Chinese-speaking Planting services in Georgia",
    "description": "Specializes in sustainably grown native plants from Georgia and the Southeast, focusing on supporting wildlife habitat and biodiversity",
    "hours": "Mon-Fri 9AM-6PM",
    "services": [
      "Chinese-speaking Planting services in Georgia consultation",
      "Professional service",
      "Quality guarantee"
    ],
    "social_links": {}
  },
  {
    "name": "Baker Environmental Nursery",
    "address": "949 Marshall Clark Rd, Hoschton, GA 30548",
    "phone": "706-654-9072",
    "rating": 4.0,
    "reviews": 25,
    "website": "https://www.google.com/maps/search/Baker+Environmental+Nursery+in+Georgia",
    "category": "Chinese-speaking Planting services in Georgia",
    "description": "Offers wholesale and retail of native plants",
    "hours": "Mon-Fri 9AM-6PM",
    "services": [
      "Chinese-speaking Planting services in Georgia consultation",
      "Professional service",
      "Quality guarantee"
    ],
    "social_links": {}
  },
  {
    "name": "Nearly Native Nursery",
    "address": "776 Mc Bride Road, Fayetteville, GA 30215",
    "phone": "770-460-6284",
    "rating": 4.0,
    "reviews": 25,
    "website": "https://www.google.com/maps/search/Nearly+Native+Nursery+in+Georgia",
    "category": "Chinese-speaking Planting services in Georgia",
    "description": "Offers wholesale and retail of native plants",
    "hours": "Mon-Fri 9AM-6PM",
    "services": [
      "Chinese-speaking Planting services in Georgia consultation",
      "Professional service",
      "Quality guarantee"
    ],
    "social_links": {}
  }
]