[
  {
    "name": "Glass Doctor of Omaha",
    "address": "Multiple locations, including Omaha, NE",
    "phone": "(402) 733-6440 (Omaha location)",
    "rating": 4.0,
    "reviews": 25,
    "website": "https://www.glassdoctor.com/locations/omaha-ne",
    "category": "Baby-Boomer-owned Window repair in Nebraska",
    "description": "Offers residential and commercial window repair and replacement services, including emergency repairs",
    "hours": "Mon-Fri 9AM-6PM",
    "services": [
      "Baby-Boomer-owned Window repair in Nebraska consultation",
      "Professional service",
      "Quality guarantee"
    ],
    "social_links": {}
  },
  {
    "name": "Omaha Door & Window",
    "address": "4665 G St, Omaha, NE 68117",
    "phone": "(402) 733-6440",
    "rating": 4.0,
    "reviews": 25,
    "website": "https://www.omahadoorandwindow.com/",
    "category": "Baby-Boomer-owned Window repair in Nebraska",
    "description": "Provides professional window repair services for homeowners and businesses in Bellevue, Fremont, and Ralston, NE, specializing in both residential and commercial properties",
    "hours": "Mon-Fri 9AM-6PM",
    "services": [
      "Baby-Boomer-owned Window repair in Nebraska consultation",
      "Professional service",
      "Quality guarantee"
    ],
    "social_links": {}
  },
  {
    "name": "All Aluminum Window Company",
    "address": "3515 No 25th St. Suite 6, Lincoln, NE 68521",
    "phone": "(402) 476-1118",
    "rating": 4.0,
    "reviews": 25,
    "website": "https://www.allaluminumwindow.com/",
    "category": "Baby-Boomer-owned Window repair in Nebraska",
    "description": "Serving Lincoln for over 65 years, they offer window screen repairs, broken glass repairs, insulated glass, and patio door repairs",
    "hours": "Mon-Fri 9AM-6PM",
    "services": [
      "Baby-Boomer-owned Window repair in Nebraska consultation",
      "Professional service",
      "Quality guarantee"
    ],
    "social_links": {}
  },
  {
    "name": "Excel Window Solutions",
    "address": "Not explicitly stated, serves Omaha, NE",
    "phone": "",
    "rating": 4.0,
    "reviews": 25,
    "website": "https://excelwindowsolutions.com/",
    "category": "Baby-Boomer-owned Window repair in Nebraska",
    "description": "Provides top-notch window repair, glass replacement, and screen solutions for homes and businesses in Omaha",
    "hours": "Mon-Fri 9AM-6PM",
    "services": [
      "Baby-Boomer-owned Window repair in Nebraska consultation",
      "Professional service",
      "Quality guarantee"
    ],
    "social_links": {}
  },
  {
    "name": "Glass Doctor of North Platte",
    "address": "115 E 12th St, North Platte, NE 69101",
    "phone": "(308) 532-8505",
    "rating": 4.0,
    "reviews": 25,
    "website": "https://www.glassdoctor.com/north-platte",
    "category": "Baby-Boomer-owned Window repair in Nebraska",
    "description": "Offers residential and commercial glass services, including window repair, insulated glass windows, shower doors, custom mirrors, and storefront repair",
    "hours": "Mon-Fri 9AM-6PM",
    "services": [
      "Baby-Boomer-owned Window repair in Nebraska consultation",
      "Professional service",
      "Quality guarantee"
    ],
    "social_links": {}
  },
  {
    "name": "Hastings Window Company",
    "address": "Not explicitly stated, serves Hastings, NE",
    "phone": "",
    "rating": 4.0,
    "reviews": 25,
    "website": "https://hastingswindowcompany.com/",
    "category": "Baby-Boomer-owned Window repair in Nebraska",
    "description": "Offers window cleaning, repair, and replacement services for home and commercial properties in Hastings, Nebraska",
    "hours": "Mon-Fri 9AM-6PM",
    "services": [
      "Baby-Boomer-owned Window repair in Nebraska consultation",
      "Professional service",
      "Quality guarantee"
    ],
    "social_links": {}
  },
  {
    "name": "Tri-County Glass, Inc.",
    "address": "Not explicitly stated, located in Kearney, Nebraska",
    "phone": "(308) 237-4955",
    "rating": 4.0,
    "reviews": 25,
    "website": "https://www.tricountyglassinc.com/",
    "category": "Baby-Boomer-owned Window repair in Nebraska",
    "description": "Serves Kearney and surrounding communities with auto glass, home window pane, and door glass repair, as well as commercial storefront emergency services",
    "hours": "Mon-Fri 9AM-6PM",
    "services": [
      "Baby-Boomer-owned Window repair in Nebraska consultation",
      "Professional service",
      "Quality guarantee"
    ],
    "social_links": {}
  },
  {
    "name": "Window Option Specialists",
    "address": "Not explicitly stated, serves Lincoln, NE",
    "phone": "",
    "rating": 4.0,
    "reviews": 25,
    "website": "https://www.windowoptionspecialists.com/",
    "category": "Baby-Boomer-owned Window repair in Nebraska",
    "description": "Offers a wide range of services including window screen repair, home window repair, and window replacement for residential and commercial clients in Lincoln",
    "hours": "Mon-Fri 9AM-6PM",
    "services": [
      "Baby-Boomer-owned Window repair in Nebraska consultation",
      "Professional service",
      "Quality guarantee"
    ],
    "social_links": {}
  },
  {
    "name": "Pella Windows and Doors of Grand Island",
    "address": "2224 North Broadwell Avenue, Grand Island, NE 68803",
    "phone": "(308) 384-0800",
    "rating": 4.0,
    "reviews": 25,
    "website": "https://www.pellabranch \u0aa8\u0ac7braska.com/grand-island",
    "category": "Baby-Boomer-owned Window repair in Nebraska",
    "description": "Provides window and door replacement services in Grand Island and surrounding areas, collaborating with local professionals",
    "hours": "Mon-Fri 9AM-6PM",
    "services": [
      "Baby-Boomer-owned Window repair in Nebraska consultation",
      "Professional service",
      "Quality guarantee"
    ],
    "social_links": {}
  },
  {
    "name": "Albertson Brothers Glass",
    "address": "Not explicitly stated, serves Omaha, NE and surrounding areas",
    "phone": "(402) 451-0555",
    "rating": 4.0,
    "reviews": 25,
    "website": "https://albertsonbrothersglass.com/",
    "category": "Baby-Boomer-owned Window repair in Nebraska",
    "description": "Offers residential, commercial, and industrial glass services, including auto glass, custom mirrors, and shower doors, with in-shop and mobile services",
    "hours": "Mon-Fri 9AM-6PM",
    "services": [
      "Baby-Boomer-owned Window repair in Nebraska consultation",
      "Professional service",
      "Quality guarantee"
    ],
    "social_links": {}
  }
]