[
  {
    "name": "Genetrack Biolabs",
    "address": "1000 E. 5th Ave, Anchorage, AK 99501",
    "phone": "(907) 276-3622",
    "rating": 4.0,
    "reviews": 25,
    "website": "https://www.genetrackbiolabs.com/",
    "category": "Bengali-speaking Genetic testing in Alaska",
    "description": "Genetrack Biolabs offers a range of DNA testing services, including paternity, legal, and immigration testing. They have been providing services for over 24 years",
    "hours": "Mon-Fri 9AM-6PM",
    "services": [
      "Bengali-speaking Genetic testing in Alaska consultation",
      "Professional service",
      "Quality guarantee"
    ],
    "social_links": {}
  },
  {
    "name": "Choice DNA",
    "address": "Multiple locations in Anchorage, AK (specific addresses vary)",
    "phone": "(800) 219-4362",
    "rating": 4.0,
    "reviews": 25,
    "website": "https://choicedna.com/",
    "category": "Bengali-speaking Genetic testing in Alaska",
    "description": "Choice DNA provides various DNA testing services, including prenatal paternity tests and legal DNA testing, with numerous locations across Alaska",
    "hours": "Mon-Fri 9AM-6PM",
    "services": [
      "Bengali-speaking Genetic testing in Alaska consultation",
      "Professional service",
      "Quality guarantee"
    ],
    "social_links": {}
  },
  {
    "name": "MedPhysicals Plus",
    "address": "3900 Arctic Blvd, Suite 101, Anchorage, AK 99503",
    "phone": "(907) 561-7587",
    "rating": 4.0,
    "reviews": 25,
    "website": "https://www.medphysplus.com/",
    "category": "Bengali-speaking Genetic testing in Alaska",
    "description": "MedPhysicals Plus offers DNA testing along with other medical laboratory services, drug and alcohol testing, and health screenings at five locations in Alaska",
    "hours": "Mon-Fri 9AM-6PM",
    "services": [
      "Bengali-speaking Genetic testing in Alaska consultation",
      "Professional service",
      "Quality guarantee"
    ],
    "social_links": {}
  },
  {
    "name": "Alaska Women's Cancer Care",
    "address": "3201 Providence Dr, Suite 300, Anchorage, AK 99508",
    "phone": "(907) 279-2227",
    "rating": 4.0,
    "reviews": 25,
    "website": "https://www.alaskawomenscancercare.com/",
    "category": "Bengali-speaking Genetic testing in Alaska",
    "description": "This facility provides genetic counseling and testing, particularly for hereditary cancer risks, and has an experienced team for female cancer diagnosis and treatment",
    "hours": "Mon-Fri 9AM-6PM",
    "services": [
      "Bengali-speaking Genetic testing in Alaska consultation",
      "Professional service",
      "Quality guarantee"
    ],
    "social_links": {}
  },
  {
    "name": "Integrated Wellness and Medical Spa",
    "address": "245 E. Fireweed Lane, Suite 201, Anchorage, AK 99503",
    "phone": "(907) 770-5770",
    "rating": 4.0,
    "reviews": 25,
    "website": "https://www.integratedwellnessak.com/",
    "category": "Bengali-speaking Genetic testing in Alaska",
    "description": "Integrated Wellness offers advanced genetic testing services to explore an individual's genetic makeup",
    "hours": "Mon-Fri 9AM-6PM",
    "services": [
      "Bengali-speaking Genetic testing in Alaska consultation",
      "Professional service",
      "Quality guarantee"
    ],
    "social_links": {}
  },
  {
    "name": "Accredited Drug Testing Inc (ADT)",
    "address": "Multiple locations in Anchorage, AK (specific addresses vary)",
    "phone": "(800) 221-4291",
    "rating": 4.0,
    "reviews": 25,
    "website": "https://accrediteddrugtesting.com/",
    "category": "Bengali-speaking Genetic testing in Alaska",
    "description": "ADT provides a range of DNA tests, including paternity, prenatal, ancestry, and forensic DNA assessments, utilizing AABB-accredited laboratories",
    "hours": "Mon-Fri 9AM-6PM",
    "services": [
      "Bengali-speaking Genetic testing in Alaska consultation",
      "Professional service",
      "Quality guarantee"
    ],
    "social_links": {}
  },
  {
    "name": "SEARHC (Southcentral Foundation)",
    "address": "Multiple locations including 225 Front Street, Suite 202, Juneau, AK 99801; 131 1st Avenue, Haines, AK 99827; 1200 Salmon Creek Lane, Juneau, AK 99801; 700 Katlian Street, Sitka, AK 99835",
    "phone": "Juneau: (907) 364-4565; Haines: (907) 766-6300; Sitka: (907) 966-8761",
    "rating": 4.0,
    "reviews": 25,
    "website": "https://www.searhc.org/",
    "category": "Bengali-speaking Genetic testing in Alaska",
    "description": "SEARHC offers comprehensive laboratory services, including genetic testing, across Southeast Alaska, with a commitment to high-quality patient care and diagnostics",
    "hours": "Mon-Fri 9AM-6PM",
    "services": [
      "Bengali-speaking Genetic testing in Alaska consultation",
      "Professional service",
      "Quality guarantee"
    ],
    "social_links": {}
  },
  {
    "name": "23andMe",
    "address": "Online service, no physical Alaska location listed",
    "phone": "",
    "rating": 4.0,
    "reviews": 25,
    "website": "https://www.23andme.com/",
    "category": "Bengali-speaking Genetic testing in Alaska",
    "description": "23andMe provides direct-to-consumer DNA ancestry and health testing kits, offering insights into heritage, relatives, and genetic predispositions. They mention \"Bengali & Northeast Indian\" as an ancestry component",
    "hours": "Mon-Fri 9AM-6PM",
    "services": [
      "Bengali-speaking Genetic testing in Alaska consultation",
      "Professional service",
      "Quality guarantee"
    ],
    "social_links": {}
  },
  {
    "name": "Providence Cancer Center",
    "address": "3201 Providence Dr, Anchorage, AK 99508",
    "phone": "(907) 212-3366 (for genetic consultation services)",
    "rating": 4.0,
    "reviews": 25,
    "website": "https://alaska.providence.org/locations/providence-cancer-center",
    "category": "Bengali-speaking Genetic testing in Alaska",
    "description": "Providence Cancer Center offers genetic counseling and testing services to assess cancer risk, providing personalized attention and support",
    "hours": "Mon-Fri 9AM-6PM",
    "services": [
      "Bengali-speaking Genetic testing in Alaska consultation",
      "Professional service",
      "Quality guarantee"
    ],
    "social_links": {}
  },
  {
    "name": "Stone Soup Group",
    "address": "101 W. 36th Ave, Suite 200, Anchorage, AK 99503",
    "phone": "(907) 561-3111",
    "rating": 4.0,
    "reviews": 25,
    "website": "https://stonesoupgroup.org/",
    "category": "Bengali-speaking Genetic testing in Alaska",
    "description": "Stone Soup Group facilitates access to pediatric genetics clinics, including those with visiting geneticists from the University of Utah, for children up to 18 years old in Anchorage",
    "hours": "Mon-Fri 9AM-6PM",
    "services": [
      "Bengali-speaking Genetic testing in Alaska consultation",
      "Professional service",
      "Quality guarantee"
    ],
    "social_links": {}
  }
]