[
  {
    "name": "VTC Tech",
    "address": "Not publicly available, but serves Rhode Island",
    "phone": "1 (888) 800-3211",
    "rating": 4.0,
    "reviews": 25,
    "website": "https://www.vtctech.com/",
    "category": "Baby-Boomer-owned Desktop support in Rhode-Island",
    "description": "Offers managed IT services, 24/7 helpdesk, on-site IT support, network support, and data recovery for businesses in Rhode Island",
    "hours": "Mon-Fri 9AM-6PM",
    "services": [
      "Baby-Boomer-owned Desktop support in Rhode-Island consultation",
      "Professional service",
      "Quality guarantee"
    ],
    "social_links": {}
  },
  {
    "name": "Remi IT Solutions",
    "address": "Not publicly available, but serves Rhode Island and Massachusetts",
    "phone": "Sales: (401) 240-1000, Support: (401) 283-1083",
    "rating": 4.0,
    "reviews": 25,
    "website": "https://remiitsolutions.com/",
    "category": "Baby-Boomer-owned Desktop support in Rhode-Island",
    "description": "Provides IT support and managed IT services for small and medium-sized businesses, with a focus on cybersecurity and network architecture",
    "hours": "Mon-Fri 9AM-6PM",
    "services": [
      "Baby-Boomer-owned Desktop support in Rhode-Island consultation",
      "Professional service",
      "Quality guarantee"
    ],
    "social_links": {}
  },
  {
    "name": "IT Support RI",
    "address": "Not publicly available, but serves businesses across Rhode Island, Massachusetts, and Connecticut",
    "phone": "401-307-1245",
    "rating": 4.0,
    "reviews": 25,
    "website": "https://itsupportri.com/",
    "category": "Baby-Boomer-owned Desktop support in Rhode-Island",
    "description": "Offers IT support, business IT services, Windows support, network support & security, PC & laptop repair, and IT consulting for small to mid-sized businesses",
    "hours": "Mon-Fri 9AM-6PM",
    "services": [
      "Baby-Boomer-owned Desktop support in Rhode-Island consultation",
      "Professional service",
      "Quality guarantee"
    ],
    "social_links": {}
  },
  {
    "name": "Technology Advisory Group (TAG)",
    "address": "Not publicly available, but serves Rhode Island",
    "phone": "",
    "rating": 4.8,
    "reviews": 25,
    "website": "https://www.tag-it.com/",
    "category": "Baby-Boomer-owned Desktop support in Rhode-Island",
    "description": "Provides a complete suite of IT support services including managed IT, cybersecurity, cloud support, network monitoring, and IT helpdesk for businesses",
    "hours": "Mon-Fri 9AM-6PM",
    "services": [
      "Baby-Boomer-owned Desktop support in Rhode-Island consultation",
      "Professional service",
      "Quality guarantee"
    ],
    "social_links": {}
  },
  {
    "name": "Braver Technology",
    "address": "Providence, RI (specific address not provided)",
    "phone": "401-484-7900",
    "rating": 4.0,
    "reviews": 25,
    "website": "https://www.bravertech.com/",
    "category": "Baby-Boomer-owned Desktop support in Rhode-Island",
    "description": "Offers managed IT services, 24/7 IT support, cybersecurity solutions, and IT help desk support for small and mid-sized businesses in Providence and surrounding areas",
    "hours": "Mon-Fri 9AM-6PM",
    "services": [
      "Baby-Boomer-owned Desktop support in Rhode-Island consultation",
      "Professional service",
      "Quality guarantee"
    ],
    "social_links": {}
  },
  {
    "name": "HelloTech",
    "address": "Serves Rhode Island with on-site and remote support",
    "phone": "",
    "rating": 4.0,
    "reviews": 25,
    "website": "https://www.hellotechexperts.com/",
    "category": "Baby-Boomer-owned Desktop support in Rhode-Island",
    "description": "Provides in-home tech support, computer services, installations, and professional help for various technology needs for homes and businesses",
    "hours": "Mon-Fri 9AM-6PM",
    "services": [
      "Baby-Boomer-owned Desktop support in Rhode-Island consultation",
      "Professional service",
      "Quality guarantee"
    ],
    "social_links": {}
  },
  {
    "name": "Tech Support RI",
    "address": "Located in Rhode Island (specific address not provided)",
    "phone": "401-307-1245",
    "rating": 4.0,
    "reviews": 25,
    "website": "https://www.techsupportri.com/",
    "category": "Baby-Boomer-owned Desktop support in Rhode-Island",
    "description": "An independently owned computer repair and IT support company with nearly 3 decades of experience, offering on-site and remote support, network support, PC/laptop repair, and IT consulting",
    "hours": "Mon-Fri 9AM-6PM",
    "services": [
      "Baby-Boomer-owned Desktop support in Rhode-Island consultation",
      "Professional service",
      "Quality guarantee"
    ],
    "social_links": {}
  },
  {
    "name": "RI Computer Repair",
    "address": "Provides on-site computer repair in most cities and towns in Rhode Island",
    "phone": "401-424-1233",
    "rating": 4.0,
    "reviews": 25,
    "website": "https://www.ricomputerrepair.com/",
    "category": "Baby-Boomer-owned Desktop support in Rhode-Island",
    "description": "Offers on-site computer repair, virus/spyware removal, hardware & Windows repair, and hardware installation with a focus on quick response times and a satisfaction guarantee",
    "hours": "Mon-Fri 9AM-6PM",
    "services": [
      "Baby-Boomer-owned Desktop support in Rhode-Island consultation",
      "Professional service",
      "Quality guarantee"
    ],
    "social_links": {}
  },
  {
    "name": "Network Doctor",
    "address": "Serves Providence, Cranston, Warwick, Pawtucket, or East Providence, Rhode Island",
    "phone": "201-735-0140",
    "rating": 4.0,
    "reviews": 25,
    "website": "https://www.networkdoctor.com/",
    "category": "Baby-Boomer-owned Desktop support in Rhode-Island",
    "description": "Offers managed IT services, cloud computing solutions, IT consulting, business phone systems, and cybersecurity solutions for businesses in Rhode Island",
    "hours": "Mon-Fri 9AM-6PM",
    "services": [
      "Baby-Boomer-owned Desktop support in Rhode-Island consultation",
      "Professional service",
      "Quality guarantee"
    ],
    "social_links": {}
  },
  {
    "name": "Onsite Techs (OST)",
    "address": "Serves Rhode Island and neighboring areas",
    "phone": "401-773-7766",
    "rating": 4.0,
    "reviews": 25,
    "website": "https://www.onsitetechs.com/",
    "category": "Baby-Boomer-owned Desktop support in Rhode-Island",
    "description": "Provides expert IT support and managed IT services with 24/7 monitoring, cloud services, data backup, and custom service packages for businesses",
    "hours": "Mon-Fri 9AM-6PM",
    "services": [
      "Baby-Boomer-owned Desktop support in Rhode-Island consultation",
      "Professional service",
      "Quality guarantee"
    ],
    "social_links": {}
  }
]