[
  {
    "name": "Smiles on Broadway Dental Care",
    "address": "Jackson, MS",
    "phone": "(601) 981-1000 (This number is associated with Kenneth A. Bailey, DDS, which may be a related practice or a general listing for the area.)",
    "rating": 4.0,
    "reviews": 25,
    "website": "https://www.google.com/maps/search/Smiles+on+Broadway+Dental+Care+in+Mississippi",
    "category": "Black-owned Dentists in Mississippi",
    "description": "This practice, led by Dr. LaMonica Davis Taylor, focuses on pediatric dentistry and also operates a mobile dental clinic to serve underserved children in the Mississippi Delta",
    "hours": "Mon-Fri 9AM-6PM",
    "services": [
      "Black-owned Dentists in Mississippi consultation",
      "Professional service",
      "Quality guarantee"
    ],
    "social_links": {}
  },
  {
    "name": "Divine Dentistry",
    "address": "2 Locations: Gulfport, MS and D'Iberville, MS",
    "phone": "228-863-4009",
    "rating": 4.0,
    "reviews": 25,
    "website": "https://www.google.com/maps/search/Divine+Dentistry+in+Mississippi",
    "category": "Black-owned Dentists in Mississippi",
    "description": "Founded by Dr. Andrea L. Davis, this practice offers general dentistry with a focus on serving the underserved",
    "hours": "Mon-Fri 9AM-6PM",
    "services": [
      "Black-owned Dentists in Mississippi consultation",
      "Professional service",
      "Quality guarantee"
    ],
    "social_links": {}
  },
  {
    "name": "Dr. Kinyatta Magee-Bennett, DMD",
    "address": "Gulfport, MS",
    "phone": "228-832-1000 (This number is associated with Healthy Smiles Family Dentistry)",
    "rating": 4.0,
    "reviews": 25,
    "website": "https://www.google.com/maps/search/Dr.+Kinyatta+Magee-Bennett,+DMD+in+Mississippi",
    "category": "Black-owned Dentists in Mississippi",
    "description": "Dr. Magee-Bennett practices general dentistry and has over 10 years of experience. She is also associated with Healthy Smiles Family Dentistry",
    "hours": "Mon-Fri 9AM-6PM",
    "services": [
      "Black-owned Dentists in Mississippi consultation",
      "Professional service",
      "Quality guarantee"
    ],
    "social_links": {}
  },
  {
    "name": "Mint Dental",
    "address": "190 Riverwind E Dr Suite 201, Pearl, MS 39208",
    "phone": "(601) 882-5600",
    "rating": 4.0,
    "reviews": 25,
    "website": "https://www.mintdentalms.com/",
    "category": "Black-owned Dentists in Mississippi",
    "description": "Founded by Dr. Antoinette Liles, Mint Dental offers family and cosmetic dentistry. Dr. Liles is passionate about community involvement and supporting the next generation of Black doctors",
    "hours": "Mon-Fri 9AM-6PM",
    "services": [
      "Black-owned Dentists in Mississippi consultation",
      "Professional service",
      "Quality guarantee"
    ],
    "social_links": {}
  },
  {
    "name": "Kenneth A. Bailey, DDS",
    "address": "Jackson, MS 39206",
    "phone": "(601) 981-1000",
    "rating": 4.0,
    "reviews": 25,
    "website": "https://www.google.com/maps/search/Kenneth+A.+Bailey,+DDS+in+Mississippi",
    "category": "Black-owned Dentists in Mississippi",
    "description": "Offers family dentistry, including routine exams, X-rays, extractions, dentures, implants, crowns, and cosmetic procedures",
    "hours": "Mon-Fri 9AM-6PM",
    "services": [
      "Black-owned Dentists in Mississippi consultation",
      "Professional service",
      "Quality guarantee"
    ],
    "social_links": {}
  },
  {
    "name": "Watson Family Dentistry",
    "address": "2181 Henry Hill Dr, Jackson, Mississippi 39204",
    "phone": "(601) 922-1171",
    "rating": 4.0,
    "reviews": 25,
    "website": "https://www.google.com/maps/search/Watson+Family+Dentistry+in+Mississippi",
    "category": "Black-owned Dentists in Mississippi",
    "description": "This practice, led by Dr. April Watson Stringfellow, focuses on providing quality dental care and staying updated with the latest dental technology",
    "hours": "Mon-Fri 9AM-6PM",
    "services": [
      "Black-owned Dentists in Mississippi consultation",
      "Professional service",
      "Quality guarantee"
    ],
    "social_links": {}
  },
  {
    "name": "Siwell Dental",
    "address": "6745 S. Siwell Rd, Byram, Mississippi 39272",
    "phone": "601-371-8634",
    "rating": 4.0,
    "reviews": 25,
    "website": "https://www.google.com/maps/search/Siwell+Dental+in+Mississippi",
    "category": "Black-owned Dentists in Mississippi",
    "description": "Dr. Quintin T. Julius offers general dentistry and aims to build lifelong relationships with patients through compassionate care and modern technology",
    "hours": "Mon-Fri 9AM-6PM",
    "services": [
      "Black-owned Dentists in Mississippi consultation",
      "Professional service",
      "Quality guarantee"
    ],
    "social_links": {}
  },
  {
    "name": "Dr. Carletta Ekunwe, DMD",
    "address": "Hattiesburg, MS",
    "phone": "",
    "rating": 4.0,
    "reviews": 25,
    "website": "https://www.google.com/maps/search/Dr.+Carletta+Ekunwe,+DMD+in+Mississippi",
    "category": "Black-owned Dentists in Mississippi",
    "description": "Dr. Ekunwe practices dentistry in Hattiesburg, MS",
    "hours": "Mon-Fri 9AM-6PM",
    "services": [
      "Black-owned Dentists in Mississippi consultation",
      "Professional service",
      "Quality guarantee"
    ],
    "social_links": {}
  },
  {
    "name": "SmileBuilders, Inc.",
    "address": "Multiple locations including Canton, Batesville, Byram, Hattiesburg, and Lucedale, MS",
    "phone": "",
    "rating": 4.0,
    "reviews": 25,
    "website": "https://www.google.com/maps/search/SmileBuilders,+Inc.+in+Mississippi",
    "category": "Black-owned Dentists in Mississippi",
    "description": "Led by Dr. Preston L. Cobbins, this practice offers general and cosmetic dentistry. Dr. Cobbins is a native of Mississippi and a graduate of Meharry Medical College",
    "hours": "Mon-Fri 9AM-6PM",
    "services": [
      "Black-owned Dentists in Mississippi consultation",
      "Professional service",
      "Quality guarantee"
    ],
    "social_links": {}
  },
  {
    "name": "Dental Concepts",
    "address": "Biloxi, MS",
    "phone": "",
    "rating": 4.0,
    "reviews": 25,
    "website": "https://www.google.com/maps/search/Dental+Concepts+in+Mississippi",
    "category": "Black-owned Dentists in Mississippi",
    "description": "Dr. Kiono Barnes and his team are committed to providing high-quality family and cosmetic dentistry",
    "hours": "Mon-Fri 9AM-6PM",
    "services": [
      "Black-owned Dentists in Mississippi consultation",
      "Professional service",
      "Quality guarantee"
    ],
    "social_links": {}
  }
]