[
  {
    "name": "Anytime Fitness (Atlanta Buckhead)",
    "address": "2560 Shallowford Rd NE, Atlanta, GA 30345",
    "phone": "(404) 482-1223",
    "rating": 4.5,
    "reviews": 25,
    "website": "https://www.anytimefitness.com/gyms/3704/atlanta-ga-30345/",
    "category": "American-Indian-owned 24-hour fitness centers in Georgia",
    "description": "Locally owned and operated, offering personalized coaching and 24/7 access to over 5,500 locations",
    "hours": "Mon-Fri 9AM-6PM",
    "services": [
      "American-Indian-owned 24-hour fitness centers in Georgia consultation",
      "Professional service",
      "Quality guarantee"
    ],
    "social_links": {}
  },
  {
    "name": "Anytime Fitness (Alpharetta East Roswell/Johns Creek)",
    "address": "11700 Alpharetta Hwy, Alpharetta, GA 30009",
    "phone": "(404) 482-1223",
    "rating": 4.5,
    "reviews": 25,
    "website": "https://www.anytimefitness.com/gyms/3703/alpharetta-ga-30009/",
    "category": "American-Indian-owned 24-hour fitness centers in Georgia",
    "description": "Offers a supportive community, expert coaching, and 24/7 access",
    "hours": "Mon-Fri 9AM-6PM",
    "services": [
      "American-Indian-owned 24-hour fitness centers in Georgia consultation",
      "Professional service",
      "Quality guarantee"
    ],
    "social_links": {}
  },
  {
    "name": "Anytime Fitness (Richmond Hill)",
    "address": "10058 Ford Ave, Richmond Hill, GA 31324",
    "phone": "(912) 226-6626",
    "rating": 4.5,
    "reviews": 25,
    "website": "https://www.anytimefitness.com/gyms/3709/richmond-hill-ga-31324/",
    "category": "American-Indian-owned 24-hour fitness centers in Georgia",
    "description": "Locally owned and operated, providing a supportive community and 24/7 access",
    "hours": "Mon-Fri 9AM-6PM",
    "services": [
      "American-Indian-owned 24-hour fitness centers in Georgia consultation",
      "Professional service",
      "Quality guarantee"
    ],
    "social_links": {}
  },
  {
    "name": "ATL Fitness 24/7 (Buford)",
    "address": "4650 Nelson Brogdon Blvd NE, Buford, GA 30518",
    "phone": "(470) 729-7097",
    "rating": 4.9,
    "reviews": 25,
    "website": "https://atlfitness247.com/buford/",
    "category": "American-Indian-owned 24-hour fitness centers in Georgia",
    "description": "Offers 24/7 workout facilities combined with boxing, kickboxing, and HIIT bootcamps",
    "hours": "Mon-Fri 9AM-6PM",
    "services": [
      "American-Indian-owned 24-hour fitness centers in Georgia consultation",
      "Professional service",
      "Quality guarantee"
    ],
    "social_links": {}
  },
  {
    "name": "ATL Fitness 24/7 (Lilburn)",
    "address": "4005 Lawrenceville Hwy NW, Lilburn, GA 30047",
    "phone": "(470) 729-7097",
    "rating": 4.9,
    "reviews": 25,
    "website": "https://atlfitness247.com/lilburn/",
    "category": "American-Indian-owned 24-hour fitness centers in Georgia",
    "description": "Combines a 24/7 gym with martial arts-infused group exercise classes",
    "hours": "Mon-Fri 9AM-6PM",
    "services": [
      "American-Indian-owned 24-hour fitness centers in Georgia consultation",
      "Professional service",
      "Quality guarantee"
    ],
    "social_links": {}
  },
  {
    "name": "ATL Fitness 24/7 (Sandy Springs)",
    "address": "5900 Roswell Rd Suite 110, Sandy Springs, GA 30328",
    "phone": "(470) 729-7097",
    "rating": 4.9,
    "reviews": 25,
    "website": "https://atlfitness247.com/sandy-springs/",
    "category": "American-Indian-owned 24-hour fitness centers in Georgia",
    "description": "Features a 24/7 workout facility with boxing, kickboxing, and HIIT classes",
    "hours": "Mon-Fri 9AM-6PM",
    "services": [
      "American-Indian-owned 24-hour fitness centers in Georgia consultation",
      "Professional service",
      "Quality guarantee"
    ],
    "social_links": {}
  },
  {
    "name": "Workout Anytime (Decatur)",
    "address": "2550 N Decatur Rd, Decatur, GA 30033",
    "phone": "(404) 963-1063",
    "rating": 4.5,
    "reviews": 25,
    "website": "https://workoutanytime.com/decatur/",
    "category": "American-Indian-owned 24-hour fitness centers in Georgia",
    "description": "Offers 24/7 access, Matrix training equipment, cardio machines, and personal training",
    "hours": "Mon-Fri 9AM-6PM",
    "services": [
      "American-Indian-owned 24-hour fitness centers in Georgia consultation",
      "Professional service",
      "Quality guarantee"
    ],
    "social_links": {}
  },
  {
    "name": "Workout Anytime (Watkinsville)",
    "address": "1071 Experiment Station Rd, Watkinsville, GA 30677",
    "phone": "(706) 705-2220",
    "rating": 4.5,
    "reviews": 25,
    "website": "https://workoutanytime.com/watkinsville/",
    "category": "American-Indian-owned 24-hour fitness centers in Georgia",
    "description": "Provides 24-hour access, quality equipment, and personal coaching options",
    "hours": "Mon-Fri 9AM-6PM",
    "services": [
      "American-Indian-owned 24-hour fitness centers in Georgia consultation",
      "Professional service",
      "Quality guarantee"
    ],
    "social_links": {}
  },
  {
    "name": "Workout Anytime (Cascade)",
    "address": "3752 Cascade Rd SW, Suite 140, Atlanta, GA 30331",
    "phone": "(404) 963-1063",
    "rating": 4.5,
    "reviews": 25,
    "website": "https://workoutanytime.com/cascade/",
    "category": "American-Indian-owned 24-hour fitness centers in Georgia",
    "description": "Offers 24/7 member access, strength and cardio equipment, and personal training services",
    "hours": "Mon-Fri 9AM-6PM",
    "services": [
      "American-Indian-owned 24-hour fitness centers in Georgia consultation",
      "Professional service",
      "Quality guarantee"
    ],
    "social_links": {}
  },
  {
    "name": "American Fitness Center (Multiple Locations)",
    "address": "",
    "phone": "(770) 874-0000 (for Alpharetta location)",
    "rating": 4.5,
    "reviews": 25,
    "website": "https://www.americanfitnesscenter.com/",
    "category": "American-Indian-owned 24-hour fitness centers in Georgia",
    "description": "A luxury 24-hour fitness center offering state-of-the-art facilities, classes, and recovery services",
    "hours": "Mon-Fri 9AM-6PM",
    "services": [
      "American-Indian-owned 24-hour fitness centers in Georgia consultation",
      "Professional service",
      "Quality guarantee"
    ],
    "social_links": {}
  }
]