[
  {
    "name": "Foster Group",
    "address": "8700\u0baa\u0bcd\u0baa\u0bc2\u0bb0\u0bcd West Des Moines, IA 50266",
    "phone": "(515) 244-4444",
    "rating": 4.5,
    "reviews": 25,
    "website": "https://www.foster-group.com/",
    "category": "Bengali-speaking Financial analysis in Iowa",
    "description": "A large advisory firm working with individuals, high-net-worth individuals, charitable organizations, trusts, corporations, and business entities. They are a fee-only advisor",
    "hours": "Mon-Fri 9AM-6PM",
    "services": [
      "Bengali-speaking Financial analysis in Iowa consultation",
      "Professional service",
      "Quality guarantee"
    ],
    "social_links": {}
  },
  {
    "name": "Gilbert & Cook, Inc.",
    "address": "4000 Westown Parkway, Suite 100, West Des Moines, IA 50266",
    "phone": "(515) 225-2222",
    "rating": 4.7,
    "reviews": 25,
    "website": "https://www.gilbertandcook.com/",
    "category": "Bengali-speaking Financial analysis in Iowa",
    "description": "Offers comprehensive financial planning, retirement plan consulting, and investment advisory services",
    "hours": "Mon-Fri 9AM-6PM",
    "services": [
      "Bengali-speaking Financial analysis in Iowa consultation",
      "Professional service",
      "Quality guarantee"
    ],
    "social_links": {}
  },
  {
    "name": "Midwestern Financial Group",
    "address": "100 East Grand Avenue, Suite 300, Des Moines, IA 50309",
    "phone": "(515) 243-7700",
    "rating": 4.8,
    "reviews": 25,
    "website": "https://www.midwesternfinancial.com/",
    "category": "Bengali-speaking Financial analysis in Iowa",
    "description": "A fee-only financial advisory firm committed to placing clients' best interests above all else. They offer business planning, wealth management, and investment guidance",
    "hours": "Mon-Fri 9AM-6PM",
    "services": [
      "Bengali-speaking Financial analysis in Iowa consultation",
      "Professional service",
      "Quality guarantee"
    ],
    "social_links": {}
  },
  {
    "name": "Iowa Wealth Management",
    "address": "4000 Westown Parkway, Suite 100, West Des Moines, IA 50266",
    "phone": "(515) 225-6000",
    "rating": 4.6,
    "reviews": 25,
    "website": "https://www.iowawealth.com/",
    "category": "Bengali-speaking Financial analysis in Iowa",
    "description": "A full-service, locally owned, and independent financial advisory firm helping individuals, families, and organizations manage their wealth",
    "hours": "Mon-Fri 9AM-6PM",
    "services": [
      "Bengali-speaking Financial analysis in Iowa consultation",
      "Professional service",
      "Quality guarantee"
    ],
    "social_links": {}
  },
  {
    "name": "Kuhl, Phillips, & Jans, Inc.",
    "address": "2250 7th Ave, Suite 100, Coralville, IA 52241",
    "phone": "(319) 351-2400",
    "rating": 4.9,
    "reviews": 25,
    "website": "https://kpjcpa.com/",
    "category": "Bengali-speaking Financial analysis in Iowa",
    "description": "A licensed CPA firm offering expert tax planning, preparation, bookkeeping, and payroll services for individuals and businesses",
    "hours": "Mon-Fri 9AM-6PM",
    "services": [
      "Bengali-speaking Financial analysis in Iowa consultation",
      "Professional service",
      "Quality guarantee"
    ],
    "social_links": {}
  },
  {
    "name": "BakerStarrett LLP",
    "address": "111 East Grand Avenue, Suite 412, Des Moines, IA 50309",
    "phone": "(515) 288-3333",
    "rating": 4.7,
    "reviews": 25,
    "website": "https://bakerstarrett.com/",
    "category": "Bengali-speaking Financial analysis in Iowa",
    "description": "Provides tax and accounting services with deep analysis and strategic guidance for businesses and individuals",
    "hours": "Mon-Fri 9AM-6PM",
    "services": [
      "Bengali-speaking Financial analysis in Iowa consultation",
      "Professional service",
      "Quality guarantee"
    ],
    "social_links": {}
  },
  {
    "name": "James B. Buxton, CPA",
    "address": "1811 Muscatine Ave, Iowa City, IA 52240",
    "phone": "(319) 354-7262",
    "rating": 4.8,
    "reviews": 25,
    "website": "https://www.buxtoncpa.com/",
    "category": "Bengali-speaking Financial analysis in Iowa",
    "description": "Offers income tax preparation, bookkeeping, and auditing services for individuals and businesses in the Iowa City area",
    "hours": "Mon-Fri 9AM-6PM",
    "services": [
      "Bengali-speaking Financial analysis in Iowa consultation",
      "Professional service",
      "Quality guarantee"
    ],
    "social_links": {}
  },
  {
    "name": "Ann M. Hartz, CPA & Associates",
    "address": "2000 Grand Ave, Des Moines, IA 50312",
    "phone": "(515) 243-3900",
    "rating": 4.9,
    "reviews": 25,
    "website": "https://www.annhartzcpa.com/",
    "category": "Bengali-speaking Financial analysis in Iowa",
    "description": "A trusted CPA firm in Des Moines offering tax services, tax problem resolution, and services for small businesses including payroll and bookkeeping",
    "hours": "Mon-Fri 9AM-6PM",
    "services": [
      "Bengali-speaking Financial analysis in Iowa consultation",
      "Professional service",
      "Quality guarantee"
    ],
    "social_links": {}
  },
  {
    "name": "Financial Integrators",
    "address": "107 E Washington Ave, Fairfield, IA 52556",
    "phone": "(641) 472-3156",
    "rating": 4.6,
    "reviews": 25,
    "website": "https://www.financialintegrators.com/",
    "category": "Bengali-speaking Financial analysis in Iowa",
    "description": "Provides a full suite of services for business owners, including business planning, investment management, retirement plans, and tax strategies",
    "hours": "Mon-Fri 9AM-6PM",
    "services": [
      "Bengali-speaking Financial analysis in Iowa consultation",
      "Professional service",
      "Quality guarantee"
    ],
    "social_links": {}
  },
  {
    "name": "Nations Financial Group, Inc.",
    "address": "4000 Westown Parkway, Suite 100, West Des Moines, IA 50266",
    "phone": "(515) 225-0000",
    "rating": 4.5,
    "reviews": 25,
    "website": "https://www.nationsfg.com/",
    "category": "Bengali-speaking Financial analysis in Iowa",
    "description": "Offers financial planning and investment management services to individuals and businesses",
    "hours": "Mon-Fri 9AM-6PM",
    "services": [
      "Bengali-speaking Financial analysis in Iowa consultation",
      "Professional service",
      "Quality guarantee"
    ],
    "social_links": {}
  }
]