[
  {
    "name": "Advanced Tire Service",
    "address": "Multiple locations in Florida, including Gainesville, Ocala, Lake City, and Brooksville. (Specific address varies by location)",
    "phone": "(352) 376-5411 (Gainesville)",
    "rating": 4.0,
    "reviews": 25,
    "website": "https://www.advancedtireservice.com/",
    "category": "Alaska-Native-owned Suspension upgrades in Florida",
    "description": "Offers a wide range of automotive care, including suspension and lift kit installation, shock absorber and strut services, and general auto repair",
    "hours": "Mon-Fri 9AM-6PM",
    "services": [
      "Alaska-Native-owned Suspension upgrades in Florida consultation",
      "Professional service",
      "Quality guarantee"
    ],
    "social_links": {}
  },
  {
    "name": "Brandon's Auto & Truck Sales & Service, Inc.",
    "address": "530 S Dixie Hwy W, Pompano Beach, FL 33060",
    "phone": "(954) 781-4400",
    "rating": 4.0,
    "reviews": 25,
    "website": "https://www.google.com/maps/search/Brandon's+Auto+&+Truck+Sales+&+Service,+Inc.+in+Florida",
    "category": "Alaska-Native-owned Suspension upgrades in Florida",
    "description": "Specializes in high-performance suspension upgrades for trucks and Jeeps, including coil springs, leaf springs, and lift kits",
    "hours": "Mon-Fri 9AM-6PM",
    "services": [
      "Alaska-Native-owned Suspension upgrades in Florida consultation",
      "Professional service",
      "Quality guarantee"
    ],
    "social_links": {}
  },
  {
    "name": "C & G Auto Center Inc.",
    "address": "4155 W. Oak Ridge Rd., Orlando, FL 32809",
    "phone": "(407) 857-4445",
    "rating": 4.0,
    "reviews": 25,
    "website": "https://www.google.com/maps/search/C+&+G+Auto+Center+Inc.+in+Florida",
    "category": "Alaska-Native-owned Suspension upgrades in Florida",
    "description": "Provides expert suspension services in the Orlando and Winter Park area, diagnosing issues like pulling, sagging, and uneven ride height. Offers a nationwide warranty and shuttle service",
    "hours": "Mon-Fri 9AM-6PM",
    "services": [
      "Alaska-Native-owned Suspension upgrades in Florida consultation",
      "Professional service",
      "Quality guarantee"
    ],
    "social_links": {}
  },
  {
    "name": "The V Shop",
    "address": "9050 W State Rd 84, Davie, FL 33324",
    "phone": "(954) 476-1000",
    "rating": 4.0,
    "reviews": 25,
    "website": "https://www.google.com/maps/search/The+V+Shop+in+Florida",
    "category": "Alaska-Native-owned Suspension upgrades in Florida",
    "description": "Specializes in shocks and struts replacement for all vehicle makes and models, restoring control, balance, and drivability. Offers a 1 Year/12,000 Mile warranty",
    "hours": "Mon-Fri 9AM-6PM",
    "services": [
      "Alaska-Native-owned Suspension upgrades in Florida consultation",
      "Professional service",
      "Quality guarantee"
    ],
    "social_links": {}
  },
  {
    "name": "Affordable Auto Repair",
    "address": "8288 NW 64th St, Miami, FL 33166",
    "phone": "(305) 594-0034",
    "rating": 4.0,
    "reviews": 25,
    "website": "https://www.google.com/maps/search/Affordable+Auto+Repair+in+Florida",
    "category": "Alaska-Native-owned Suspension upgrades in Florida",
    "description": "Offers a comprehensive range of auto repair services, with customers praising their transparency, integrity, and fair pricing",
    "hours": "Mon-Fri 9AM-6PM",
    "services": [
      "Alaska-Native-owned Suspension upgrades in Florida consultation",
      "Professional service",
      "Quality guarantee"
    ],
    "social_links": {}
  },
  {
    "name": "Sunset Auto Repair",
    "address": "99 Sunset Drive, West Melbourne, FL 32904",
    "phone": "(321) 723-1311",
    "rating": 4.5,
    "reviews": 25,
    "website": "https://www.google.com/maps/search/Sunset+Auto+Repair+in+Florida",
    "category": "Alaska-Native-owned Suspension upgrades in Florida",
    "description": "A well-regarded auto repair shop with a strong customer base, offering various automotive services",
    "hours": "Mon-Fri 9AM-6PM",
    "services": [
      "Alaska-Native-owned Suspension upgrades in Florida consultation",
      "Professional service",
      "Quality guarantee"
    ],
    "social_links": {}
  },
  {
    "name": "M & A Auto Solutions LLC",
    "address": "12136 86th Rd N, West Palm Beach, FL 33412",
    "phone": "(561) 798-3777",
    "rating": 4.5,
    "reviews": 25,
    "website": "https://www.google.com/maps/search/M+&+A+Auto+Solutions+LLC+in+Florida",
    "category": "Alaska-Native-owned Suspension upgrades in Florida",
    "description": "An auto repair shop serving the West Palm Beach area",
    "hours": "Mon-Fri 9AM-6PM",
    "services": [
      "Alaska-Native-owned Suspension upgrades in Florida consultation",
      "Professional service",
      "Quality guarantee"
    ],
    "social_links": {}
  },
  {
    "name": "Mid-Cape Garage",
    "address": "1244 Viscaya Parkway, Cape Coral, FL 33990",
    "phone": "(239) 574-7777",
    "rating": 4.5,
    "reviews": 25,
    "website": "https://www.google.com/maps/search/Mid-Cape+Garage+in+Florida",
    "category": "Alaska-Native-owned Suspension upgrades in Florida",
    "description": "Offers auto maintenance and repair services in Cape Coral",
    "hours": "Mon-Fri 9AM-6PM",
    "services": [
      "Alaska-Native-owned Suspension upgrades in Florida consultation",
      "Professional service",
      "Quality guarantee"
    ],
    "social_links": {}
  },
  {
    "name": "Gary's Car Craft",
    "address": "1212 Blanding Blvd, Jacksonville, FL 32210",
    "phone": "(904) 771-5555",
    "rating": 4.5,
    "reviews": 25,
    "website": "https://www.google.com/maps/search/Gary's+Car+Craft+in+Florida",
    "category": "Alaska-Native-owned Suspension upgrades in Florida",
    "description": "A highly-rated auto repair shop in Jacksonville",
    "hours": "Mon-Fri 9AM-6PM",
    "services": [
      "Alaska-Native-owned Suspension upgrades in Florida consultation",
      "Professional service",
      "Quality guarantee"
    ],
    "social_links": {}
  },
  {
    "name": "STW Auto Care",
    "address": "1968 Custom Dr, Lakeland, FL 33805",
    "phone": "(863) 688-7777",
    "rating": 4.5,
    "reviews": 25,
    "website": "https://www.google.com/maps/search/STW+Auto+Care+in+Florida",
    "category": "Alaska-Native-owned Suspension upgrades in Florida",
    "description": "An auto care center in Lakeland with a strong customer rating",
    "hours": "Mon-Fri 9AM-6PM",
    "services": [
      "Alaska-Native-owned Suspension upgrades in Florida consultation",
      "Professional service",
      "Quality guarantee"
    ],
    "social_links": {}
  }
]