[
  {
    "name": "Dawn Injury & Wellness Center, PLLC",
    "address": "1004 Market St, Parkersburg, WV 26101",
    "phone": "(304) 428-9355",
    "rating": 4.0,
    "reviews": 25,
    "website": "https://www.google.com/maps/search/Dawn+Injury+&+Wellness+Center,+PLLC+West+Virginia",
    "category": "Chinese-speaking Chiropractors in West-Virginia",
    "description": "Offers chiropractic, therapeutic massage therapy, and physical therapy",
    "hours": "Mon-Fri 9AM-6PM",
    "services": [
      "Chinese-speaking Chiropractors in West-Virginia consultation",
      "Professional service",
      "Quality guarantee"
    ],
    "social_links": {}
  },
  {
    "name": "Chipley Chiropractic",
    "address": "409 N Kanawha St, Beckley, WV 25801",
    "phone": "(304) 253-7000",
    "rating": 4.0,
    "reviews": 25,
    "website": "https://www.google.com/maps/search/Chipley+Chiropractic+West+Virginia",
    "category": "Chinese-speaking Chiropractors in West-Virginia",
    "description": "Focuses on chiropractic care to restore health and help patients with pain",
    "hours": "Mon-Fri 9AM-6PM",
    "services": [
      "Chinese-speaking Chiropractors in West-Virginia consultation",
      "Professional service",
      "Quality guarantee"
    ],
    "social_links": {}
  },
  {
    "name": "Coliseum Chiropractic",
    "address": "1444 Greenbag Rd, Morgantown, WV 26508",
    "phone": "(304) 244-5575",
    "rating": 4.0,
    "reviews": 25,
    "website": "https://www.google.com/maps/search/Coliseum+Chiropractic+West+Virginia",
    "category": "Chinese-speaking Chiropractors in West-Virginia",
    "description": "Offers chiropractic care with a focus on families and the latest techniques",
    "hours": "Mon-Fri 9AM-6PM",
    "services": [
      "Chinese-speaking Chiropractors in West-Virginia consultation",
      "Professional service",
      "Quality guarantee"
    ],
    "social_links": {}
  },
  {
    "name": "Connection Chiropractic",
    "address": "242 Kruger St, Wheeling, WV 26003",
    "phone": "(304) 905-0060",
    "rating": 4.0,
    "reviews": 25,
    "website": "https://www.google.com/maps/search/Connection+Chiropractic+West+Virginia",
    "category": "Chinese-speaking Chiropractors in West-Virginia",
    "description": "A family-focused chiropractic office providing care for all ages",
    "hours": "Mon-Fri 9AM-6PM",
    "services": [
      "Chinese-speaking Chiropractors in West-Virginia consultation",
      "Professional service",
      "Quality guarantee"
    ],
    "social_links": {}
  },
  {
    "name": "Integrity Chiropractic Inc",
    "address": "300 Rural Acres Dr, Beckley, WV 25801",
    "phone": "(304) 253-7000",
    "rating": 4.0,
    "reviews": 25,
    "website": "https://www.google.com/maps/search/Integrity+Chiropractic+Inc+West+Virginia",
    "category": "Chinese-speaking Chiropractors in West-Virginia",
    "description": "Offers chiropractic care, massage therapy, and shockwave therapy",
    "hours": "Mon-Fri 9AM-6PM",
    "services": [
      "Chinese-speaking Chiropractors in West-Virginia consultation",
      "Professional service",
      "Quality guarantee"
    ],
    "social_links": {}
  },
  {
    "name": "Huntington Chiropractic Accident & Injury Clinic",
    "address": "1216 6th Ave, Huntington, WV 25701",
    "phone": "(304) 523-7891",
    "rating": 4.0,
    "reviews": 25,
    "website": "https://www.google.com/maps/search/Huntington+Chiropractic+Accident+&+Injury+Clinic+West+Virginia",
    "category": "Chinese-speaking Chiropractors in West-Virginia",
    "description": "Provides natural, effective pain relief and offers X-rays, massage, and dry needling",
    "hours": "Mon-Fri 9AM-6PM",
    "services": [
      "Chinese-speaking Chiropractors in West-Virginia consultation",
      "Professional service",
      "Quality guarantee"
    ],
    "social_links": {}
  },
  {
    "name": "Advantage Chiropractic",
    "address": "1306 Kanawha Blvd E, Charleston, WV 25301",
    "phone": "(304) 344-4444",
    "rating": 4.0,
    "reviews": 25,
    "website": "https://www.google.com/maps/search/Advantage+Chiropractic+West+Virginia",
    "category": "Chinese-speaking Chiropractors in West-Virginia",
    "description": "Offers chiropractic care, physical therapy modalities, and massage therapy",
    "hours": "Mon-Fri 9AM-6PM",
    "services": [
      "Chinese-speaking Chiropractors in West-Virginia consultation",
      "Professional service",
      "Quality guarantee"
    ],
    "social_links": {}
  },
  {
    "name": "Akers Chiropractic Clinic",
    "address": "1114 Market St, Parkersburg, WV 26101",
    "phone": "(304) 865-1295",
    "rating": 4.0,
    "reviews": 25,
    "website": "https://www.google.com/maps/search/Akers+Chiropractic+Clinic+West+Virginia",
    "category": "Chinese-speaking Chiropractors in West-Virginia",
    "description": "Specializes in spinal manipulation and physical therapy for pain relief",
    "hours": "Mon-Fri 9AM-6PM",
    "services": [
      "Chinese-speaking Chiropractors in West-Virginia consultation",
      "Professional service",
      "Quality guarantee"
    ],
    "social_links": {}
  },
  {
    "name": "McElaney Chiropractic",
    "address": "409 S Raleigh St, Martinsburg, WV 25401",
    "phone": "(304) 263-0020",
    "rating": 4.0,
    "reviews": 25,
    "website": "https://www.google.com/maps/search/McElaney+Chiropractic+West+Virginia",
    "category": "Chinese-speaking Chiropractors in West-Virginia",
    "description": "Offers traditional chiropractic adjustments and innovative laser therapy",
    "hours": "Mon-Fri 9AM-6PM",
    "services": [
      "Chinese-speaking Chiropractors in West-Virginia consultation",
      "Professional service",
      "Quality guarantee"
    ],
    "social_links": {}
  },
  {
    "name": "CORE Health Centers Chiropractic",
    "address": "1105 Bridge Rd, Charleston, WV 25314",
    "phone": "(304) 768-5068",
    "rating": 4.0,
    "reviews": 25,
    "website": "https://www.google.com/maps/search/CORE+Health+Centers+Chiropractic+West+Virginia",
    "category": "Chinese-speaking Chiropractors in West-Virginia",
    "description": "Specializes in treating recurring pain conditions and offers a combination of traditional chiropractic treatments with active therapies",
    "hours": "Mon-Fri 9AM-6PM",
    "services": [
      "Chinese-speaking Chiropractors in West-Virginia consultation",
      "Professional service",
      "Quality guarantee"
    ],
    "social_links": {}
  }
]