[
  {
    "name": "St. Michael School (Waialua, Hawaii)",
    "address": "61-237 Kamehameha Hwy, Waialua, HI 96791",
    "phone": "(808) 637-5000",
    "rating": 4.0,
    "reviews": 25,
    "website": "https://www.saintmichaelhawaii.org/",
    "category": "Catholic-owned Live online classes in Hawaii",
    "description": "Partnering with Catholic Virtual, St. Michael School offers online learning options, including a planned online high school program",
    "hours": "Mon-Fri 9AM-6PM",
    "services": [
      "Catholic-owned Live online classes in Hawaii consultation",
      "Professional service",
      "Quality guarantee"
    ],
    "social_links": {}
  },
  {
    "name": "Lanakila Multi-Purpose Senior Center (Catholic Charities Hawai\u02bbi)",
    "address": "1700 Palama St, Honolulu, HI 96820",
    "phone": "(808) 847-1322",
    "rating": 4.0,
    "reviews": 25,
    "website": "https://catholiccharitieshawaii.org/",
    "category": "Catholic-owned Live online classes in Hawaii",
    "description": "Offers online classes via Zoom exclusively for its members, covering various topics",
    "hours": "Mon-Fri 9AM-6PM",
    "services": [
      "Catholic-owned Live online classes in Hawaii consultation",
      "Professional service",
      "Quality guarantee"
    ],
    "social_links": {}
  },
  {
    "name": "Holy Family Catholic Academy (Honolulu, Oahu)",
    "address": "830 Kilani Ave, Honolulu, HI 96818",
    "phone": "(808) 423-9611",
    "rating": 4.0,
    "reviews": 25,
    "website": "https://www.hfcahawaii.org/",
    "category": "Catholic-owned Live online classes in Hawaii",
    "description": "Provides a Virtual Learning Program for Kindergarten through 8th grade students, utilizing digital and web-based curriculum",
    "hours": "Mon-Fri 9AM-6PM",
    "services": [
      "Catholic-owned Live online classes in Hawaii consultation",
      "Professional service",
      "Quality guarantee"
    ],
    "social_links": {}
  },
  {
    "name": "Mary, Star of the Sea School (Honolulu, Oahu)",
    "address": "4470 Aliikoa St, Honolulu, HI 96821",
    "phone": "(808) 734-2711",
    "rating": 4.0,
    "reviews": 25,
    "website": "https://www.marystarhawaii.org/",
    "category": "Catholic-owned Live online classes in Hawaii",
    "description": "Offers distance learning options and CCD (Catechism) classes for deepening Catholic faith",
    "hours": "Mon-Fri 9AM-6PM",
    "services": [
      "Catholic-owned Live online classes in Hawaii consultation",
      "Professional service",
      "Quality guarantee"
    ],
    "social_links": {}
  },
  {
    "name": "St. Catherine School (Kapa\u02bba)",
    "address": "4664 Kawaihau Rd, Kapaa, HI 96746",
    "phone": "(808) 822-7144",
    "rating": 4.0,
    "reviews": 25,
    "website": "https://www.stcatherinehawaii.org/",
    "category": "Catholic-owned Live online classes in Hawaii",
    "description": "Offers Off Campus Education programs, which may include online components",
    "hours": "Mon-Fri 9AM-6PM",
    "services": [
      "Catholic-owned Live online classes in Hawaii consultation",
      "Professional service",
      "Quality guarantee"
    ],
    "social_links": {}
  },
  {
    "name": "St. Theresa School (Honolulu, Oahu)",
    "address": "712 N School St, Honolulu, HI 96817",
    "phone": "(808) 521-5041",
    "rating": 4.0,
    "reviews": 25,
    "website": "https://www.sttheresahawaii.org/",
    "category": "Catholic-owned Live online classes in Hawaii",
    "description": "Offers Off Campus Education programs, which may include online components",
    "hours": "Mon-Fri 9AM-6PM",
    "services": [
      "Catholic-owned Live online classes in Hawaii consultation",
      "Professional service",
      "Quality guarantee"
    ],
    "social_links": {}
  },
  {
    "name": "St. Joseph School (Hilo, Hawai\u02bbi)",
    "address": "1313 Ulupii St, Hilo, HI 96720",
    "phone": "(808) 935-4844",
    "rating": 4.0,
    "reviews": 25,
    "website": "https://www.stjosephschoolhilo.org/",
    "category": "Catholic-owned Live online classes in Hawaii",
    "description": "While primarily focused on in-person education, they have adapted to distance learning and provided resources",
    "hours": "Mon-Fri 9AM-6PM",
    "services": [
      "Catholic-owned Live online classes in Hawaii consultation",
      "Professional service",
      "Quality guarantee"
    ],
    "social_links": {}
  },
  {
    "name": "Catholic Charities Hawai\u02bbi",
    "address": "1822 Ke'eaumoku Street, Honolulu, HI 96822",
    "phone": "(808) 521-4357",
    "rating": 4.0,
    "reviews": 25,
    "website": "https://catholiccharitieshawaii.org/",
    "category": "Catholic-owned Live online classes in Hawaii",
    "description": "Offers a Distance Learning Program through its Center for Educational Opportunity & Career Pathways, providing online courses",
    "hours": "Mon-Fri 9AM-6PM",
    "services": [
      "Catholic-owned Live online classes in Hawaii consultation",
      "Professional service",
      "Quality guarantee"
    ],
    "social_links": {}
  },
  {
    "name": "Resurrection of the Lord Catholic Church (Waipahu, HI)",
    "address": "94-121 Farrington Hwy, Waipahu, HI 96797",
    "phone": "(808) 676-1425",
    "rating": 4.0,
    "reviews": 25,
    "website": "https://rolchurch.org/",
    "category": "Catholic-owned Live online classes in Hawaii",
    "description": "Offers faith formation classes, which may include online components or resources",
    "hours": "Mon-Fri 9AM-6PM",
    "services": [
      "Catholic-owned Live online classes in Hawaii consultation",
      "Professional service",
      "Quality guarantee"
    ],
    "social_links": {}
  },
  {
    "name": "Sacred Heart Church (Honolulu, HI)",
    "address": "1701 Wilder Ave, Honolulu, HI 96822",
    "phone": "(808) 949-7811",
    "rating": 4.0,
    "reviews": 25,
    "website": "https://www.sacredheart-honolulu.org/",
    "category": "Catholic-owned Live online classes in Hawaii",
    "description": "As a mission of Maryknoll School, it is involved in educational initiatives, and the church itself offers resources that could be accessed online",
    "hours": "Mon-Fri 9AM-6PM",
    "services": [
      "Catholic-owned Live online classes in Hawaii consultation",
      "Professional service",
      "Quality guarantee"
    ],
    "social_links": {}
  }
]