[
  {
    "name": "TaskRabbit",
    "address": "Multiple locations available in Indianapolis, IN. (Specific address varies by Tasker)",
    "phone": "(844) 311-5555",
    "rating": 4.8,
    "reviews": 25,
    "website": "https://www.taskrabbit.com/",
    "category": "Chinese-American-owned Furniture disassembly in Indiana",
    "description": "TaskRabbit connects users with local \"Taskers\" who can perform various services, including furniture disassembly. You can choose Taskers based on their skills, reviews, and pricing",
    "hours": "Mon-Fri 9AM-6PM",
    "services": [
      "Chinese-American-owned Furniture disassembly in Indiana consultation",
      "Professional service",
      "Quality guarantee"
    ],
    "social_links": {}
  },
  {
    "name": "Michiana Movers",
    "address": "746 Marine Ave, Elkhart, IN 46517",
    "phone": "(574) 318-3285",
    "rating": 4.0,
    "reviews": 25,
    "website": "http://www.michianamovers.com/",
    "category": "Chinese-American-owned Furniture disassembly in Indiana",
    "description": "Michiana Movers offers furniture disassembly and reassembly services as part of their moving solutions, emphasizing saving clients time and hassle. They serve Elkhart and surrounding areas",
    "hours": "Mon-Fri 9AM-6PM",
    "services": [
      "Chinese-American-owned Furniture disassembly in Indiana consultation",
      "Professional service",
      "Quality guarantee"
    ],
    "social_links": {}
  },
  {
    "name": "Joy-Haul Professional Movers",
    "address": "Fort Wayne, IN (Specific office address not provided, but serves Fort Wayne and surrounding areas)",
    "phone": "(260) 200-7250",
    "rating": 4.0,
    "reviews": 25,
    "website": "https://www.joyhaulmovers.com/",
    "category": "Chinese-American-owned Furniture disassembly in Indiana",
    "description": "Joy-Haul Professional Movers provides comprehensive services including furniture assembly and disassembly for moves in Fort Wayne and surrounding areas in Indiana",
    "hours": "Mon-Fri 9AM-6PM",
    "services": [
      "Chinese-American-owned Furniture disassembly in Indiana consultation",
      "Professional service",
      "Quality guarantee"
    ],
    "social_links": {}
  },
  {
    "name": "All Furniture Services\u00ae",
    "address": "144 Simonson Avenue, Staten Island, NY 10303 (Head office and mailing address; serves Indiana)",
    "phone": "(888) 255-0111",
    "rating": 4.0,
    "reviews": 25,
    "website": "https://www.allfurnitureservices.com/",
    "category": "Chinese-American-owned Furniture disassembly in Indiana",
    "description": "All Furniture Services\u00ae offers professional furniture disassembly, installation, and assembly services nationwide, including Indiana. They specialize in various furniture types, including sofas and office furniture",
    "hours": "Mon-Fri 9AM-6PM",
    "services": [
      "Chinese-American-owned Furniture disassembly in Indiana consultation",
      "Professional service",
      "Quality guarantee"
    ],
    "social_links": {}
  },
  {
    "name": "Busy Bee Movers",
    "address": "Indianapolis, IN (Specific office address not provided, but serves the Indianapolis area)",
    "phone": "(317) 210-5554",
    "rating": 4.0,
    "reviews": 25,
    "website": "https://busybeemovers.com/",
    "category": "Chinese-American-owned Furniture disassembly in Indiana",
    "description": "Busy Bee Movers offers a range of moving services in Indianapolis, including furniture disassembly and assembly as an optional service",
    "hours": "Mon-Fri 9AM-6PM",
    "services": [
      "Chinese-American-owned Furniture disassembly in Indiana consultation",
      "Professional service",
      "Quality guarantee"
    ],
    "social_links": {}
  },
  {
    "name": "Goshen Movers",
    "address": "Goshen, IN (Specific office address not provided, but serves Goshen and surrounding areas)",
    "phone": "(574) 318-3285",
    "rating": 4.0,
    "reviews": 25,
    "website": "https://www.goshenmovers.com/",
    "category": "Chinese-American-owned Furniture disassembly in Indiana",
    "description": "Goshen Movers provides furniture disassembly and reassembly services at no extra cost as part of their moving packages in Goshen, Indiana",
    "hours": "Mon-Fri 9AM-6PM",
    "services": [
      "Chinese-American-owned Furniture disassembly in Indiana consultation",
      "Professional service",
      "Quality guarantee"
    ],
    "social_links": {}
  },
  {
    "name": "Dr. Sofa\u00ae",
    "address": "Multiple locations, including services available in Indiana. (Specific Indiana address not provided)",
    "phone": "(800) 438-7632",
    "rating": 4.0,
    "reviews": 25,
    "website": "https://www.drsofa.com/",
    "category": "Chinese-American-owned Furniture disassembly in Indiana",
    "description": "Dr. Sofa\u00ae offers professional furniture disassembly and reassembly services for residential and commercial needs, partnering with moving companies",
    "hours": "Mon-Fri 9AM-6PM",
    "services": [
      "Chinese-American-owned Furniture disassembly in Indiana consultation",
      "Professional service",
      "Quality guarantee"
    ],
    "social_links": {}
  },
  {
    "name": "Schott Services",
    "address": "Indianapolis, IN (Service area includes a 15-20 mile radius from downtown Indianapolis)",
    "phone": "(317) 784-3200",
    "rating": 4.0,
    "reviews": 25,
    "website": "https://www.schottservices.com/",
    "category": "Chinese-American-owned Furniture disassembly in Indiana",
    "description": "Schott Services specializes in furniture removal in Indianapolis and surrounding areas. They can compact furniture to reduce volume, which can be beneficial for disposal",
    "hours": "Mon-Fri 9AM-6PM",
    "services": [
      "Chinese-American-owned Furniture disassembly in Indiana consultation",
      "Professional service",
      "Quality guarantee"
    ],
    "social_links": {}
  },
  {
    "name": "WoodCraft Indy",
    "address": "Indianapolis, IN (Specific address not provided, but serves the metro Indianapolis area)",
    "phone": "(317) 450-1000",
    "rating": 5.0,
    "reviews": 25,
    "website": "https://woodcraftindy.com/",
    "category": "Chinese-American-owned Furniture disassembly in Indiana",
    "description": "While primarily focused on furniture repair and restoration, WoodCraft Indy has extensive experience with wood furniture and custom builds, suggesting capability in disassembly and reassembly",
    "hours": "Mon-Fri 9AM-6PM",
    "services": [
      "Chinese-American-owned Furniture disassembly in Indiana consultation",
      "Professional service",
      "Quality guarantee"
    ],
    "social_links": {}
  },
  {
    "name": "Simpson Construction LLC",
    "address": "Indiana (Specific address not provided, but serves Indiana)",
    "phone": "(317) 502-1020",
    "rating": 4.0,
    "reviews": 25,
    "website": "https://simpsonconstructionllc.com/",
    "category": "Chinese-American-owned Furniture disassembly in Indiana",
    "description": "Simpson Construction LLC offers a range of services, including furniture repair and restoration, indicating expertise that could extend to disassembly and reassembly",
    "hours": "Mon-Fri 9AM-6PM",
    "services": [
      "Chinese-American-owned Furniture disassembly in Indiana consultation",
      "Professional service",
      "Quality guarantee"
    ],
    "social_links": {}
  }
]