[
  {
    "name": "Franconia Notch State Park",
    "address": "Franconia Notch Pkwy, Franconia, NH 03580",
    "phone": "(603) 745-8391",
    "rating": 4.0,
    "reviews": 25,
    "website": "https://www.nhstateparks.org/find-parks/franconia-notch",
    "category": "French-speaking Parks in New-Hampshire",
    "description": "Located in the heart of the White Mountains, this park offers stunning mountain scenery, hiking trails, waterfalls, and the popular Echo Lake",
    "hours": "Mon-Fri 9AM-6PM",
    "services": [
      "French-speaking Parks in New-Hampshire consultation",
      "Professional service",
      "Quality guarantee"
    ],
    "social_links": {}
  },
  {
    "name": "Echo Lake State Park / Cathedral Ledge State Park",
    "address": "68 Echo Lake Road, North Conway, NH 03860",
    "phone": "(603) 447-5121",
    "rating": 4.0,
    "reviews": 25,
    "website": "https://www.nhstateparks.org/find-parks/echo-lake",
    "category": "French-speaking Parks in New-Hampshire",
    "description": "These adjacent parks offer beautiful lake views, hiking to scenic overlooks like Cathedral Ledge, and opportunities for swimming and picnicking",
    "hours": "Mon-Fri 9AM-6PM",
    "services": [
      "French-speaking Parks in New-Hampshire consultation",
      "Professional service",
      "Quality guarantee"
    ],
    "social_links": {}
  },
  {
    "name": "Hampton Beach State Park",
    "address": "167 Ocean Blvd, Hampton, NH 03842",
    "phone": "(603) 926-1976",
    "rating": 4.0,
    "reviews": 25,
    "website": "https://www.nhstateparks.org/find-parks/hampton-beach",
    "category": "French-speaking Parks in New-Hampshire",
    "description": "This park features a sandy beach on the Atlantic Ocean, offering swimming, fishing, and RV camping",
    "hours": "Mon-Fri 9AM-6PM",
    "services": [
      "French-speaking Parks in New-Hampshire consultation",
      "Professional service",
      "Quality guarantee"
    ],
    "social_links": {}
  },
  {
    "name": "Crawford Notch State Park",
    "address": "NH-302, Hart's Location, NH 03751",
    "phone": "(603) 374-2271",
    "rating": 4.0,
    "reviews": 25,
    "website": "https://www.nhstateparks.org/find-parks/crawford-notch",
    "category": "French-speaking Parks in New-Hampshire",
    "description": "Known for its spectacular mountain views, hiking trails, and waterfalls, including Arethusa Falls",
    "hours": "Mon-Fri 9AM-6PM",
    "services": [
      "French-speaking Parks in New-Hampshire consultation",
      "Professional service",
      "Quality guarantee"
    ],
    "social_links": {}
  },
  {
    "name": "White Lake State Park",
    "address": "1600 White Lake Rd, Tamworth, NH 03886",
    "phone": "(603) 323-7000",
    "rating": 4.0,
    "reviews": 25,
    "website": "https://www.nhstateparks.org/find-parks/white-lake",
    "category": "French-speaking Parks in New-Hampshire",
    "description": "This park offers a sandy beach on White Lake, swimming, fishing, hiking, and camping",
    "hours": "Mon-Fri 9AM-6PM",
    "services": [
      "French-speaking Parks in New-Hampshire consultation",
      "Professional service",
      "Quality guarantee"
    ],
    "social_links": {}
  },
  {
    "name": "Bear Brook State Park",
    "address": "177 Deerfield Rd, Allenstown, NH 03275",
    "phone": "(603) 485-3838",
    "rating": 4.0,
    "reviews": 25,
    "website": "https://www.nhstateparks.org/find-parks/bear-brook",
    "category": "French-speaking Parks in New-Hampshire",
    "description": "The largest state park in New Hampshire, offering extensive trails for hiking, biking, and horseback riding, as well as camping and fishing",
    "hours": "Mon-Fri 9AM-6PM",
    "services": [
      "French-speaking Parks in New-Hampshire consultation",
      "Professional service",
      "Quality guarantee"
    ],
    "social_links": {}
  },
  {
    "name": "Umbagog Lake State Park",
    "address": "237 Cameron Rd, Cambridge, NH 03596",
    "phone": "(603) 482-7795",
    "rating": 4.0,
    "reviews": 25,
    "website": "https://www.nhstateparks.org/find-parks/umbagog-lake",
    "category": "French-speaking Parks in New-Hampshire",
    "description": "Located on the shores of Umbagog Lake, this park provides opportunities for boating, camping, fishing, and swimming",
    "hours": "Mon-Fri 9AM-6PM",
    "services": [
      "French-speaking Parks in New-Hampshire consultation",
      "Professional service",
      "Quality guarantee"
    ],
    "social_links": {}
  },
  {
    "name": "Lake Francis State Park",
    "address": "446 Lake Francis Rd, Pittsburg, NH 03592",
    "phone": "(603) 538-6965",
    "rating": 4.0,
    "reviews": 25,
    "website": "https://www.nhstateparks.org/find-parks/lake-francis",
    "category": "French-speaking Parks in New-Hampshire",
    "description": "This park is situated on the shores of Lake Francis and is a popular base for hunting, fishing, and OHRV riding",
    "hours": "Mon-Fri 9AM-6PM",
    "services": [
      "French-speaking Parks in New-Hampshire consultation",
      "Professional service",
      "Quality guarantee"
    ],
    "social_links": {}
  },
  {
    "name": "Saint-Gaudens National Historical Park",
    "address": "137 Saint Gaudens Rd, Cornish, NH 03745",
    "phone": "(603) 675-2175",
    "rating": 4.0,
    "reviews": 25,
    "website": "https://www.nps.gov/stand/index.htm",
    "category": "French-speaking Parks in New-Hampshire",
    "description": "This park preserves the home and studio of sculptor Augustus Saint-Gaudens, offering a blend of art, history, and nature",
    "hours": "Mon-Fri 9AM-6PM",
    "services": [
      "French-speaking Parks in New-Hampshire consultation",
      "Professional service",
      "Quality guarantee"
    ],
    "social_links": {}
  },
  {
    "name": "Spacious Skies French Pond Campground",
    "address": "113 French Pond Rd, Henniker, NH 03242",
    "phone": "(603) 428-3147",
    "rating": 4.0,
    "reviews": 25,
    "website": "https://www.spaciousskiescampgrounds.com/french-pond",
    "category": "French-speaking Parks in New-Hampshire",
    "description": "While a campground rather than a public park, it is located on French Pond and offers various recreational activities like swimming, kayaking, and fishing",
    "hours": "Mon-Fri 9AM-6PM",
    "services": [
      "French-speaking Parks in New-Hampshire consultation",
      "Professional service",
      "Quality guarantee"
    ],
    "social_links": {}
  }
]