[
  {
    "name": "Midwest Buddhist Temple (Legacy Garden)",
    "address": "435 W Menomonee St, Chicago, IL 60614",
    "phone": "(773) 943-9425",
    "rating": 4.0,
    "reviews": 25,
    "website": "http://www.midwestbuddhist.org/",
    "category": "Buddhist-owned Plant purchasing assistance in Illinois",
    "description": "This temple has a Legacy Garden, which is described as an \"oasis of peace and inspiration.\" While it features a garden, it does not offer plant purchasing assistance",
    "hours": "Mon-Fri 9AM-6PM",
    "services": [
      "Buddhist-owned Plant purchasing assistance in Illinois consultation",
      "Professional service",
      "Quality guarantee"
    ],
    "social_links": {}
  },
  {
    "name": "Dharma Drum Mountain Chicago",
    "address": "241 Holbrook Drive, Wheeling, IL 60090",
    "phone": "(847) 808-7777",
    "rating": 4.0,
    "reviews": 25,
    "website": "https://www.ddmba.org/",
    "category": "Buddhist-owned Plant purchasing assistance in Illinois",
    "description": "This is a Buddhist meditation center that practices Chan Buddhism. They have a garden and engage in community activities, but do not offer plant purchasing assistance. They do accept donations to support their programs",
    "hours": "Mon-Fri 9AM-6PM",
    "services": [
      "Buddhist-owned Plant purchasing assistance in Illinois consultation",
      "Professional service",
      "Quality guarantee"
    ],
    "social_links": {}
  },
  {
    "name": "Chanmyay Satipatthana Vihara",
    "address": "525 N. Bruns Lane, Springfield, IL 62702",
    "phone": "(217) 726-9601",
    "rating": 4.0,
    "reviews": 25,
    "website": "http://www.chanmyayusa.org/",
    "category": "Buddhist-owned Plant purchasing assistance in Illinois",
    "description": "A Buddhist monastery and meditation center. They have a property with trees and a meadow, but no services related to plant purchasing",
    "hours": "Mon-Fri 9AM-6PM",
    "services": [
      "Buddhist-owned Plant purchasing assistance in Illinois consultation",
      "Professional service",
      "Quality guarantee"
    ],
    "social_links": {}
  },
  {
    "name": "Blue Lotus Temple and Meditation Center",
    "address": "233 E. Washington St, Woodstock, IL 60098",
    "phone": "(815) 337-7000",
    "rating": 4.0,
    "reviews": 25,
    "website": "http://www.bluelotustemple.org/",
    "category": "Buddhist-owned Plant purchasing assistance in Illinois",
    "description": "This temple focuses on mindfulness and compassion. While they have a temple and offer meditation, there's no mention of plant purchasing services",
    "hours": "Mon-Fri 9AM-6PM",
    "services": [
      "Buddhist-owned Plant purchasing assistance in Illinois consultation",
      "Professional service",
      "Quality guarantee"
    ],
    "social_links": {}
  },
  {
    "name": "Chicago Zen Buddhist Temple",
    "address": "1710 W. Cornelia Avenue, Chicago, IL 60657",
    "phone": "(773) 528-0300",
    "rating": 4.0,
    "reviews": 25,
    "website": "http://www.zenbuddhisttemple.org/chicago/",
    "category": "Buddhist-owned Plant purchasing assistance in Illinois",
    "description": "Offers public services, meditation courses, and a community for fellowship. No plant purchasing assistance is listed",
    "hours": "Mon-Fri 9AM-6PM",
    "services": [
      "Buddhist-owned Plant purchasing assistance in Illinois consultation",
      "Professional service",
      "Quality guarantee"
    ],
    "social_links": {}
  },
  {
    "name": "The Buddhist Temple of Chicago",
    "address": "1151 W. Leland Ave, Chicago, IL 60640",
    "phone": "(773) 761-6500",
    "rating": 4.0,
    "reviews": 25,
    "website": "http://www.tbc.org/",
    "category": "Buddhist-owned Plant purchasing assistance in Illinois",
    "description": "A Jodo Shinshu Buddhist temple offering services, classes, and meditation. No plant purchasing assistance is mentioned",
    "hours": "Mon-Fri 9AM-6PM",
    "services": [
      "Buddhist-owned Plant purchasing assistance in Illinois consultation",
      "Professional service",
      "Quality guarantee"
    ],
    "social_links": {}
  },
  {
    "name": "Zen Buddhist Temple of Chicago",
    "address": "608 Dempster St, Evanston, IL 60202",
    "phone": "(847) 328-0000",
    "rating": 4.0,
    "reviews": 25,
    "website": "http://www.zenbuddhisttemple.org/evanston/",
    "category": "Buddhist-owned Plant purchasing assistance in Illinois",
    "description": "Committed to Zen meditation and Buddhism. No plant purchasing assistance is listed",
    "hours": "Mon-Fri 9AM-6PM",
    "services": [
      "Buddhist-owned Plant purchasing assistance in Illinois consultation",
      "Professional service",
      "Quality guarantee"
    ],
    "social_links": {}
  },
  {
    "name": "Buddha's Words Monastery (Lao Buddhist Temple of Elgin)",
    "address": "779 Dixon Ave, Elgin, IL 60120",
    "phone": "(847) 851-8512",
    "rating": 4.0,
    "reviews": 25,
    "website": "https://www.buddhaswordselgin.org/",
    "category": "Buddhist-owned Plant purchasing assistance in Illinois",
    "description": "A center for Buddhist practice and study, offering meditation and communal worship. No plant purchasing assistance is available",
    "hours": "Mon-Fri 9AM-6PM",
    "services": [
      "Buddhist-owned Plant purchasing assistance in Illinois consultation",
      "Professional service",
      "Quality guarantee"
    ],
    "social_links": {}
  },
  {
    "name": "McHenry County College (Zen Garden)",
    "address": "8900 US-14, Crystal Lake, IL 60012",
    "phone": "(815) 455-3700",
    "rating": 4.0,
    "reviews": 25,
    "website": "https://www.mchenry.edu/",
    "category": "Buddhist-owned Plant purchasing assistance in Illinois",
    "description": "Features a Zen Garden for reflection, but is an educational institution and not a business offering plant purchasing assistance",
    "hours": "Mon-Fri 9AM-6PM",
    "services": [
      "Buddhist-owned Plant purchasing assistance in Illinois consultation",
      "Professional service",
      "Quality guarantee"
    ],
    "social_links": {}
  },
  {
    "name": "Chicago Botanic Garden (Zen Garden)",
    "address": "1000 Lake Cook Road, Glencoe, IL 60022",
    "phone": "(847) 835-5400",
    "rating": 4.0,
    "reviews": 25,
    "website": "https://www.chicagobotanic.org/",
    "category": "Buddhist-owned Plant purchasing assistance in Illinois",
    "description": "This is a public garden with a Zen Garden exhibit. It is a botanical institution, not a business offering plant purchasing assistance",
    "hours": "Mon-Fri 9AM-6PM",
    "services": [
      "Buddhist-owned Plant purchasing assistance in Illinois consultation",
      "Professional service",
      "Quality guarantee"
    ],
    "social_links": {}
  }
]