[
  {
    "name": "Shawarma & Co.",
    "address": "14600 N Penn Ave, Oklahoma City, OK 73134",
    "phone": "(405) 896-7000",
    "rating": 4.7,
    "reviews": 25,
    "website": "https://shawarmaandco.com/",
    "category": "Arabic-speaking Direct restaurant delivery in Oklahoma",
    "description": "Offers a variety of Mediterranean street food, including shawarmas, gyros, and wraps, with customizable bowls and sides",
    "hours": "Mon-Fri 9AM-6PM",
    "services": [
      "Arabic-speaking Direct restaurant delivery in Oklahoma consultation",
      "Professional service",
      "Quality guarantee"
    ],
    "social_links": {}
  },
  {
    "name": "Abu Omar Halal",
    "address": "2308 N Classen Blvd, Oklahoma City, OK 73106",
    "phone": "(405) 601-5222",
    "rating": 4.7,
    "reviews": 25,
    "website": "https://abuomarhalal.com/",
    "category": "Arabic-speaking Direct restaurant delivery in Oklahoma",
    "description": "Known for its authentic Halal Mediterranean cuisine, including shawarma, falafel, and platters",
    "hours": "Mon-Fri 9AM-6PM",
    "services": [
      "Arabic-speaking Direct restaurant delivery in Oklahoma consultation",
      "Professional service",
      "Quality guarantee"
    ],
    "social_links": {}
  },
  {
    "name": "Zam Zam Halal Mediterranean Grill",
    "address": "7400 NW 39th Expy, Warr Acres, OK 73132",
    "phone": "(405) 463-7777",
    "rating": 4.6,
    "reviews": 25,
    "website": "https://zamzamhalal.com/",
    "category": "Arabic-speaking Direct restaurant delivery in Oklahoma",
    "description": "Serves a wide range of Halal Mediterranean dishes, with a focus on fresh ingredients and traditional flavors",
    "hours": "Mon-Fri 9AM-6PM",
    "services": [
      "Arabic-speaking Direct restaurant delivery in Oklahoma consultation",
      "Professional service",
      "Quality guarantee"
    ],
    "social_links": {}
  },
  {
    "name": "Meddys (Oklahoma City)",
    "address": "4820 E 61st St, Suite #100, Tulsa, OK 74136",
    "phone": "(918) 922-8340",
    "rating": 4.5,
    "reviews": 25,
    "website": "https://www.meddys.com/",
    "category": "Arabic-speaking Direct restaurant delivery in Oklahoma",
    "description": "Offers authentic and healthy Mediterranean fare, including award-winning hummus, shawarmas, and salads",
    "hours": "Mon-Fri 9AM-6PM",
    "services": [
      "Arabic-speaking Direct restaurant delivery in Oklahoma consultation",
      "Professional service",
      "Quality guarantee"
    ],
    "social_links": {}
  },
  {
    "name": "Zorba's Mediterranean Cuisine",
    "address": "4380 NW 10th St, Oklahoma City, OK 73107",
    "phone": "(405) 943-7777",
    "rating": 4.5,
    "reviews": 25,
    "website": "https://zorbasokc.com/",
    "category": "Arabic-speaking Direct restaurant delivery in Oklahoma",
    "description": "A long-standing establishment offering traditional Greek and Mediterranean dishes, known for its gyros and kabobs",
    "hours": "Mon-Fri 9AM-6PM",
    "services": [
      "Arabic-speaking Direct restaurant delivery in Oklahoma consultation",
      "Professional service",
      "Quality guarantee"
    ],
    "social_links": {}
  },
  {
    "name": "Hummus Mediterranean Cafe",
    "address": "1020 NW 23rd St, Oklahoma City, OK 73106",
    "phone": "(405) 601-5222",
    "rating": 4.5,
    "reviews": 25,
    "website": "https://hummusokc.com/",
    "category": "Arabic-speaking Direct restaurant delivery in Oklahoma",
    "description": "Features a diverse menu of Mediterranean favorites, with a strong emphasis on hummus and other dips, as well as wraps and platters",
    "hours": "Mon-Fri 9AM-6PM",
    "services": [
      "Arabic-speaking Direct restaurant delivery in Oklahoma consultation",
      "Professional service",
      "Quality guarantee"
    ],
    "social_links": {}
  },
  {
    "name": "CAVA (Classen Curve)",
    "address": "5810 Classen Blvd, Oklahoma City, OK 73118",
    "phone": "(405) 602-0500",
    "rating": 4.4,
    "reviews": 25,
    "website": "https://www.cava.com/locations/oklahoma-city-classen-curve",
    "category": "Arabic-speaking Direct restaurant delivery in Oklahoma",
    "description": "A popular chain offering customizable Mediterranean bowls, salads, and pitas with a variety of fresh ingredients and dressings",
    "hours": "Mon-Fri 9AM-6PM",
    "services": [
      "Arabic-speaking Direct restaurant delivery in Oklahoma consultation",
      "Professional service",
      "Quality guarantee"
    ],
    "social_links": {}
  },
  {
    "name": "Zeus The Greek",
    "address": "1100 Classen Dr, Oklahoma City, OK 73103",
    "phone": "(405) 601-5222",
    "rating": 4.4,
    "reviews": 25,
    "website": "https://www.zeusthegreek.com/",
    "category": "Arabic-speaking Direct restaurant delivery in Oklahoma",
    "description": "Offers a taste of authentic Greek cuisine, including gyros, souvlaki, and classic Mediterranean appetizers",
    "hours": "Mon-Fri 9AM-6PM",
    "services": [
      "Arabic-speaking Direct restaurant delivery in Oklahoma consultation",
      "Professional service",
      "Quality guarantee"
    ],
    "social_links": {}
  },
  {
    "name": "Basil Mediterranean Cafe",
    "address": "3501 NW 56th St, Oklahoma City, OK 73112",
    "phone": "(405) 946-4000",
    "rating": 4.3,
    "reviews": 25,
    "website": "https://basilmediterraneancafe.com/",
    "category": "Arabic-speaking Direct restaurant delivery in Oklahoma",
    "description": "Provides a variety of Mediterranean and Middle Eastern dishes in a casual setting, with options for dine-in, takeout, and delivery",
    "hours": "Mon-Fri 9AM-6PM",
    "services": [
      "Arabic-speaking Direct restaurant delivery in Oklahoma consultation",
      "Professional service",
      "Quality guarantee"
    ],
    "social_links": {}
  },
  {
    "name": "Shawkat",
    "address": "4123 S Sheridan Rd, Tulsa, OK 74145",
    "phone": "(918) 742-7023",
    "rating": 4.3,
    "reviews": 25,
    "website": "https://www.shawkatmediterraneangrill.com/",
    "category": "Arabic-speaking Direct restaurant delivery in Oklahoma",
    "description": "A Mediterranean grill in Tulsa offering a range of traditional dishes like falafel, shawarma, and kabobs, with a focus on homemade meals",
    "hours": "Mon-Fri 9AM-6PM",
    "services": [
      "Arabic-speaking Direct restaurant delivery in Oklahoma consultation",
      "Professional service",
      "Quality guarantee"
    ],
    "social_links": {}
  }
]