[
  {
    "name": "Cherokee Tire & More",
    "address": "1011 W Center St, Mansfield, AR 72944",
    "phone": "(479) 928-4000",
    "rating": 5.0,
    "reviews": 25,
    "website": "https://www.cherokeetireandmore.com/",
    "category": "American-Indian-owned Mobile auto maintenance in Arkansas",
    "description": "Offers auto repair, oil changes, and tire services",
    "hours": "Mon-Fri 9AM-6PM",
    "services": [
      "American-Indian-owned Mobile auto maintenance in Arkansas consultation",
      "Professional service",
      "Quality guarantee"
    ],
    "social_links": {}
  },
  {
    "name": "Cherokee Tire",
    "address": "5382923, Mansfield, AR",
    "phone": "",
    "rating": 4.0,
    "reviews": 25,
    "website": "https://www.google.com/maps/search/Cherokee+Tire+in+Arkansas",
    "category": "American-Indian-owned Mobile auto maintenance in Arkansas",
    "description": "Specializes in auto repair services",
    "hours": "Mon-Fri 9AM-6PM",
    "services": [
      "American-Indian-owned Mobile auto maintenance in Arkansas consultation",
      "Professional service",
      "Quality guarantee"
    ],
    "social_links": {}
  },
  {
    "name": "Little Rock Mobile Mechanic",
    "address": "Little Rock, AR (Mobile service, no fixed address provided)",
    "phone": "(501) 299-0198",
    "rating": 4.0,
    "reviews": 25,
    "website": "https://www.google.com/maps/search/Little+Rock+Mobile+Mechanic+in+Arkansas",
    "category": "American-Indian-owned Mobile auto maintenance in Arkansas",
    "description": "Offers on-site auto repair services in Little Rock and surrounding areas, including diagnostics, brakes, and batteries",
    "hours": "Mon-Fri 9AM-6PM",
    "services": [
      "American-Indian-owned Mobile auto maintenance in Arkansas consultation",
      "Professional service",
      "Quality guarantee"
    ],
    "social_links": {}
  },
  {
    "name": "Wrench",
    "address": "Little Rock, AR (Mobile service, no fixed address provided)",
    "phone": "",
    "rating": 4.0,
    "reviews": 25,
    "website": "https://wrench.co/",
    "category": "American-Indian-owned Mobile auto maintenance in Arkansas",
    "description": "Provides full-service mobile mechanic services in Little Rock and surrounding areas, including routine maintenance and complex diagnostics",
    "hours": "Mon-Fri 9AM-6PM",
    "services": [
      "American-Indian-owned Mobile auto maintenance in Arkansas consultation",
      "Professional service",
      "Quality guarantee"
    ],
    "social_links": {}
  },
  {
    "name": "Smart Bubble Auto",
    "address": "Little Rock, Chenal, Conway, AR (Mobile service, no fixed address provided)",
    "phone": "(833) 501-7771",
    "rating": 4.0,
    "reviews": 25,
    "website": "https://smartbubbleautorepairshop.simplybook.me/",
    "category": "American-Indian-owned Mobile auto maintenance in Arkansas",
    "description": "Offers mobile mechanic repairs and specializes in engine repairs, including diesel engines",
    "hours": "Mon-Fri 9AM-6PM",
    "services": [
      "American-Indian-owned Mobile auto maintenance in Arkansas consultation",
      "Professional service",
      "Quality guarantee"
    ],
    "social_links": {}
  },
  {
    "name": "Eric's Mobile Repair",
    "address": "7 Belmar Drive, Little Rock, AR 72209",
    "phone": "(501) 574-8113",
    "rating": 4.0,
    "reviews": 25,
    "website": "https://www.google.com/maps/search/Eric's+Mobile+Repair+in+Arkansas",
    "category": "American-Indian-owned Mobile auto maintenance in Arkansas",
    "description": "Offers mobile auto repair services",
    "hours": "Mon-Fri 9AM-6PM",
    "services": [
      "American-Indian-owned Mobile auto maintenance in Arkansas consultation",
      "Professional service",
      "Quality guarantee"
    ],
    "social_links": {}
  },
  {
    "name": "Little Rock Mobile Mechanics Co.",
    "address": "Little Rock, AR (Mobile service, no fixed address provided)",
    "phone": "",
    "rating": 4.0,
    "reviews": 25,
    "website": "https://www.google.com/maps/search/Little+Rock+Mobile+Mechanics+Co.+in+Arkansas",
    "category": "American-Indian-owned Mobile auto maintenance in Arkansas",
    "description": "Provides fast and convenient mobile auto care, including oil changes and brake repairs",
    "hours": "Mon-Fri 9AM-6PM",
    "services": [
      "American-Indian-owned Mobile auto maintenance in Arkansas consultation",
      "Professional service",
      "Quality guarantee"
    ],
    "social_links": {}
  },
  {
    "name": "The KAR Shop",
    "address": "2700 N Woods Ln, Rogers, AR 72756",
    "phone": "(479) 255-5110",
    "rating": 4.0,
    "reviews": 25,
    "website": "https://www.thekarshop.com/",
    "category": "American-Indian-owned Mobile auto maintenance in Arkansas",
    "description": "Offers reliable auto repair services for all makes and models, including engine and transmission services",
    "hours": "Mon-Fri 9AM-6PM",
    "services": [
      "American-Indian-owned Mobile auto maintenance in Arkansas consultation",
      "Professional service",
      "Quality guarantee"
    ],
    "social_links": {}
  },
  {
    "name": "Credence Automotive Repair",
    "address": "Rogers, AR (No specific address provided in search results)",
    "phone": "",
    "rating": 4.0,
    "reviews": 25,
    "website": "https://credenceautorepair.com/",
    "category": "American-Indian-owned Mobile auto maintenance in Arkansas",
    "description": "Provides automotive repair and maintenance with an emphasis on transparency and professionalism",
    "hours": "Mon-Fri 9AM-6PM",
    "services": [
      "American-Indian-owned Mobile auto maintenance in Arkansas consultation",
      "Professional service",
      "Quality guarantee"
    ],
    "social_links": {}
  },
  {
    "name": "Sullivan's Automotive",
    "address": "12424 Sardis Rd, Mabelvale, AR 72103",
    "phone": "(501) 455-3175",
    "rating": 4.0,
    "reviews": 25,
    "website": "https://www.google.com/maps/search/Sullivan's+Automotive+in+Arkansas",
    "category": "American-Indian-owned Mobile auto maintenance in Arkansas",
    "description": "Offers reliable auto repair services including brakes, tires, and oil changes",
    "hours": "Mon-Fri 9AM-6PM",
    "services": [
      "American-Indian-owned Mobile auto maintenance in Arkansas consultation",
      "Professional service",
      "Quality guarantee"
    ],
    "social_links": {}
  }
]