[
  {
    "name": "The Stables Entwined",
    "address": "1400 US-27, California, KY 41007",
    "phone": "(859) 445-8500",
    "rating": 4.0,
    "reviews": 25,
    "website": "https://www.stablesentwined.com/",
    "category": "Disabled-owned Venue selection in Kentucky",
    "description": "This is a handicap-accessible barn venue that can hold up to 190 guests",
    "hours": "Mon-Fri 9AM-6PM",
    "services": [
      "Disabled-owned Venue selection in Kentucky consultation",
      "Professional service",
      "Quality guarantee"
    ],
    "social_links": {}
  },
  {
    "name": "Silo Farms Weddings & Events",
    "address": "5000 Silo Rd, Shelbyville, KY 40065",
    "phone": "(502) 633-2255",
    "rating": 4.0,
    "reviews": 25,
    "website": "https://www.silofarmsky.com/",
    "category": "Disabled-owned Venue selection in Kentucky",
    "description": "This venue offers a 4,100 sq ft event barn with bride & groom dressing suites and handicap-accessible public restrooms",
    "hours": "Mon-Fri 9AM-6PM",
    "services": [
      "Disabled-owned Venue selection in Kentucky consultation",
      "Professional service",
      "Quality guarantee"
    ],
    "social_links": {}
  },
  {
    "name": "The Stone House at Silver Creek",
    "address": "1020 Silver Creek Rd, Richmond, KY 40472",
    "phone": "(859) 355-2177",
    "rating": 4.0,
    "reviews": 25,
    "website": "https://www.stonehouseatsilvercreek.com/",
    "category": "Disabled-owned Venue selection in Kentucky",
    "description": "This venue is owned and operated by Megan and Braidyn Bloomer and emphasizes inclusivity and accessibility. They offer transportation assistance for guests with mobility needs",
    "hours": "Mon-Fri 9AM-6PM",
    "services": [
      "Disabled-owned Venue selection in Kentucky consultation",
      "Professional service",
      "Quality guarantee"
    ],
    "social_links": {}
  },
  {
    "name": "Limestone Hall",
    "address": "164 W. Main Street, Lexington, KY 40507",
    "phone": "(859) 422-1175",
    "rating": 4.0,
    "reviews": 25,
    "website": "https://www.limestonehall.com/",
    "category": "Disabled-owned Venue selection in Kentucky",
    "description": "Located in the historic courthouse in downtown Lexington, this venue features modern design with two large event rooms and a dome rotunda",
    "hours": "Mon-Fri 9AM-6PM",
    "services": [
      "Disabled-owned Venue selection in Kentucky consultation",
      "Professional service",
      "Quality guarantee"
    ],
    "social_links": {}
  },
  {
    "name": "The Manchester Reserve",
    "address": "1110 Manchester St, Lexington, KY 40508",
    "phone": "(859) 485-2494",
    "rating": 4.0,
    "reviews": 25,
    "website": "https://www.themanchesterreserve.com/",
    "category": "Disabled-owned Venue selection in Kentucky",
    "description": "This venue offers a refined and flexible space for weddings and corporate gatherings in Lexington",
    "hours": "Mon-Fri 9AM-6PM",
    "services": [
      "Disabled-owned Venue selection in Kentucky consultation",
      "Professional service",
      "Quality guarantee"
    ],
    "social_links": {}
  },
  {
    "name": "AAECON General Contracting, LLC",
    "address": "Louisville, KY",
    "phone": "(502) 821-9444",
    "rating": 4.0,
    "reviews": 25,
    "website": "https://www.google.com/maps/search/AAECON+General+Contracting,+LLC+in+Kentucky",
    "category": "Disabled-owned Venue selection in Kentucky",
    "description": "This is a Service-Disabled Veteran-Owned Small Business offering construction services and management",
    "hours": "Mon-Fri 9AM-6PM",
    "services": [
      "Disabled-owned Venue selection in Kentucky consultation",
      "Professional service",
      "Quality guarantee"
    ],
    "social_links": {}
  },
  {
    "name": "A Total Solution, LLC",
    "address": "Fisherville, KY",
    "phone": "",
    "rating": 4.0,
    "reviews": 25,
    "website": "https://www.google.com/maps/search/A+Total+Solution,+LLC+in+Kentucky",
    "category": "Disabled-owned Venue selection in Kentucky",
    "description": "This is a Service-Disabled Veteran-Owned Small Business specializing in electrical, heating, and air conditioning controls",
    "hours": "Mon-Fri 9AM-6PM",
    "services": [
      "Disabled-owned Venue selection in Kentucky consultation",
      "Professional service",
      "Quality guarantee"
    ],
    "social_links": {}
  },
  {
    "name": "The Celebration Studio",
    "address": "Northern Kentucky",
    "phone": "",
    "rating": 4.0,
    "reviews": 25,
    "website": "https://www.celebrationstudioky.com/",
    "category": "Disabled-owned Venue selection in Kentucky",
    "description": "A small event venue that can accommodate up to 50 people for various celebrations",
    "hours": "Mon-Fri 9AM-6PM",
    "services": [
      "Disabled-owned Venue selection in Kentucky consultation",
      "Professional service",
      "Quality guarantee"
    ],
    "social_links": {}
  },
  {
    "name": "Cliffview Resort Conference Center & Banquet Hall",
    "address": "3724 WV-7, Campton, KY 41413",
    "phone": "(888) 596-0525",
    "rating": 4.0,
    "reviews": 25,
    "website": "https://cliffviewresort.com/conference-center-banquet-hall/",
    "category": "Disabled-owned Venue selection in Kentucky",
    "description": "This venue offers 1,595 sq ft of event space suitable for meetings, social events, and weddings for up to 80 guests",
    "hours": "Mon-Fri 9AM-6PM",
    "services": [
      "Disabled-owned Venue selection in Kentucky consultation",
      "Professional service",
      "Quality guarantee"
    ],
    "social_links": {}
  },
  {
    "name": "Mountain Arts Center (MAC)",
    "address": "104 Country Music Hwy, Prestonsburg, KY 41653",
    "phone": "(606) 886-2623",
    "rating": 4.0,
    "reviews": 25,
    "website": "https://www.mountainartscenter.com/",
    "category": "Disabled-owned Venue selection in Kentucky",
    "description": "This center features a 1,050-seat music venue, art gallery, and offers wheelchair accessible parking, seating, and restrooms",
    "hours": "Mon-Fri 9AM-6PM",
    "services": [
      "Disabled-owned Venue selection in Kentucky consultation",
      "Professional service",
      "Quality guarantee"
    ],
    "social_links": {}
  }
]