[
  {
    "name": "OXEN Technology",
    "address": "1001 N 98th St, Omaha, NE 68114",
    "phone": "(402) 204-1200",
    "rating": 5.0,
    "reviews": 25,
    "website": "https://oxen.tech/",
    "category": "Central-American-owned Cybersecurity protection in Nebraska",
    "description": "Offers advanced cybersecurity methods and threat detection for businesses, with a history of supporting companies across the Midwest",
    "hours": "Mon-Fri 9AM-6PM",
    "services": [
      "Central-American-owned Cybersecurity protection in Nebraska consultation",
      "Professional service",
      "Quality guarantee"
    ],
    "social_links": {}
  },
  {
    "name": "12 Points Technologies",
    "address": "11030 Q St, Omaha, NE 68137",
    "phone": "(402) 991-1212",
    "rating": 4.8,
    "reviews": 25,
    "website": "https://12points.com/",
    "category": "Central-American-owned Cybersecurity protection in Nebraska",
    "description": "Provides managed cybersecurity solutions, including threat detection, network security, and cyber awareness training, with a focus on veteran-owned services",
    "hours": "Mon-Fri 9AM-6PM",
    "services": [
      "Central-American-owned Cybersecurity protection in Nebraska consultation",
      "Professional service",
      "Quality guarantee"
    ],
    "social_links": {}
  },
  {
    "name": "CoreTech",
    "address": "11030 Q St, Omaha, NE 68137 (also serves Lincoln and Bellevue)",
    "phone": "(402) 991-1212",
    "rating": 4.0,
    "reviews": 25,
    "website": "https://coretech.us/",
    "category": "Central-American-owned Cybersecurity protection in Nebraska",
    "description": "Offers comprehensive IT security services, including network monitoring, compliance support, and tailored cybersecurity strategies for businesses in Omaha and Lincoln",
    "hours": "Mon-Fri 9AM-6PM",
    "services": [
      "Central-American-owned Cybersecurity protection in Nebraska consultation",
      "Professional service",
      "Quality guarantee"
    ],
    "social_links": {}
  },
  {
    "name": "Midwest Cloud Computing",
    "address": "1055 N 115th St Suite 301, Omaha, NE 68154",
    "phone": "(402) 397-1123",
    "rating": 4.0,
    "reviews": 25,
    "website": "https://midwestcloudcomputing.com/",
    "category": "Central-American-owned Cybersecurity protection in Nebraska",
    "description": "Provides proactive cybersecurity services, including 24/7 threat monitoring, incident response, and security awareness training, with over 15 years in business",
    "hours": "Mon-Fri 9AM-6PM",
    "services": [
      "Central-American-owned Cybersecurity protection in Nebraska consultation",
      "Professional service",
      "Quality guarantee"
    ],
    "social_links": {}
  },
  {
    "name": "Run Networks",
    "address": "1055 North 115th Street, Suite 301, Omaha, NE 68154 (also serves Bellevue and Lincoln)",
    "phone": "(402) 397-1123",
    "rating": 4.0,
    "reviews": 25,
    "website": "https://runnetworks.com/",
    "category": "Central-American-owned Cybersecurity protection in Nebraska",
    "description": "Offers tailored business IT support and cybersecurity services, including managed support, network security, and data backup, in Omaha, Bellevue, and Lincoln",
    "hours": "Mon-Fri 9AM-6PM",
    "services": [
      "Central-American-owned Cybersecurity protection in Nebraska consultation",
      "Professional service",
      "Quality guarantee"
    ],
    "social_links": {}
  },
  {
    "name": "Hamilton Business Technologies",
    "address": "Multiple locations including Grand Island and Omaha. (Specific office address for cybersecurity services not detailed, but main office is 308.381.1000)",
    "phone": "308.381.1000",
    "rating": 4.0,
    "reviews": 25,
    "website": "https://hamiltonbusiness.com/",
    "category": "Central-American-owned Cybersecurity protection in Nebraska",
    "description": "Provides managed IT services and cybersecurity solutions, including vulnerability assessments and security training, serving businesses across Nebraska",
    "hours": "Mon-Fri 9AM-6PM",
    "services": [
      "Central-American-owned Cybersecurity protection in Nebraska consultation",
      "Professional service",
      "Quality guarantee"
    ],
    "social_links": {}
  },
  {
    "name": "Oneway Network Security & Construction Solutions",
    "address": "3030 N Diers Ave, Grand Island, NE 68803",
    "phone": "402.554.6256 (NBDC contact)",
    "rating": 4.0,
    "reviews": 25,
    "website": "https://www.google.com/maps/search/Oneway+Network+Security+&+Construction+Solutions+in+Nebraska",
    "category": "Central-American-owned Cybersecurity protection in Nebraska",
    "description": "Offers IT project consultation, security system installations, and networking services, founded by Enrique Aguilera",
    "hours": "Mon-Fri 9AM-6PM",
    "services": [
      "Central-American-owned Cybersecurity protection in Nebraska consultation",
      "Professional service",
      "Quality guarantee"
    ],
    "social_links": {}
  },
  {
    "name": "Verticomm",
    "address": "7407 O Street, Lincoln, NE 68510",
    "phone": "800-332-2352",
    "rating": 4.0,
    "reviews": 25,
    "website": "https://verticomm.com/",
    "category": "Central-American-owned Cybersecurity protection in Nebraska",
    "description": "Delivers managed IT services and cybersecurity solutions, including advanced threat protection, to businesses in Lincoln",
    "hours": "Mon-Fri 9AM-6PM",
    "services": [
      "Central-American-owned Cybersecurity protection in Nebraska consultation",
      "Professional service",
      "Quality guarantee"
    ],
    "social_links": {}
  },
  {
    "name": "Attentus Technologies",
    "address": "12020 W Center Rd, Omaha, NE 68144 (also serves Bellevue)",
    "phone": "(402) 509-5800",
    "rating": 4.0,
    "reviews": 25,
    "website": "https://attentus.com/",
    "category": "Central-American-owned Cybersecurity protection in Nebraska",
    "description": "Offers customizable cybersecurity solutions with 20+ years of experience, including 24/7 monitoring, incident response, and data backup",
    "hours": "Mon-Fri 9AM-6PM",
    "services": [
      "Central-American-owned Cybersecurity protection in Nebraska consultation",
      "Professional service",
      "Quality guarantee"
    ],
    "social_links": {}
  },
  {
    "name": "T1 Technologies",
    "address": "10547 Bondesson Circle, Omaha, NE 68154",
    "phone": "(402) 669-1177",
    "rating": 4.0,
    "reviews": 25,
    "website": "https://t1tc.com/",
    "category": "Central-American-owned Cybersecurity protection in Nebraska",
    "description": "Provides managed IT support, cybersecurity, and cloud management solutions for Omaha businesses, including cybersecurity awareness training",
    "hours": "Mon-Fri 9AM-6PM",
    "services": [
      "Central-American-owned Cybersecurity protection in Nebraska consultation",
      "Professional service",
      "Quality guarantee"
    ],
    "social_links": {}
  }
]