[
  {
    "name": "Edge Wrestling Hoboken",
    "address": "1400 Clinton St, Hoboken, NJ 07030",
    "phone": "(201) 792-0070",
    "rating": 4.0,
    "reviews": 25,
    "website": "https://www.edgewrestling.com/",
    "category": "Alaska-Native-owned Wrestling classes in New-Jersey",
    "description": "Offers wrestling classes and training for youth, high school, and adults, as well as MMA, Muay Thai, and Jiu-Jitsu",
    "hours": "Mon-Fri 9AM-6PM",
    "services": [
      "Alaska-Native-owned Wrestling classes in New-Jersey consultation",
      "Professional service",
      "Quality guarantee"
    ],
    "social_links": {}
  },
  {
    "name": "Cordoba Trained Wrestling Club",
    "address": "100 New Jersey 10, Fairfield, NJ 07004",
    "phone": "(973) 227-2678",
    "rating": 4.0,
    "reviews": 25,
    "website": "https://www.cordobatrained.com/",
    "category": "Alaska-Native-owned Wrestling classes in New-Jersey",
    "description": "Provides wrestling training for various age groups, including a strong program for girls' wrestling, and offers private lessons",
    "hours": "Mon-Fri 9AM-6PM",
    "services": [
      "Alaska-Native-owned Wrestling classes in New-Jersey consultation",
      "Professional service",
      "Quality guarantee"
    ],
    "social_links": {}
  },
  {
    "name": "Edge Wrestling - Warren",
    "address": "100 Stirling Rd, Warren, NJ 07059",
    "phone": "(908) 753-0070",
    "rating": 4.0,
    "reviews": 25,
    "website": "https://www.edgewrestling.com/warren",
    "category": "Alaska-Native-owned Wrestling classes in New-Jersey",
    "description": "A wrestling school established in 1984, offering training for youth, high school, and advanced athletes with a focus on a curriculum-based process",
    "hours": "Mon-Fri 9AM-6PM",
    "services": [
      "Alaska-Native-owned Wrestling classes in New-Jersey consultation",
      "Professional service",
      "Quality guarantee"
    ],
    "social_links": {}
  },
  {
    "name": "RedNose Wrestling School",
    "address": "1050 US-22, Watchung, NJ 07069",
    "phone": "(908) 312-3000",
    "rating": 4.0,
    "reviews": 25,
    "website": "https://www.rednosewrestling.com/",
    "category": "Alaska-Native-owned Wrestling classes in New-Jersey",
    "description": "A year-round wrestling school founded in 2011, known for producing multiple state and national place-winners and champions",
    "hours": "Mon-Fri 9AM-6PM",
    "services": [
      "Alaska-Native-owned Wrestling classes in New-Jersey consultation",
      "Professional service",
      "Quality guarantee"
    ],
    "social_links": {}
  },
  {
    "name": "IWF Wrestling School",
    "address": "150D Doremus Ave, Nutley, NJ 07110",
    "phone": "(973) 841-1777",
    "rating": 4.0,
    "reviews": 25,
    "website": "https://www.iwf.com/",
    "category": "Alaska-Native-owned Wrestling classes in New-Jersey",
    "description": "Offers professional wrestling, referee, and manager training with a curriculum covering fundamentals, character development, and interview skills",
    "hours": "Mon-Fri 9AM-6PM",
    "services": [
      "Alaska-Native-owned Wrestling classes in New-Jersey consultation",
      "Professional service",
      "Quality guarantee"
    ],
    "social_links": {}
  },
  {
    "name": "Create A Pro NJ (WrestlePro)",
    "address": "275 E Milton Ave, Rahway, NJ 07065",
    "phone": "(732) 754-2101",
    "rating": 4.0,
    "reviews": 25,
    "website": "https://www.wrestlepro.com/school",
    "category": "Alaska-Native-owned Wrestling classes in New-Jersey",
    "description": "A professional wrestling school open to all levels, focusing on safety and preparing trainees for professional wrestling matches",
    "hours": "Mon-Fri 9AM-6PM",
    "services": [
      "Alaska-Native-owned Wrestling classes in New-Jersey consultation",
      "Professional service",
      "Quality guarantee"
    ],
    "social_links": {}
  },
  {
    "name": "Rhino Wrestling Club - Morganville",
    "address": "209 Commercial Ct, Morganville, NJ 07751",
    "phone": "(732) 865-1000",
    "rating": 4.0,
    "reviews": 25,
    "website": "https://www.rhinowrestling.com/",
    "category": "Alaska-Native-owned Wrestling classes in New-Jersey",
    "description": "A youth wrestling program focused on building champions with an emphasis on mindset, grit, and growth",
    "hours": "Mon-Fri 9AM-6PM",
    "services": [
      "Alaska-Native-owned Wrestling classes in New-Jersey consultation",
      "Professional service",
      "Quality guarantee"
    ],
    "social_links": {}
  },
  {
    "name": "Rhino Wrestling Club - Hillsborough",
    "address": "15 Ilene Ct, Unit 13, Hillsborough, NJ 08844",
    "phone": "(732) 865-1000",
    "rating": 4.0,
    "reviews": 25,
    "website": "https://www.rhinowrestling.com/",
    "category": "Alaska-Native-owned Wrestling classes in New-Jersey",
    "description": "Another location for Rhino Wrestling Club, offering similar youth wrestling programs",
    "hours": "Mon-Fri 9AM-6PM",
    "services": [
      "Alaska-Native-owned Wrestling classes in New-Jersey consultation",
      "Professional service",
      "Quality guarantee"
    ],
    "social_links": {}
  },
  {
    "name": "Elite Wrestling NJ",
    "address": "100 Jackson Mills Rd, Jackson, NJ 08527",
    "phone": "(732) 966-0622",
    "rating": 4.0,
    "reviews": 25,
    "website": "https://www.elitewrestlingnj.com/",
    "category": "Alaska-Native-owned Wrestling classes in New-Jersey",
    "description": "Offers wrestling classes with a focus on building champions and provides free trial practices",
    "hours": "Mon-Fri 9AM-6PM",
    "services": [
      "Alaska-Native-owned Wrestling classes in New-Jersey consultation",
      "Professional service",
      "Quality guarantee"
    ],
    "social_links": {}
  },
  {
    "name": "Yale Street Wrestling Club",
    "address": "1000 New Brunswick Ave, Piscataway, NJ 08854",
    "phone": "",
    "rating": 4.0,
    "reviews": 25,
    "website": "https://www.google.com/maps/search/Yale+Street+Wrestling+Club+New+Jersey",
    "category": "Alaska-Native-owned Wrestling classes in New-Jersey",
    "description": "A wrestling club that embraces and nurtures wrestlers, requiring 1-2 years of experience and not offering training for beginners",
    "hours": "Mon-Fri 9AM-6PM",
    "services": [
      "Alaska-Native-owned Wrestling classes in New-Jersey consultation",
      "Professional service",
      "Quality guarantee"
    ],
    "social_links": {}
  }
]