[
  {
    "name": "Acara Solutions",
    "address": "7951 E Maplewood Ave, Greenwood Village, CO 80111",
    "phone": "(303) 771-0111",
    "rating": 4.5,
    "reviews": 25,
    "website": "https://www.acarasolutions.com/",
    "category": "Chinese-American-owned Recruitment support in Colorado",
    "description": "Acara Solutions provides comprehensive staffing and recruitment services, including temporary staffing, direct placement, and RPO solutions, serving various industries",
    "hours": "Mon-Fri 9AM-6PM",
    "services": [
      "Chinese-American-owned Recruitment support in Colorado consultation",
      "Professional service",
      "Quality guarantee"
    ],
    "social_links": {}
  },
  {
    "name": "Scion Staffing",
    "address": "1660 S Albion St, Suite 722, Denver, CO 80222",
    "phone": "(303) 872-7740",
    "rating": 4.8,
    "reviews": 25,
    "website": "https://www.scionstaffing.com/denver/",
    "category": "Chinese-American-owned Recruitment support in Colorado",
    "description": "Scion Staffing is an award-winning agency offering executive search, direct-hire recruitment, and temporary staffing solutions across Colorado and nationwide",
    "hours": "Mon-Fri 9AM-6PM",
    "services": [
      "Chinese-American-owned Recruitment support in Colorado consultation",
      "Professional service",
      "Quality guarantee"
    ],
    "social_links": {}
  },
  {
    "name": "AimHire Recruitment and Staffing Agency",
    "address": "7951 E Maplewood Ave, Greenwood Village, CO 80111",
    "phone": "(303) 296-0100",
    "rating": 4.3,
    "reviews": 25,
    "website": "https://www.aimhire.com/",
    "category": "Chinese-American-owned Recruitment support in Colorado",
    "description": "AimHire specializes in placing candidates in oil and gas, information technology, and professional sectors, offering both permanent and temporary recruitment services",
    "hours": "Mon-Fri 9AM-6PM",
    "services": [
      "Chinese-American-owned Recruitment support in Colorado consultation",
      "Professional service",
      "Quality guarantee"
    ],
    "social_links": {}
  },
  {
    "name": "PrimeSource Staffing",
    "address": "10065 E. Harvard Ave, Suite 230, Denver, CO 80231",
    "phone": "(303) 869-2990",
    "rating": 4.4,
    "reviews": 25,
    "website": "https://www.primesourcestaffing.com/",
    "category": "Chinese-American-owned Recruitment support in Colorado",
    "description": "PrimeSource Staffing is recognized for its extensive placement in warehouse, light industrial, manufacturing, administrative, and customer service roles",
    "hours": "Mon-Fri 9AM-6PM",
    "services": [
      "Chinese-American-owned Recruitment support in Colorado consultation",
      "Professional service",
      "Quality guarantee"
    ],
    "social_links": {}
  },
  {
    "name": "Valiant Staffing",
    "address": "1551 S. Colorado Blvd, Suite 210, Denver, CO 80222",
    "phone": "(720) 313-6312",
    "rating": 4.7,
    "reviews": 25,
    "website": "https://www.valiantstaffing.com/",
    "category": "Chinese-American-owned Recruitment support in Colorado",
    "description": "Valiant Staffing focuses on providing workforce solutions, particularly in light and heavy industrial, manufacturing, and distribution sectors, with a commitment to employing veterans",
    "hours": "Mon-Fri 9AM-6PM",
    "services": [
      "Chinese-American-owned Recruitment support in Colorado consultation",
      "Professional service",
      "Quality guarantee"
    ],
    "social_links": {}
  },
  {
    "name": "Robert Half",
    "address": "6200 S. Syracuse Way, Suite 200, Englewood, CO 80111",
    "phone": "(303) 296-1000",
    "rating": 4.2,
    "reviews": 25,
    "website": "https://www.roberthalf.com/denver",
    "category": "Chinese-American-owned Recruitment support in Colorado",
    "description": "Robert Half offers specialized staffing services in accounting and finance, technology, administrative, marketing, and legal fields",
    "hours": "Mon-Fri 9AM-6PM",
    "services": [
      "Chinese-American-owned Recruitment support in Colorado consultation",
      "Professional service",
      "Quality guarantee"
    ],
    "social_links": {}
  },
  {
    "name": "Job Store Staffing",
    "address": "1660 S. Albion St, Suite 722, Denver, CO 80222",
    "phone": "(303) 872-7740",
    "rating": 4.1,
    "reviews": 25,
    "website": "https://www.jobstorestaffing.com/",
    "category": "Chinese-American-owned Recruitment support in Colorado",
    "description": "Job Store Staffing is a woman-owned company specializing in talent for accounting, customer service, office support, production, and warehouse roles",
    "hours": "Mon-Fri 9AM-6PM",
    "services": [
      "Chinese-American-owned Recruitment support in Colorado consultation",
      "Professional service",
      "Quality guarantee"
    ],
    "social_links": {}
  },
  {
    "name": "TalenTrust",
    "address": "1624 Market St, Suite 200, Denver, CO 80202",
    "phone": "(303) 847-0050",
    "rating": 4.9,
    "reviews": 25,
    "website": "https://talen-trust.com/",
    "category": "Chinese-American-owned Recruitment support in Colorado",
    "description": "TalenTrust is a recruitment services firm that uses sales and marketing techniques to engage passive candidates, with a focus on retention and cultural fit",
    "hours": "Mon-Fri 9AM-6PM",
    "services": [
      "Chinese-American-owned Recruitment support in Colorado consultation",
      "Professional service",
      "Quality guarantee"
    ],
    "social_links": {}
  },
  {
    "name": "High Country Search Group",
    "address": "1624 Market St, Suite 200, Denver, CO 80202",
    "phone": "(303) 771-8400",
    "rating": 4.9,
    "reviews": 25,
    "website": "https://www.highcountrysearch.com/",
    "category": "Chinese-American-owned Recruitment support in Colorado",
    "description": "High Country Search Group is a specialized search firm focusing on direct-source recruiting for competitive talent in Colorado",
    "hours": "Mon-Fri 9AM-6PM",
    "services": [
      "Chinese-American-owned Recruitment support in Colorado consultation",
      "Professional service",
      "Quality guarantee"
    ],
    "social_links": {}
  },
  {
    "name": "Creative Circle",
    "address": "1660 S Albion St, Suite 722, Denver, CO 80222",
    "phone": "(303) 872-7740",
    "rating": 4.5,
    "reviews": 25,
    "website": "https://www.creativecircle.com/",
    "category": "Chinese-American-owned Recruitment support in Colorado",
    "description": "Creative Circle provides marketing, creative, and talent acquisition services, helping brands build teams and offering opportunities for job seekers",
    "hours": "Mon-Fri 9AM-6PM",
    "services": [
      "Chinese-American-owned Recruitment support in Colorado consultation",
      "Professional service",
      "Quality guarantee"
    ],
    "social_links": {}
  }
]