[
  {
    "name": "Stonecoast Brazilian Jiu Jitsu",
    "address": "131 Johnson Rd, Portland, ME 04102",
    "phone": "207-776-5080",
    "rating": 4.0,
    "reviews": 25,
    "website": "https://www.stonecoastbjj.com/",
    "category": "Asian-owned Brazilian Jiu-Jitsu classes in Maine",
    "description": "Offers kids' BJJ classes for ages 4-16, focusing on fundamental skills, discipline, and personal growth",
    "hours": "Mon-Fri 9AM-6PM",
    "services": [
      "Asian-owned Brazilian Jiu-Jitsu classes in Maine consultation",
      "Professional service",
      "Quality guarantee"
    ],
    "social_links": {}
  },
  {
    "name": "Southern Maine Brazilian Jiu-Jitsu",
    "address": "333 Clarks Pond Pkwy, South Portland ME 04106",
    "phone": "(207) 233-9118",
    "rating": 4.0,
    "reviews": 25,
    "website": "https://www.facebook.com/southernmainebjj/",
    "category": "Asian-owned Brazilian Jiu-Jitsu classes in Maine",
    "description": "Offers BJJ classes with a focus on self-defense, mental strength, fitness, and community. They also offer yoga classes",
    "hours": "Mon-Fri 9AM-6PM",
    "services": [
      "Asian-owned Brazilian Jiu-Jitsu classes in Maine consultation",
      "Professional service",
      "Quality guarantee"
    ],
    "social_links": {}
  },
  {
    "name": "Black Bear Brazilian Jiu-Jitsu & Fitness",
    "address": "Augusta, ME (Specific address not found in search results)",
    "phone": "(207) 441-1133",
    "rating": 4.0,
    "reviews": 25,
    "website": "https://www.google.com/maps/search/Black+Bear+Brazilian+Jiu-Jitsu+&+Fitness+in+Maine",
    "category": "Asian-owned Brazilian Jiu-Jitsu classes in Maine",
    "description": "Offers BJJ, Muay Thai, MMA, cardio kickboxing, and yoga classes for kids and adults in a family-friendly environment",
    "hours": "Mon-Fri 9AM-6PM",
    "services": [
      "Asian-owned Brazilian Jiu-Jitsu classes in Maine consultation",
      "Professional service",
      "Quality guarantee"
    ],
    "social_links": {}
  },
  {
    "name": "Central Maine Brazilian Jiu Jitsu",
    "address": "760 Main St, Lewiston, ME 04240",
    "phone": "(207) 344-7302",
    "rating": 4.5,
    "reviews": 25,
    "website": "https://www.centralmainebjj.com/",
    "category": "Asian-owned Brazilian Jiu-Jitsu classes in Maine",
    "description": "Provides BJJ programs for kids, youths, and adults, as well as MMA, boxing, and kickboxing classes",
    "hours": "Mon-Fri 9AM-6PM",
    "services": [
      "Asian-owned Brazilian Jiu-Jitsu classes in Maine consultation",
      "Professional service",
      "Quality guarantee"
    ],
    "social_links": {}
  },
  {
    "name": "Team Moreira BJJ Biddeford",
    "address": "408 Alfred Street, Biddeford, ME 04005",
    "phone": "1-207-590-0109",
    "rating": 4.0,
    "reviews": 25,
    "website": "https://www.bdbjj.me/",
    "category": "Asian-owned Brazilian Jiu-Jitsu classes in Maine",
    "description": "Offers BJJ programs for kids (ages 5-15) and adults, focusing on discipline, respect, and self-defense",
    "hours": "Mon-Fri 9AM-6PM",
    "services": [
      "Asian-owned Brazilian Jiu-Jitsu classes in Maine consultation",
      "Professional service",
      "Quality guarantee"
    ],
    "social_links": {}
  },
  {
    "name": "Evolution Athletix",
    "address": "4 Cascade Rd, Saco, ME 04072",
    "phone": "(207) 494-8774",
    "rating": 4.0,
    "reviews": 25,
    "website": "https://www.evolutionathletix.com/",
    "category": "Asian-owned Brazilian Jiu-Jitsu classes in Maine",
    "description": "A premier facility for group fitness and martial arts, offering BJJ, MMA, boxing, kickboxing, and youth classes",
    "hours": "Mon-Fri 9AM-6PM",
    "services": [
      "Asian-owned Brazilian Jiu-Jitsu classes in Maine consultation",
      "Professional service",
      "Quality guarantee"
    ],
    "social_links": {}
  },
  {
    "name": "Gracie Gym Maine",
    "address": "Windham, Maine (Specific address not found in search results, located on Route 302)",
    "phone": "",
    "rating": 4.0,
    "reviews": 25,
    "website": "https://www.google.com/maps/search/Gracie+Gym+Maine+in+Maine",
    "category": "Asian-owned Brazilian Jiu-Jitsu classes in Maine",
    "description": "A Brazilian Jiu-Jitsu facility offering classes for all ages with a focus on self-defense and fitness",
    "hours": "Mon-Fri 9AM-6PM",
    "services": [
      "Asian-owned Brazilian Jiu-Jitsu classes in Maine consultation",
      "Professional service",
      "Quality guarantee"
    ],
    "social_links": {}
  },
  {
    "name": "Alexey Pickerell BJJ",
    "address": "Westbrook, Maine (Specific address not found in search results)",
    "phone": "",
    "rating": 4.0,
    "reviews": 25,
    "website": "https://www.alexeycruzbjj.com/",
    "category": "Asian-owned Brazilian Jiu-Jitsu classes in Maine",
    "description": "Offers world-class BJJ training with a focus on improving skills, fitness, and confidence",
    "hours": "Mon-Fri 9AM-6PM",
    "services": [
      "Asian-owned Brazilian Jiu-Jitsu classes in Maine consultation",
      "Professional service",
      "Quality guarantee"
    ],
    "social_links": {}
  },
  {
    "name": "Bearclan Jiujitsu",
    "address": "826 Kennedy Memorial Drive, Oakland, ME 04963",
    "phone": "(707) 685-1934",
    "rating": 4.0,
    "reviews": 25,
    "website": "https://bearclanjj.com/",
    "category": "Asian-owned Brazilian Jiu-Jitsu classes in Maine",
    "description": "Offers BJJ classes for all ages, focusing on building strength, community, and self-defense skills",
    "hours": "Mon-Fri 9AM-6PM",
    "services": [
      "Asian-owned Brazilian Jiu-Jitsu classes in Maine consultation",
      "Professional service",
      "Quality guarantee"
    ],
    "social_links": {}
  },
  {
    "name": "Titan Athletics BJJ, MMA, and Fitness, Inc.",
    "address": "34 Abbott St, Brewer, ME 04412",
    "phone": "(207) 299-2579",
    "rating": 4.0,
    "reviews": 25,
    "website": "https://www.titanathleticsmaine.com/",
    "category": "Asian-owned Brazilian Jiu-Jitsu classes in Maine",
    "description": "Offers BJJ, MMA, boxing, and fitness classes in a clean, safe, and supportive environment",
    "hours": "Mon-Fri 9AM-6PM",
    "services": [
      "Asian-owned Brazilian Jiu-Jitsu classes in Maine consultation",
      "Professional service",
      "Quality guarantee"
    ],
    "social_links": {}
  }
]