[
  {
    "name": "Metal Magic",
    "address": "5621 S Tacoma Way, Tacoma, WA 98409",
    "phone": "(253) 472-2535",
    "rating": 5.0,
    "reviews": 25,
    "website": "http://www.metalmagicnw.com/",
    "category": "American-Indian-owned Paintless dent removal in Washington",
    "description": "Specializes in paintless dent repair, window tinting, wheel repair, auto detailing, and paint protection film. They have over 25 years of experience",
    "hours": "Mon-Fri 9AM-6PM",
    "services": [
      "American-Indian-owned Paintless dent removal in Washington consultation",
      "Professional service",
      "Quality guarantee"
    ],
    "social_links": {}
  },
  {
    "name": "Dentless in Seattle",
    "address": "Mobile service, serving the Seattle area",
    "phone": "(206) 890-6456 (from Dent Solutions listing, which may be related)",
    "rating": 5.0,
    "reviews": 25,
    "website": "https://www.dentlessinseattle.com/",
    "category": "American-Indian-owned Paintless dent removal in Washington",
    "description": "Offers convenient, mobile paintless dent repair (PDR) services with over 10 years of experience serving the Seattle area",
    "hours": "Mon-Fri 9AM-6PM",
    "services": [
      "American-Indian-owned Paintless dent removal in Washington consultation",
      "Professional service",
      "Quality guarantee"
    ],
    "social_links": {}
  },
  {
    "name": "DENT-Rx",
    "address": "Spokane, WA (specific address not provided in search results, but serves Spokane and surrounding areas)",
    "phone": "(509) 448-0500",
    "rating": 4.8,
    "reviews": 25,
    "website": "https://dent-rx.com/",
    "category": "American-Indian-owned Paintless dent removal in Washington",
    "description": "Provides professional paintless dent repair services with expert technicians and eco-friendly solutions since 1995",
    "hours": "Mon-Fri 9AM-6PM",
    "services": [
      "American-Indian-owned Paintless dent removal in Washington consultation",
      "Professional service",
      "Quality guarantee"
    ],
    "social_links": {}
  },
  {
    "name": "Fix Your Dents",
    "address": "Mobile service, serving Clark County, WA and the greater Portland metro area",
    "phone": "(360) 772-3726",
    "rating": 5.0,
    "reviews": 25,
    "website": "https://fixyourdents.com/",
    "category": "American-Indian-owned Paintless dent removal in Washington",
    "description": "Offers mobile, paintless dent removal service with fast repairs, often completed in 30 minutes while you wait",
    "hours": "Mon-Fri 9AM-6PM",
    "services": [
      "American-Indian-owned Paintless dent removal in Washington consultation",
      "Professional service",
      "Quality guarantee"
    ],
    "social_links": {}
  },
  {
    "name": "Spokane Dent Repair",
    "address": "2821 E Francis Ave, Spokane, WA 99208",
    "phone": "(509) 385-9694",
    "rating": 4.9,
    "reviews": 25,
    "website": "https://spokanedentrepair.com/",
    "category": "American-Indian-owned Paintless dent removal in Washington",
    "description": "Offers premier paintless dent repair (PDR) and hail damage repair services, preserving the vehicle's original paint finish. They have over 20 years of experience",
    "hours": "Mon-Fri 9AM-6PM",
    "services": [
      "American-Indian-owned Paintless dent removal in Washington consultation",
      "Professional service",
      "Quality guarantee"
    ],
    "social_links": {}
  },
  {
    "name": "LPA PDR (Paintless Dent Repair in Vancouver, Portland & Seattle)",
    "address": "Mobile service, serving Vancouver, WA, Portland, OR, and Seattle, WA",
    "phone": "(360) 281-4929",
    "rating": 5.0,
    "reviews": 25,
    "website": "https://www.lpa-pdr.com/",
    "category": "American-Indian-owned Paintless dent removal in Washington",
    "description": "Brings expert paintless dent repair directly to your location, offering fast, high-quality PDR for bumper dents, door dings, and hail damage",
    "hours": "Mon-Fri 9AM-6PM",
    "services": [
      "American-Indian-owned Paintless dent removal in Washington consultation",
      "Professional service",
      "Quality guarantee"
    ],
    "social_links": {}
  },
  {
    "name": "Dent Solutions",
    "address": "13421 Northeast 20th ST Suite A, Bellevue, WA, 98005",
    "phone": "(206) 890-6456",
    "rating": 5.0,
    "reviews": 25,
    "website": "https://www.dentsolutions.com/",
    "category": "American-Indian-owned Paintless dent removal in Washington",
    "description": "Serving the NW since 1999, specializing in paintless dent and ding removal, including collision repair work using PDR methods",
    "hours": "Mon-Fri 9AM-6PM",
    "services": [
      "American-Indian-owned Paintless dent removal in Washington consultation",
      "Professional service",
      "Quality guarantee"
    ],
    "social_links": {}
  },
  {
    "name": "The Dent Whisperer",
    "address": "Puyallup, WA (offers in-shop and mobile services)",
    "phone": "(253) 201-5949",
    "rating": 5.0,
    "reviews": 25,
    "website": "https://www.dentwhisperer.com/",
    "category": "American-Indian-owned Paintless dent removal in Washington",
    "description": "Provides in-shop and mobile paintless dent repair, specializing in door dings, creases, and other small damage. They pride themselves on taking on challenging jobs",
    "hours": "Mon-Fri 9AM-6PM",
    "services": [
      "American-Indian-owned Paintless dent removal in Washington consultation",
      "Professional service",
      "Quality guarantee"
    ],
    "social_links": {}
  },
  {
    "name": "Kar Kosmetics",
    "address": "Bremerton, WA (mobile service)",
    "phone": "(360) 271-6989",
    "rating": 5.0,
    "reviews": 25,
    "website": "https://karkosmetics.com/",
    "category": "American-Indian-owned Paintless dent removal in Washington",
    "description": "Offers mobile paintless dent repair and mobile paint repair, established in 2001 with over 24 years of experience",
    "hours": "Mon-Fri 9AM-6PM",
    "services": [
      "American-Indian-owned Paintless dent removal in Washington consultation",
      "Professional service",
      "Quality guarantee"
    ],
    "social_links": {}
  },
  {
    "name": "Pro Clean Auto Detail Systems",
    "address": "1231 S. 1st St. Yakima, WA 98901",
    "phone": "(509) 453-7777",
    "rating": 4.7,
    "reviews": 25,
    "website": "https://procleanautodetail.com/",
    "category": "American-Indian-owned Paintless dent removal in Washington",
    "description": "A premiere auto detail center offering paintless dent repair, window tinting, wheel restoration, and more",
    "hours": "Mon-Fri 9AM-6PM",
    "services": [
      "American-Indian-owned Paintless dent removal in Washington consultation",
      "Professional service",
      "Quality guarantee"
    ],
    "social_links": {}
  }
]