[
  {
    "name": "E.F.F.E.C.T. Fitness",
    "address": "1995b Metropolitan Pkwy SW, Atlanta, GA 30310",
    "phone": "(404) 254-0684",
    "rating": 4.0,
    "reviews": 25,
    "website": "https://effect.fitness/",
    "category": "Black-owned Sports conditioning in Georgia",
    "description": "Offers boot camp, spin, yoga, zumba, and Keddlesthics (Kettlebell and Calisthenics mix). They also have a nonprofit focused on bringing fitness to low-income neighborhoods",
    "hours": "Mon-Fri 9AM-6PM",
    "services": [
      "Black-owned Sports conditioning in Georgia consultation",
      "Professional service",
      "Quality guarantee"
    ],
    "social_links": {}
  },
  {
    "name": "Finao Fit",
    "address": "3075 Jonquil Dr, Smyrna, GA 30080",
    "phone": "(678) 403-8790",
    "rating": 4.0,
    "reviews": 25,
    "website": "https://finaotraining.com/",
    "category": "Black-owned Sports conditioning in Georgia",
    "description": "A training complex offering Foundation Training, H.E.A.T., Strength Full Body, and Full Body Ripped and Tone classes, as well as open gym and personal training",
    "hours": "Mon-Fri 9AM-6PM",
    "services": [
      "Black-owned Sports conditioning in Georgia consultation",
      "Professional service",
      "Quality guarantee"
    ],
    "social_links": {}
  },
  {
    "name": "I Am/I Can Strength and Conditioning Gym",
    "address": "515 Moreland Ave SE A, Atlanta, GA 30316",
    "phone": "",
    "rating": 4.0,
    "reviews": 25,
    "website": "https://www.google.com/maps/search/I+Am/I+Can+Strength+and+Conditioning+Gym+in+Georgia",
    "category": "Black-owned Sports conditioning in Georgia",
    "description": "Focuses on functional fitness with personal training and group strength and conditioning classes, also offering nutrition counseling and meal prep",
    "hours": "Mon-Fri 9AM-6PM",
    "services": [
      "Black-owned Sports conditioning in Georgia consultation",
      "Professional service",
      "Quality guarantee"
    ],
    "social_links": {}
  },
  {
    "name": "The Loft Athletic Club",
    "address": "1122 Old Chattahoochee Ave NW UNIT E, Atlanta, GA 30318",
    "phone": "(404) 732-3795",
    "rating": 4.0,
    "reviews": 25,
    "website": "https://theloftathleticclub.com/",
    "category": "Black-owned Sports conditioning in Georgia",
    "description": "Offers unique classes like Twerk N Sweat and Trap Yoga, along with bootcamp-style classes, Zumba, sports massages, and cryotherapy",
    "hours": "Mon-Fri 9AM-6PM",
    "services": [
      "Black-owned Sports conditioning in Georgia consultation",
      "Professional service",
      "Quality guarantee"
    ],
    "social_links": {}
  },
  {
    "name": "Project: Body ATL",
    "address": "1 Moreland Ave SE A, Atlanta, GA 30316",
    "phone": "(470) 819-8004",
    "rating": 4.0,
    "reviews": 25,
    "website": "https://projectbodyatl.com/",
    "category": "Black-owned Sports conditioning in Georgia",
    "description": "Aims to be inclusive, focusing on Black and brown women of varying body types. Offers classes like Sweat HIIT, Booty Luv, and ABC (Arms, Back and Core), available in-studio, virtually, or on-demand",
    "hours": "Mon-Fri 9AM-6PM",
    "services": [
      "Black-owned Sports conditioning in Georgia consultation",
      "Professional service",
      "Quality guarantee"
    ],
    "social_links": {}
  },
  {
    "name": "Atlanta Performance Lab",
    "address": "Not explicitly listed, but serves Smyrna, GA",
    "phone": "",
    "rating": 4.0,
    "reviews": 25,
    "website": "https://www.google.com/maps/search/Atlanta+Performance+Lab+in+Georgia",
    "category": "Black-owned Sports conditioning in Georgia",
    "description": "Proudly Black-owned and Woman-owned, offering sports training, personal training, and CrossFit programs with a balance of weight training, endurance, muscle conditioning, and recovery",
    "hours": "Mon-Fri 9AM-6PM",
    "services": [
      "Black-owned Sports conditioning in Georgia consultation",
      "Professional service",
      "Quality guarantee"
    ],
    "social_links": {}
  },
  {
    "name": "PT Works",
    "address": "Atlanta, GA (specific address not provided in search results)",
    "phone": "",
    "rating": 4.0,
    "reviews": 25,
    "website": "http://www.ptworks4pain.com/",
    "category": "Black-owned Sports conditioning in Georgia",
    "description": "Offers holistic physical therapy for pain management, specializing in sports-related injuries for all ages",
    "hours": "Mon-Fri 9AM-6PM",
    "services": [
      "Black-owned Sports conditioning in Georgia consultation",
      "Professional service",
      "Quality guarantee"
    ],
    "social_links": {}
  },
  {
    "name": "Pinnacle Fitness Center",
    "address": "141 Sams St, Decatur, GA 30030",
    "phone": "(404) 390-2446",
    "rating": 4.0,
    "reviews": 25,
    "website": "https://www.google.com/maps/search/Pinnacle+Fitness+Center+in+Georgia",
    "category": "Black-owned Sports conditioning in Georgia",
    "description": "Offers the \"Pinnacle Method\" for fitness",
    "hours": "Mon-Fri 9AM-6PM",
    "services": [
      "Black-owned Sports conditioning in Georgia consultation",
      "Professional service",
      "Quality guarantee"
    ],
    "social_links": {}
  },
  {
    "name": "Atl Kula",
    "address": "260 18th St NW #10160, Atlanta, GA 30363",
    "phone": "(404) 343-2740",
    "rating": 4.0,
    "reviews": 25,
    "website": "https://www.google.com/maps/search/Atl+Kula+in+Georgia",
    "category": "Black-owned Sports conditioning in Georgia",
    "description": "A wellness studio founded by Corey and Kiara Johnson",
    "hours": "Mon-Fri 9AM-6PM",
    "services": [
      "Black-owned Sports conditioning in Georgia consultation",
      "Professional service",
      "Quality guarantee"
    ],
    "social_links": {}
  },
  {
    "name": "Faithful Sports & Fitness Center",
    "address": "1105 West Avenue, Conyers, GA 30012",
    "phone": "(404) 820-6339",
    "rating": 4.0,
    "reviews": 25,
    "website": "https://faithoverfearmgmt.com/",
    "category": "Black-owned Sports conditioning in Georgia",
    "description": "Offers small group training and is highlighted as Black-owned",
    "hours": "Mon-Fri 9AM-6PM",
    "services": [
      "Black-owned Sports conditioning in Georgia consultation",
      "Professional service",
      "Quality guarantee"
    ],
    "social_links": {}
  }
]