[
  {
    "name": "The Downs Agency LLC",
    "address": "1030 State St, Bowling Green, KY 42101",
    "phone": "(270) 781-1600",
    "rating": 4.0,
    "reviews": 25,
    "website": "http://www.downsavings.com/",
    "category": "Arabic-speaking Insurance brokerage in Kentucky",
    "description": "Offers auto, home, business, and Medicare supplement insurance",
    "hours": "Mon-Fri 9AM-6PM",
    "services": [
      "Arabic-speaking Insurance brokerage in Kentucky consultation",
      "Professional service",
      "Quality guarantee"
    ],
    "social_links": {}
  },
  {
    "name": "Ingram Insurance Company LLC",
    "address": "1439 Westen St, Bowling Green, KY 42101",
    "phone": "(270) 843-4000",
    "rating": 4.0,
    "reviews": 25,
    "website": "https://ingraminsurance.com/",
    "category": "Arabic-speaking Insurance brokerage in Kentucky",
    "description": "Provides policies for auto, home, business, health, and life insurance",
    "hours": "Mon-Fri 9AM-6PM",
    "services": [
      "Arabic-speaking Insurance brokerage in Kentucky consultation",
      "Professional service",
      "Quality guarantee"
    ],
    "social_links": {}
  },
  {
    "name": "Al Torstrick Insurance Agency",
    "address": "101 W Vine St, Lexington, KY 40507",
    "phone": "(859) 254-5555",
    "rating": 4.0,
    "reviews": 25,
    "website": "https://www.altorstrick.com/",
    "category": "Arabic-speaking Insurance brokerage in Kentucky",
    "description": "Independent insurance agents offering personal, business, and benefits insurance",
    "hours": "Mon-Fri 9AM-6PM",
    "services": [
      "Arabic-speaking Insurance brokerage in Kentucky consultation",
      "Professional service",
      "Quality guarantee"
    ],
    "social_links": {}
  },
  {
    "name": "Central Insurance Services",
    "address": "101 W Vine St, Lexington, KY 40507",
    "phone": "(859) 254-5555",
    "rating": 4.0,
    "reviews": 25,
    "website": "https://www.centralins.com/",
    "category": "Arabic-speaking Insurance brokerage in Kentucky",
    "description": "Reputable insurance broker focusing on employee benefit planning, individual life, and health coverages",
    "hours": "Mon-Fri 9AM-6PM",
    "services": [
      "Arabic-speaking Insurance brokerage in Kentucky consultation",
      "Professional service",
      "Quality guarantee"
    ],
    "social_links": {}
  },
  {
    "name": "Bim Group",
    "address": "1700 Nicholasville Rd Ste 200, Lexington, KY 40503",
    "phone": "(859) 223-2444",
    "rating": 4.0,
    "reviews": 25,
    "website": "https://www.bimgroup.com/",
    "category": "Arabic-speaking Insurance brokerage in Kentucky",
    "description": "Offers employee benefit planning and other insurance services",
    "hours": "Mon-Fri 9AM-6PM",
    "services": [
      "Arabic-speaking Insurance brokerage in Kentucky consultation",
      "Professional service",
      "Quality guarantee"
    ],
    "social_links": {}
  },
  {
    "name": "Byers Insurance Group",
    "address": "1640 Westen Blvd, Bowling Green, KY 42104",
    "phone": "(270) 781-0100",
    "rating": 4.0,
    "reviews": 25,
    "website": "https://www.byersinsurancegroup.com/",
    "category": "Arabic-speaking Insurance brokerage in Kentucky",
    "description": "Locally owned independent insurance agency offering home, auto, life, and commercial insurance",
    "hours": "Mon-Fri 9AM-6PM",
    "services": [
      "Arabic-speaking Insurance brokerage in Kentucky consultation",
      "Professional service",
      "Quality guarantee"
    ],
    "social_links": {}
  },
  {
    "name": "Independent Agents of Kentucky",
    "address": "1000 Dupont Sq Ste 100, Louisville, KY 40207",
    "phone": "(502) 893-0444",
    "rating": 4.0,
    "reviews": 25,
    "website": "https://www.independentagentsky.com/",
    "category": "Arabic-speaking Insurance brokerage in Kentucky",
    "description": "Full-service insurance broker helping clients compare and save on various insurance needs",
    "hours": "Mon-Fri 9AM-6PM",
    "services": [
      "Arabic-speaking Insurance brokerage in Kentucky consultation",
      "Professional service",
      "Quality guarantee"
    ],
    "social_links": {}
  },
  {
    "name": "Schwartz Insurance Group",
    "address": "1000 Dupont Sq Ste 100, Louisville, KY 40207",
    "phone": "(502) 893-0444",
    "rating": 4.0,
    "reviews": 25,
    "website": "https://schwartzinsurance.com/",
    "category": "Arabic-speaking Insurance brokerage in Kentucky",
    "description": "Independent insurance agency that shops and compares policies to find the right one for clients",
    "hours": "Mon-Fri 9AM-6PM",
    "services": [
      "Arabic-speaking Insurance brokerage in Kentucky consultation",
      "Professional service",
      "Quality guarantee"
    ],
    "social_links": {}
  },
  {
    "name": "Lexington Insurance Agency, Inc.",
    "address": "101 W Vine St, Lexington, KY 40507",
    "phone": "(859) 254-5555",
    "rating": 4.0,
    "reviews": 25,
    "website": "https://lexingtoninsurance.com/",
    "category": "Arabic-speaking Insurance brokerage in Kentucky",
    "description": "Locally owned and operated independent insurance agency serving commercial and personal clients",
    "hours": "Mon-Fri 9AM-6PM",
    "services": [
      "Arabic-speaking Insurance brokerage in Kentucky consultation",
      "Professional service",
      "Quality guarantee"
    ],
    "social_links": {}
  },
  {
    "name": "Greater Lexington Insurance Agency, Inc.",
    "address": "101 W Vine St, Lexington, KY 40507",
    "phone": "(859) 224-2477",
    "rating": 4.0,
    "reviews": 25,
    "website": "https://www.greaterlexins.com/",
    "category": "Arabic-speaking Insurance brokerage in Kentucky",
    "description": "Offers business insurance, personal insurance, and employee benefits solutions",
    "hours": "Mon-Fri 9AM-6PM",
    "services": [
      "Arabic-speaking Insurance brokerage in Kentucky consultation",
      "Professional service",
      "Quality guarantee"
    ],
    "social_links": {}
  }
]