[
  {
    "name": "Benchmark Plumbing",
    "address": "Multiple locations, including Birmingham, AL",
    "phone": "(205) 834-0050",
    "rating": 5.0,
    "reviews": 25,
    "website": "https://www.benchmarkplumbing.com/",
    "category": "Agnostic-owned Drain cleaning in Alabama",
    "description": "Offers drain cleaning, plumbing repairs, and other services with a focus on professionalism and reasonable pricing",
    "hours": "Mon-Fri 9AM-6PM",
    "services": [
      "Agnostic-owned Drain cleaning in Alabama consultation",
      "Professional service",
      "Quality guarantee"
    ],
    "social_links": {}
  },
  {
    "name": "Zoom Drain Alabama",
    "address": "Multiple locations, including Birmingham, AL",
    "phone": "(205) 407-0000",
    "rating": 5.0,
    "reviews": 25,
    "website": "https://www.zoomdrain.com/locations/birmingham/",
    "category": "Agnostic-owned Drain cleaning in Alabama",
    "description": "Provides prompt and efficient drain unclogging services, with a commitment to cleaning up the work area afterward",
    "hours": "Mon-Fri 9AM-6PM",
    "services": [
      "Agnostic-owned Drain cleaning in Alabama consultation",
      "Professional service",
      "Quality guarantee"
    ],
    "social_links": {}
  },
  {
    "name": "The Drain Main Inc.",
    "address": "Information not readily available, but serves Birmingham, AL",
    "phone": "",
    "rating": 5.0,
    "reviews": 25,
    "website": "https://www.google.com/maps/search/The+Drain+Main+Inc.+in+Alabama",
    "category": "Agnostic-owned Drain cleaning in Alabama",
    "description": "Known for excellent service and the ability to accommodate busy schedules for drain cleaning needs",
    "hours": "Mon-Fri 9AM-6PM",
    "services": [
      "Agnostic-owned Drain cleaning in Alabama consultation",
      "Professional service",
      "Quality guarantee"
    ],
    "social_links": {}
  },
  {
    "name": "Benjamin Franklin Plumbing",
    "address": "Serves Birmingham, AL, and other locations",
    "phone": "(205) 327-3300",
    "rating": 4.0,
    "reviews": 25,
    "website": "https://www.benfranklinplumbing.com/",
    "category": "Agnostic-owned Drain cleaning in Alabama",
    "description": "Offers on-time plumbing services, repairs, installations, and maintenance with fully stocked vehicles for first-visit resolutions",
    "hours": "Mon-Fri 9AM-6PM",
    "services": [
      "Agnostic-owned Drain cleaning in Alabama consultation",
      "Professional service",
      "Quality guarantee"
    ],
    "social_links": {}
  },
  {
    "name": "One Source Heating, Cooling, Plumbing & Electrical",
    "address": "Serves Birmingham, AL",
    "phone": "",
    "rating": 4.0,
    "reviews": 25,
    "website": "https://www.google.com/maps/search/One+Source+Heating,+Cooling,+Plumbing+&+Electrical+in+Alabama",
    "category": "Agnostic-owned Drain cleaning in Alabama",
    "description": "Provides a range of services including plumbing, heating, cooling, and electrical, with a focus on efficient and timely service",
    "hours": "Mon-Fri 9AM-6PM",
    "services": [
      "Agnostic-owned Drain cleaning in Alabama consultation",
      "Professional service",
      "Quality guarantee"
    ],
    "social_links": {}
  },
  {
    "name": "Premier Service Company, Inc.",
    "address": "Tuscaloosa, AL",
    "phone": "(205) 650-4470",
    "rating": 4.0,
    "reviews": 25,
    "website": "https://www.premierservicecompany.com/",
    "category": "Agnostic-owned Drain cleaning in Alabama",
    "description": "A family-owned company offering comprehensive drain and sewer cleaning services, tackling blockages of all sizes",
    "hours": "Mon-Fri 9AM-6PM",
    "services": [
      "Agnostic-owned Drain cleaning in Alabama consultation",
      "Professional service",
      "Quality guarantee"
    ],
    "social_links": {}
  },
  {
    "name": "Roto-Rooter Plumbing & Drain Service",
    "address": "Multiple locations throughout Alabama, including Montgomery",
    "phone": "(334) 272-0000 (Montgomery)",
    "rating": 4.0,
    "reviews": 25,
    "website": "https://www.roto-rooter.com/alabama/montgomery/",
    "category": "Agnostic-owned Drain cleaning in Alabama",
    "description": "Provides a wide range of sewer and drain cleaning services, including emergency cleanup and main sewer line cleaning",
    "hours": "Mon-Fri 9AM-6PM",
    "services": [
      "Agnostic-owned Drain cleaning in Alabama consultation",
      "Professional service",
      "Quality guarantee"
    ],
    "social_links": {}
  },
  {
    "name": "Dean Plumbing and Gas Piping",
    "address": "Huntsville, AL",
    "phone": "(256) 883-6130",
    "rating": 4.0,
    "reviews": 25,
    "website": "https://www.deanplumbinghsv.com/",
    "category": "Agnostic-owned Drain cleaning in Alabama",
    "description": "Offers comprehensive drain cleaning solutions, including hydro-jetting and main sewer line cleaning, for residential and commercial clients",
    "hours": "Mon-Fri 9AM-6PM",
    "services": [
      "Agnostic-owned Drain cleaning in Alabama consultation",
      "Professional service",
      "Quality guarantee"
    ],
    "social_links": {}
  },
  {
    "name": "Mr. Drippy Plumbing",
    "address": "Multiple offices, including Birmingham, AL (137 West Oxmoor Rd, Suite 405) and Hoover, AL (3411 Lorna Lane)",
    "phone": "(205) 683-4436 (Birmingham/Pell City), (205) 859-0426 (Hoover)",
    "rating": 4.0,
    "reviews": 25,
    "website": "https://mrdrippyplumbing.com/",
    "category": "Agnostic-owned Drain cleaning in Alabama",
    "description": "Provides residential and commercial plumbing services, specializing in drain cleaning and hydro jetting with experienced technicians",
    "hours": "Mon-Fri 9AM-6PM",
    "services": [
      "Agnostic-owned Drain cleaning in Alabama consultation",
      "Professional service",
      "Quality guarantee"
    ],
    "social_links": {}
  },
  {
    "name": "Salser Plumbing",
    "address": "Serves West & Central Alabama, including Birmingham and Tuscaloosa",
    "phone": "(205) 839-5155",
    "rating": 4.0,
    "reviews": 25,
    "website": "https://salserplumbing.com/",
    "category": "Agnostic-owned Drain cleaning in Alabama",
    "description": "Offers 24/7 emergency drain cleaning services with a focus on expert craftsmanship and preventing future clogs",
    "hours": "Mon-Fri 9AM-6PM",
    "services": [
      "Agnostic-owned Drain cleaning in Alabama consultation",
      "Professional service",
      "Quality guarantee"
    ],
    "social_links": {}
  }
]