[
  {
    "name": "The Peters Group",
    "address": "Multiple locations, including Indianapolis, IN",
    "phone": "(317) 385-3046",
    "rating": 4.0,
    "reviews": 25,
    "website": "https://www.google.com/maps/search/The+Peters+Group+in+Indiana",
    "category": "Japanese-speaking Drainage solutions in Indiana",
    "description": "Specializes in French drain installation, irrigation systems, landscaping, and other outdoor services",
    "hours": "Mon-Fri 9AM-6PM",
    "services": [
      "Japanese-speaking Drainage solutions in Indiana consultation",
      "Professional service",
      "Quality guarantee"
    ],
    "social_links": {}
  },
  {
    "name": "Jaco Waterproofing",
    "address": "Multiple locations, including Indianapolis, IN",
    "phone": "(317) 544-9350",
    "rating": 4.0,
    "reviews": 25,
    "website": "https://www.google.com/maps/search/Jaco+Waterproofing+in+Indiana",
    "category": "Japanese-speaking Drainage solutions in Indiana",
    "description": "Offers comprehensive basement waterproofing, foundation repair, and concrete services",
    "hours": "Mon-Fri 9AM-6PM",
    "services": [
      "Japanese-speaking Drainage solutions in Indiana consultation",
      "Professional service",
      "Quality guarantee"
    ],
    "social_links": {}
  },
  {
    "name": "A-1 Indiana Waterproofing Inc.",
    "address": "Indianapolis, IN and surrounding areas",
    "phone": "(317) 247-0000",
    "rating": 4.0,
    "reviews": 25,
    "website": "https://www.google.com/maps/search/A-1+Indiana+Waterproofing+Inc.+in+Indiana",
    "category": "Japanese-speaking Drainage solutions in Indiana",
    "description": "Indiana's oldest and most trusted basement waterproofing, foundation repair, and crawl space repair company since 1976",
    "hours": "Mon-Fri 9AM-6PM",
    "services": [
      "Japanese-speaking Drainage solutions in Indiana consultation",
      "Professional service",
      "Quality guarantee"
    ],
    "social_links": {}
  },
  {
    "name": "OTS Construction & Excavating",
    "address": "Indianapolis, Lebanon, and Carmel, IN",
    "phone": "(317) 385-3046",
    "rating": 4.0,
    "reviews": 25,
    "website": "https://www.google.com/maps/search/OTS+Construction+&+Excavating+in+Indiana",
    "category": "Japanese-speaking Drainage solutions in Indiana",
    "description": "Provides residential and commercial drainage services, including French drain installation and buried downspout installation",
    "hours": "Mon-Fri 9AM-6PM",
    "services": [
      "Japanese-speaking Drainage solutions in Indiana consultation",
      "Professional service",
      "Quality guarantee"
    ],
    "social_links": {}
  },
  {
    "name": "Americrawl",
    "address": "Indianapolis, IN and surrounding areas",
    "phone": "1-888-882-7295",
    "rating": 4.0,
    "reviews": 25,
    "website": "https://www.google.com/maps/search/Americrawl+in+Indiana",
    "category": "Japanese-speaking Drainage solutions in Indiana",
    "description": "Specializes in French drain installation and basement waterproofing systems",
    "hours": "Mon-Fri 9AM-6PM",
    "services": [
      "Japanese-speaking Drainage solutions in Indiana consultation",
      "Professional service",
      "Quality guarantee"
    ],
    "social_links": {}
  },
  {
    "name": "Roto-Rooter Sewer - Drain Service",
    "address": "Elkhart, IN and surrounding counties",
    "phone": "(574) 295-0400",
    "rating": 4.0,
    "reviews": 25,
    "website": "https://www.google.com/maps/search/Roto-Rooter+Sewer+-+Drain+Service+in+Indiana",
    "category": "Japanese-speaking Drainage solutions in Indiana",
    "description": "Offers a wide range of plumbing services, including drain cleaning, sewer cleaning, and video camera inspections",
    "hours": "Mon-Fri 9AM-6PM",
    "services": [
      "Japanese-speaking Drainage solutions in Indiana consultation",
      "Professional service",
      "Quality guarantee"
    ],
    "social_links": {}
  },
  {
    "name": "Zoom Drain, Sewer, & Septic",
    "address": "Westfield, IN and Indianapolis, IN",
    "phone": "(317) 483-7381",
    "rating": 4.0,
    "reviews": 25,
    "website": "https://www.google.com/maps/search/Zoom+Drain,+Sewer,+&+Septic+in+Indiana",
    "category": "Japanese-speaking Drainage solutions in Indiana",
    "description": "Provides dependable drain and sewer cleaning services, utilizing advanced tools and technologies",
    "hours": "Mon-Fri 9AM-6PM",
    "services": [
      "Japanese-speaking Drainage solutions in Indiana consultation",
      "Professional service",
      "Quality guarantee"
    ],
    "social_links": {}
  },
  {
    "name": "J&A Plumbing & Electric",
    "address": "Poneto, IN and Bluffton, IN",
    "phone": "(260) 307-3281",
    "rating": 4.0,
    "reviews": 25,
    "website": "https://www.google.com/maps/search/J&A+Plumbing+&+Electric+in+Indiana",
    "category": "Japanese-speaking Drainage solutions in Indiana",
    "description": "Offers professional plumbing services including drain cleaning and pump repairs",
    "hours": "Mon-Fri 9AM-6PM",
    "services": [
      "Japanese-speaking Drainage solutions in Indiana consultation",
      "Professional service",
      "Quality guarantee"
    ],
    "social_links": {}
  },
  {
    "name": "Don's Foundation Repair",
    "address": "Northwest Indiana",
    "phone": "(219) 464-1000",
    "rating": 4.0,
    "reviews": 25,
    "website": "https://www.google.com/maps/search/Don's+Foundation+Repair+in+Indiana",
    "category": "Japanese-speaking Drainage solutions in Indiana",
    "description": "Specializes in basement wall repair, waterproofing, and sump pump installation",
    "hours": "Mon-Fri 9AM-6PM",
    "services": [
      "Japanese-speaking Drainage solutions in Indiana consultation",
      "Professional service",
      "Quality guarantee"
    ],
    "social_links": {}
  },
  {
    "name": "Basement Systems of Indiana, LLC",
    "address": "Indianapolis, Carmel, Fort Wayne, and surrounding areas",
    "phone": "1-844-340-8064",
    "rating": 4.0,
    "reviews": 25,
    "website": "https://www.google.com/maps/search/Basement+Systems+of+Indiana,+LLC+in+Indiana",
    "category": "Japanese-speaking Drainage solutions in Indiana",
    "description": "Provides basement waterproofing, crawl space repair, and sump pump installation services",
    "hours": "Mon-Fri 9AM-6PM",
    "services": [
      "Japanese-speaking Drainage solutions in Indiana consultation",
      "Professional service",
      "Quality guarantee"
    ],
    "social_links": {}
  }
]