[
  {
    "name": "Malek + Malek, PLLC",
    "address": "802 W. Bannock Street, Suite 500, Boise, ID 83702",
    "phone": "(208) 939-0000",
    "rating": 4.0,
    "reviews": 25,
    "website": "https://maleklaw.com/",
    "category": "Agnostic-owned Mergers and Acquisitions law in Idaho",
    "description": "This firm handles mergers and acquisition law matters, representing buyers, sellers, and financial institutions in various corporate transactions",
    "hours": "Mon-Fri 9AM-6PM",
    "services": [
      "Agnostic-owned Mergers and Acquisitions law in Idaho consultation",
      "Professional service",
      "Quality guarantee"
    ],
    "social_links": {}
  },
  {
    "name": "Stoel Rives LLP",
    "address": "877 W Main St #200, Boise, ID 83702",
    "phone": "(208) 389-9000",
    "rating": 4.0,
    "reviews": 25,
    "website": "https://www.stoel.com/locations/boise",
    "category": "Agnostic-owned Mergers and Acquisitions law in Idaho",
    "description": "Their transactional and regulatory teams have extensive local experience, advising on corporate and securities, mergers & acquisitions, and other business-related legal issues",
    "hours": "Mon-Fri 9AM-6PM",
    "services": [
      "Agnostic-owned Mergers and Acquisitions law in Idaho consultation",
      "Professional service",
      "Quality guarantee"
    ],
    "social_links": {}
  },
  {
    "name": "Holland & Hart LLP",
    "address": "555 W. Washington Street, Boise, ID 83702",
    "phone": "(208) 342-5000",
    "rating": 4.0,
    "reviews": 25,
    "website": "https://www.hollandhart.com/boise",
    "category": "Agnostic-owned Mergers and Acquisitions law in Idaho",
    "description": "With over 80 years of experience in the Boise/Treasure Valley community, this firm offers corporate and mergers & acquisitions legal services",
    "hours": "Mon-Fri 9AM-6PM",
    "services": [
      "Agnostic-owned Mergers and Acquisitions law in Idaho consultation",
      "Professional service",
      "Quality guarantee"
    ],
    "social_links": {}
  },
  {
    "name": "Hawley Troxell Ennis & Hawley LLP",
    "address": "877 W Main St #200, Boise, ID 83702 (Boise Office)",
    "phone": "(208) 344-6000",
    "rating": 4.0,
    "reviews": 25,
    "website": "https://www.hawleytroxell.com/",
    "category": "Agnostic-owned Mergers and Acquisitions law in Idaho",
    "description": "This firm has a strong reputation in various practice areas, including business and corporate law, and offers services relevant to mergers and acquisitions",
    "hours": "Mon-Fri 9AM-6PM",
    "services": [
      "Agnostic-owned Mergers and Acquisitions law in Idaho consultation",
      "Professional service",
      "Quality guarantee"
    ],
    "social_links": {}
  },
  {
    "name": "Taylor Law Offices, PLLC",
    "address": "Multiple locations including 1303 12th Avenue Road, Nampa, ID 83686 and 704 E Sherman Ave, Coeur d'Alene, ID 83814",
    "phone": "(208) 467-4479 (Nampa) / (208) 444-4170 (Coeur d'Alene)",
    "rating": 4.0,
    "reviews": 25,
    "website": "https://www.taylorlawoffices.com/",
    "category": "Agnostic-owned Mergers and Acquisitions law in Idaho",
    "description": "They provide legal services for business transactions, including mergers and acquisitions, and have offices in Caldwell, Meridian, and Coeur d'Alene",
    "hours": "Mon-Fri 9AM-6PM",
    "services": [
      "Agnostic-owned Mergers and Acquisitions law in Idaho consultation",
      "Professional service",
      "Quality guarantee"
    ],
    "social_links": {}
  },
  {
    "name": "Black Creek Legal",
    "address": "Information not available through search",
    "phone": "",
    "rating": 4.0,
    "reviews": 25,
    "website": "https://blackcreeklegal.com/",
    "category": "Agnostic-owned Mergers and Acquisitions law in Idaho",
    "description": "This firm offers comprehensive legal services in Mergers and Acquisitions (M&A) law, focusing on deal structuring, due diligence, and negotiations",
    "hours": "Mon-Fri 9AM-6PM",
    "services": [
      "Agnostic-owned Mergers and Acquisitions law in Idaho consultation",
      "Professional service",
      "Quality guarantee"
    ],
    "social_links": {}
  },
  {
    "name": "Parsons Behle & Latimer",
    "address": "2010 Jennie Lee Dr, Idaho Falls, ID 83404",
    "phone": "(208) 529-3005",
    "rating": 4.0,
    "reviews": 25,
    "website": "https://www.parsonsbehle.com/locations/idaho-falls/",
    "category": "Agnostic-owned Mergers and Acquisitions law in Idaho",
    "description": "Their Idaho Falls office provides a wide range of legal services, including M&A, business law, and corporate governance",
    "hours": "Mon-Fri 9AM-6PM",
    "services": [
      "Agnostic-owned Mergers and Acquisitions law in Idaho consultation",
      "Professional service",
      "Quality guarantee"
    ],
    "social_links": {}
  },
  {
    "name": "Murray, Ziel, & Johnston, PLLC",
    "address": "Information not available through search",
    "phone": "",
    "rating": 4.0,
    "reviews": 25,
    "website": "https://www.mzjlaw.com/",
    "category": "Agnostic-owned Mergers and Acquisitions law in Idaho",
    "description": "This firm has extensive experience in Mergers and Acquisitions law, offering services in deal structuring, due diligence, and negotiation",
    "hours": "Mon-Fri 9AM-6PM",
    "services": [
      "Agnostic-owned Mergers and Acquisitions law in Idaho consultation",
      "Professional service",
      "Quality guarantee"
    ],
    "social_links": {}
  },
  {
    "name": "White Peterson, Attorneys at Law",
    "address": "1104 12th Ave Rd, Nampa, ID 83686",
    "phone": "(208) 466-9272",
    "rating": 4.0,
    "reviews": 25,
    "website": "https://www.whitepeterson.com/",
    "category": "Agnostic-owned Mergers and Acquisitions law in Idaho",
    "description": "This Nampa-based firm handles merger and acquisition paperwork and negotiations as part of their business law services",
    "hours": "Mon-Fri 9AM-6PM",
    "services": [
      "Agnostic-owned Mergers and Acquisitions law in Idaho consultation",
      "Professional service",
      "Quality guarantee"
    ],
    "social_links": {}
  },
  {
    "name": "Avery Law",
    "address": "Information not available through search",
    "phone": "(208) 204-5845",
    "rating": 4.0,
    "reviews": 25,
    "website": "https://averylaw.com/",
    "category": "Agnostic-owned Mergers and Acquisitions law in Idaho",
    "description": "This firm provides legal counsel in business and corporate transactions, including mergers, acquisitions, and divestitures, serving clients in the Boise metro area and beyond",
    "hours": "Mon-Fri 9AM-6PM",
    "services": [
      "Agnostic-owned Mergers and Acquisitions law in Idaho consultation",
      "Professional service",
      "Quality guarantee"
    ],
    "social_links": {}
  }
]