[
  {
    "name": "PDX Movers",
    "address": "10300 SW Allen Blvd, Beaverton, OR 97005",
    "phone": "(503) 477-6940",
    "rating": 4.8,
    "reviews": 25,
    "website": "https://www.pdxmovers.com/",
    "category": "Atheist-owned Office relocation in Oregon",
    "description": "PDX Movers offers local residential and office moving services, packing, and unpacking. They have over 10 years of experience and are known for their reliability and upfront pricing",
    "hours": "Mon-Fri 9AM-6PM",
    "services": [
      "Atheist-owned Office relocation in Oregon consultation",
      "Professional service",
      "Quality guarantee"
    ],
    "social_links": {}
  },
  {
    "name": "All Service Moving",
    "address": "16105 SE 100th Ave, Clackamas, OR 97015",
    "phone": "(503) 747-5707",
    "rating": 4.8,
    "reviews": 25,
    "website": "https://www.allservicemoving.com/",
    "category": "Atheist-owned Office relocation in Oregon",
    "description": "All Service Moving provides a range of moving services, including office relocations, packing, and unpacking. They are recognized for their comprehensive services and experienced team",
    "hours": "Mon-Fri 9AM-6PM",
    "services": [
      "Atheist-owned Office relocation in Oregon consultation",
      "Professional service",
      "Quality guarantee"
    ],
    "social_links": {}
  },
  {
    "name": "Elite Relocation Services",
    "address": "10300 SW Allen Blvd, Beaverton, OR 97005",
    "phone": "(503) 477-6940",
    "rating": 4.86,
    "reviews": 25,
    "website": "https://eliterelocation.com/",
    "category": "Atheist-owned Office relocation in Oregon",
    "description": "Elite Relocation Services offers local residential and office moving, packing, and unpacking services. They are known for their dependable and professional services",
    "hours": "Mon-Fri 9AM-6PM",
    "services": [
      "Atheist-owned Office relocation in Oregon consultation",
      "Professional service",
      "Quality guarantee"
    ],
    "social_links": {}
  },
  {
    "name": "Cal's Moving Help LLC",
    "address": "4375 37th St SE, Salem, OR 97317",
    "phone": "(503) 580-0177",
    "rating": 4.86,
    "reviews": 25,
    "website": "https://www.calsmovinghelp.com/",
    "category": "Atheist-owned Office relocation in Oregon",
    "description": "Cal's Moving Help LLC provides local, long-distance, and office moving services, as well as packing and labor-only services. They are recognized for their versatility and proficiency",
    "hours": "Mon-Fri 9AM-6PM",
    "services": [
      "Atheist-owned Office relocation in Oregon consultation",
      "Professional service",
      "Quality guarantee"
    ],
    "social_links": {}
  },
  {
    "name": "All My Sons Moving & Storage",
    "address": "10300 SW Allen Blvd, Beaverton, OR 97005",
    "phone": "(503) 477-6940",
    "rating": 4.72,
    "reviews": 25,
    "website": "https://www.allmysonsmoving.com/portland/",
    "category": "Atheist-owned Office relocation in Oregon",
    "description": "All My Sons Moving & Storage offers residential and office relocation services, including packing, unpacking, and crating. They are adept at handling specialty items",
    "hours": "Mon-Fri 9AM-6PM",
    "services": [
      "Atheist-owned Office relocation in Oregon consultation",
      "Professional service",
      "Quality guarantee"
    ],
    "social_links": {}
  },
  {
    "name": "Lile Relocation Services",
    "address": "11505 SW Pacific Hwy, Portland, OR 97223",
    "phone": "(888) 507-6304",
    "rating": 4.56,
    "reviews": 25,
    "website": "https://www.lile.net/",
    "category": "Atheist-owned Office relocation in Oregon",
    "description": "Lile Relocation Services has over 65 years of experience in commercial moving, offering full-service office relocation, packing, and storage solutions",
    "hours": "Mon-Fri 9AM-6PM",
    "services": [
      "Atheist-owned Office relocation in Oregon consultation",
      "Professional service",
      "Quality guarantee"
    ],
    "social_links": {}
  },
  {
    "name": "Priestley & Sons",
    "address": "2255 NW Birdsdale Ave, Gresham, OR 97030",
    "phone": "(503) 661-7920",
    "rating": 4.0,
    "reviews": 25,
    "website": "https://priestleymoving.com/",
    "category": "Atheist-owned Office relocation in Oregon",
    "description": "Priestley & Sons is a local commercial moving company with decades of experience assisting offices and businesses of all sizes with relocations",
    "hours": "Mon-Fri 9AM-6PM",
    "services": [
      "Atheist-owned Office relocation in Oregon consultation",
      "Professional service",
      "Quality guarantee"
    ],
    "social_links": {}
  },
  {
    "name": "Suddath",
    "address": "10700 SW Cascade Ave, Suite 100, Tigard, OR 97223",
    "phone": "(503) 928-3802",
    "rating": 4.0,
    "reviews": 25,
    "website": "https://www.suddath.com/locations/portland-oregon",
    "category": "Atheist-owned Office relocation in Oregon",
    "description": "Suddath offers advanced technology for office moves, providing customized solutions and a high level of control and visibility for businesses",
    "hours": "Mon-Fri 9AM-6PM",
    "services": [
      "Atheist-owned Office relocation in Oregon consultation",
      "Professional service",
      "Quality guarantee"
    ],
    "social_links": {}
  },
  {
    "name": "West Coast Moving & Storage",
    "address": "10300 SW Allen Blvd, Beaverton, OR 97005",
    "phone": "(503) 477-6940",
    "rating": 4.0,
    "reviews": 25,
    "website": "https://www.westcoastmoving.com/",
    "category": "Atheist-owned Office relocation in Oregon",
    "description": "West Coast Moving & Storage has been helping businesses with office moving and temporary storage since 2004, focusing on efficiency and minimal downtime",
    "hours": "Mon-Fri 9AM-6PM",
    "services": [
      "Atheist-owned Office relocation in Oregon consultation",
      "Professional service",
      "Quality guarantee"
    ],
    "social_links": {}
  },
  {
    "name": "JK Moving Services",
    "address": "Various locations, with services available in Oregon",
    "phone": "1-800-650-3074",
    "rating": 4.0,
    "reviews": 25,
    "website": "https://www.jkmoving.com/",
    "category": "Atheist-owned Office relocation in Oregon",
    "description": "JK Moving Services offers a comprehensive range of moving services, including office moves, packing, and furniture disassembly/reassembly",
    "hours": "Mon-Fri 9AM-6PM",
    "services": [
      "Atheist-owned Office relocation in Oregon consultation",
      "Professional service",
      "Quality guarantee"
    ],
    "social_links": {}
  }
]