[
  {
    "name": "Interpreters Unlimited",
    "address": "Multiple locations, including Salt Lake City, UT (specific address not provided in search results, but they serve nationwide)",
    "phone": "800-726-9891",
    "rating": 4.0,
    "reviews": 25,
    "website": "https://www.interpreters.com/",
    "category": "Bengali-speaking Controller services in Utah",
    "description": "Offers professional Bengali translation and interpretation services for legal, medical, corporate, and government sectors",
    "hours": "Mon-Fri 9AM-6PM",
    "services": [
      "Bengali-speaking Controller services in Utah consultation",
      "Professional service",
      "Quality guarantee"
    ],
    "social_links": {}
  },
  {
    "name": "JR Language Translation Services Inc.",
    "address": "Not specified for Utah, but serves Salt Lake City",
    "phone": "866-389-5036",
    "rating": 4.0,
    "reviews": 25,
    "website": "https://www.jrlanguage.com/",
    "category": "Bengali-speaking Controller services in Utah",
    "description": "Provides a comprehensive range of language interpretation and translation services, including for Bengali",
    "hours": "Mon-Fri 9AM-6PM",
    "services": [
      "Bengali-speaking Controller services in Utah consultation",
      "Professional service",
      "Quality guarantee"
    ],
    "social_links": {}
  },
  {
    "name": "iTi Bengali Interpreters & Translators",
    "address": "Not specified for Utah, but serves nationwide",
    "phone": "",
    "rating": 4.0,
    "reviews": 25,
    "website": "https://www.iti-global.com/",
    "category": "Bengali-speaking Controller services in Utah",
    "description": "Offers Bengali document translation and interpretation services, with native speakers trained to facilitate communication",
    "hours": "Mon-Fri 9AM-6PM",
    "services": [
      "Bengali-speaking Controller services in Utah consultation",
      "Professional service",
      "Quality guarantee"
    ],
    "social_links": {}
  },
  {
    "name": "24-7 Language Services",
    "address": "Not specified for Utah, but serves major cities in the UK and can provide services remotely",
    "phone": "01923 827168",
    "rating": 4.0,
    "reviews": 25,
    "website": "https://www.24-7languageservices.com/",
    "category": "Bengali-speaking Controller services in Utah",
    "description": "Provides Bengali interpreting and translation services for legal, medical, and business documents, with certified translators",
    "hours": "Mon-Fri 9AM-6PM",
    "services": [
      "Bengali-speaking Controller services in Utah consultation",
      "Professional service",
      "Quality guarantee"
    ],
    "social_links": {}
  },
  {
    "name": "Monument Immigration",
    "address": "Salt Lake City, UT (specific address not provided in search results, but they have offices in Cottonwood Heights and Las Vegas)",
    "phone": "(801) 609-3659",
    "rating": 4.0,
    "reviews": 25,
    "website": "https://monumentimmigration.com/",
    "category": "Bengali-speaking Controller services in Utah",
    "description": "Offers immigration legal services and states they have bilingual legal services, though Bengali is not explicitly mentioned",
    "hours": "Mon-Fri 9AM-6PM",
    "services": [
      "Bengali-speaking Controller services in Utah consultation",
      "Professional service",
      "Quality guarantee"
    ],
    "social_links": {}
  },
  {
    "name": "Holy Cross Ministries of Utah",
    "address": "Salt Lake City, UT (specific address not provided in search results)",
    "phone": "(801) 261-3440",
    "rating": 4.0,
    "reviews": 25,
    "website": "https://www.holycrossministries.org/",
    "category": "Bengali-speaking Controller services in Utah",
    "description": "Provides immigration legal services, with staff attorneys and BIA accredited representatives. Languages spoken include English and Spanish",
    "hours": "Mon-Fri 9AM-6PM",
    "services": [
      "Bengali-speaking Controller services in Utah consultation",
      "Professional service",
      "Quality guarantee"
    ],
    "social_links": {}
  },
  {
    "name": "Catholic Community Services of Utah",
    "address": "Salt Lake City, UT (specific address not provided in search results)",
    "phone": "(801) 428-1256 (for DACA & General Consultations)",
    "rating": 4.0,
    "reviews": 25,
    "website": "https://www.ccsutah.org/",
    "category": "Bengali-speaking Controller services in Utah",
    "description": "Offers legal services, including assistance with USCIS applications and representation in immigration court",
    "hours": "Mon-Fri 9AM-6PM",
    "services": [
      "Bengali-speaking Controller services in Utah consultation",
      "Professional service",
      "Quality guarantee"
    ],
    "social_links": {}
  },
  {
    "name": "Unique Accounting Services",
    "address": "9137 SOUTH MONROE PLAZA WAY SUITE B, SANDY, UT-84070",
    "phone": "",
    "rating": 4.0,
    "reviews": 25,
    "website": "https://uniqueaccountingservices.com/",
    "category": "Bengali-speaking Controller services in Utah",
    "description": "Provides accounting, payroll, and tax filing services. Reza is available by appointment",
    "hours": "Mon-Fri 9AM-6PM",
    "services": [
      "Bengali-speaking Controller services in Utah consultation",
      "Professional service",
      "Quality guarantee"
    ],
    "social_links": {}
  },
  {
    "name": "Haynie & Company",
    "address": "Salt Lake City, UT (specific address not provided in search results)",
    "phone": "(801) 972-4800",
    "rating": 4.0,
    "reviews": 25,
    "website": "https://www.hayniecpas.com/",
    "category": "Bengali-speaking Controller services in Utah",
    "description": "A full-service CPA firm offering tax preparation, tax planning, and accounting services",
    "hours": "Mon-Fri 9AM-6PM",
    "services": [
      "Bengali-speaking Controller services in Utah consultation",
      "Professional service",
      "Quality guarantee"
    ],
    "social_links": {}
  },
  {
    "name": "Tax Plus",
    "address": "Not specified for Utah, but serves the area",
    "phone": "",
    "rating": 4.0,
    "reviews": 25,
    "website": "https://www.taxplus.com/",
    "category": "Bengali-speaking Controller services in Utah",
    "description": "A full-service tax and accounting firm with over 45 years of experience, offering personal and business tax preparation, accounting, and payroll services",
    "hours": "Mon-Fri 9AM-6PM",
    "services": [
      "Bengali-speaking Controller services in Utah consultation",
      "Professional service",
      "Quality guarantee"
    ],
    "social_links": {}
  }
]