[
  {
    "name": "Garry's Automotive",
    "address": "4520 W. Chinden Blvd, Boise, ID 83714",
    "phone": "(208) 562-1693",
    "rating": 4.7,
    "reviews": 25,
    "website": "https://garrysautomotive.com/",
    "category": "Bengali-speaking Brake fluid service in Idaho",
    "description": "Garry's Automotive offers comprehensive brake system care, including brake fluid flushes and replacements, for all makes and models. They have been serving the Boise area since 2005",
    "hours": "Mon-Fri 9AM-6PM",
    "services": [
      "Bengali-speaking Brake fluid service in Idaho consultation",
      "Professional service",
      "Quality guarantee"
    ],
    "social_links": {}
  },
  {
    "name": "Tint World Boise",
    "address": "8048 W. Overland Rd, Boise, ID 83709",
    "phone": "(208) 376-6100",
    "rating": 4.6,
    "reviews": 25,
    "website": "https://www.tintworld.com/locations/boise-id/",
    "category": "Bengali-speaking Brake fluid service in Idaho",
    "description": "Tint World Boise provides brake fluid flushes and replacements to ensure clean brake fluid, preventing corrosion and maintaining optimal brake performance",
    "hours": "Mon-Fri 9AM-6PM",
    "services": [
      "Bengali-speaking Brake fluid service in Idaho consultation",
      "Professional service",
      "Quality guarantee"
    ],
    "social_links": {}
  },
  {
    "name": "Western Transmission",
    "address": "3050 N. Yellowstone Hwy, Idaho Falls, ID 83401",
    "phone": "(208) 523-0077",
    "rating": 4.7,
    "reviews": 25,
    "website": "https://westerntransmissionidaho.com/",
    "category": "Bengali-speaking Brake fluid service in Idaho",
    "description": "Western Transmission offers professional brake bleeding and comprehensive brake fluid maintenance services to ensure optimal brake performance and vehicle safety in Idaho Falls",
    "hours": "Mon-Fri 9AM-6PM",
    "services": [
      "Bengali-speaking Brake fluid service in Idaho consultation",
      "Professional service",
      "Quality guarantee"
    ],
    "social_links": {}
  },
  {
    "name": "Oswald Service and Repair",
    "address": "725 Yellowstone Ave, Idaho Falls, ID 83402",
    "phone": "(208) 522-1566",
    "rating": 4.8,
    "reviews": 25,
    "website": "https://oswaldservice.com/",
    "category": "Bengali-speaking Brake fluid service in Idaho",
    "description": "Oswald Service and Repair provides brake fluid flushes to prevent corrosion and ensure reliable brake function, serving Idaho Falls and Rexburg",
    "hours": "Mon-Fri 9AM-6PM",
    "services": [
      "Bengali-speaking Brake fluid service in Idaho consultation",
      "Professional service",
      "Quality guarantee"
    ],
    "social_links": {}
  },
  {
    "name": "Corey's Tyhee Automotive",
    "address": "12632 W Tyhee Rd, Pocatello, ID 83202",
    "phone": "(208) 237-7446",
    "rating": 4.9,
    "reviews": 25,
    "website": "https://coreystyheeauto.com/",
    "category": "Bengali-speaking Brake fluid service in Idaho",
    "description": "Corey's Tyhee Automotive offers brake fluid flushes to ensure fresh fluid usage and optimal braking performance for vehicles in Pocatello",
    "hours": "Mon-Fri 9AM-6PM",
    "services": [
      "Bengali-speaking Brake fluid service in Idaho consultation",
      "Professional service",
      "Quality guarantee"
    ],
    "social_links": {}
  },
  {
    "name": "AAMCO Twin Falls",
    "address": "2547 Blue Lakes Blvd N, Twin Falls, ID 83301",
    "phone": "(208) 733-9700",
    "rating": 4.5,
    "reviews": 25,
    "website": "https://aamco.com/locations/twin-falls-id",
    "category": "Bengali-speaking Brake fluid service in Idaho",
    "description": "AAMCO Twin Falls provides comprehensive brake services, including replacing old brake fluid with fresh fluid, to improve vehicle brake performance and safety",
    "hours": "Mon-Fri 9AM-6PM",
    "services": [
      "Bengali-speaking Brake fluid service in Idaho consultation",
      "Professional service",
      "Quality guarantee"
    ],
    "social_links": {}
  },
  {
    "name": "Heritage Auto Repair",
    "address": "175 N Linder Rd, Meridian, ID 83642",
    "phone": "(208) 887-1442",
    "rating": 4.7,
    "reviews": 25,
    "website": "https://www.heritageautorepair.com/",
    "category": "Bengali-speaking Brake fluid service in Idaho",
    "description": "Heritage Auto Repair offers brake fluid services in Meridian and Caldwell, emphasizing the importance of clean brake fluid for efficient and safe stopping",
    "hours": "Mon-Fri 9AM-6PM",
    "services": [
      "Bengali-speaking Brake fluid service in Idaho consultation",
      "Professional service",
      "Quality guarantee"
    ],
    "social_links": {}
  },
  {
    "name": "K & R Automotive",
    "address": "1520 N. Main St, Meridian, ID 83642",
    "phone": "(208) 888-3719",
    "rating": 4.8,
    "reviews": 25,
    "website": "https://krandautomotive.com/",
    "category": "Bengali-speaking Brake fluid service in Idaho",
    "description": "K & R Automotive provides brake services in Meridian, ID, including brake fluid flushes, to ensure reliable brake repair needs are met",
    "hours": "Mon-Fri 9AM-6PM",
    "services": [
      "Bengali-speaking Brake fluid service in Idaho consultation",
      "Professional service",
      "Quality guarantee"
    ],
    "social_links": {}
  },
  {
    "name": "Archers Auto Repair",
    "address": "1002 N. 16th Ave, Caldwell, ID 83605",
    "phone": "(208) 454-0101",
    "rating": 4.9,
    "reviews": 25,
    "website": "https://www.archersautorepair.com/",
    "category": "Bengali-speaking Brake fluid service in Idaho",
    "description": "Archers Auto Repair offers brake fluid flush and replacement services in Caldwell and Nampa to maintain braking performance and ensure safety",
    "hours": "Mon-Fri 9AM-6PM",
    "services": [
      "Bengali-speaking Brake fluid service in Idaho consultation",
      "Professional service",
      "Quality guarantee"
    ],
    "social_links": {}
  },
  {
    "name": "Rexburg Car Shop",
    "address": "234 W 1st N, Rexburg, ID 83440",
    "phone": "(208) 356-6767",
    "rating": 4.9,
    "reviews": 25,
    "website": "https://rexburgcarshop.com/",
    "category": "Bengali-speaking Brake fluid service in Idaho",
    "description": "Rexburg Car Shop provides brake fluid flushes as part of their comprehensive brake services, ensuring optimal brake function and safety for vehicles in Rexburg",
    "hours": "Mon-Fri 9AM-6PM",
    "services": [
      "Bengali-speaking Brake fluid service in Idaho consultation",
      "Professional service",
      "Quality guarantee"
    ],
    "social_links": {}
  }
]