[
  {
    "name": "Fish & Richardson",
    "address": "6300 Equitable Bank Tower, 45 S. Seventh St., Minneapolis, MN 55402",
    "phone": "(612) 341-5000",
    "rating": 4.0,
    "reviews": 25,
    "website": "https://www.fr.com/locations/minneapolis/",
    "category": "Armenian-speaking Patent law in Minnesota",
    "description": "A premier global intellectual property law firm with extensive experience across the full IP spectrum, including patent prosecution and litigation",
    "hours": "Mon-Fri 9AM-6PM",
    "services": [
      "Armenian-speaking Patent law in Minnesota consultation",
      "Professional service",
      "Quality guarantee"
    ],
    "social_links": {}
  },
  {
    "name": "Schwegman Lundberg Woessner",
    "address": "2000 IDS Center, 80 S. Eighth St., Minneapolis, MN 55402",
    "phone": "(612) 373-0700",
    "rating": 4.0,
    "reviews": 25,
    "website": "https://www.slwip.com/",
    "category": "Armenian-speaking Patent law in Minnesota",
    "description": "A national patent prosecution firm headquartered in Minneapolis, specializing in electronics, biotechnology, computers, and more",
    "hours": "Mon-Fri 9AM-6PM",
    "services": [
      "Armenian-speaking Patent law in Minnesota consultation",
      "Professional service",
      "Quality guarantee"
    ],
    "social_links": {}
  },
  {
    "name": "Vidas, Arrett & Steinkraus, P.A.",
    "address": "7650 Edinborough Way, Suite 500, Edina, MN 55435",
    "phone": "(952) 563-3000",
    "rating": 4.0,
    "reviews": 25,
    "website": "https://www.vidaslaw.com/",
    "category": "Armenian-speaking Patent law in Minnesota",
    "description": "An intellectual property law firm focused on patent and trademark prosecution, as well as intellectual property litigation",
    "hours": "Mon-Fri 9AM-6PM",
    "services": [
      "Armenian-speaking Patent law in Minnesota consultation",
      "Professional service",
      "Quality guarantee"
    ],
    "social_links": {}
  },
  {
    "name": "Christensen, Fonder, Dardi & Herbert PLLC",
    "address": "920 Second Avenue South, Suite 1000, Minneapolis, MN 55402",
    "phone": "(612) 333-0101",
    "rating": 4.0,
    "reviews": 25,
    "website": "https://www.cfdh.com/",
    "category": "Armenian-speaking Patent law in Minnesota",
    "description": "A Minneapolis law firm focusing on intellectual property protection, including patent prosecution, trademark, and licensing services",
    "hours": "Mon-Fri 9AM-6PM",
    "services": [
      "Armenian-speaking Patent law in Minnesota consultation",
      "Professional service",
      "Quality guarantee"
    ],
    "social_links": {}
  },
  {
    "name": "Pauly, DeVries Smith and Deffner",
    "address": "30 E. Seventh St., Suite 1900, St. Paul, MN 55101",
    "phone": "(651) 227-0100",
    "rating": 4.0,
    "reviews": 25,
    "website": "https://www.pdsd.com/",
    "category": "Armenian-speaking Patent law in Minnesota",
    "description": "An IP boutique firm providing patent prosecution, infringement analysis, trade secret counseling, and licensing services",
    "hours": "Mon-Fri 9AM-6PM",
    "services": [
      "Armenian-speaking Patent law in Minnesota consultation",
      "Professional service",
      "Quality guarantee"
    ],
    "social_links": {}
  },
  {
    "name": "Shumaker & Sieffert",
    "address": "2000 IDS Center, 80 S. Eighth St., Minneapolis, MN 55402",
    "phone": "(612) 341-2400",
    "rating": 4.0,
    "reviews": 25,
    "website": "https://www.ssiplaw.com/",
    "category": "Armenian-speaking Patent law in Minnesota",
    "description": "Specializes in patent protection, infringement and validity counseling, and licensing",
    "hours": "Mon-Fri 9AM-6PM",
    "services": [
      "Armenian-speaking Patent law in Minnesota consultation",
      "Professional service",
      "Quality guarantee"
    ],
    "social_links": {}
  },
  {
    "name": "Johnson & Phung, LLC",
    "address": "1000 Westgate Drive, Suite 102, St. Paul, MN 55114",
    "phone": "(651) 319-5115",
    "rating": 4.0,
    "reviews": 25,
    "website": "https://www.johnsonphung.com/",
    "category": "Armenian-speaking Patent law in Minnesota",
    "description": "A Minnesota law firm committed to helping clients with their intellectual property law needs, including patents, trademarks, and copyrights",
    "hours": "Mon-Fri 9AM-6PM",
    "services": [
      "Armenian-speaking Patent law in Minnesota consultation",
      "Professional service",
      "Quality guarantee"
    ],
    "social_links": {}
  },
  {
    "name": "Gallium Law",
    "address": "1000 Westgate Drive, Suite 102, St. Paul, MN 55114",
    "phone": "(651) 256-9480",
    "rating": 4.0,
    "reviews": 25,
    "website": "https://galliumlaw.com/",
    "category": "Armenian-speaking Patent law in Minnesota",
    "description": "An award-winning intellectual property law firm focused on protecting innovations",
    "hours": "Mon-Fri 9AM-6PM",
    "services": [
      "Armenian-speaking Patent law in Minnesota consultation",
      "Professional service",
      "Quality guarantee"
    ],
    "social_links": {}
  },
  {
    "name": "VHPM",
    "address": "1000 Westgate Drive, Suite 102, St. Paul, MN 55114",
    "phone": "(651) 222-0000",
    "rating": 4.0,
    "reviews": 25,
    "website": "https://www.vhpm.com/",
    "category": "Armenian-speaking Patent law in Minnesota",
    "description": "A boutique IP law firm at the cutting edge of science and technology, providing patent and trademark services",
    "hours": "Mon-Fri 9AM-6PM",
    "services": [
      "Armenian-speaking Patent law in Minnesota consultation",
      "Professional service",
      "Quality guarantee"
    ],
    "social_links": {}
  },
  {
    "name": "Engelmeier & Umanah PA",
    "address": "500 E. Main St., Suite 300, Anoka, MN 55303 (also has a Minneapolis office)",
    "phone": "(612) 455-7720",
    "rating": 4.0,
    "reviews": 25,
    "website": "https://www.engellegal.com/",
    "category": "Armenian-speaking Patent law in Minnesota",
    "description": "A firm with offices in Minneapolis and St. Cloud, excelling in employment law, estate planning, and business transactions. While not exclusively patent law, they handle intellectual property matters",
    "hours": "Mon-Fri 9AM-6PM",
    "services": [
      "Armenian-speaking Patent law in Minnesota consultation",
      "Professional service",
      "Quality guarantee"
    ],
    "social_links": {}
  }
]