[
  {
    "name": "Auto Specialists Auto Repair",
    "address": "1501 Nevada Hwy, Boulder City, NV 89005",
    "phone": "(702) 293-4776",
    "rating": 4.0,
    "reviews": 25,
    "website": "https://www.autospecialistsnv.com/",
    "category": "Bengali-speaking Emissions testing in Nevada",
    "description": "NV state certified emissions repair and test facility",
    "hours": "Mon-Fri 9AM-6PM",
    "services": [
      "Bengali-speaking Emissions testing in Nevada consultation",
      "Professional service",
      "Quality guarantee"
    ],
    "social_links": {}
  },
  {
    "name": "Greg's Garage",
    "address": "410 E 6th St, Reno, NV 89512",
    "phone": "(775) 324-0911",
    "rating": 4.0,
    "reviews": 25,
    "website": "https://www.gregsgarenereno.com/",
    "category": "Bengali-speaking Emissions testing in Nevada",
    "description": "Authorized smog station for the State of Nevada emission test and repair center",
    "hours": "Mon-Fri 9AM-6PM",
    "services": [
      "Bengali-speaking Emissions testing in Nevada consultation",
      "Professional service",
      "Quality guarantee"
    ],
    "social_links": {}
  },
  {
    "name": "Instant Smog Reno",
    "address": "Multiple locations in Reno and Sparks, NV. One listed is 1564 Prater Way, Sparks, NV 89431",
    "phone": "(775) 329-6240",
    "rating": 4.0,
    "reviews": 25,
    "website": "https://instantsmogreno.com/",
    "category": "Bengali-speaking Emissions testing in Nevada",
    "description": "Provides fast, courteous, and professional smog testing and registration renewal services",
    "hours": "Mon-Fri 9AM-6PM",
    "services": [
      "Bengali-speaking Emissions testing in Nevada consultation",
      "Professional service",
      "Quality guarantee"
    ],
    "social_links": {}
  },
  {
    "name": "Smog Monkey",
    "address": "Multiple locations in Sparks and Spanish Springs, NV. One listed is 1564 Prater Way, Sparks, NV 89431",
    "phone": "(775) 507-4300",
    "rating": 4.0,
    "reviews": 25,
    "website": "https://www.smogmonkey.com/",
    "category": "Bengali-speaking Emissions testing in Nevada",
    "description": "Offers Nevada authorized smog inspections and registration renewal",
    "hours": "Mon-Fri 9AM-6PM",
    "services": [
      "Bengali-speaking Emissions testing in Nevada consultation",
      "Professional service",
      "Quality guarantee"
    ],
    "social_links": {}
  },
  {
    "name": "24hrs Mechanics Las Vegas",
    "address": "Mobile service available throughout the Las Vegas Valley",
    "phone": "(702) 618-7004",
    "rating": 4.0,
    "reviews": 25,
    "website": "https://24hrsmechanicslv.com/",
    "category": "Bengali-speaking Emissions testing in Nevada",
    "description": "Offers mobile and on-site emission testing services for gasoline, hybrid, and diesel vehicles",
    "hours": "Mon-Fri 9AM-6PM",
    "services": [
      "Bengali-speaking Emissions testing in Nevada consultation",
      "Professional service",
      "Quality guarantee"
    ],
    "social_links": {}
  },
  {
    "name": "Bob's Autodynamics",
    "address": "3755 W. Tropicana Ave., Las Vegas, NV 89103",
    "phone": "(702) 873-1111",
    "rating": 4.0,
    "reviews": 25,
    "website": "https://www.bobsautodynamics.com/",
    "category": "Bengali-speaking Emissions testing in Nevada",
    "description": "Family-owned and operated facility with over 30 years of experience in emission/smog testing",
    "hours": "Mon-Fri 9AM-6PM",
    "services": [
      "Bengali-speaking Emissions testing in Nevada consultation",
      "Professional service",
      "Quality guarantee"
    ],
    "social_links": {}
  },
  {
    "name": "Express Auto Care",
    "address": "4320 W. Charleston Blvd., Las Vegas, NV 89102",
    "phone": "(702) 531-9531",
    "rating": 4.0,
    "reviews": 25,
    "website": "https://www.expressautocarelv.com/",
    "category": "Bengali-speaking Emissions testing in Nevada",
    "description": "NV state certified emissions test and repair facility",
    "hours": "Mon-Fri 9AM-6PM",
    "services": [
      "Bengali-speaking Emissions testing in Nevada consultation",
      "Professional service",
      "Quality guarantee"
    ],
    "social_links": {}
  },
  {
    "name": "Master Tech Automotive & Cycle Repair",
    "address": "1420 W. Sunset Rd., Henderson, NV 89014",
    "phone": "(702) 641-9389",
    "rating": 4.0,
    "reviews": 25,
    "website": "https://www.mastertechhenderson.com/",
    "category": "Bengali-speaking Emissions testing in Nevada",
    "description": "Offers smog testing and repair services in Henderson, NV",
    "hours": "Mon-Fri 9AM-6PM",
    "services": [
      "Bengali-speaking Emissions testing in Nevada consultation",
      "Professional service",
      "Quality guarantee"
    ],
    "social_links": {}
  },
  {
    "name": "Jiffy Smog (DEKRA)",
    "address": "Multiple locations in Henderson and Las Vegas, NV. One listed is 1251 American Pacific, Henderson, NV 89074",
    "phone": "(702) 558-2010",
    "rating": 4.0,
    "reviews": 25,
    "website": "https://www.dekra-na.com/",
    "category": "Bengali-speaking Emissions testing in Nevada",
    "description": "Offers official State of Nevada Smog Checks for hybrids and gas-powered vehicles, and registration renewals",
    "hours": "Mon-Fri 9AM-6PM",
    "services": [
      "Bengali-speaking Emissions testing in Nevada consultation",
      "Professional service",
      "Quality guarantee"
    ],
    "social_links": {}
  },
  {
    "name": "Smogeez",
    "address": "Multiple locations in Henderson, NV",
    "phone": "",
    "rating": 4.0,
    "reviews": 25,
    "website": "https://smogeez.com/",
    "category": "Bengali-speaking Emissions testing in Nevada",
    "description": "Offers emission inspections and smog tests",
    "hours": "Mon-Fri 9AM-6PM",
    "services": [
      "Bengali-speaking Emissions testing in Nevada consultation",
      "Professional service",
      "Quality guarantee"
    ],
    "social_links": {}
  }
]