[
  {
    "name": "Texas Dyno Center",
    "address": "1400 W Arbrook Blvd, Arlington, TX 76015",
    "phone": "(817) 860-4300",
    "rating": 4.8,
    "reviews": 25,
    "website": "https://www.texasdynocenter.com/",
    "category": "Japanese-speaking ECU remapping in Texas",
    "description": "Specializes in dynometer performance tuning for various vehicles, including Japanese makes like Subaru, Mitsubishi, Toyota, Honda, and Nissan",
    "hours": "Mon-Fri 9AM-6PM",
    "services": [
      "Japanese-speaking ECU remapping in Texas consultation",
      "Professional service",
      "Quality guarantee"
    ],
    "social_links": {}
  },
  {
    "name": "Kozmic Motorsports",
    "address": "15102 Stuebner Airline Rd, Houston, TX 77060",
    "phone": "(281) 443-1717",
    "rating": 4.8,
    "reviews": 25,
    "website": "https://www.kozmicmotorsports.com/",
    "category": "Japanese-speaking ECU remapping in Texas",
    "description": "Offers ECU tuning, performance modification, and repair services, specializing in platforms like EvoX, Subaru, GTR, Ford EcoBoost, Mazda, Mitsubishi, Nissan, and Volkswagen",
    "hours": "Mon-Fri 9AM-6PM",
    "services": [
      "Japanese-speaking ECU remapping in Texas consultation",
      "Professional service",
      "Quality guarantee"
    ],
    "social_links": {}
  },
  {
    "name": "E1 Garage",
    "address": "2510 Yale St, Houston, TX 77008",
    "phone": "(713) 955-5846",
    "rating": 4.7,
    "reviews": 25,
    "website": "https://e1garage.com/",
    "category": "Japanese-speaking ECU remapping in Texas",
    "description": "Specializes in Japanese auto repair and maintenance, including diagnostics and performance. They work on brands like Toyota, Lexus, Nissan, Infiniti, Subaru, Honda, and Acura",
    "hours": "Mon-Fri 9AM-6PM",
    "services": [
      "Japanese-speaking ECU remapping in Texas consultation",
      "Professional service",
      "Quality guarantee"
    ],
    "social_links": {}
  },
  {
    "name": "The Auto Doc",
    "address": "1503 W Alabama St, Houston, TX 77006",
    "phone": "(713) 597-3303",
    "rating": 4.7,
    "reviews": 25,
    "website": "https://www.theautodoc.com/",
    "category": "Japanese-speaking ECU remapping in Texas",
    "description": "Offers a full range of auto repairs and services for all makes and models of Japanese vehicles, including computer diagnostics",
    "hours": "Mon-Fri 9AM-6PM",
    "services": [
      "Japanese-speaking ECU remapping in Texas consultation",
      "Professional service",
      "Quality guarantee"
    ],
    "social_links": {}
  },
  {
    "name": "Japanese Auto Repair Specialist",
    "address": "14820 Webb Chapel Rd, Farmers Branch, TX 75234",
    "phone": "(972) 241-4922",
    "rating": 4.7,
    "reviews": 25,
    "website": "https://www.japaneseautospecialist.com/",
    "category": "Japanese-speaking ECU remapping in Texas",
    "description": "Specializes in Japanese, German, and Swedish imports, offering complete car care, expert diagnosis, and repair",
    "hours": "Mon-Fri 9AM-6PM",
    "services": [
      "Japanese-speaking ECU remapping in Texas consultation",
      "Professional service",
      "Quality guarantee"
    ],
    "social_links": {}
  },
  {
    "name": "Rising Sun Japanese Auto Repair",
    "address": "8011 Burnet Rd, Austin, TX 78757",
    "phone": "(512) 459-8181",
    "rating": 4.6,
    "reviews": 25,
    "website": "https://risingsunautomotive.com/",
    "category": "Japanese-speaking ECU remapping in Texas",
    "description": "Specializes in Japanese auto repair and maintenance, including vehicle diagnostics",
    "hours": "Mon-Fri 9AM-6PM",
    "services": [
      "Japanese-speaking ECU remapping in Texas consultation",
      "Professional service",
      "Quality guarantee"
    ],
    "social_links": {}
  },
  {
    "name": "North Texas High Performance",
    "address": "1000 W Arbrook Blvd, Arlington, TX 76015",
    "phone": "(817) 800-1000",
    "rating": 4.6,
    "reviews": 25,
    "website": "https://www.northtexashighperformance.com/",
    "category": "Japanese-speaking ECU remapping in Texas",
    "description": "A high-performance customization shop that works on all domestic, import, and European vehicles, specializing in parts installation, custom builds, and tuning",
    "hours": "Mon-Fri 9AM-6PM",
    "services": [
      "Japanese-speaking ECU remapping in Texas consultation",
      "Professional service",
      "Quality guarantee"
    ],
    "social_links": {}
  },
  {
    "name": "ECUTUNING",
    "address": "469-383-5740 (Phone number provided, physical address not readily available in search results)",
    "phone": "(469) 383-5740",
    "rating": 4.0,
    "reviews": 25,
    "website": "https://www.ecutuning.com/",
    "category": "Japanese-speaking ECU remapping in Texas",
    "description": "Specializes in diagnostics and tuning for European and Japanese cars, offering solutions for various vehicle issues",
    "hours": "Mon-Fri 9AM-6PM",
    "services": [
      "Japanese-speaking ECU remapping in Texas consultation",
      "Professional service",
      "Quality guarantee"
    ],
    "social_links": {}
  },
  {
    "name": "ECMtoGO.com Auto Computer Pro \u2013 TRN Electronics",
    "address": "11210 W Little York Rd, Houston, TX 77041",
    "phone": "(713) 956-0533",
    "rating": 4.5,
    "reviews": 25,
    "website": "https://ecmtogo.com/",
    "category": "Japanese-speaking ECU remapping in Texas",
    "description": "Specializes in testing, repairing, programming, and reselling engine and transmission control modules (ECMs/PCMs) for various vehicles, including Japanese makes",
    "hours": "Mon-Fri 9AM-6PM",
    "services": [
      "Japanese-speaking ECU remapping in Texas consultation",
      "Professional service",
      "Quality guarantee"
    ],
    "social_links": {}
  },
  {
    "name": "Foreign Auto Computer Repair, Inc.",
    "address": "200 Private Road 7869, Suite 101, Holly Lake Ranch, TX 75765",
    "phone": "(800) 241-6689",
    "rating": 4.0,
    "reviews": 25,
    "website": "https://foreignautocomputerrepair.com/",
    "category": "Japanese-speaking ECU remapping in Texas",
    "description": "Specializes in engine and transmission control units (ECUs/PCMs) for Asian and European vehicles, offering repair and exchange services",
    "hours": "Mon-Fri 9AM-6PM",
    "services": [
      "Japanese-speaking ECU remapping in Texas consultation",
      "Professional service",
      "Quality guarantee"
    ],
    "social_links": {}
  }
]