[
  {
    "name": "Handy Andy Hawaii",
    "address": "Honolulu, HI 96819",
    "phone": "808-285-3443",
    "rating": 4.0,
    "reviews": 25,
    "website": "http://www.handyandyhawaii.us/",
    "category": "Chinese-speaking Furniture reassembly in Hawaii",
    "description": "Offers a wide range of assembly services, including furniture, equipment, and children's toys",
    "hours": "Mon-Fri 9AM-6PM",
    "services": [
      "Chinese-speaking Furniture reassembly in Hawaii consultation",
      "Professional service",
      "Quality guarantee"
    ],
    "social_links": {}
  },
  {
    "name": "Taskrabbit (Honolulu)",
    "address": "Various locations in Honolulu, HI",
    "phone": "",
    "rating": 4.0,
    "reviews": 25,
    "website": "https://www.taskrabbit.com/services/furniture-assembly/honolulu-hi",
    "category": "Chinese-speaking Furniture reassembly in Hawaii",
    "description": "A platform connecting users with local \"Taskers\" for various services, including furniture assembly",
    "hours": "Mon-Fri 9AM-6PM",
    "services": [
      "Chinese-speaking Furniture reassembly in Hawaii consultation",
      "Professional service",
      "Quality guarantee"
    ],
    "social_links": {}
  },
  {
    "name": "S & S Delivery Inc.",
    "address": "Honolulu, HI",
    "phone": "808-833-1857",
    "rating": 4.0,
    "reviews": 25,
    "website": "https://www.ssdeliveryinc.com/",
    "category": "Chinese-speaking Furniture reassembly in Hawaii",
    "description": "Specializes in moving pianos, furniture, and appliances, and offers island-wide residential and office moving",
    "hours": "Mon-Fri 9AM-6PM",
    "services": [
      "Chinese-speaking Furniture reassembly in Hawaii consultation",
      "Professional service",
      "Quality guarantee"
    ],
    "social_links": {}
  },
  {
    "name": "Honolulu Furniture Repairs",
    "address": "Honolulu, HI",
    "phone": "808-792-3893",
    "rating": 4.0,
    "reviews": 25,
    "website": "https://www.honolulufurniturerepairs.com/",
    "category": "Chinese-speaking Furniture reassembly in Hawaii",
    "description": "Offers furniture restoration and repair services, including wood, leather, and antique furniture",
    "hours": "Mon-Fri 9AM-6PM",
    "services": [
      "Chinese-speaking Furniture reassembly in Hawaii consultation",
      "Professional service",
      "Quality guarantee"
    ],
    "social_links": {}
  },
  {
    "name": "ABC Handyman Hawaii",
    "address": "Honolulu, HI",
    "phone": "808.722.1120",
    "rating": 4.0,
    "reviews": 25,
    "website": "https://abchandymanhawaii.com/",
    "category": "Chinese-speaking Furniture reassembly in Hawaii",
    "description": "Provides professional handyman services for residential and commercial clients in Honolulu and Oahu",
    "hours": "Mon-Fri 9AM-6PM",
    "services": [
      "Chinese-speaking Furniture reassembly in Hawaii consultation",
      "Professional service",
      "Quality guarantee"
    ],
    "social_links": {}
  },
  {
    "name": "Kahala Handyman Services",
    "address": "Oahu, HI",
    "phone": "808-225-1195",
    "rating": 4.0,
    "reviews": 25,
    "website": "https://www.kahalahandymanservices.com/",
    "category": "Chinese-speaking Furniture reassembly in Hawaii",
    "description": "Offers a wide range of handyman services, including minor repairs and more complex projects",
    "hours": "Mon-Fri 9AM-6PM",
    "services": [
      "Chinese-speaking Furniture reassembly in Hawaii consultation",
      "Professional service",
      "Quality guarantee"
    ],
    "social_links": {}
  },
  {
    "name": "Furniture Medic\u00ae",
    "address": "Honolulu, HI",
    "phone": "",
    "rating": 4.0,
    "reviews": 25,
    "website": "https://www.furnituremedic.com/locations/hawaii/honolulu/",
    "category": "Chinese-speaking Furniture reassembly in Hawaii",
    "description": "A world leader in cabinet transformation and furniture restoration, offering services for furniture, cabinetry, and wood surfaces",
    "hours": "Mon-Fri 9AM-6PM",
    "services": [
      "Chinese-speaking Furniture reassembly in Hawaii consultation",
      "Professional service",
      "Quality guarantee"
    ],
    "social_links": {}
  },
  {
    "name": "Gilbert's Refinishing LLC",
    "address": "1632 Silva Street, Honolulu, HI",
    "phone": "808-841-5207",
    "rating": 4.0,
    "reviews": 25,
    "website": "https://gilbertsrefinishing.com/",
    "category": "Chinese-speaking Furniture reassembly in Hawaii",
    "description": "Performs furniture repair and refinishing, including pianos and cane furniture, serving all islands",
    "hours": "Mon-Fri 9AM-6PM",
    "services": [
      "Chinese-speaking Furniture reassembly in Hawaii consultation",
      "Professional service",
      "Quality guarantee"
    ],
    "social_links": {}
  },
  {
    "name": "Kamaaina Movers, LLC",
    "address": "Honolulu, HI",
    "phone": "808-201-6622",
    "rating": 4.0,
    "reviews": 25,
    "website": "https://kamaainamovers.com/",
    "category": "Chinese-speaking Furniture reassembly in Hawaii",
    "description": "Professional moving company offering services for home, office, and furniture moving",
    "hours": "Mon-Fri 9AM-6PM",
    "services": [
      "Chinese-speaking Furniture reassembly in Hawaii consultation",
      "Professional service",
      "Quality guarantee"
    ],
    "social_links": {}
  },
  {
    "name": "Ewa Moving Co.",
    "address": "Honolulu, HI",
    "phone": "",
    "rating": 4.0,
    "reviews": 25,
    "website": "https://www.ewamovingco.com/",
    "category": "Chinese-speaking Furniture reassembly in Hawaii",
    "description": "Offers moving services in Honolulu, including furniture assembly and disassembly",
    "hours": "Mon-Fri 9AM-6PM",
    "services": [
      "Chinese-speaking Furniture reassembly in Hawaii consultation",
      "Professional service",
      "Quality guarantee"
    ],
    "social_links": {}
  }
]