[
  {
    "name": "Dr. Chen Acupuncture & Traditional Chinese Medicine",
    "address": "1215 West Chester Pike, Suite 201, West Chester, PA 19382",
    "phone": "(610) 738-0202",
    "rating": 4.0,
    "reviews": 25,
    "website": "https://www.dr.chen.com/",
    "category": "Chinese-speaking LED therapy in Pennsylvania",
    "description": "Offers acupuncture and LED light therapy, with a focus on traditional Chinese medicine",
    "hours": "Mon-Fri 9AM-6PM",
    "services": [
      "Chinese-speaking LED therapy in Pennsylvania consultation",
      "Professional service",
      "Quality guarantee"
    ],
    "social_links": {}
  },
  {
    "name": "Trinity Acupuncture of Doylestown",
    "address": "350 East Butler Pike, New Britain, PA 18901",
    "phone": "(215) 760-1691",
    "rating": 4.0,
    "reviews": 25,
    "website": "https://www.trinacu.com/",
    "category": "Chinese-speaking LED therapy in Pennsylvania",
    "description": "Provides acupuncture, herbal remedies, cupping, and red light therapy",
    "hours": "Mon-Fri 9AM-6PM",
    "services": [
      "Chinese-speaking LED therapy in Pennsylvania consultation",
      "Professional service",
      "Quality guarantee"
    ],
    "social_links": {}
  },
  {
    "name": "ShenNong Acupuncture & Oriental Medicine",
    "address": "1015 Cherry Street, Philadelphia, PA 19107",
    "phone": "(215) 923-7500",
    "rating": 4.0,
    "reviews": 25,
    "website": "https://www.shennongacupuncture.com/",
    "category": "Chinese-speaking LED therapy in Pennsylvania",
    "description": "Specializes in acupuncture, Chinese cupping, therapeutic massage, and herbal medicine, with a holistic approach",
    "hours": "Mon-Fri 9AM-6PM",
    "services": [
      "Chinese-speaking LED therapy in Pennsylvania consultation",
      "Professional service",
      "Quality guarantee"
    ],
    "social_links": {}
  },
  {
    "name": "Acupuncture York, Pennsylvania, US",
    "address": "1805 Loucks Rd, Suite 600, York, PA 17408",
    "phone": "(717) 424-6683",
    "rating": 4.0,
    "reviews": 25,
    "website": "https://www.acupunctureyorkpa.com/",
    "category": "Chinese-speaking LED therapy in Pennsylvania",
    "description": "Offers acupuncture and Chinese herbs, with a practitioner trained in both Western and traditional Chinese medicine",
    "hours": "Mon-Fri 9AM-6PM",
    "services": [
      "Chinese-speaking LED therapy in Pennsylvania consultation",
      "Professional service",
      "Quality guarantee"
    ],
    "social_links": {}
  },
  {
    "name": "Weiping Wang Acupuncture Center",
    "address": "Two locations: Maple Glen, PA and Chadds Ford, PA. (Specific addresses not provided in search results)",
    "phone": "",
    "rating": 4.0,
    "reviews": 25,
    "website": "https://www.weipingwangacupuncture.com/",
    "category": "Chinese-speaking LED therapy in Pennsylvania",
    "description": "Provides Chinese acupuncture treatments for various ailments, with a focus on holistic alternatives",
    "hours": "Mon-Fri 9AM-6PM",
    "services": [
      "Chinese-speaking LED therapy in Pennsylvania consultation",
      "Professional service",
      "Quality guarantee"
    ],
    "social_links": {}
  },
  {
    "name": "Clarity Acupuncture PA",
    "address": "Wyncote, PA (Specific address not provided in search results)",
    "phone": "",
    "rating": 4.0,
    "reviews": 25,
    "website": "https://www.clarityacupuncturepa.com/",
    "category": "Chinese-speaking LED therapy in Pennsylvania",
    "description": "Offers traditional Chinese medicine, acupuncture, cupping, and other holistic therapies",
    "hours": "Mon-Fri 9AM-6PM",
    "services": [
      "Chinese-speaking LED therapy in Pennsylvania consultation",
      "Professional service",
      "Quality guarantee"
    ],
    "social_links": {}
  },
  {
    "name": "Center for Holistic Health and Education",
    "address": "945 West Maple Ave, Langhorne, PA 19047",
    "phone": "(215) 908-8752",
    "rating": 4.0,
    "reviews": 25,
    "website": "https://www.centerforholistichealthandeducation.com/",
    "category": "Chinese-speaking LED therapy in Pennsylvania",
    "description": "A healing center offering acupuncture, cupping, and other holistic therapies to balance body, mind, and spirit",
    "hours": "Mon-Fri 9AM-6PM",
    "services": [
      "Chinese-speaking LED therapy in Pennsylvania consultation",
      "Professional service",
      "Quality guarantee"
    ],
    "social_links": {}
  },
  {
    "name": "Zen & Now Wellness",
    "address": "Paxton Square, Harrisburg, PA (Specific address not provided in search results)",
    "phone": "",
    "rating": 4.0,
    "reviews": 25,
    "website": "https://www.zenandnowwellness.com/",
    "category": "Chinese-speaking LED therapy in Pennsylvania",
    "description": "Offers acupuncture, massage, herbal apothecary, and infrared treatment",
    "hours": "Mon-Fri 9AM-6PM",
    "services": [
      "Chinese-speaking LED therapy in Pennsylvania consultation",
      "Professional service",
      "Quality guarantee"
    ],
    "social_links": {}
  },
  {
    "name": "Holistic Harmony HWC",
    "address": "Not specified in search results",
    "phone": "",
    "rating": 4.0,
    "reviews": 25,
    "website": "https://www.holisticharmonyhwc.com/",
    "category": "Chinese-speaking LED therapy in Pennsylvania",
    "description": "A Holistic Wellness Center offering therapeutic massage, red light therapy, and acupuncture",
    "hours": "Mon-Fri 9AM-6PM",
    "services": [
      "Chinese-speaking LED therapy in Pennsylvania consultation",
      "Professional service",
      "Quality guarantee"
    ],
    "social_links": {}
  },
  {
    "name": "Kim's Healing Center",
    "address": "1223 Butler St, Easton, PA 18042",
    "phone": "(610) 559-7280",
    "rating": 4.0,
    "reviews": 25,
    "website": "https://www.kimshealing.com/",
    "category": "Chinese-speaking LED therapy in Pennsylvania",
    "description": "Offers traditional Chinese healing techniques, including massage, cupping, and herbal remedies, with a focus on holistic wellness",
    "hours": "Mon-Fri 9AM-6PM",
    "services": [
      "Chinese-speaking LED therapy in Pennsylvania consultation",
      "Professional service",
      "Quality guarantee"
    ],
    "social_links": {}
  }
]