[
  {
    "name": "Jewel of the Orient Spa",
    "address": "105 N. Main Street, Greenville, SC 29607",
    "phone": "(864) 584-2067",
    "rating": 4.0,
    "reviews": 25,
    "website": "http://www.jeweloftheorientspa.com/",
    "category": "Armenian-speaking Couples massage in South-Carolina",
    "description": "Offers a cozy couple's massage room with various package options including scalp care, back massage, and facials",
    "hours": "Mon-Fri 9AM-6PM",
    "services": [
      "Armenian-speaking Couples massage in South-Carolina consultation",
      "Professional service",
      "Quality guarantee"
    ],
    "social_links": {}
  },
  {
    "name": "SoCa Day Spa",
    "address": "1035 Johnnie Dodds Blvd, Mt Pleasant, SC 29464",
    "phone": "(843) 881-0555",
    "rating": 4.0,
    "reviews": 25,
    "website": "https://www.socadayspa.com/",
    "category": "Armenian-speaking Couples massage in South-Carolina",
    "description": "Provides couples massage packages, including the \"SoCa Duet Massage\" and \"Couples Cotillion,\" which can include organic sugar scrubs, champagne, and chocolates",
    "hours": "Mon-Fri 9AM-6PM",
    "services": [
      "Armenian-speaking Couples massage in South-Carolina consultation",
      "Professional service",
      "Quality guarantee"
    ],
    "social_links": {}
  },
  {
    "name": "Zen Massage USA",
    "address": "7620 Rivers Avenue, Suite 340, N. Charleston, SC 29406",
    "phone": "(843) 572-0309",
    "rating": 4.0,
    "reviews": 25,
    "website": "https://www.zenmassageusa.com/",
    "category": "Armenian-speaking Couples massage in South-Carolina",
    "description": "Offers couples massages where two people can receive simultaneous massages in the same room, with an additional fee on top of regular service prices",
    "hours": "Mon-Fri 9AM-6PM",
    "services": [
      "Armenian-speaking Couples massage in South-Carolina consultation",
      "Professional service",
      "Quality guarantee"
    ],
    "social_links": {}
  },
  {
    "name": "OCCO Luxury Spa",
    "address": "1500 Main St, Columbia, SC 29201",
    "phone": "(803) 787-7546",
    "rating": 4.0,
    "reviews": 25,
    "website": "https://www.occoluxuryspa.com/",
    "category": "Armenian-speaking Couples massage in South-Carolina",
    "description": "Offers couples massages for 60 or 90 minutes, with the option to add hot stones",
    "hours": "Mon-Fri 9AM-6PM",
    "services": [
      "Armenian-speaking Couples massage in South-Carolina consultation",
      "Professional service",
      "Quality guarantee"
    ],
    "social_links": {}
  },
  {
    "name": "MG's GRAND Day Spa",
    "address": "501 Old Boiling Springs Rd, Greer, SC 29650",
    "phone": "(864) 272-0022",
    "rating": 4.0,
    "reviews": 25,
    "website": "https://www.mgsgranddayspa.com/",
    "category": "Armenian-speaking Couples massage in South-Carolina",
    "description": "Voted Best Day Spa of the Upstate, they offer a wide range of services including couples massages",
    "hours": "Mon-Fri 9AM-6PM",
    "services": [
      "Armenian-speaking Couples massage in South-Carolina consultation",
      "Professional service",
      "Quality guarantee"
    ],
    "social_links": {}
  },
  {
    "name": "The Altar Spa",
    "address": "1200 Woodruff Rd, Greenville, SC 29607",
    "phone": "(864) 329-1111",
    "rating": 4.0,
    "reviews": 25,
    "website": "https://www.thealtarspa.com/",
    "category": "Armenian-speaking Couples massage in South-Carolina",
    "description": "Offers couples massages in a dedicated couples room, with various massage modalities available",
    "hours": "Mon-Fri 9AM-6PM",
    "services": [
      "Armenian-speaking Couples massage in South-Carolina consultation",
      "Professional service",
      "Quality guarantee"
    ],
    "social_links": {}
  },
  {
    "name": "Awakening Spa",
    "address": "900 N Ocean Blvd, Myrtle Beach, SC 29577 (4th floor of Anderson Ocean Club)",
    "phone": "(843) 213-5370",
    "rating": 4.0,
    "reviews": 25,
    "website": "https://www.awakeningdayspa.com/",
    "category": "Armenian-speaking Couples massage in South-Carolina",
    "description": "Ranked as a top spa in Myrtle Beach, they offer couples massages, facials, and body treatments",
    "hours": "Mon-Fri 9AM-6PM",
    "services": [
      "Armenian-speaking Couples massage in South-Carolina consultation",
      "Professional service",
      "Quality guarantee"
    ],
    "social_links": {}
  },
  {
    "name": "Celestial Spa",
    "address": "4001 N Ocean Blvd, Myrtle Beach, SC 29577",
    "phone": "(843) 449-0000",
    "rating": 4.0,
    "reviews": 25,
    "website": "https://www.celestialspasc.com/",
    "category": "Armenian-speaking Couples massage in South-Carolina",
    "description": "A luxury spa in Myrtle Beach offering couples' spa packages designed for relaxation and creating lasting memories",
    "hours": "Mon-Fri 9AM-6PM",
    "services": [
      "Armenian-speaking Couples massage in South-Carolina consultation",
      "Professional service",
      "Quality guarantee"
    ],
    "social_links": {}
  },
  {
    "name": "Zero Gravity Massage of Columbia",
    "address": "1122 Lady St, Columbia, SC 29201",
    "phone": "(702) 621-5829",
    "rating": 4.0,
    "reviews": 25,
    "website": "https://www.zerogravitymassage.com/columbia-sc",
    "category": "Armenian-speaking Couples massage in South-Carolina",
    "description": "Offers a unique zero-gravity massage experience in private suites, including couples massages",
    "hours": "Mon-Fri 9AM-6PM",
    "services": [
      "Armenian-speaking Couples massage in South-Carolina consultation",
      "Professional service",
      "Quality guarantee"
    ],
    "social_links": {}
  },
  {
    "name": "J G Massage Spa",
    "address": "1015 Sea Mountain Hwy, North Myrtle Beach, SC 29582",
    "phone": "(843) 353-6111",
    "rating": 4.0,
    "reviews": 25,
    "website": "https://www.jgmassagespa.com/",
    "category": "Armenian-speaking Couples massage in South-Carolina",
    "description": "Provides various massage services including Swedish, Deep Tissue, Couples, and Hot Stone massages",
    "hours": "Mon-Fri 9AM-6PM",
    "services": [
      "Armenian-speaking Couples massage in South-Carolina consultation",
      "Professional service",
      "Quality guarantee"
    ],
    "social_links": {}
  }
]