[
  {
    "name": "The Facial Bar",
    "address": "4657 Indian Creek Pkwy, Overland Park, KS 66207",
    "phone": "(816) 308-7775",
    "rating": 4.0,
    "reviews": 25,
    "website": "https://www.thefacialbar.com/",
    "category": "Black-owned Lash lifts in Kansas",
    "description": "Offers lash lifts and tints to enhance natural lashes",
    "hours": "Mon-Fri 9AM-6PM",
    "services": [
      "Black-owned Lash lifts in Kansas consultation",
      "Professional service",
      "Quality guarantee"
    ],
    "social_links": {}
  },
  {
    "name": "The Facial Bar",
    "address": "16559 W 151st Street, Olathe, KS 66062",
    "phone": "(816) 308-7775",
    "rating": 4.0,
    "reviews": 25,
    "website": "https://www.thefacialbar.com/",
    "category": "Black-owned Lash lifts in Kansas",
    "description": "Provides lash lift services for a low-maintenance curl and lift",
    "hours": "Mon-Fri 9AM-6PM",
    "services": [
      "Black-owned Lash lifts in Kansas consultation",
      "Professional service",
      "Quality guarantee"
    ],
    "social_links": {}
  },
  {
    "name": "Brows and Beyond KC",
    "address": "Kansas City, MO 64152 (Note: This is in Missouri, but serves the Kansas City metro area)",
    "phone": "",
    "rating": 4.0,
    "reviews": 25,
    "website": "https://www.google.com/maps/search/Brows+and+Beyond+KC+in+Kansas",
    "category": "Black-owned Lash lifts in Kansas",
    "description": "Offers lash lift and tint services",
    "hours": "Mon-Fri 9AM-6PM",
    "services": [
      "Black-owned Lash lifts in Kansas consultation",
      "Professional service",
      "Quality guarantee"
    ],
    "social_links": {}
  },
  {
    "name": "Lashed by Alex",
    "address": "Information not available",
    "phone": "",
    "rating": 4.0,
    "reviews": 25,
    "website": "https://www.google.com/maps/search/Lashed+by+Alex+in+Kansas",
    "category": "Black-owned Lash lifts in Kansas",
    "description": "Provides lash lifts and tints, with a focus on client education and experience",
    "hours": "Mon-Fri 9AM-6PM",
    "services": [
      "Black-owned Lash lifts in Kansas consultation",
      "Professional service",
      "Quality guarantee"
    ],
    "social_links": {}
  },
  {
    "name": "The Lash Lounge Overland Park \u2013 Corbin Park",
    "address": "6435 W. 135th St., Overland Park, KS 66223",
    "phone": "(913) 270-0710",
    "rating": 4.0,
    "reviews": 25,
    "website": "https://www.thelashlounge.com/ks/overland-park-corbin-park/",
    "category": "Black-owned Lash lifts in Kansas",
    "description": "Offers lash lifts and a variety of other lash and brow services with a focus on customization and lash health",
    "hours": "Mon-Fri 9AM-6PM",
    "services": [
      "Black-owned Lash lifts in Kansas consultation",
      "Professional service",
      "Quality guarantee"
    ],
    "social_links": {}
  },
  {
    "name": "Beau Monde Spa & Boutique",
    "address": "Wichita, KS (Specific address not provided in search results)",
    "phone": "",
    "rating": 4.0,
    "reviews": 25,
    "website": "https://www.google.com/maps/search/Beau+Monde+Spa+&+Boutique+in+Kansas",
    "category": "Black-owned Lash lifts in Kansas",
    "description": "Offers lash lifts and tints",
    "hours": "Mon-Fri 9AM-6PM",
    "services": [
      "Black-owned Lash lifts in Kansas consultation",
      "Professional service",
      "Quality guarantee"
    ],
    "social_links": {}
  },
  {
    "name": "Urban Routine Wellness",
    "address": "W. Douglas Ave, Wichita, KS 67202 (Specific street number not provided)",
    "phone": "(316) 260-5131",
    "rating": 4.0,
    "reviews": 25,
    "website": "https://www.urbanroutineskin.com/",
    "category": "Black-owned Lash lifts in Kansas",
    "description": "Provides a luxury lash lift service with a plumping and nourishing system",
    "hours": "Mon-Fri 9AM-6PM",
    "services": [
      "Black-owned Lash lifts in Kansas consultation",
      "Professional service",
      "Quality guarantee"
    ],
    "social_links": {}
  },
  {
    "name": "Remedy Spa",
    "address": "Wichita, KS (Specific address not provided in search results)",
    "phone": "",
    "rating": 4.0,
    "reviews": 25,
    "website": "https://www.google.com/maps/search/Remedy+Spa+in+Kansas",
    "category": "Black-owned Lash lifts in Kansas",
    "description": "Offers lash lifts and tints",
    "hours": "Mon-Fri 9AM-6PM",
    "services": [
      "Black-owned Lash lifts in Kansas consultation",
      "Professional service",
      "Quality guarantee"
    ],
    "social_links": {}
  },
  {
    "name": "Amazing Lash Studio",
    "address": "Topeka, KS (Specific address not provided in search results)",
    "phone": "(785) 284-9298",
    "rating": 4.0,
    "reviews": 25,
    "website": "https://amazinglashstudio.com/studio/ks/topeka/",
    "category": "Black-owned Lash lifts in Kansas",
    "description": "Offers lash extensions and lash lifts",
    "hours": "Mon-Fri 9AM-6PM",
    "services": [
      "Black-owned Lash lifts in Kansas consultation",
      "Professional service",
      "Quality guarantee"
    ],
    "social_links": {}
  },
  {
    "name": "EveryDay Beaut",
    "address": "Wichita, KS (Specific address not provided in search results)",
    "phone": "",
    "rating": 4.0,
    "reviews": 25,
    "website": "https://www.google.com/maps/search/EveryDay+Beaut+in+Kansas",
    "category": "Black-owned Lash lifts in Kansas",
    "description": "Offers lash lifts, brow lamination, and tinting services",
    "hours": "Mon-Fri 9AM-6PM",
    "services": [
      "Black-owned Lash lifts in Kansas consultation",
      "Professional service",
      "Quality guarantee"
    ],
    "social_links": {}
  }
]