[
  {
    "name": "Asian Services in Action (ASIA-ICHC)",
    "address": "370 East Market St, Akron, OH 44304 and 3631 Perkins Ave., Ste. 2A-W, Cleveland, OH 44114",
    "phone": "330-535-3263 (Akron) and 216-881-0330 (Cleveland)",
    "rating": 4.0,
    "reviews": 25,
    "website": "https://asiaohio.org/",
    "category": "Asian-owned Wellness consulting in Ohio",
    "description": "Provides healthcare, including mental health services, and social services to the AAPI community",
    "hours": "Mon-Fri 9AM-6PM",
    "services": [
      "Asian-owned Wellness consulting in Ohio consultation",
      "Professional service",
      "Quality guarantee"
    ],
    "social_links": {}
  },
  {
    "name": "Cook Counseling and Consulting Inc.",
    "address": "Columbus, Ohio (Online services available)",
    "phone": "",
    "rating": 4.0,
    "reviews": 25,
    "website": "https://www.cookcounseling.com/",
    "category": "Asian-owned Wellness consulting in Ohio",
    "description": "Provides mental health services, with a focus on individuals, couples, and families. They mention being sensitive to those experiencing life transitions and are experts in LGBTQIA+ and ENM/polyamory",
    "hours": "Mon-Fri 9AM-6PM",
    "services": [
      "Asian-owned Wellness consulting in Ohio consultation",
      "Professional service",
      "Quality guarantee"
    ],
    "social_links": {}
  },
  {
    "name": "B2AW",
    "address": "Green, Ohio (Telehealth only)",
    "phone": "(440) 291-2230",
    "rating": 4.0,
    "reviews": 25,
    "website": "https://www.google.com/maps/search/B2AW+in+Ohio",
    "category": "Asian-owned Wellness consulting in Ohio",
    "description": "Empowers women to identify their life mission, expand goals, and enhance overall health and wellness, utilizing Accelerated Resolution Therapy (ART)",
    "hours": "Mon-Fri 9AM-6PM",
    "services": [
      "Asian-owned Wellness consulting in Ohio consultation",
      "Professional service",
      "Quality guarantee"
    ],
    "social_links": {}
  },
  {
    "name": "Christina Minoguchi, LPCC",
    "address": "Cleveland, Ohio (Online services available)",
    "phone": "(440) 291-2230",
    "rating": 4.0,
    "reviews": 25,
    "website": "https://www.google.com/maps/search/Christina+Minoguchi,+LPCC+in+Ohio",
    "category": "Asian-owned Wellness consulting in Ohio",
    "description": "Licensed therapist specializing in trauma, CPTSD, PTSD, anxiety, and depression, using EMDR and Brainspotting techniques",
    "hours": "Mon-Fri 9AM-6PM",
    "services": [
      "Asian-owned Wellness consulting in Ohio consultation",
      "Professional service",
      "Quality guarantee"
    ],
    "social_links": {}
  },
  {
    "name": "Inspiring Wellness, LLC",
    "address": "Toledo, OH 43623",
    "phone": "(567) 407-4354",
    "rating": 4.0,
    "reviews": 25,
    "website": "https://www.google.com/maps/search/Inspiring+Wellness,+LLC+in+Ohio",
    "category": "Asian-owned Wellness consulting in Ohio",
    "description": "Offers personalized care for adults, couples, and families, focusing on trauma, relationship challenges, and emotional struggles",
    "hours": "Mon-Fri 9AM-6PM",
    "services": [
      "Asian-owned Wellness consulting in Ohio consultation",
      "Professional service",
      "Quality guarantee"
    ],
    "social_links": {}
  },
  {
    "name": "PS Wellness",
    "address": "Dayton, OH",
    "phone": "",
    "rating": 4.0,
    "reviews": 25,
    "website": "https://www.google.com/maps/search/PS+Wellness+in+Ohio",
    "category": "Asian-owned Wellness consulting in Ohio",
    "description": "Provides sex therapy for individuals, couples, and diverse relationship systems with a sex-positive lens",
    "hours": "Mon-Fri 9AM-6PM",
    "services": [
      "Asian-owned Wellness consulting in Ohio consultation",
      "Professional service",
      "Quality guarantee"
    ],
    "social_links": {}
  },
  {
    "name": "Sunshine Massage",
    "address": "6044 Wilmington Pike, Dayton, Ohio 45459",
    "phone": "937-310-6166",
    "rating": 4.0,
    "reviews": 25,
    "website": "https://www.google.com/maps/search/Sunshine+Massage+in+Ohio",
    "category": "Asian-owned Wellness consulting in Ohio",
    "description": "Offers massage services, categorized under \"Asian, Chinese.\"",
    "hours": "Mon-Fri 9AM-6PM",
    "services": [
      "Asian-owned Wellness consulting in Ohio consultation",
      "Professional service",
      "Quality guarantee"
    ],
    "social_links": {}
  },
  {
    "name": "Lian Rong Spa",
    "address": "Canton, OH",
    "phone": "",
    "rating": 4.0,
    "reviews": 25,
    "website": "https://www.google.com/maps/search/Lian+Rong+Spa+in+Ohio",
    "category": "Asian-owned Wellness consulting in Ohio",
    "description": "Offers a rejuvenating Asian massage experience with services like full-body massages and hot stone treatments",
    "hours": "Mon-Fri 9AM-6PM",
    "services": [
      "Asian-owned Wellness consulting in Ohio consultation",
      "Professional service",
      "Quality guarantee"
    ],
    "social_links": {}
  },
  {
    "name": "Vahila Acupuncture & Massage Therapy",
    "address": "Canton, Ohio",
    "phone": "",
    "rating": 4.0,
    "reviews": 25,
    "website": "https://www.google.com/maps/search/Vahila+Acupuncture+&+Massage+Therapy+in+Ohio",
    "category": "Asian-owned Wellness consulting in Ohio",
    "description": "Provides acupuncture, massage, and Reiki, incorporating modern technologies for health and wellness needs",
    "hours": "Mon-Fri 9AM-6PM",
    "services": [
      "Asian-owned Wellness consulting in Ohio consultation",
      "Professional service",
      "Quality guarantee"
    ],
    "social_links": {}
  },
  {
    "name": "Rose Asia SPA",
    "address": "6877 W 130 St, Parma Heights, Ohio 44130",
    "phone": "216-255-1498",
    "rating": 4.0,
    "reviews": 25,
    "website": "https://www.google.com/maps/search/Rose+Asia+SPA+in+Ohio",
    "category": "Asian-owned Wellness consulting in Ohio",
    "description": "Offers professional relaxation massage, 4-hands massage, and hot stone massage",
    "hours": "Mon-Fri 9AM-6PM",
    "services": [
      "Asian-owned Wellness consulting in Ohio consultation",
      "Professional service",
      "Quality guarantee"
    ],
    "social_links": {}
  }
]