[
  {
    "name": "Balanced Healing Salt + Sauna",
    "address": "1040 S. Poplar St., Casper, WY 82601",
    "phone": "(307) 333-4001",
    "rating": 4.0,
    "reviews": 25,
    "website": "https://www.balancedhealingwy.com/",
    "category": "Bengali-speaking Salt therapy in Wyoming",
    "description": "Offers salt therapy in a salt booth and salt room, as well as infrared sauna and PEMF mat services",
    "hours": "Mon-Fri 9AM-6PM",
    "services": [
      "Bengali-speaking Salt therapy in Wyoming consultation",
      "Professional service",
      "Quality guarantee"
    ],
    "social_links": {}
  },
  {
    "name": "Balanced Prairie Wellness Collective",
    "address": "2119 O'Neil Ave, Cheyenne, WY 82001",
    "phone": "(307) 316-2111",
    "rating": 4.0,
    "reviews": 25,
    "website": "https://www.balancedprairiewellness.com/",
    "category": "Bengali-speaking Salt therapy in Wyoming",
    "description": "Provides saltwater float therapy, and other holistic wellness services",
    "hours": "Mon-Fri 9AM-6PM",
    "services": [
      "Bengali-speaking Salt therapy in Wyoming consultation",
      "Professional service",
      "Quality guarantee"
    ],
    "social_links": {}
  },
  {
    "name": "Hands of Health Wyoming",
    "address": "79 Town Center Drive #130, Gillette, WY 82718",
    "phone": "(307) 682-0700",
    "rating": 4.0,
    "reviews": 25,
    "website": "https://handsofhealthwyoming.com/",
    "category": "Bengali-speaking Salt therapy in Wyoming",
    "description": "Offers halotherapy (salt therapy) along with other holistic health services like detox foot baths and infrared sauna",
    "hours": "Mon-Fri 9AM-6PM",
    "services": [
      "Bengali-speaking Salt therapy in Wyoming consultation",
      "Professional service",
      "Quality guarantee"
    ],
    "social_links": {}
  },
  {
    "name": "307 Healing Waters",
    "address": "1600 E. 17th St., Casper, WY 82601",
    "phone": "(307) 224-6000",
    "rating": 4.0,
    "reviews": 25,
    "website": "https://www.307healingwaters.com/",
    "category": "Bengali-speaking Salt therapy in Wyoming",
    "description": "Specializes in float therapy, cryotherapy, and infrared sauna",
    "hours": "Mon-Fri 9AM-6PM",
    "services": [
      "Bengali-speaking Salt therapy in Wyoming consultation",
      "Professional service",
      "Quality guarantee"
    ],
    "social_links": {}
  },
  {
    "name": "Wyoming Salt Caves",
    "address": "Information not readily available for a specific physical address in Wyoming. The search result mentions Vermont Salt Cave Spa & Halotherapy Center in Montgomery Center, VT, suggesting a potential lack of dedicated salt cave facilities specifically named \"Wyoming Salt Caves\" within the state",
    "phone": "802-326-2283 (This appears to be for Vermont Salt Cave Spa)",
    "rating": 4.0,
    "reviews": 25,
    "website": "https://www.google.com/maps/search/Wyoming+Salt+Caves+in+Wyoming",
    "category": "Bengali-speaking Salt therapy in Wyoming",
    "description": "General information about salt caves and halotherapy benefits is provided, but no specific Wyoming business is identified with contact details",
    "hours": "Mon-Fri 9AM-6PM",
    "services": [
      "Bengali-speaking Salt therapy in Wyoming consultation",
      "Professional service",
      "Quality guarantee"
    ],
    "social_links": {}
  },
  {
    "name": "SALT. Mobile IV Hydration & Wellness Therapy",
    "address": "Cody, WY (Mobile service, specific address not provided)",
    "phone": "(+22) 123 456 7890 (This appears to be a placeholder number)",
    "rating": 4.0,
    "reviews": 25,
    "website": "https://www.google.com/maps/search/SALT.+Mobile+IV+Hydration+&+Wellness+Therapy+in+Wyoming",
    "category": "Bengali-speaking Salt therapy in Wyoming",
    "description": "Offers mobile IV hydration and wellness therapy, but not salt therapy",
    "hours": "Mon-Fri 9AM-6PM",
    "services": [
      "Bengali-speaking Salt therapy in Wyoming consultation",
      "Professional service",
      "Quality guarantee"
    ],
    "social_links": {}
  }
]