[
  {
    "name": "Mysore Austin",
    "address": "(Specific address not provided in search results, but located in Austin, TX)",
    "phone": "",
    "rating": 4.0,
    "reviews": 25,
    "website": "https://mysoreaustin.com/",
    "category": "Buddhist-owned Ashtanga yoga in Texas",
    "description": "Offers traditional Ashtanga Mysore and led classes daily for students of all levels",
    "hours": "Mon-Fri 9AM-6PM",
    "services": [
      "Buddhist-owned Ashtanga yoga in Texas consultation",
      "Professional service",
      "Quality guarantee"
    ],
    "social_links": {}
  },
  {
    "name": "Ashtanga Yoga Austin",
    "address": "(Specific address not provided in search results, but located in Austin, TX)",
    "phone": "",
    "rating": 4.0,
    "reviews": 25,
    "website": "https://www.ashtangayogaaustin.com/",
    "category": "Buddhist-owned Ashtanga yoga in Texas",
    "description": "Offers traditional Mysore-style Ashtanga Yoga classes",
    "hours": "Mon-Fri 9AM-6PM",
    "services": [
      "Buddhist-owned Ashtanga yoga in Texas consultation",
      "Professional service",
      "Quality guarantee"
    ],
    "social_links": {}
  },
  {
    "name": "Dallas Ashtanga Yoga Shala",
    "address": "2714 Greenville Ave, Dallas, TX 75206",
    "phone": "(469) 216-0888",
    "rating": 4.0,
    "reviews": 25,
    "website": "https://www.dallasashtangayogashala.com/",
    "category": "Buddhist-owned Ashtanga yoga in Texas",
    "description": "Offers Ashtanga yoga classes",
    "hours": "Mon-Fri 9AM-6PM",
    "services": [
      "Buddhist-owned Ashtanga yoga in Texas consultation",
      "Professional service",
      "Quality guarantee"
    ],
    "social_links": {}
  },
  {
    "name": "PURE Yoga Texas",
    "address": "Multiple locations in Austin and Dallas, TX (e.g., 8620 Burnet Road, #132, Austin, TX 78757)",
    "phone": "",
    "rating": 4.0,
    "reviews": 25,
    "website": "https://pureyogatx.com/",
    "category": "Buddhist-owned Ashtanga yoga in Texas",
    "description": "Offers hot yoga, heated fitness, and Ashtanga/Vinyasa yoga classes",
    "hours": "Mon-Fri 9AM-6PM",
    "services": [
      "Buddhist-owned Ashtanga yoga in Texas consultation",
      "Professional service",
      "Quality guarantee"
    ],
    "social_links": {}
  },
  {
    "name": "Amy Sanford | Ashtanga Yoga Nacogdoches",
    "address": "(Specific address not provided in search results, but located in Nacogdoches, TX)",
    "phone": "",
    "rating": 4.0,
    "reviews": 25,
    "website": "https://www.google.com/maps/search/Amy+Sanford+|+Ashtanga+Yoga+Nacogdoches+in+Texas",
    "category": "Buddhist-owned Ashtanga yoga in Texas",
    "description": "Offers Ashtanga Yoga following the traditional method",
    "hours": "Mon-Fri 9AM-6PM",
    "services": [
      "Buddhist-owned Ashtanga yoga in Texas consultation",
      "Professional service",
      "Quality guarantee"
    ],
    "social_links": {}
  },
  {
    "name": "Dawn Mountain Center for Tibetan Buddhism",
    "address": "4803 San Felipe St, Houston, TX 77056 (with a future location at 3100 W Fuqua Street, Houston, Texas 77045)",
    "phone": "713-630-0354",
    "rating": 4.0,
    "reviews": 25,
    "website": "https://www.dawnmountain.org/",
    "category": "Buddhist-owned Ashtanga yoga in Texas",
    "description": "A Tibetan Buddhist Temple, Community Center, and Research Institute offering meditation and yoga",
    "hours": "Mon-Fri 9AM-6PM",
    "services": [
      "Buddhist-owned Ashtanga yoga in Texas consultation",
      "Professional service",
      "Quality guarantee"
    ],
    "social_links": {}
  },
  {
    "name": "Siddhayatan Tirth & Spiritual Retreat Center",
    "address": "Windom, TX (Specific street address not provided in search results)",
    "phone": "+1 (903) 487-0717",
    "rating": 4.0,
    "reviews": 25,
    "website": "https://siddhayatan.org/",
    "category": "Buddhist-owned Ashtanga yoga in Texas",
    "description": "A spiritual retreat center offering meditation, yoga, and other programs",
    "hours": "Mon-Fri 9AM-6PM",
    "services": [
      "Buddhist-owned Ashtanga yoga in Texas consultation",
      "Professional service",
      "Quality guarantee"
    ],
    "social_links": {}
  },
  {
    "name": "Diamond Way Buddhist Center Austin",
    "address": "811 W St Johns Ave #2105, Austin, TX 78752",
    "phone": "(512) 284-9081",
    "rating": 4.0,
    "reviews": 25,
    "website": "https://www.diamondway.org/austin/",
    "category": "Buddhist-owned Ashtanga yoga in Texas",
    "description": "Offers meditation and Buddhist teachings",
    "hours": "Mon-Fri 9AM-6PM",
    "services": [
      "Buddhist-owned Ashtanga yoga in Texas consultation",
      "Professional service",
      "Quality guarantee"
    ],
    "social_links": {}
  },
  {
    "name": "Austin Shambhala Meditation Center",
    "address": "(Specific address not provided in search results, but located in Austin, TX)",
    "phone": "",
    "rating": 4.0,
    "reviews": 25,
    "website": "https://austin.shambhala.org/",
    "category": "Buddhist-owned Ashtanga yoga in Texas",
    "description": "Offers meditation, Buddhist classes, and contemplative arts",
    "hours": "Mon-Fri 9AM-6PM",
    "services": [
      "Buddhist-owned Ashtanga yoga in Texas consultation",
      "Professional service",
      "Quality guarantee"
    ],
    "social_links": {}
  }
]