[
  {
    "name": "Little Learners University",
    "address": "592B Peachers Mill Rd, Clarksville, TN 37042",
    "phone": "931-919-2482",
    "rating": 4.0,
    "reviews": 25,
    "website": "https://www.google.com/maps/search/Little+Learners+University+in+Tennessee",
    "category": "African-American-owned Babysitters in Tennessee",
    "description": "A childcare and learning facility",
    "hours": "Mon-Fri 9AM-6PM",
    "services": [
      "African-American-owned Babysitters in Tennessee consultation",
      "Professional service",
      "Quality guarantee"
    ],
    "social_links": {}
  },
  {
    "name": "The Little College",
    "address": "2305 Stokes Rd, Clarksville, TN 37043",
    "phone": "931-217-6280",
    "rating": 4.0,
    "reviews": 25,
    "website": "https://www.google.com/maps/search/The+Little+College+in+Tennessee",
    "category": "African-American-owned Babysitters in Tennessee",
    "description": "A childcare and learning facility",
    "hours": "Mon-Fri 9AM-6PM",
    "services": [
      "African-American-owned Babysitters in Tennessee consultation",
      "Professional service",
      "Quality guarantee"
    ],
    "social_links": {}
  },
  {
    "name": "Boost Educational Services",
    "address": "1860 Wilma Rudolph Blvd #119B, Clarksville, TN 37042",
    "phone": "931-313-9076",
    "rating": 4.0,
    "reviews": 25,
    "website": "https://www.google.com/maps/search/Boost+Educational+Services+in+Tennessee",
    "category": "African-American-owned Babysitters in Tennessee",
    "description": "An educational service provider",
    "hours": "Mon-Fri 9AM-6PM",
    "services": [
      "African-American-owned Babysitters in Tennessee consultation",
      "Professional service",
      "Quality guarantee"
    ],
    "social_links": {}
  },
  {
    "name": "Tiffany's Developmental Learning Academy",
    "address": "2607 Scott Dr, Clarksville, TN 37040",
    "phone": "615-601-6417",
    "rating": 4.0,
    "reviews": 25,
    "website": "https://www.google.com/maps/search/Tiffany's+Developmental+Learning+Academy+in+Tennessee",
    "category": "African-American-owned Babysitters in Tennessee",
    "description": "A developmental learning academy for children",
    "hours": "Mon-Fri 9AM-6PM",
    "services": [
      "African-American-owned Babysitters in Tennessee consultation",
      "Professional service",
      "Quality guarantee"
    ],
    "social_links": {}
  },
  {
    "name": "Ivy Academy Childcare and Preschool",
    "address": "1315 Fort Campbell Blvd, Clarksville, TN 37042",
    "phone": "931-401-1033",
    "rating": 4.0,
    "reviews": 25,
    "website": "https://www.google.com/maps/search/Ivy+Academy+Childcare+and+Preschool+in+Tennessee",
    "category": "African-American-owned Babysitters in Tennessee",
    "description": "A childcare and preschool facility",
    "hours": "Mon-Fri 9AM-6PM",
    "services": [
      "African-American-owned Babysitters in Tennessee consultation",
      "Professional service",
      "Quality guarantee"
    ],
    "social_links": {}
  },
  {
    "name": "Burke's Academy Childcare Center",
    "address": "Lebanon, TN",
    "phone": "",
    "rating": 4.0,
    "reviews": 25,
    "website": "https://www.google.com/maps/search/Burke's+Academy+Childcare+Center+in+Tennessee",
    "category": "African-American-owned Babysitters in Tennessee",
    "description": "A high-quality childcare center",
    "hours": "Mon-Fri 9AM-6PM",
    "services": [
      "African-American-owned Babysitters in Tennessee consultation",
      "Professional service",
      "Quality guarantee"
    ],
    "social_links": {}
  },
  {
    "name": "The Nanny Collection",
    "address": "Clarksville, TN & Chattanooga, TN",
    "phone": "",
    "rating": 4.0,
    "reviews": 25,
    "website": "https://www.google.com/maps/search/The+Nanny+Collection+in+Tennessee",
    "category": "African-American-owned Babysitters in Tennessee",
    "description": "A nanny agency providing placement services with a focus on professional excellence and nanny development",
    "hours": "Mon-Fri 9AM-6PM",
    "services": [
      "African-American-owned Babysitters in Tennessee consultation",
      "Professional service",
      "Quality guarantee"
    ],
    "social_links": {}
  },
  {
    "name": "Haven Nanny Services",
    "address": "Nashville, TN",
    "phone": "",
    "rating": 4.0,
    "reviews": 25,
    "website": "https://www.google.com/maps/search/Haven+Nanny+Services+in+Tennessee",
    "category": "African-American-owned Babysitters in Tennessee",
    "description": "A nanny service connecting families with loving nannies, known for its quality of care",
    "hours": "Mon-Fri 9AM-6PM",
    "services": [
      "African-American-owned Babysitters in Tennessee consultation",
      "Professional service",
      "Quality guarantee"
    ],
    "social_links": {}
  },
  {
    "name": "Little Ones Nanny Agency",
    "address": "Nashville, TN",
    "phone": "",
    "rating": 4.0,
    "reviews": 25,
    "website": "https://www.google.com/maps/search/Little+Ones+Nanny+Agency+in+Tennessee",
    "category": "African-American-owned Babysitters in Tennessee",
    "description": "A nanny placement agency and sitter service connecting families with exceptional nannies and sitters",
    "hours": "Mon-Fri 9AM-6PM",
    "services": [
      "African-American-owned Babysitters in Tennessee consultation",
      "Professional service",
      "Quality guarantee"
    ],
    "social_links": {}
  },
  {
    "name": "Mobile Mommy",
    "address": "Memphis, TN and surrounding areas",
    "phone": "901-265-0631",
    "rating": 4.0,
    "reviews": 25,
    "website": "https://www.google.com/maps/search/Mobile+Mommy+in+Tennessee",
    "category": "African-American-owned Babysitters in Tennessee",
    "description": "Offers high-quality nanny, babysitting, and childcare services, founded by Ashley Gladney with 16 years of experience. They provide CPR/First Aid certified nannies and background checks",
    "hours": "Mon-Fri 9AM-6PM",
    "services": [
      "African-American-owned Babysitters in Tennessee consultation",
      "Professional service",
      "Quality guarantee"
    ],
    "social_links": {}
  }
]