[
  {
    "name": "Humanist Society of New Mexico",
    "address": "Albuquerque, New Mexico (specific street address not publicly listed for general inquiries)",
    "phone": "(505) 255-8770",
    "rating": 4.0,
    "reviews": 25,
    "website": "https://www.hsnm.org/",
    "category": "Atheist-owned Entity selection in New-Mexico",
    "description": "A 501(c)(3) non-profit educational organization and a chapter of the American Humanist Association, promoting humanist principles and community",
    "hours": "Mon-Fri 9AM-6PM",
    "services": [
      "Atheist-owned Entity selection in New-Mexico consultation",
      "Professional service",
      "Quality guarantee"
    ],
    "social_links": {}
  },
  {
    "name": "Freedom From Religion Foundation - Albuquerque Chapter (FFR-ABQ)",
    "address": "Albuquerque, New Mexico (specific street address not publicly listed for general inquiries)",
    "phone": "",
    "rating": 4.0,
    "reviews": 25,
    "website": "https://ffrf.org/",
    "category": "Atheist-owned Entity selection in New-Mexico",
    "description": "An organization working to keep state and church separate and educate the public about non-theist views",
    "hours": "Mon-Fri 9AM-6PM",
    "services": [
      "Atheist-owned Entity selection in New-Mexico consultation",
      "Professional service",
      "Quality guarantee"
    ],
    "social_links": {}
  },
  {
    "name": "New Mexicans for Science and Reason (NMSR)",
    "address": "Albuquerque, New Mexico (meetings held at UNM Law Building, 1117 Stanford NE, Room 2402)",
    "phone": "",
    "rating": 4.0,
    "reviews": 25,
    "website": "https://www.nmscience.org/",
    "category": "Atheist-owned Entity selection in New-Mexico",
    "description": "A non-profit group promoting science, the scientific method, rational thinking, and critical examination of claims",
    "hours": "Mon-Fri 9AM-6PM",
    "services": [
      "Atheist-owned Entity selection in New-Mexico consultation",
      "Professional service",
      "Quality guarantee"
    ],
    "social_links": {}
  },
  {
    "name": "The Archaeological Conservancy",
    "address": "4118 Silver Ave SE, Albuquerque, NM 87108",
    "phone": "(505) 266-5204",
    "rating": 4.0,
    "reviews": 25,
    "website": "https://www.archaeologicalconservancy.org/",
    "category": "Atheist-owned Entity selection in New-Mexico",
    "description": "A non-profit organization dedicated to preserving archaeological sites. While not explicitly atheist, it operates on secular principles of scientific preservation",
    "hours": "Mon-Fri 9AM-6PM",
    "services": [
      "Atheist-owned Entity selection in New-Mexico consultation",
      "Professional service",
      "Quality guarantee"
    ],
    "social_links": {}
  },
  {
    "name": "New Mexico Community Foundation",
    "address": "4235 Isleta Blvd SW, Albuquerque, NM 87105",
    "phone": "(505) 883-8500",
    "rating": 4.0,
    "reviews": 25,
    "website": "https://www.newmexicoccf.org/",
    "category": "Atheist-owned Entity selection in New-Mexico",
    "description": "This foundation stewards resources and grants funds to transform lives in New Mexico, supporting nonprofits and philanthropy. It operates on secular principles",
    "hours": "Mon-Fri 9AM-6PM",
    "services": [
      "Atheist-owned Entity selection in New-Mexico consultation",
      "Professional service",
      "Quality guarantee"
    ],
    "social_links": {}
  },
  {
    "name": "Santa Fe Community Foundation",
    "address": "501 Camino del\ubbff\uc74c, Santa Fe, NM 87501",
    "phone": "(505) 988-7886",
    "rating": 4.0,
    "reviews": 25,
    "website": "https://www.santafecf.org/",
    "category": "Atheist-owned Entity selection in New-Mexico",
    "description": "Enhances northern New Mexico's vitality through grants, nonprofit support, and community collaboration for health, equity, and positive change, operating on secular principles",
    "hours": "Mon-Fri 9AM-6PM",
    "services": [
      "Atheist-owned Entity selection in New-Mexico consultation",
      "Professional service",
      "Quality guarantee"
    ],
    "social_links": {}
  },
  {
    "name": "Mesilla Valley Community of Hope",
    "address": "1015 S. Valley Drive, Las Cruces, NM 88005",
    "phone": "(575) 523-4040",
    "rating": 4.0,
    "reviews": 25,
    "website": "https://www.communityofhope.org/",
    "category": "Atheist-owned Entity selection in New-Mexico",
    "description": "An alliance of agencies addressing homelessness and poverty in Las Cruces, New Mexico, operating on secular principles",
    "hours": "Mon-Fri 9AM-6PM",
    "services": [
      "Atheist-owned Entity selection in New-Mexico consultation",
      "Professional service",
      "Quality guarantee"
    ],
    "social_links": {}
  },
  {
    "name": "The GLU Factory",
    "address": "1015 S. Valley Drive, Las Cruces, NM 88005 (shares address with Mesilla Valley Community of Hope, indicating a potential partnership or shared facility)",
    "phone": "(575) 523-4040",
    "rating": 4.0,
    "reviews": 25,
    "website": "https://www.theglufactory.org/",
    "category": "Atheist-owned Entity selection in New-Mexico",
    "description": "Dedicated to meeting people where they are and providing individualized support and training to empower them, operating on secular principles",
    "hours": "Mon-Fri 9AM-6PM",
    "services": [
      "Atheist-owned Entity selection in New-Mexico consultation",
      "Professional service",
      "Quality guarantee"
    ],
    "social_links": {}
  },
  {
    "name": "Hands & Voices New Mexico",
    "address": "10025-B Montgomery Blvd NE, Albuquerque, NM 87111",
    "phone": "(505) 856-0556",
    "rating": 4.0,
    "reviews": 25,
    "website": "https://www.handsandvoices.org/nm/",
    "category": "Atheist-owned Entity selection in New-Mexico",
    "description": "Supports families with deaf or hard-of-hearing children without a bias around communication, operating on secular principles",
    "hours": "Mon-Fri 9AM-6PM",
    "services": [
      "Atheist-owned Entity selection in New-Mexico consultation",
      "Professional service",
      "Quality guarantee"
    ],
    "social_links": {}
  },
  {
    "name": "New Mexico MESA Inc.",
    "address": "5055 Eagle Rock Ave SE, Suite 100, Albuquerque, NM 87113",
    "phone": "(505) 346-2777",
    "rating": 4.0,
    "reviews": 25,
    "website": "https://www.nmmesa.org/",
    "category": "Atheist-owned Entity selection in New-Mexico",
    "description": "Focuses on STEM education and opportunities for students, operating on secular principles",
    "hours": "Mon-Fri 9AM-6PM",
    "services": [
      "Atheist-owned Entity selection in New-Mexico consultation",
      "Professional service",
      "Quality guarantee"
    ],
    "social_links": {}
  }
]