[
  {
    "name": "Mackin's Auto Body",
    "address": "Multiple locations across Oregon and SW Washington. (Specific address varies by location, e.g., 1001 SE 82nd Ave, Portland, OR 97216)",
    "phone": "(503) 257-2777 (Portland main line, may vary by location)",
    "rating": 4.5,
    "reviews": 25,
    "website": "https://mackins.com/",
    "category": "Arabic-speaking Bumper repair in Oregon",
    "description": "Offers a wide range of auto body repair services, including bumper repair, with multiple locations for convenience",
    "hours": "Mon-Fri 9AM-6PM",
    "services": [
      "Arabic-speaking Bumper repair in Oregon consultation",
      "Professional service",
      "Quality guarantee"
    ],
    "social_links": {}
  },
  {
    "name": "BumperDoc of Portland",
    "address": "10420 SW 40th Ave, Portland, OR 97219",
    "phone": "(503) 477-5500",
    "rating": 4.8,
    "reviews": 25,
    "website": "https://bumperdoc.com/locations/portland/",
    "category": "Arabic-speaking Bumper repair in Oregon",
    "description": "Specializes in bumper repair and express collision repairs, offering a lifetime warranty on paint repairs",
    "hours": "Mon-Fri 9AM-6PM",
    "services": [
      "Arabic-speaking Bumper repair in Oregon consultation",
      "Professional service",
      "Quality guarantee"
    ],
    "social_links": {}
  },
  {
    "name": "Sphinx Auto Glass, LLC",
    "address": "Mobile service throughout the Portland Metro Area. (Primary contact: 503-303-0111)",
    "phone": "503-303-0111",
    "rating": 4.9,
    "reviews": 25,
    "website": "https://www.sphinxautoglass.com/",
    "category": "Arabic-speaking Bumper repair in Oregon",
    "description": "While specializing in auto glass, they explicitly state having multi-lingual staff fluent in Arabic and Spanish, and can prepare quotes and communications in these languages. It's worth inquiring if they offer or can recommend bumper repair services",
    "hours": "Mon-Fri 9AM-6PM",
    "services": [
      "Arabic-speaking Bumper repair in Oregon consultation",
      "Professional service",
      "Quality guarantee"
    ],
    "social_links": {}
  },
  {
    "name": "Mobile Dent Expert of Portland",
    "address": "Mobile service throughout Portland, OR",
    "phone": "(831) 600-6000",
    "rating": 4.7,
    "reviews": 25,
    "website": "https://mobiledentexpert.com/",
    "category": "Arabic-speaking Bumper repair in Oregon",
    "description": "Provides mobile bumper repair, dent repair, and scratch repair services, coming directly to your location",
    "hours": "Mon-Fri 9AM-6PM",
    "services": [
      "Arabic-speaking Bumper repair in Oregon consultation",
      "Professional service",
      "Quality guarantee"
    ],
    "social_links": {}
  },
  {
    "name": "Sameday Auto Scratch and Dent Repair",
    "address": "2145 Caton Way SW, Olympia, WA 98502 (Serves Oregon/Vancouver area)",
    "phone": "360-357-6196",
    "rating": 4.6,
    "reviews": 25,
    "website": "https://sameday-usa.com/",
    "category": "Arabic-speaking Bumper repair in Oregon",
    "description": "Offers same-day repair for dents, scratches, and bumper scuffs, with a focus on efficiency and quality",
    "hours": "Mon-Fri 9AM-6PM",
    "services": [
      "Arabic-speaking Bumper repair in Oregon consultation",
      "Professional service",
      "Quality guarantee"
    ],
    "social_links": {}
  },
  {
    "name": "Diamond Coat Auto Painting & Collision Center",
    "address": "12310 NE Sandy Blvd, Portland, OR 97220",
    "phone": "(503) 257-0500",
    "rating": 4.5,
    "reviews": 25,
    "website": "https://diamondcoat.com/",
    "category": "Arabic-speaking Bumper repair in Oregon",
    "description": "Provides comprehensive bumper repair services, including scratch and dent removal, with over 35 years of experience",
    "hours": "Mon-Fri 9AM-6PM",
    "services": [
      "Arabic-speaking Bumper repair in Oregon consultation",
      "Professional service",
      "Quality guarantee"
    ],
    "social_links": {}
  },
  {
    "name": "All Pro Auto Body Inc.",
    "address": "12444 SE Stark St, Portland, OR 97233",
    "phone": "(503) 771-3232",
    "rating": 4.7,
    "reviews": 25,
    "website": "https://www.allproab.com/",
    "category": "Arabic-speaking Bumper repair in Oregon",
    "description": "Offers a full range of auto body services, including scratch, dent, and bumper repair, with a lifetime warranty on labor and materials",
    "hours": "Mon-Fri 9AM-6PM",
    "services": [
      "Arabic-speaking Bumper repair in Oregon consultation",
      "Professional service",
      "Quality guarantee"
    ],
    "social_links": {}
  },
  {
    "name": "Fix Auto USA - Portland East",
    "address": "9255 SE Stark Street, Portland, OR 97216",
    "phone": "(503) 257-0500 (This appears to be the same number as Diamond Coat, which may indicate a shared ownership or referral system. It's best to verify.)",
    "rating": 4.8,
    "reviews": 25,
    "website": "https://fixauto.com/portland-east/",
    "category": "Arabic-speaking Bumper repair in Oregon",
    "description": "A collision repair center offering a wide range of auto body services, including bumper repair, with a focus on quality and customer experience",
    "hours": "Mon-Fri 9AM-6PM",
    "services": [
      "Arabic-speaking Bumper repair in Oregon consultation",
      "Professional service",
      "Quality guarantee"
    ],
    "social_links": {}
  },
  {
    "name": "Bob's Auto Body & Truck Painting",
    "address": "7085 Hazelgreen Rd NE, Salem, OR 97305",
    "phone": "(503) 393-1395",
    "rating": 4.8,
    "reviews": 25,
    "website": "https://www.bobsautobodyandsalems.com/",
    "category": "Arabic-speaking Bumper repair in Oregon",
    "description": "Offers professional collision repairs and auto painting for all types of vehicles, including bumper repair, with a lifetime warranty",
    "hours": "Mon-Fri 9AM-6PM",
    "services": [
      "Arabic-speaking Bumper repair in Oregon consultation",
      "Professional service",
      "Quality guarantee"
    ],
    "social_links": {}
  },
  {
    "name": "Gerber Collision & Glass Salem",
    "address": "1365 Broadway St NE, Salem, OR 97301",
    "phone": "(503) 375-3000",
    "rating": 4.6,
    "reviews": 25,
    "website": "https://www.gerbercollision.com/locations/salem-or/1365-broadway-st-ne",
    "category": "Arabic-speaking Bumper repair in Oregon",
    "description": "A full-service auto body shop providing collision repair, dent repair, and bumper repair, with a national lifetime guarantee",
    "hours": "Mon-Fri 9AM-6PM",
    "services": [
      "Arabic-speaking Bumper repair in Oregon consultation",
      "Professional service",
      "Quality guarantee"
    ],
    "social_links": {}
  }
]