[
  {
    "name": "Outlast Health and Performance",
    "address": "3600 Clipper Mill Rd, Suite 110, Baltimore, MD 21211",
    "phone": "(410) 231-7694",
    "rating": 5.0,
    "reviews": 25,
    "website": "https://www.outlastperformance.com/",
    "category": "Baby-Boomer-owned Functional fitness in Maryland",
    "description": "Offers group fitness programming designed and coached by Doctors of Physical Therapy, focusing on strength, cardio, and mobility",
    "hours": "Mon-Fri 9AM-6PM",
    "services": [
      "Baby-Boomer-owned Functional fitness in Maryland consultation",
      "Professional service",
      "Quality guarantee"
    ],
    "social_links": {}
  },
  {
    "name": "Reflex Functional Fitness",
    "address": "1001 W. 36th Street, Baltimore, MD 21211",
    "phone": "(410) 231-7694",
    "rating": 5.0,
    "reviews": 25,
    "website": "https://reflexfunctionalfitness.com/",
    "category": "Baby-Boomer-owned Functional fitness in Maryland",
    "description": "A functional fitness gym offering programs for beginners to athletes, with a focus on high-intensity interval training",
    "hours": "Mon-Fri 9AM-6PM",
    "services": [
      "Baby-Boomer-owned Functional fitness in Maryland consultation",
      "Professional service",
      "Quality guarantee"
    ],
    "social_links": {}
  },
  {
    "name": "SoldierFit (Rockville Location)",
    "address": "15743 Crabbs Branch Way, Rockville, MD 20855",
    "phone": "(301) 251-0013",
    "rating": 4.5,
    "reviews": 25,
    "website": "https://soldierfit.com/rockville/",
    "category": "Baby-Boomer-owned Functional fitness in Maryland",
    "description": "A functional fitness gym and indoor facility offering boot camp classes and personal training",
    "hours": "Mon-Fri 9AM-6PM",
    "services": [
      "Baby-Boomer-owned Functional fitness in Maryland consultation",
      "Professional service",
      "Quality guarantee"
    ],
    "social_links": {}
  },
  {
    "name": "Inside-Out Wellness Studio",
    "address": "1636 Pleasant Valley Rd, Westminster, MD 21158",
    "phone": "(410) 857-0000",
    "rating": 4.8,
    "reviews": 25,
    "website": "https://www.insideoutwellnessstudio.com/",
    "category": "Baby-Boomer-owned Functional fitness in Maryland",
    "description": "Dedicated to transforming lives through personalized functional fitness, combining physical training with functional medicine and health coaching",
    "hours": "Mon-Fri 9AM-6PM",
    "services": [
      "Baby-Boomer-owned Functional fitness in Maryland consultation",
      "Professional service",
      "Quality guarantee"
    ],
    "social_links": {}
  },
  {
    "name": "FORZE XXIV TRAINING GYM",
    "address": "10030 Old Columbia Rd, Columbia, MD 21046",
    "phone": "(443) 545-5111",
    "rating": 4.9,
    "reviews": 25,
    "website": "https://forze24.com/",
    "category": "Baby-Boomer-owned Functional fitness in Maryland",
    "description": "Offers functional fitness classes and training with a focus on building strength and improving overall health",
    "hours": "Mon-Fri 9AM-6PM",
    "services": [
      "Baby-Boomer-owned Functional fitness in Maryland consultation",
      "Professional service",
      "Quality guarantee"
    ],
    "social_links": {}
  },
  {
    "name": "Exile Fitness",
    "address": "8007 Corporate Dr, Baltimore, MD 21224",
    "phone": "(410) 455-0050",
    "rating": 4.7,
    "reviews": 25,
    "website": "https://www.exilefitness.com/",
    "category": "Baby-Boomer-owned Functional fitness in Maryland",
    "description": "Known for its intense training approach, offering a 24-hour facility with open equipment and a culture of hardcore training",
    "hours": "Mon-Fri 9AM-6PM",
    "services": [
      "Baby-Boomer-owned Functional fitness in Maryland consultation",
      "Professional service",
      "Quality guarantee"
    ],
    "social_links": {}
  },
  {
    "name": "Edgewater Fitness",
    "address": "3102 Solomons Island Rd, Edgewater, MD 21401",
    "phone": "(410) 956-4440",
    "rating": 4.7,
    "reviews": 25,
    "website": "https://www.edgewaterfitness.com/",
    "category": "Baby-Boomer-owned Functional fitness in Maryland",
    "description": "Offers a variety of membership options, including unlimited group fitness classes and personal training, catering to all levels",
    "hours": "Mon-Fri 9AM-6PM",
    "services": [
      "Baby-Boomer-owned Functional fitness in Maryland consultation",
      "Professional service",
      "Quality guarantee"
    ],
    "social_links": {}
  },
  {
    "name": "Capacity Fitness & Nutrition",
    "address": "1010 S Charles St, Baltimore, MD 21230",
    "phone": "(410) 844-4499",
    "rating": 5.0,
    "reviews": 25,
    "website": "https://capacityfitness.com/",
    "category": "Baby-Boomer-owned Functional fitness in Maryland",
    "description": "A functional fitness gym offering personal training, small group training, and nutrition coaching, focusing on sustainable routines for busy professionals",
    "hours": "Mon-Fri 9AM-6PM",
    "services": [
      "Baby-Boomer-owned Functional fitness in Maryland consultation",
      "Professional service",
      "Quality guarantee"
    ],
    "social_links": {}
  },
  {
    "name": "CrossFit 795",
    "address": "11720 Owings Mills Blvd, Owings Mills, MD 21117",
    "phone": "(410) 998-6000",
    "rating": 4.9,
    "reviews": 25,
    "website": "https://www.crossfit795.com/",
    "category": "Baby-Boomer-owned Functional fitness in Maryland",
    "description": "Focuses on functional exercises at varied intensities to build durable strength and cardio for real-world living, with personalized training options",
    "hours": "Mon-Fri 9AM-6PM",
    "services": [
      "Baby-Boomer-owned Functional fitness in Maryland consultation",
      "Professional service",
      "Quality guarantee"
    ],
    "social_links": {}
  },
  {
    "name": "Stephen Holt - Timonium Personal Trainer",
    "address": "2181 Greenspring Dr, Timonium, MD 21093",
    "phone": "(410) 429-7029",
    "rating": 5.0,
    "reviews": 25,
    "website": "https://www.stephenholt.com/",
    "category": "Baby-Boomer-owned Functional fitness in Maryland",
    "description": "Specializes in helping women over 50 get stronger through science-backed, results-driven training, focusing on building strength and regaining mobility",
    "hours": "Mon-Fri 9AM-6PM",
    "services": [
      "Baby-Boomer-owned Functional fitness in Maryland consultation",
      "Professional service",
      "Quality guarantee"
    ],
    "social_links": {}
  }
]