[
  {
    "name": "Black Birch Lawn Mowing Inc.",
    "address": "38 Hampton Rd, Montgomery, IL 60538",
    "phone": "+1 530-552-5433",
    "rating": 4.0,
    "reviews": 25,
    "website": "http://www.blackbirllawnmowing.com/",
    "category": "African-American-owned Grounds crew in Illinois",
    "description": "Offers lawn mowing, trimming, full-service lawn care, and mulching",
    "hours": "Mon-Fri 9AM-6PM",
    "services": [
      "African-American-owned Grounds crew in Illinois consultation",
      "Professional service",
      "Quality guarantee"
    ],
    "social_links": {}
  },
  {
    "name": "Lawn Care Maven, LLC",
    "address": "Chicago, Illinois (Specific address not provided)",
    "phone": "",
    "rating": 4.0,
    "reviews": 25,
    "website": "https://www.supportblackowned.com/lawn-care-maven-llc",
    "category": "African-American-owned Grounds crew in Illinois",
    "description": "A minority female-owned lawn care and landscaping provider utilizing eco-friendly technologies",
    "hours": "Mon-Fri 9AM-6PM",
    "services": [
      "African-American-owned Grounds crew in Illinois consultation",
      "Professional service",
      "Quality guarantee"
    ],
    "social_links": {}
  },
  {
    "name": "Mingo and Sons Lawn and Landscape",
    "address": "Auburn Gresham, Chatham, and Washington Park, IL (Service areas, specific business address not provided)",
    "phone": "(312) 560-6455",
    "rating": 4.0,
    "reviews": 25,
    "website": "https://www.google.com/maps/search/Mingo+and+Sons+Lawn+and+Landscape+in+Illinois",
    "category": "African-American-owned Grounds crew in Illinois",
    "description": "Offers lawn care, lawn maintenance, landscaping, seasonal cleanups, and snow removal",
    "hours": "Mon-Fri 9AM-6PM",
    "services": [
      "African-American-owned Grounds crew in Illinois consultation",
      "Professional service",
      "Quality guarantee"
    ],
    "social_links": {}
  },
  {
    "name": "Urban Growers Collective",
    "address": "Chicago, Illinois (Specific address not provided)",
    "phone": "",
    "rating": 4.0,
    "reviews": 25,
    "website": "https://www.growgreater.org/",
    "category": "African-American-owned Grounds crew in Illinois",
    "description": "A Black- and women-led non-profit urban farm focused on building a just and equitable local food system, providing jobs and training",
    "hours": "Mon-Fri 9AM-6PM",
    "services": [
      "African-American-owned Grounds crew in Illinois consultation",
      "Professional service",
      "Quality guarantee"
    ],
    "social_links": {}
  },
  {
    "name": "Dante's Native Landscape",
    "address": "Serving the greater Chicago IL area",
    "phone": "(773) 697-1571",
    "rating": 4.0,
    "reviews": 25,
    "website": "https://www.dantesnativelandscape.com/",
    "category": "African-American-owned Grounds crew in Illinois",
    "description": "Offers landscape design, construction, paving, and lawn maintenance",
    "hours": "Mon-Fri 9AM-6PM",
    "services": [
      "African-American-owned Grounds crew in Illinois consultation",
      "Professional service",
      "Quality guarantee"
    ],
    "social_links": {}
  },
  {
    "name": "Stevenson Horticultural Service, Inc.",
    "address": "11313 C Crimmins Road, Newark, IL 60541",
    "phone": "1-815-695-1096",
    "rating": 4.0,
    "reviews": 25,
    "website": "https://www.stevensonhorticultural.com/",
    "category": "African-American-owned Grounds crew in Illinois",
    "description": "Provides full-service residential and commercial landscape design, planting, installation, and grounds maintenance",
    "hours": "Mon-Fri 9AM-6PM",
    "services": [
      "African-American-owned Grounds crew in Illinois consultation",
      "Professional service",
      "Quality guarantee"
    ],
    "social_links": {}
  },
  {
    "name": "Green Edens Horticultural Services, LLC",
    "address": "Evanston, Illinois (Specific address not provided)",
    "phone": "",
    "rating": 4.0,
    "reviews": 25,
    "website": "https://www.greenedens.com/",
    "category": "African-American-owned Grounds crew in Illinois",
    "description": "A woman-owned, sustainable landscaping company focusing on eco-friendly practices and native plant material",
    "hours": "Mon-Fri 9AM-6PM",
    "services": [
      "African-American-owned Grounds crew in Illinois consultation",
      "Professional service",
      "Quality guarantee"
    ],
    "social_links": {}
  },
  {
    "name": "Urban Roots Inc.",
    "address": "Chicago, Illinois (Specific address not provided)",
    "phone": "(773) 952-6842",
    "rating": 4.0,
    "reviews": 25,
    "website": "https://www.urbanrootschicago.com/",
    "category": "African-American-owned Grounds crew in Illinois",
    "description": "An award-winning company specializing in commercial landscaping and snow removal, committed to improving the economic landscape in underserved communities",
    "hours": "Mon-Fri 9AM-6PM",
    "services": [
      "African-American-owned Grounds crew in Illinois consultation",
      "Professional service",
      "Quality guarantee"
    ],
    "social_links": {}
  },
  {
    "name": "AM Lewis Farms",
    "address": "Matteson (Cook County), IL",
    "phone": "708-714-7668",
    "rating": 4.0,
    "reviews": 25,
    "website": "https://www.google.com/maps/search/AM+Lewis+Farms+in+Illinois",
    "category": "African-American-owned Grounds crew in Illinois",
    "description": "A farm selling produce, flowers, and fresh eggs, with a focus on Back to Eden style gardening",
    "hours": "Mon-Fri 9AM-6PM",
    "services": [
      "African-American-owned Grounds crew in Illinois consultation",
      "Professional service",
      "Quality guarantee"
    ],
    "social_links": {}
  },
  {
    "name": "Chi City Foods",
    "address": "Chicago, IL (Altgeld Gardens)",
    "phone": "",
    "rating": 4.0,
    "reviews": 25,
    "website": "https://www.google.com/maps/search/Chi+City+Foods+in+Illinois",
    "category": "African-American-owned Grounds crew in Illinois",
    "description": "Driven by the passion to provide marginalized groups with access to fresh produce and training opportunities in urban agriculture",
    "hours": "Mon-Fri 9AM-6PM",
    "services": [
      "African-American-owned Grounds crew in Illinois consultation",
      "Professional service",
      "Quality guarantee"
    ],
    "social_links": {}
  }
]