[
  {
    "name": "Smile Arts General Cosmetic Dentistry",
    "address": "7310 Corporate Dr, Ste 100, Baltimore, MD 21236",
    "phone": "(301) 474-1110",
    "rating": 4.0,
    "reviews": 25,
    "website": "https://www.smileartsdentistry.com/",
    "category": "Asian-owned Cosmetic dentistry in Maryland",
    "description": "Offers a range of cosmetic and general dentistry services, including teeth whitening, veneers, crowns, and dental implants",
    "hours": "Mon-Fri 9AM-6PM",
    "services": [
      "Asian-owned Cosmetic dentistry in Maryland consultation",
      "Professional service",
      "Quality guarantee"
    ],
    "social_links": {}
  },
  {
    "name": "PearlFection Dentistry",
    "address": "1080 W Patrick St, Frederick, MD 21703",
    "phone": "(301) 662-4545",
    "rating": 4.0,
    "reviews": 25,
    "website": "https://www.pearlfectiondentistry.com/",
    "category": "Asian-owned Cosmetic dentistry in Maryland",
    "description": "Provides general and cosmetic dentistry services. Dr. EJ Stringer is fluent in Korean and English",
    "hours": "Mon-Fri 9AM-6PM",
    "services": [
      "Asian-owned Cosmetic dentistry in Maryland consultation",
      "Professional service",
      "Quality guarantee"
    ],
    "social_links": {}
  },
  {
    "name": "Germantown Dental & Cosmetic Center",
    "address": "19730 Germantown Rd, Ste 101, Germantown, MD 20874",
    "phone": "(301) 540-0500",
    "rating": 4.0,
    "reviews": 25,
    "website": "https://www.germantowndental.com/",
    "category": "Asian-owned Cosmetic dentistry in Maryland",
    "description": "Offers general and cosmetic dentistry, including teeth whitening, implants, and veneers",
    "hours": "Mon-Fri 9AM-6PM",
    "services": [
      "Asian-owned Cosmetic dentistry in Maryland consultation",
      "Professional service",
      "Quality guarantee"
    ],
    "social_links": {}
  },
  {
    "name": "True Love Dental",
    "address": "10010 Old Columbia Rd, Ste 101, Columbia, MD 21046",
    "phone": "(410) 381-4040",
    "rating": 4.0,
    "reviews": 25,
    "website": "https://www.truelovedental.com/",
    "category": "Asian-owned Cosmetic dentistry in Maryland",
    "description": "Provides general dentistry and oral surgery. Dr. Henry Sung and Dr. Han Ick Park are part of the practice",
    "hours": "Mon-Fri 9AM-6PM",
    "services": [
      "Asian-owned Cosmetic dentistry in Maryland consultation",
      "Professional service",
      "Quality guarantee"
    ],
    "social_links": {}
  },
  {
    "name": "Sun Dental Associates",
    "address": "11144-A South Laurel Drive, Laurel, MD 20707",
    "phone": "(301) 498-7770",
    "rating": 4.0,
    "reviews": 25,
    "website": "https://www.sundentalassociates.com/",
    "category": "Asian-owned Cosmetic dentistry in Maryland",
    "description": "Offers general and cosmetic dentistry. Dr. Richard Sun is fluent in English and Chinese Mandarin",
    "hours": "Mon-Fri 9AM-6PM",
    "services": [
      "Asian-owned Cosmetic dentistry in Maryland consultation",
      "Professional service",
      "Quality guarantee"
    ],
    "social_links": {}
  },
  {
    "name": "Paulomi R. Desai, DDS",
    "address": "10320 Little Patuxent Pkwy, Ste 201, Columbia, MD 21044",
    "phone": "(410) 730-1000",
    "rating": 4.0,
    "reviews": 25,
    "website": "https://www.paulomidesai.com/",
    "category": "Asian-owned Cosmetic dentistry in Maryland",
    "description": "Provides general and cosmetic dentistry services, including teeth whitening, implants, and veneers",
    "hours": "Mon-Fri 9AM-6PM",
    "services": [
      "Asian-owned Cosmetic dentistry in Maryland consultation",
      "Professional service",
      "Quality guarantee"
    ],
    "social_links": {}
  },
  {
    "name": "Pearl Smiles Dental",
    "address": "6020 Meadowridge Center Drive, Suite A, Elkridge, MD 21075",
    "phone": "(410) 799-1793",
    "rating": 4.0,
    "reviews": 25,
    "website": "https://www.pearlsmilesdentist.com/",
    "category": "Asian-owned Cosmetic dentistry in Maryland",
    "description": "Offers general and cosmetic dentistry, including dental implants and porcelain veneers. Dr. Liya Goitom is the dentist",
    "hours": "Mon-Fri 9AM-6PM",
    "services": [
      "Asian-owned Cosmetic dentistry in Maryland consultation",
      "Professional service",
      "Quality guarantee"
    ],
    "social_links": {}
  },
  {
    "name": "Maryland Implant Dentists",
    "address": "660 Kenilworth Dr, Ste 103, Towson, MD 21204",
    "phone": "(410) 821-8800",
    "rating": 4.0,
    "reviews": 25,
    "website": "https://www.marylandimplantdentists.com/",
    "category": "Asian-owned Cosmetic dentistry in Maryland",
    "description": "Provides comprehensive dental and oral rehabilitation, including periodontics, prosthodontics, and dental implants",
    "hours": "Mon-Fri 9AM-6PM",
    "services": [
      "Asian-owned Cosmetic dentistry in Maryland consultation",
      "Professional service",
      "Quality guarantee"
    ],
    "social_links": {}
  },
  {
    "name": "Cosmetic & Advanced Dentistry",
    "address": "10304 Reisterstown Rd, Owings Mills, MD 21117",
    "phone": "(410) 363-7900",
    "rating": 4.0,
    "reviews": 25,
    "website": "https://www.cosmeticandadvanceddentistry.com/",
    "category": "Asian-owned Cosmetic dentistry in Maryland",
    "description": "Offers cosmetic dentistry services such as porcelain veneers and dental implants. Dr. Ed Lazer is the lead dentist",
    "hours": "Mon-Fri 9AM-6PM",
    "services": [
      "Asian-owned Cosmetic dentistry in Maryland consultation",
      "Professional service",
      "Quality guarantee"
    ],
    "social_links": {}
  },
  {
    "name": "Dr. Alibakhshi",
    "address": "19730 Germantown Rd, Ste 101, Germantown, MD 20874",
    "phone": "(301) 540-0500",
    "rating": 4.0,
    "reviews": 25,
    "website": "https://www.germantowndental.com/",
    "category": "Asian-owned Cosmetic dentistry in Maryland",
    "description": "Dr. Alibakhshi offers advanced implantology, cosmetic dentistry, and other dental specialties",
    "hours": "Mon-Fri 9AM-6PM",
    "services": [
      "Asian-owned Cosmetic dentistry in Maryland consultation",
      "Professional service",
      "Quality guarantee"
    ],
    "social_links": {}
  }
]