[
  {
    "name": "Glick Family Funeral Home",
    "address": "Boca Raton, FL",
    "phone": "(561) 391-4555",
    "rating": 4.0,
    "reviews": 25,
    "website": "https://www.glickfamilyfuneralhome.com/",
    "category": "Catholic-owned Social celebration planning in Florida",
    "description": "A funeral home that assists with Catholic funeral planning and services",
    "hours": "Mon-Fri 9AM-6PM",
    "services": [
      "Catholic-owned Social celebration planning in Florida consultation",
      "Professional service",
      "Quality guarantee"
    ],
    "social_links": {}
  },
  {
    "name": "St. Anastasia Catholic Church",
    "address": "5205 A1A S, St. Augustine, FL 32080, USA",
    "phone": "(904) 471-5140",
    "rating": 4.0,
    "reviews": 25,
    "website": "https://www.st-anastasia.org/",
    "category": "Catholic-owned Social celebration planning in Florida",
    "description": "A Catholic church that hosts various events and provides space for community gatherings",
    "hours": "Mon-Fri 9AM-6PM",
    "services": [
      "Catholic-owned Social celebration planning in Florida consultation",
      "Professional service",
      "Quality guarantee"
    ],
    "social_links": {}
  },
  {
    "name": "Holy Family Catholic Church",
    "address": "1010 N Federal Hwy, Jacksonville, FL 32207",
    "phone": "(904) 741-1414",
    "rating": 4.0,
    "reviews": 25,
    "website": "https://www.holyfamilyjax.org/",
    "category": "Catholic-owned Social celebration planning in Florida",
    "description": "A Catholic church that provides resources for funeral planning and lists local funeral homes and cemeteries",
    "hours": "Mon-Fri 9AM-6PM",
    "services": [
      "Catholic-owned Social celebration planning in Florida consultation",
      "Professional service",
      "Quality guarantee"
    ],
    "social_links": {}
  },
  {
    "name": "St. Joseph Catholic Church",
    "address": "3012 26th St SW, Bradenton, FL 34217",
    "phone": "(941) 756-3732",
    "rating": 4.0,
    "reviews": 25,
    "website": "https://www.sjcfl.org/",
    "category": "Catholic-owned Social celebration planning in Florida",
    "description": "A Catholic church that assists with funeral Mass planning and offers a parish funeral planning team",
    "hours": "Mon-Fri 9AM-6PM",
    "services": [
      "Catholic-owned Social celebration planning in Florida consultation",
      "Professional service",
      "Quality guarantee"
    ],
    "social_links": {}
  },
  {
    "name": "Church of St. Brendan",
    "address": "8755 SW 184th St, Miami, FL 33157",
    "phone": "(305) 221-0881",
    "rating": 4.0,
    "reviews": 25,
    "website": "https://www.stbrendan.org/",
    "category": "Catholic-owned Social celebration planning in Florida",
    "description": "A Catholic church that assists with funeral and memorial services",
    "hours": "Mon-Fri 9AM-6PM",
    "services": [
      "Catholic-owned Social celebration planning in Florida consultation",
      "Professional service",
      "Quality guarantee"
    ],
    "social_links": {}
  },
  {
    "name": "St. Stephen Catholic Church",
    "address": "10528 Old Saint Stephen Rd, Riverview, FL 33578",
    "phone": "(813) 689-4900",
    "rating": 4.0,
    "reviews": 25,
    "website": "https://www.ststephencatholic.org/",
    "category": "Catholic-owned Social celebration planning in Florida",
    "description": "A Catholic church that assists with funeral Mass planning and offers grief support",
    "hours": "Mon-Fri 9AM-6PM",
    "services": [
      "Catholic-owned Social celebration planning in Florida consultation",
      "Professional service",
      "Quality guarantee"
    ],
    "social_links": {}
  },
  {
    "name": "Diocese of Orlando",
    "address": "100 E. Robinson Street, Orlando, FL 32801",
    "phone": "(407) 246-7175",
    "rating": 4.0,
    "reviews": 25,
    "website": "https://www.orlandodiocese.org/",
    "category": "Catholic-owned Social celebration planning in Florida",
    "description": "The diocese hosts various events and ministries, including recovery ministries and educational courses",
    "hours": "Mon-Fri 9AM-6PM",
    "services": [
      "Catholic-owned Social celebration planning in Florida consultation",
      "Professional service",
      "Quality guarantee"
    ],
    "social_links": {}
  },
  {
    "name": "San Pedro Spiritual Development Center",
    "address": "105 E. Lake Dr., Winter Park, FL 32792",
    "phone": "(407) 671-6393",
    "rating": 4.0,
    "reviews": 25,
    "website": "https://sanpedrocenter.org/",
    "category": "Catholic-owned Social celebration planning in Florida",
    "description": "A retreat and spiritual development center offering facilities for groups and private retreats",
    "hours": "Mon-Fri 9AM-6PM",
    "services": [
      "Catholic-owned Social celebration planning in Florida consultation",
      "Professional service",
      "Quality guarantee"
    ],
    "social_links": {}
  },
  {
    "name": "Sacred Heart Catholic Church (Tampa)",
    "address": "509 N. Florida Avenue, Tampa, FL 33602",
    "phone": "(813) 229-1595",
    "rating": 4.0,
    "reviews": 25,
    "website": "https://sacredheartfla.org/",
    "category": "Catholic-owned Social celebration planning in Florida",
    "description": "A Catholic church that hosts various parish events and offers its venue for weddings",
    "hours": "Mon-Fri 9AM-6PM",
    "services": [
      "Catholic-owned Social celebration planning in Florida consultation",
      "Professional service",
      "Quality guarantee"
    ],
    "social_links": {}
  },
  {
    "name": "MorningStar Renewal Center",
    "address": "7275 SW 124th St, Pinecrest, FL 33156",
    "phone": "(305) 238-4367",
    "rating": 4.0,
    "reviews": 25,
    "website": "https://www.morningstarrenewal.org/",
    "category": "Catholic-owned Social celebration planning in Florida",
    "description": "A retreat house rooted in the Catholic tradition, serving the Archdiocese of Miami",
    "hours": "Mon-Fri 9AM-6PM",
    "services": [
      "Catholic-owned Social celebration planning in Florida consultation",
      "Professional service",
      "Quality guarantee"
    ],
    "social_links": {}
  }
]