[
  {
    "name": "Frankel CPA",
    "address": "11212 Davenport St, Omaha, NE 68154",
    "phone": "(402) 391-1040",
    "rating": 4.7,
    "reviews": 25,
    "website": "https://www.frankel-cpa.com/",
    "category": "Bengali-speaking Accountants in Nebraska",
    "description": "Provides comprehensive accounting, tax, and consulting services for businesses and individuals",
    "hours": "Mon-Fri 9AM-6PM",
    "services": [
      "Bengali-speaking Accountants in Nebraska consultation",
      "Professional service",
      "Quality guarantee"
    ],
    "social_links": {}
  },
  {
    "name": "Core CPA Tax Service & Payroll",
    "address": "1111 N Webb Rd, Grand Island, NE 68803",
    "phone": "(308) 382-5720",
    "rating": 4.8,
    "reviews": 25,
    "website": "https://corecpas.com/",
    "category": "Bengali-speaking Accountants in Nebraska",
    "description": "A locally owned, full-service accounting firm offering tax services, payroll, and bookkeeping",
    "hours": "Mon-Fri 9AM-6PM",
    "services": [
      "Bengali-speaking Accountants in Nebraska consultation",
      "Professional service",
      "Quality guarantee"
    ],
    "social_links": {}
  },
  {
    "name": "McChesney Martin Sagehorn, P.C.",
    "address": "110 E 5th St, North Platte, NE 69101",
    "phone": "(308) 532-0140",
    "rating": 4.7,
    "reviews": 25,
    "website": "https://www.mms-cpas.com/",
    "category": "Bengali-speaking Accountants in Nebraska",
    "description": "Offers accurate and reliable financial services including tax preparation, payroll, and bookkeeping",
    "hours": "Mon-Fri 9AM-6PM",
    "services": [
      "Bengali-speaking Accountants in Nebraska consultation",
      "Professional service",
      "Quality guarantee"
    ],
    "social_links": {}
  },
  {
    "name": "Dana J. Weber, CPA",
    "address": "1620 Ave I, Scottsbluff, NE 69361",
    "phone": "(308) 635-3008",
    "rating": 4.7,
    "reviews": 25,
    "website": "https://danajwebercpa.com/",
    "category": "Bengali-speaking Accountants in Nebraska",
    "description": "A professional, experienced, and affordable accounting firm offering a broad range of services",
    "hours": "Mon-Fri 9AM-6PM",
    "services": [
      "Bengali-speaking Accountants in Nebraska consultation",
      "Professional service",
      "Quality guarantee"
    ],
    "social_links": {}
  },
  {
    "name": "BMG CPAs",
    "address": "3533 S 85th St, Lincoln, NE 68520",
    "phone": "(402) 420-5000",
    "rating": 4.7,
    "reviews": 25,
    "website": "https://www.bmgcpas.com/",
    "category": "Bengali-speaking Accountants in Nebraska",
    "description": "A Certified Public Accounting and Consulting firm providing accounting, auditing, and tax return preparation services",
    "hours": "Mon-Fri 9AM-6PM",
    "services": [
      "Bengali-speaking Accountants in Nebraska consultation",
      "Professional service",
      "Quality guarantee"
    ],
    "social_links": {}
  },
  {
    "name": "KG Tax & Accounting Solutions",
    "address": "1502 N 30th St, Bellevue, NE 68123",
    "phone": "(402) 905-5000",
    "rating": 4.9,
    "reviews": 25,
    "website": "https://kgtaxandaccountingsolutions.com/",
    "category": "Bengali-speaking Accountants in Nebraska",
    "description": "Provides tax preparation, bookkeeping, and financial consulting services",
    "hours": "Mon-Fri 9AM-6PM",
    "services": [
      "Bengali-speaking Accountants in Nebraska consultation",
      "Professional service",
      "Quality guarantee"
    ],
    "social_links": {}
  },
  {
    "name": "KSO CPAs + Advisors",
    "address": "404 E 25th St, Kearney, NE 68847",
    "phone": "(308) 234-5565",
    "rating": 4.7,
    "reviews": 25,
    "website": "https://ksocpas.com/",
    "category": "Bengali-speaking Accountants in Nebraska",
    "description": "Offers accounting services and practical advice on financial matters to help clients achieve their goals",
    "hours": "Mon-Fri 9AM-6PM",
    "services": [
      "Bengali-speaking Accountants in Nebraska consultation",
      "Professional service",
      "Quality guarantee"
    ],
    "social_links": {}
  },
  {
    "name": "Burch & Associates, Inc.",
    "address": "1125 N 13th St, Lincoln, NE 68508",
    "phone": "(402) 475-5222",
    "rating": 4.7,
    "reviews": 25,
    "website": "https://burch-associates.com/",
    "category": "Bengali-speaking Accountants in Nebraska",
    "description": "A leading accounting and tax firm offering tax preparation, bookkeeping, payroll, and financial consulting",
    "hours": "Mon-Fri 9AM-6PM",
    "services": [
      "Bengali-speaking Accountants in Nebraska consultation",
      "Professional service",
      "Quality guarantee"
    ],
    "social_links": {}
  },
  {
    "name": "Erickson & Brooks",
    "address": "2195 N Broad St, Fremont, NE 68025",
    "phone": "(402) 721-3454",
    "rating": 4.7,
    "reviews": 25,
    "website": "https://www.eb-cpa.com/",
    "category": "Bengali-speaking Accountants in Nebraska",
    "description": "A comprehensive CPA and accounting firm offering a wide range of services",
    "hours": "Mon-Fri 9AM-6PM",
    "services": [
      "Bengali-speaking Accountants in Nebraska consultation",
      "Professional service",
      "Quality guarantee"
    ],
    "social_links": {}
  },
  {
    "name": "Dutton & Associates P.C.",
    "address": "11212 Davenport St, Omaha, NE 68154",
    "phone": "(402) 391-1040",
    "rating": 4.7,
    "reviews": 25,
    "website": "https://www.dutton-cpas.com/",
    "category": "Bengali-speaking Accountants in Nebraska",
    "description": "An established Certified Public Accounting and Consulting firm providing business and financial advisory services",
    "hours": "Mon-Fri 9AM-6PM",
    "services": [
      "Bengali-speaking Accountants in Nebraska consultation",
      "Professional service",
      "Quality guarantee"
    ],
    "social_links": {}
  }
]