[
  {
    "name": "Peter Welch's Gym",
    "address": "409 Neponset Ave, Boston, MA 02122",
    "phone": "(617) 436-7700",
    "rating": 4.8,
    "reviews": 25,
    "website": "https://www.peterwelchsgym.com/",
    "category": "Atheist-owned Boxing classes in Massachusetts",
    "description": "A well-established boxing gym offering classes for all levels, known for its strong community and experienced trainers",
    "hours": "Mon-Fri 9AM-6PM",
    "services": [
      "Atheist-owned Boxing classes in Massachusetts consultation",
      "Professional service",
      "Quality guarantee"
    ],
    "social_links": {}
  },
  {
    "name": "Boston Boxing & Fitness",
    "address": "1350 Blue Hill Ave, Mattapan, MA 02126",
    "phone": "(617) 296-2694",
    "rating": 4.7,
    "reviews": 25,
    "website": "https://www.bostonboxing.com/",
    "category": "Atheist-owned Boxing classes in Massachusetts",
    "description": "An Olympic-style boxing training center with certified instructors and strength coaches, catering to both competitive and recreational boxers",
    "hours": "Mon-Fri 9AM-6PM",
    "services": [
      "Atheist-owned Boxing classes in Massachusetts consultation",
      "Professional service",
      "Quality guarantee"
    ],
    "social_links": {}
  },
  {
    "name": "Boston's Boxer Club",
    "address": "3520 Washington St, Jamaica Plain, MA 02130",
    "phone": "(617) 319-0140",
    "rating": 4.9,
    "reviews": 25,
    "website": "https://www.bostonsboxerclub.com/",
    "category": "Atheist-owned Boxing classes in Massachusetts",
    "description": "A USA Boxing certified gym offering kickboxing and boxing classes, personal training, and competition team training for all levels",
    "hours": "Mon-Fri 9AM-6PM",
    "services": [
      "Atheist-owned Boxing classes in Massachusetts consultation",
      "Professional service",
      "Quality guarantee"
    ],
    "social_links": {}
  },
  {
    "name": "Firicano Boxing & Fitness Center",
    "address": "37 Central St, Stoneham, MA 02180",
    "phone": "(781) 438-0008",
    "rating": 4.9,
    "reviews": 25,
    "website": "https://www.firicanoboxing.com/",
    "category": "Atheist-owned Boxing classes in Massachusetts",
    "description": "A results-driven boxing and fitness center offering a unique program that combines boxing workouts, strength training, and personalized support",
    "hours": "Mon-Fri 9AM-6PM",
    "services": [
      "Atheist-owned Boxing classes in Massachusetts consultation",
      "Professional service",
      "Quality guarantee"
    ],
    "social_links": {}
  },
  {
    "name": "MK Boxing Gym",
    "address": "1 Esquire Rd, North Billerica, MA 01862",
    "phone": "(781) 376-4269",
    "rating": 4.8,
    "reviews": 25,
    "website": "https://www.mkboxing.com/",
    "category": "Atheist-owned Boxing classes in Massachusetts",
    "description": "A family-owned gym offering boxing, kickboxing, Muay Thai, and boxing for children classes in a fully equipped facility welcoming all fitness levels",
    "hours": "Mon-Fri 9AM-6PM",
    "services": [
      "Atheist-owned Boxing classes in Massachusetts consultation",
      "Professional service",
      "Quality guarantee"
    ],
    "social_links": {}
  },
  {
    "name": "BoxSmith",
    "address": "1864 Centre Street, West Roxbury, MA 02132",
    "phone": "(617) 325-2699",
    "rating": 4.9,
    "reviews": 25,
    "website": "https://www.boxsmith.net/",
    "category": "Atheist-owned Boxing classes in Massachusetts",
    "description": "A boxing gym focused on teaching technical boxing techniques and providing a satisfying workout in an inclusive community environment",
    "hours": "Mon-Fri 9AM-6PM",
    "services": [
      "Atheist-owned Boxing classes in Massachusetts consultation",
      "Professional service",
      "Quality guarantee"
    ],
    "social_links": {}
  },
  {
    "name": "Team Pollard Boxing Club",
    "address": "979 Central Street, Stoughton, MA 02072",
    "phone": "(781) 344-2699",
    "rating": 4.8,
    "reviews": 25,
    "website": "https://www.teampollardboxing.com/",
    "category": "Atheist-owned Boxing classes in Massachusetts",
    "description": "Offers beginner and intermediate boxing classes and boot camps, emphasizing leadership, discipline, and mindset",
    "hours": "Mon-Fri 9AM-6PM",
    "services": [
      "Atheist-owned Boxing classes in Massachusetts consultation",
      "Professional service",
      "Quality guarantee"
    ],
    "social_links": {}
  },
  {
    "name": "TITLE Boxing Club Norwood",
    "address": "1210 Providence Highway, Norwood, MA 02062",
    "phone": "(508) 573-4828",
    "rating": 4.7,
    "reviews": 25,
    "website": "https://www.titleboxingclub.com/ma-norwood-1020/",
    "category": "Atheist-owned Boxing classes in Massachusetts",
    "description": "A boxing and kickboxing studio offering full-body fitness classes for all levels, with a focus on making the first class experience fun and easy",
    "hours": "Mon-Fri 9AM-6PM",
    "services": [
      "Atheist-owned Boxing classes in Massachusetts consultation",
      "Professional service",
      "Quality guarantee"
    ],
    "social_links": {}
  },
  {
    "name": "Lawtown Boxing Gym",
    "address": "143 S Union St, Lawrence, MA 01843",
    "phone": "(978) 686-2699",
    "rating": 4.8,
    "reviews": 25,
    "website": "https://www.lawtownboxing.com/",
    "category": "Atheist-owned Boxing classes in Massachusetts",
    "description": "A family-run boxing gym that provides free memberships to young people, aiming to equip them with tools to thrive in life",
    "hours": "Mon-Fri 9AM-6PM",
    "services": [
      "Atheist-owned Boxing classes in Massachusetts consultation",
      "Professional service",
      "Quality guarantee"
    ],
    "social_links": {}
  },
  {
    "name": "The Ring Boxing Club",
    "address": "1640 Washington St, Boston, MA 02118",
    "phone": "(617) 542-2555",
    "rating": 4.7,
    "reviews": 25,
    "website": "https://www.theringboxingclub.com/",
    "category": "Atheist-owned Boxing classes in Massachusetts",
    "description": "A boxing gym known for its authentic training environment and experienced coaches, recommended for those looking to learn the sport",
    "hours": "Mon-Fri 9AM-6PM",
    "services": [
      "Atheist-owned Boxing classes in Massachusetts consultation",
      "Professional service",
      "Quality guarantee"
    ],
    "social_links": {}
  }
]