[
  {
    "name": "Premier Systems Roofing South Dakota",
    "address": "Sioux Falls, SD (Specific address not found in search results, but headquartered here)",
    "phone": "(605) 553-3390 (This number is associated with T2 Roofing, which is a related service)",
    "rating": 4.0,
    "reviews": 25,
    "website": "https://premiersystemssouthdakota.com/",
    "category": "Chinese-speaking Roofing replacement in South-Dakota",
    "description": "Offers residential and commercial roofing, siding, and gutters. They work with insurance companies for storm damage claims",
    "hours": "Mon-Fri 9AM-6PM",
    "services": [
      "Chinese-speaking Roofing replacement in South-Dakota consultation",
      "Professional service",
      "Quality guarantee"
    ],
    "social_links": {}
  },
  {
    "name": "Top Notch Roofing",
    "address": "Sioux Falls, SD (Specific address not found in search results, but operates in Sioux Falls)",
    "phone": "(605) 274-0727",
    "rating": 5.0,
    "reviews": 25,
    "website": "https://topnotchroofingsd.com/",
    "category": "Chinese-speaking Roofing replacement in South-Dakota",
    "description": "Provides quality roofing, siding, and gutters in Sioux Falls and surrounding areas. They offer free inspections and estimates",
    "hours": "Mon-Fri 9AM-6PM",
    "services": [
      "Chinese-speaking Roofing replacement in South-Dakota consultation",
      "Professional service",
      "Quality guarantee"
    ],
    "social_links": {}
  },
  {
    "name": "T2 Roofing",
    "address": "Sioux Falls, SD (Specific address not found in search results, but serves Sioux Falls and surrounding areas)",
    "phone": "(605) 553-3390",
    "rating": 4.0,
    "reviews": 25,
    "website": "https://t2roofing.com/",
    "category": "Chinese-speaking Roofing replacement in South-Dakota",
    "description": "Offers residential and commercial roofing services including installation, repair, and inspection. They are an Owen Corning Preferred Roofing Contractor",
    "hours": "Mon-Fri 9AM-6PM",
    "services": [
      "Chinese-speaking Roofing replacement in South-Dakota consultation",
      "Professional service",
      "Quality guarantee"
    ],
    "social_links": {}
  },
  {
    "name": "Diamond Roofing",
    "address": "Rapid City, SD (Specific address not found in search results, but serves Rapid City and the Black Hills area)",
    "phone": "(605) 720-7663",
    "rating": 4.0,
    "reviews": 25,
    "website": "https://diamondroofingcorp.com/",
    "category": "Chinese-speaking Roofing replacement in South-Dakota",
    "description": "Specializes in residential and commercial roofing, siding, and windows. They have over 40 years of combined experience",
    "hours": "Mon-Fri 9AM-6PM",
    "services": [
      "Chinese-speaking Roofing replacement in South-Dakota consultation",
      "Professional service",
      "Quality guarantee"
    ],
    "social_links": {}
  },
  {
    "name": "USA Roofing",
    "address": "Rapid City, SD (Specific address not found in search results, but serves Rapid City, the Black Hills, and Western South Dakota)",
    "phone": "(605) 721-0101",
    "rating": 4.9,
    "reviews": 25,
    "website": "https://usaroofing.com/",
    "category": "Chinese-speaking Roofing replacement in South-Dakota",
    "description": "Provides asphalt, metal, and flat roofing services, specializing in storm restoration and hail damage repair. They are a family-owned business",
    "hours": "Mon-Fri 9AM-6PM",
    "services": [
      "Chinese-speaking Roofing replacement in South-Dakota consultation",
      "Professional service",
      "Quality guarantee"
    ],
    "social_links": {}
  },
  {
    "name": "Yeti Roofing",
    "address": "Rapid City, SD (Specific address not found in search results, but serves Rapid City and surrounding areas)",
    "phone": "(605) 430-1010",
    "rating": 4.7,
    "reviews": 25,
    "website": "https://yetiroofing.com/",
    "category": "Chinese-speaking Roofing replacement in South-Dakota",
    "description": "Offers roof repair, replacement, and free inspections for residential and commercial properties. They are a GAF Master Contractor and Malarkey Certified Roofer",
    "hours": "Mon-Fri 9AM-6PM",
    "services": [
      "Chinese-speaking Roofing replacement in South-Dakota consultation",
      "Professional service",
      "Quality guarantee"
    ],
    "social_links": {}
  },
  {
    "name": "Rapid City Roofing",
    "address": "Rapid City, SD (Specific address not found in search results, but serves Rapid City and surrounding areas)",
    "phone": "(605) 721-0101",
    "rating": 4.0,
    "reviews": 25,
    "website": "https://rapidcityroofing.com/",
    "category": "Chinese-speaking Roofing replacement in South-Dakota",
    "description": "Provides residential and commercial roofing services, specializing in storm restoration and hail damage repair",
    "hours": "Mon-Fri 9AM-6PM",
    "services": [
      "Chinese-speaking Roofing replacement in South-Dakota consultation",
      "Professional service",
      "Quality guarantee"
    ],
    "social_links": {}
  },
  {
    "name": "Brookings Roofing Inc.",
    "address": "Brookings, SD (Specific address not found in search results, but has served southeast South Dakota for over 50 years)",
    "phone": "(605) 692-4700",
    "rating": 4.0,
    "reviews": 25,
    "website": "https://brookingsroofing.com/",
    "category": "Chinese-speaking Roofing replacement in South-Dakota",
    "description": "A locally owned business offering roofing, roof repairs, and insulation services. They emphasize attention to detail and quality materials",
    "hours": "Mon-Fri 9AM-6PM",
    "services": [
      "Chinese-speaking Roofing replacement in South-Dakota consultation",
      "Professional service",
      "Quality guarantee"
    ],
    "social_links": {}
  },
  {
    "name": "Dakota Storm Roofing",
    "address": "Pierre, SD (Specific address not found in search results, but serves Pierre and surrounding areas)",
    "phone": "(605) 280-9794",
    "rating": 4.0,
    "reviews": 25,
    "website": "https://dakotastormroofing.com/",
    "category": "Chinese-speaking Roofing replacement in South-Dakota",
    "description": "Offers a range of roofing services including metal roofs, roof repair, and replacement for residential and commercial properties. They are a family-owned business",
    "hours": "Mon-Fri 9AM-6PM",
    "services": [
      "Chinese-speaking Roofing replacement in South-Dakota consultation",
      "Professional service",
      "Quality guarantee"
    ],
    "social_links": {}
  },
  {
    "name": "Weather All Roofing & Insulation",
    "address": "Pierre, SD (Specific address not found in search results, but serves Pierre and the surrounding area)",
    "phone": "(605) 224-7982",
    "rating": 4.0,
    "reviews": 25,
    "website": "https://weatherallroofing.com/",
    "category": "Chinese-speaking Roofing replacement in South-Dakota",
    "description": "A family-owned business specializing in commercial roofing and insulation, including spray-on polyurethane foam and metal roof restorations",
    "hours": "Mon-Fri 9AM-6PM",
    "services": [
      "Chinese-speaking Roofing replacement in South-Dakota consultation",
      "Professional service",
      "Quality guarantee"
    ],
    "social_links": {}
  }
]