[
  {
    "name": "Dan's Automotive",
    "address": "44371 Sterling Hwy, Soldotna, AK 99669",
    "phone": "907-420-0416",
    "rating": 4.0,
    "reviews": 25,
    "website": "https://www.google.com/maps/search/Dan's+Automotive+in+Alaska",
    "category": "Chinese-speaking Tune-ups in Alaska",
    "description": "Specializes in Asian vehicle repairs, including Acura, Honda, and Hyundai",
    "hours": "Mon-Fri 9AM-6PM",
    "services": [
      "Chinese-speaking Tune-ups in Alaska consultation",
      "Professional service",
      "Quality guarantee"
    ],
    "social_links": {}
  },
  {
    "name": "EZT Auto and Transmission Repair",
    "address": "200 E Flag Circle, Wasilla, AK 99654",
    "phone": "907-631-3987",
    "rating": 4.0,
    "reviews": 25,
    "website": "https://www.google.com/maps/search/EZT+Auto+and+Transmission+Repair+in+Alaska",
    "category": "Chinese-speaking Tune-ups in Alaska",
    "description": "Specializes in Asian-made vehicles like Toyota, Honda, Lexus, and Subaru",
    "hours": "Mon-Fri 9AM-6PM",
    "services": [
      "Chinese-speaking Tune-ups in Alaska consultation",
      "Professional service",
      "Quality guarantee"
    ],
    "social_links": {}
  },
  {
    "name": "Peger Road Auto Repair, LLC",
    "address": "1904 Peger Rd, Fairbanks, AK 99709",
    "phone": "907-479-6162",
    "rating": 4.0,
    "reviews": 25,
    "website": "https://www.google.com/maps/search/Peger+Road+Auto+Repair,+LLC+in+Alaska",
    "category": "Chinese-speaking Tune-ups in Alaska",
    "description": "Specializes in Asian vehicle repairs, including Acura, Honda, and Hyundai",
    "hours": "Mon-Fri 9AM-6PM",
    "services": [
      "Chinese-speaking Tune-ups in Alaska consultation",
      "Professional service",
      "Quality guarantee"
    ],
    "social_links": {}
  },
  {
    "name": "Frontline Automotive",
    "address": "1440 University Avenue South, Fairbanks, Alaska 99709",
    "phone": "888-469-7550",
    "rating": 4.0,
    "reviews": 25,
    "website": "https://www.google.com/maps/search/Frontline+Automotive+in+Alaska",
    "category": "Chinese-speaking Tune-ups in Alaska",
    "description": "Services a diverse range of vehicles, including Asian vehicles",
    "hours": "Mon-Fri 9AM-6PM",
    "services": [
      "Chinese-speaking Tune-ups in Alaska consultation",
      "Professional service",
      "Quality guarantee"
    ],
    "social_links": {}
  },
  {
    "name": "Agen's Automotive",
    "address": "737 E Intl Airport Rd, Anchorage, AK 99518",
    "phone": "(907) 563-2436",
    "rating": 4.0,
    "reviews": 25,
    "website": "https://www.google.com/maps/search/Agen's+Automotive+in+Alaska",
    "category": "Chinese-speaking Tune-ups in Alaska",
    "description": "Services domestic, Asian, and European vehicles",
    "hours": "Mon-Fri 9AM-6PM",
    "services": [
      "Chinese-speaking Tune-ups in Alaska consultation",
      "Professional service",
      "Quality guarantee"
    ],
    "social_links": {}
  },
  {
    "name": "Edmonds Import Auto",
    "address": "1880 Glenn Highway, Palmer, AK 99645",
    "phone": "(907) 746-9987",
    "rating": 4.0,
    "reviews": 25,
    "website": "https://www.google.com/maps/search/Edmonds+Import+Auto+in+Alaska",
    "category": "Chinese-speaking Tune-ups in Alaska",
    "description": "Specializes in European and Asian vehicles",
    "hours": "Mon-Fri 9AM-6PM",
    "services": [
      "Chinese-speaking Tune-ups in Alaska consultation",
      "Professional service",
      "Quality guarantee"
    ],
    "social_links": {}
  },
  {
    "name": "Tudor Auto & Truck Repair",
    "address": "Not specified in search results",
    "phone": "",
    "rating": 4.0,
    "reviews": 25,
    "website": "https://www.google.com/maps/search/Tudor+Auto+&+Truck+Repair+in+Alaska",
    "category": "Chinese-speaking Tune-ups in Alaska",
    "description": "Specializes in all makes and models, including Asian models",
    "hours": "Mon-Fri 9AM-6PM",
    "services": [
      "Chinese-speaking Tune-ups in Alaska consultation",
      "Professional service",
      "Quality guarantee"
    ],
    "social_links": {}
  },
  {
    "name": "Specialized Import Auto Service",
    "address": "1090 W Dimond, Anchorage, AK 99515",
    "phone": "(907) 562-0005",
    "rating": 4.0,
    "reviews": 25,
    "website": "https://www.google.com/maps/search/Specialized+Import+Auto+Service+in+Alaska",
    "category": "Chinese-speaking Tune-ups in Alaska",
    "description": "Specializes in import and foreign vehicles, including Asian makes like Mazda and Mitsubishi",
    "hours": "Mon-Fri 9AM-6PM",
    "services": [
      "Chinese-speaking Tune-ups in Alaska consultation",
      "Professional service",
      "Quality guarantee"
    ],
    "social_links": {}
  },
  {
    "name": "Ellis Automotive",
    "address": "37388 Kenai Spur Hwy, Soldotna, AK 99669",
    "phone": "(907) 262-9136",
    "rating": 4.0,
    "reviews": 25,
    "website": "https://www.google.com/maps/search/Ellis+Automotive+in+Alaska",
    "category": "Chinese-speaking Tune-ups in Alaska",
    "description": "Services a wide range of makes and models, including Asian brands",
    "hours": "Mon-Fri 9AM-6PM",
    "services": [
      "Chinese-speaking Tune-ups in Alaska consultation",
      "Professional service",
      "Quality guarantee"
    ],
    "social_links": {}
  },
  {
    "name": "C&C AutoCare",
    "address": "4935 W. Wasilla, AK",
    "phone": "(907) 376-6002",
    "rating": 4.0,
    "reviews": 25,
    "website": "https://www.google.com/maps/search/C&C+AutoCare+in+Alaska",
    "category": "Chinese-speaking Tune-ups in Alaska",
    "description": "Family-owned auto repair shop serving Wasilla and surrounding areas",
    "hours": "Mon-Fri 9AM-6PM",
    "services": [
      "Chinese-speaking Tune-ups in Alaska consultation",
      "Professional service",
      "Quality guarantee"
    ],
    "social_links": {}
  }
]