[
  {
    "name": "Studio Thrive",
    "address": "206 Hancock Street, Laramie, WY, 82072",
    "phone": "307-217-3315",
    "rating": 4.0,
    "reviews": 25,
    "website": "https://www.google.com/maps/search/Studio+Thrive+in+Wyoming",
    "category": "Buddhist-owned Prenatal yoga in Wyoming",
    "description": "Offers prenatal yoga workshops focusing on gentle movements and breathing techniques for expectant mothers",
    "hours": "Mon-Fri 9AM-6PM",
    "services": [
      "Buddhist-owned Prenatal yoga in Wyoming consultation",
      "Professional service",
      "Quality guarantee"
    ],
    "social_links": {}
  },
  {
    "name": "Wellness Collective",
    "address": "306 W 15th St, Cheyenne, WY 82001",
    "phone": "+1 307-222-8342",
    "rating": 5.0,
    "reviews": 25,
    "website": "http://www.wc307.com/",
    "category": "Buddhist-owned Prenatal yoga in Wyoming",
    "description": "Provides prenatal yoga classes adapted to all levels in a safe environment, with certified instructors",
    "hours": "Mon-Fri 9AM-6PM",
    "services": [
      "Buddhist-owned Prenatal yoga in Wyoming consultation",
      "Professional service",
      "Quality guarantee"
    ],
    "social_links": {}
  },
  {
    "name": "Earthside Birth And Wellness Center",
    "address": "1122 Logan Ave, Cheyenne, WY 82001",
    "phone": "+1 307-222-9446",
    "rating": 5.0,
    "reviews": 25,
    "website": "http://earthsidebirthwy.com/",
    "category": "Buddhist-owned Prenatal yoga in Wyoming",
    "description": "Offers expert prenatal care and classes with a team that adjusts each pose for expectant mothers",
    "hours": "Mon-Fri 9AM-6PM",
    "services": [
      "Buddhist-owned Prenatal yoga in Wyoming consultation",
      "Professional service",
      "Quality guarantee"
    ],
    "social_links": {}
  },
  {
    "name": "Blossom Yoga",
    "address": "Cheyenne, WY (Specific address not found in search results)",
    "phone": "",
    "rating": 4.0,
    "reviews": 25,
    "website": "https://www.google.com/maps/search/Blossom+Yoga+in+Wyoming",
    "category": "Buddhist-owned Prenatal yoga in Wyoming",
    "description": "Offers tailored prenatal yoga classes in Cheyenne, trusted by many mothers",
    "hours": "Mon-Fri 9AM-6PM",
    "services": [
      "Buddhist-owned Prenatal yoga in Wyoming consultation",
      "Professional service",
      "Quality guarantee"
    ],
    "social_links": {}
  },
  {
    "name": "Home Yoga Studio",
    "address": "Jackson Hole, WY (Specific address not found in search results)",
    "phone": "",
    "rating": 4.0,
    "reviews": 25,
    "website": "https://www.google.com/maps/search/Home+Yoga+Studio+in+Wyoming",
    "category": "Buddhist-owned Prenatal yoga in Wyoming",
    "description": "Offers a prenatal yoga class in a supportive space for pregnant mothers to connect with their bodies, babies, and a community",
    "hours": "Mon-Fri 9AM-6PM",
    "services": [
      "Buddhist-owned Prenatal yoga in Wyoming consultation",
      "Professional service",
      "Quality guarantee"
    ],
    "social_links": {}
  },
  {
    "name": "It Takes a Valley",
    "address": "PO Box 11902, Jackson, WY 83002",
    "phone": "(307) 690-3597",
    "rating": 4.0,
    "reviews": 25,
    "website": "https://www.google.com/maps/search/It+Takes+a+Valley+in+Wyoming",
    "category": "Buddhist-owned Prenatal yoga in Wyoming",
    "description": "Offers a 6-week prenatal yoga series focusing on holistic practices for well-being and empowerment during pregnancy",
    "hours": "Mon-Fri 9AM-6PM",
    "services": [
      "Buddhist-owned Prenatal yoga in Wyoming consultation",
      "Professional service",
      "Quality guarantee"
    ],
    "social_links": {}
  },
  {
    "name": "Breathe & Balance",
    "address": "Cody, WY (Specific address not found in search results)",
    "phone": "",
    "rating": 4.0,
    "reviews": 25,
    "website": "https://www.google.com/maps/search/Breathe+&+Balance+in+Wyoming",
    "category": "Buddhist-owned Prenatal yoga in Wyoming",
    "description": "Offers prenatal yoga as part of their services, encouraging relaxation, strength, and a deeper connection with oneself",
    "hours": "Mon-Fri 9AM-6PM",
    "services": [
      "Buddhist-owned Prenatal yoga in Wyoming consultation",
      "Professional service",
      "Quality guarantee"
    ],
    "social_links": {}
  }
]