[
  {
    "name": "Salt Earth Massage Therapy and Salt Therapy Tulsa",
    "address": "11081 S Memorial Dr, Tulsa, OK 74133, United States",
    "phone": "(918) 895-7777",
    "rating": 5.0,
    "reviews": 25,
    "website": "https://saltearthliving.com/",
    "category": "African-American-owned Salt therapy in Oklahoma",
    "description": "Offers massage therapy and dry salt therapy in a salt cave environment. They focus on relaxation, respiratory health, skin conditions, stress, anxiety, and fatigue",
    "hours": "Mon-Fri 9AM-6PM",
    "services": [
      "African-American-owned Salt therapy in Oklahoma consultation",
      "Professional service",
      "Quality guarantee"
    ],
    "social_links": {}
  },
  {
    "name": "The Grotto",
    "address": "2501 W Memorial Rd, Oklahoma City, OK",
    "phone": "(405) 395-8315",
    "rating": 4.0,
    "reviews": 25,
    "website": "https://www.google.com/maps/search/The+Grotto+in+Oklahoma",
    "category": "African-American-owned Salt therapy in Oklahoma",
    "description": "Mentioned as a salt cave and halotherapy center in Oklahoma City",
    "hours": "Mon-Fri 9AM-6PM",
    "services": [
      "African-American-owned Salt therapy in Oklahoma consultation",
      "Professional service",
      "Quality guarantee"
    ],
    "social_links": {}
  },
  {
    "name": "Salt Therapy & Wellness",
    "address": "Bixby, Oklahoma (specific street address not provided in search results)",
    "phone": "(918) 630-2971",
    "rating": 4.0,
    "reviews": 25,
    "website": "https://www.salttherapyandwellness.com/",
    "category": "African-American-owned Salt therapy in Oklahoma",
    "description": "Offers mental health counseling and salt therapy services",
    "hours": "Mon-Fri 9AM-6PM",
    "services": [
      "African-American-owned Salt therapy in Oklahoma consultation",
      "Professional service",
      "Quality guarantee"
    ],
    "social_links": {}
  },
  {
    "name": "Hackney Chiropractic (Salt Therapy)",
    "address": "Edmond, OK (specific street address not provided in search results)",
    "phone": "",
    "rating": 4.0,
    "reviews": 25,
    "website": "https://hackneychiropractic.com/salt-therapy/",
    "category": "African-American-owned Salt therapy in Oklahoma",
    "description": "Provides salt therapy in a booth, focusing on respiratory and skin conditions, as well as stress relief",
    "hours": "Mon-Fri 9AM-6PM",
    "services": [
      "African-American-owned Salt therapy in Oklahoma consultation",
      "Professional service",
      "Quality guarantee"
    ],
    "social_links": {}
  },
  {
    "name": "Le Visage Spa and Wellness (Salt Room Therapy)",
    "address": "3540 RC Luttrell Drive, Norman, OK",
    "phone": "",
    "rating": 4.0,
    "reviews": 25,
    "website": "https://levisageok.com/salt-room-therapy/",
    "category": "African-American-owned Salt therapy in Oklahoma",
    "description": "Offers salt room therapy for respiratory and skin conditions, as well as general wellness",
    "hours": "Mon-Fri 9AM-6PM",
    "services": [
      "African-American-owned Salt therapy in Oklahoma consultation",
      "Professional service",
      "Quality guarantee"
    ],
    "social_links": {}
  }
]