[
  {
    "name": "Assured Alarms",
    "address": "Not publicly listed, serves Southeast Tennessee",
    "phone": "(423) 478-5222",
    "rating": 4.0,
    "reviews": 25,
    "website": "https://www.assuredalarms.com/",
    "category": "American-Indian-owned Alarm systems in Tennessee",
    "description": "Offers home and business security solutions, including security, fire, and video systems",
    "hours": "Mon-Fri 9AM-6PM",
    "services": [
      "American-Indian-owned Alarm systems in Tennessee consultation",
      "Professional service",
      "Quality guarantee"
    ],
    "social_links": {}
  },
  {
    "name": "NCA Alarms of Nashville",
    "address": "Not publicly listed, serves Middle Tennessee",
    "phone": "(615) 777-7622",
    "rating": 4.0,
    "reviews": 25,
    "website": "https://www.ncalarms.com/",
    "category": "American-Indian-owned Alarm systems in Tennessee",
    "description": "Provides home and commercial security systems and security cameras with no long-term contracts",
    "hours": "Mon-Fri 9AM-6PM",
    "services": [
      "American-Indian-owned Alarm systems in Tennessee consultation",
      "Professional service",
      "Quality guarantee"
    ],
    "social_links": {}
  },
  {
    "name": "Matson Alarm Of Tennessee",
    "address": "Not publicly listed, serves Tennessee",
    "phone": "",
    "rating": 4.0,
    "reviews": 25,
    "website": "https://matsonalarm.com/",
    "category": "American-Indian-owned Alarm systems in Tennessee",
    "description": "Offers home security services including 24/7 monitoring, CCTV, and alarm systems",
    "hours": "Mon-Fri 9AM-6PM",
    "services": [
      "American-Indian-owned Alarm systems in Tennessee consultation",
      "Professional service",
      "Quality guarantee"
    ],
    "social_links": {}
  },
  {
    "name": "Sentinel Alarms LLC (now Sentinel Fire and Security)",
    "address": "1404 E Broadway STE 6, Gallatin, TN 37066",
    "phone": "615-586-4305",
    "rating": 4.0,
    "reviews": 25,
    "website": "https://sentinelalarmsllc.com/",
    "category": "American-Indian-owned Alarm systems in Tennessee",
    "description": "Installs and services commercial security systems including CCTV, Access Control, Burglar Alarm, and Fire Systems",
    "hours": "Mon-Fri 9AM-6PM",
    "services": [
      "American-Indian-owned Alarm systems in Tennessee consultation",
      "Professional service",
      "Quality guarantee"
    ],
    "social_links": {}
  },
  {
    "name": "Executive Protection",
    "address": "Not publicly listed, serves Smyrna, Nashville, Murfreesboro & Spring Hill, TN",
    "phone": "(615) 852-7513",
    "rating": 5.0,
    "reviews": 25,
    "website": "https://www.executiveprotectiontn.com/",
    "category": "American-Indian-owned Alarm systems in Tennessee",
    "description": "Provides corporate security services, patrols, and employee safety programs",
    "hours": "Mon-Fri 9AM-6PM",
    "services": [
      "American-Indian-owned Alarm systems in Tennessee consultation",
      "Professional service",
      "Quality guarantee"
    ],
    "social_links": {}
  },
  {
    "name": "Customized Security Solutions, LLC",
    "address": "Not publicly listed, serves Nashville, TN, and surrounding Middle TN areas",
    "phone": "(615) 756-9991",
    "rating": 4.0,
    "reviews": 25,
    "website": "https://www.usa-css.com/",
    "category": "American-Indian-owned Alarm systems in Tennessee",
    "description": "Offers tailored security services and systems for residential and commercial clients, including burglar alarms, fire alarms, and CCTV",
    "hours": "Mon-Fri 9AM-6PM",
    "services": [
      "American-Indian-owned Alarm systems in Tennessee consultation",
      "Professional service",
      "Quality guarantee"
    ],
    "social_links": {}
  },
  {
    "name": "Saint Michael's Security",
    "address": "Not publicly listed, serves Tennessee",
    "phone": "",
    "rating": 4.0,
    "reviews": 25,
    "website": "https://www.saintmichaelsecurity.com/",
    "category": "American-Indian-owned Alarm systems in Tennessee",
    "description": "A security company offering services for executives, events, and traffic control, with a focus on personalized service",
    "hours": "Mon-Fri 9AM-6PM",
    "services": [
      "American-Indian-owned Alarm systems in Tennessee consultation",
      "Professional service",
      "Quality guarantee"
    ],
    "social_links": {}
  },
  {
    "name": "Archangel Protective Services",
    "address": "440 Metroplex Ste 241, Nashville, TN 37211",
    "phone": "(615) 712-9759",
    "rating": 4.0,
    "reviews": 25,
    "website": "https://archangelusa.com/",
    "category": "American-Indian-owned Alarm systems in Tennessee",
    "description": "Provides security solutions for various needs, focusing on protecting what matters most",
    "hours": "Mon-Fri 9AM-6PM",
    "services": [
      "American-Indian-owned Alarm systems in Tennessee consultation",
      "Professional service",
      "Quality guarantee"
    ],
    "social_links": {}
  },
  {
    "name": "Enhanced Patrol LLC",
    "address": "Not publicly listed, based in Nashville, TN",
    "phone": "",
    "rating": 4.0,
    "reviews": 25,
    "website": "https://www.enhancedpatrol.com/",
    "category": "American-Indian-owned Alarm systems in Tennessee",
    "description": "A security and technology firm offering services for assets, personnel, and critical infrastructure, including physical security and risk management",
    "hours": "Mon-Fri 9AM-6PM",
    "services": [
      "American-Indian-owned Alarm systems in Tennessee consultation",
      "Professional service",
      "Quality guarantee"
    ],
    "social_links": {}
  },
  {
    "name": "Nashville Blueline Security",
    "address": "Not publicly listed, serves Nashville, TN",
    "phone": "",
    "rating": 4.0,
    "reviews": 25,
    "website": "https://www.nashvillebluelinesecurity.com/",
    "category": "American-Indian-owned Alarm systems in Tennessee",
    "description": "Provides comprehensive professional security services, including law enforcement, unarmed security, event security, and executive protection",
    "hours": "Mon-Fri 9AM-6PM",
    "services": [
      "American-Indian-owned Alarm systems in Tennessee consultation",
      "Professional service",
      "Quality guarantee"
    ],
    "social_links": {}
  }
]