[
  {
    "name": "Dental Associates of New England",
    "address": "266 Beacon St, Boston, MA 02116",
    "phone": "(617) 267-0033",
    "rating": 4.8,
    "reviews": 25,
    "website": "https://www.dane.com/",
    "category": "Bengali-speaking Cosmetic dentistry in Massachusetts",
    "description": "Offers a comprehensive approach to cosmetic dentistry, including smile makeovers, teeth whitening, Invisalign, and porcelain veneers. They emphasize a conservative approach that preserves natural tooth structure",
    "hours": "Mon-Fri 9AM-6PM",
    "services": [
      "Bengali-speaking Cosmetic dentistry in Massachusetts consultation",
      "Professional service",
      "Quality guarantee"
    ],
    "social_links": {}
  },
  {
    "name": "Smileboston Cosmetic & Implant Dentistry",
    "address": "1000 Beacon St, Brookline, MA 02446",
    "phone": "(617) 421-5445",
    "rating": 4.7,
    "reviews": 25,
    "website": "https://www.smileboston.com/",
    "category": "Bengali-speaking Cosmetic dentistry in Massachusetts",
    "description": "Specializes in smile makeovers, gum rejuvenation, and dental implants. They focus on patient experience and dental excellence, utilizing advanced technology and a highly trained team",
    "hours": "Mon-Fri 9AM-6PM",
    "services": [
      "Bengali-speaking Cosmetic dentistry in Massachusetts consultation",
      "Professional service",
      "Quality guarantee"
    ],
    "social_links": {}
  },
  {
    "name": "Longwood Dental Group",
    "address": "2400 Massachusetts Ave, Cambridge, MA 02140",
    "phone": "(617) 566-5445",
    "rating": 4.9,
    "reviews": 25,
    "website": "https://www.longwooddental.com/",
    "category": "Bengali-speaking Cosmetic dentistry in Massachusetts",
    "description": "Provides a wide range of cosmetic dentistry services, from simple to advanced cases, aiming to help patients smile with confidence. They emphasize the art and science of creating a beautiful smile",
    "hours": "Mon-Fri 9AM-6PM",
    "services": [
      "Bengali-speaking Cosmetic dentistry in Massachusetts consultation",
      "Professional service",
      "Quality guarantee"
    ],
    "social_links": {}
  },
  {
    "name": "Complete Dental Care",
    "address": "101A Cambridge St, Burlington, MA 01803",
    "phone": "(781) 272-5151",
    "rating": 4.6,
    "reviews": 25,
    "website": "https://www.completedentalcarema.com/",
    "category": "Bengali-speaking Cosmetic dentistry in Massachusetts",
    "description": "Offers various restorative, cosmetic, and preventive dentistry options, including cosmetic bonding, teeth whitening, and porcelain veneers. They focus on creating a desired smile with long-lasting results",
    "hours": "Mon-Fri 9AM-6PM",
    "services": [
      "Bengali-speaking Cosmetic dentistry in Massachusetts consultation",
      "Professional service",
      "Quality guarantee"
    ],
    "social_links": {}
  },
  {
    "name": "EMA Dental",
    "address": "64 Gothic St, Northampton, MA 01060",
    "phone": "(413) 584-4900",
    "rating": 4.8,
    "reviews": 25,
    "website": "https://www.emadental.com/",
    "category": "Bengali-speaking Cosmetic dentistry in Massachusetts",
    "description": "Provides cosmetic and aesthetic dentistry services such as teeth whitening, bonding, porcelain veneers, and complete smile makeovers. They tailor treatment plans to individual aesthetic goals",
    "hours": "Mon-Fri 9AM-6PM",
    "services": [
      "Bengali-speaking Cosmetic dentistry in Massachusetts consultation",
      "Professional service",
      "Quality guarantee"
    ],
    "social_links": {}
  },
  {
    "name": "Newton Dental Associates",
    "address": "1371 Beacon St, Brookline, MA 02446",
    "phone": "(617) 964-3333",
    "rating": 4.9,
    "reviews": 25,
    "website": "https://www.newtondentalassociates.com/",
    "category": "Bengali-speaking Cosmetic dentistry in Massachusetts",
    "description": "Offers a concierge-level cosmetic dentistry experience with all specialists under one roof. They focus on advanced technology, artistic precision, and natural-looking results for smile enhancements",
    "hours": "Mon-Fri 9AM-6PM",
    "services": [
      "Bengali-speaking Cosmetic dentistry in Massachusetts consultation",
      "Professional service",
      "Quality guarantee"
    ],
    "social_links": {}
  },
  {
    "name": "Worcester Cosmetic & Restorative Dentistry",
    "address": "330 Shrewsbury St, Worcester, MA 01604",
    "phone": "(508) 754-3131",
    "rating": 4.7,
    "reviews": 25,
    "website": "https://www.worcestercosmeticdentistry.com/",
    "category": "Bengali-speaking Cosmetic dentistry in Massachusetts",
    "description": "A top provider of general and cosmetic dentistry, utilizing the latest technology and techniques. They offer a friendly and experienced staff committed to patient satisfaction",
    "hours": "Mon-Fri 9AM-6PM",
    "services": [
      "Bengali-speaking Cosmetic dentistry in Massachusetts consultation",
      "Professional service",
      "Quality guarantee"
    ],
    "social_links": {}
  },
  {
    "name": "Boston Dental",
    "address": "Multiple locations, including Downtown Crossing and Government Center",
    "phone": "(857) 305-3131 (Downtown Crossing)",
    "rating": 4.5,
    "reviews": 25,
    "website": "https://www.boston-dental.com/",
    "category": "Bengali-speaking Cosmetic dentistry in Massachusetts",
    "description": "Offers a wide range of cosmetic dentistry procedures, including teeth whitening, veneers, orthodontics, and dental implants. They have a team of skilled cosmetic dentists, oral surgeons, and orthodontists",
    "hours": "Mon-Fri 9AM-6PM",
    "services": [
      "Bengali-speaking Cosmetic dentistry in Massachusetts consultation",
      "Professional service",
      "Quality guarantee"
    ],
    "social_links": {}
  },
  {
    "name": "Sahara Dental Center",
    "address": "364 Harvard St, Suite 1C, Brookline, MA 02446",
    "phone": "(617) 734-1500",
    "rating": 4.8,
    "reviews": 25,
    "website": "https://saharadentalcenter.com/",
    "category": "Bengali-speaking Cosmetic dentistry in Massachusetts",
    "description": "Provides outstanding cosmetic dental work with high patient satisfaction, including smile makeovers, veneers, and Invisalign. Their staff speaks multiple languages, including Urdu",
    "hours": "Mon-Fri 9AM-6PM",
    "services": [
      "Bengali-speaking Cosmetic dentistry in Massachusetts consultation",
      "Professional service",
      "Quality guarantee"
    ],
    "social_links": {}
  },
  {
    "name": "Kaceli Dental Studio",
    "address": "136 Central St, Norwood, MA 02062",
    "phone": "(781) 769-0077",
    "rating": 4.9,
    "reviews": 25,
    "website": "https://www.kacelidental.com/",
    "category": "Bengali-speaking Cosmetic dentistry in Massachusetts",
    "description": "Blends expertise, artistry, and compassion to offer exceptional dental and aesthetic care, including cosmetic dentistry and smile makeovers. They focus on personalized care in a warm environment",
    "hours": "Mon-Fri 9AM-6PM",
    "services": [
      "Bengali-speaking Cosmetic dentistry in Massachusetts consultation",
      "Professional service",
      "Quality guarantee"
    ],
    "social_links": {}
  }
]