[
  {
    "name": "Centennial Insurance Group, Inc.",
    "address": "13130 Pawnee Dr, Oklahoma City, OK 73120",
    "phone": "(405) 755-7000",
    "rating": 4.0,
    "reviews": 25,
    "website": "https://www.centennialins.com/",
    "category": "Asian-owned D&O insurance in Oklahoma",
    "description": "Offers Directors & Officers (D&O) insurance to protect board members, officers, and directors from lawsuits arising from their duties",
    "hours": "Mon-Fri 9AM-6PM",
    "services": [
      "Asian-owned D&O insurance in Oklahoma consultation",
      "Professional service",
      "Quality guarantee"
    ],
    "social_links": {}
  },
  {
    "name": "Covenant Insurance Services",
    "address": "13200 Pawnee Dr, Oklahoma City, OK 73120",
    "phone": "(405) 755-7000",
    "rating": 4.0,
    "reviews": 25,
    "website": "https://www.covenantins.com/",
    "category": "Asian-owned D&O insurance in Oklahoma",
    "description": "Provides Directors and Officers (D&O) Insurance to protect key decision-makers in a business from alleged wrongful acts",
    "hours": "Mon-Fri 9AM-6PM",
    "services": [
      "Asian-owned D&O insurance in Oklahoma consultation",
      "Professional service",
      "Quality guarantee"
    ],
    "social_links": {}
  },
  {
    "name": "HUB International",
    "address": "Multiple locations in Oklahoma, including Oklahoma City and Tulsa",
    "phone": "Varies by location (e.g., Oklahoma City North Western: (405) 755-7000)",
    "rating": 4.0,
    "reviews": 25,
    "website": "https://www.hubinternational.com/en-us/offices/oklahoma",
    "category": "Asian-owned D&O insurance in Oklahoma",
    "description": "Offers a team of insurance professionals who build customized programs, including D&O insurance, to meet business and personal needs",
    "hours": "Mon-Fri 9AM-6PM",
    "services": [
      "Asian-owned D&O insurance in Oklahoma consultation",
      "Professional service",
      "Quality guarantee"
    ],
    "social_links": {}
  },
  {
    "name": "Insurance Professionals of Oklahoma",
    "address": "111 N Tahlequah St, Tahlequah, OK 74464",
    "phone": "(918) 458-0082",
    "rating": 4.0,
    "reviews": 25,
    "website": "https://www.ipok.com/",
    "category": "Asian-owned D&O insurance in Oklahoma",
    "description": "An independent insurance agency offering a full line of insurance, including business insurance options that may encompass D&O coverage",
    "hours": "Mon-Fri 9AM-6PM",
    "services": [
      "Asian-owned D&O insurance in Oklahoma consultation",
      "Professional service",
      "Quality guarantee"
    ],
    "social_links": {}
  },
  {
    "name": "Oklahoma City Business Insurance Agency - PI",
    "address": "Not explicitly listed, but mentioned in context of Oklahoma City",
    "phone": "",
    "rating": 4.0,
    "reviews": 25,
    "website": "https://www.google.com/maps/search/Oklahoma+City+Business+Insurance+Agency+-+PI+in+Oklahoma",
    "category": "Asian-owned D&O insurance in Oklahoma",
    "description": "Offers Directors & Officers Liability Insurance (D&O) coverage designed to protect corporate directors and officers against claims of mismanagement",
    "hours": "Mon-Fri 9AM-6PM",
    "services": [
      "Asian-owned D&O insurance in Oklahoma consultation",
      "Professional service",
      "Quality guarantee"
    ],
    "social_links": {}
  },
  {
    "name": "THN Insurance Solutions",
    "address": "N/A",
    "phone": "(405) 755-7000",
    "rating": 4.0,
    "reviews": 25,
    "website": "https://vertexaisearch.cloud.google.com/",
    "category": "Asian-owned D&O insurance in Oklahoma",
    "description": "Used for information retrieval and may provide details on insurance providers",
    "hours": "Mon-Fri 9AM-6PM",
    "services": [
      "Asian-owned D&O insurance in Oklahoma consultation",
      "Professional service",
      "Quality guarantee"
    ],
    "social_links": {}
  },
  {
    "name": "Holland & Knight",
    "address": "Multiple locations, including Oklahoma City",
    "phone": "",
    "rating": 4.0,
    "reviews": 25,
    "website": "https://www.hklaw.com/en/professionals",
    "category": "Asian-owned D&O insurance in Oklahoma",
    "description": "A law firm that lists \"D&O and Management Liability Insurance\" as a practice area, indicating expertise in this field",
    "hours": "Mon-Fri 9AM-6PM",
    "services": [
      "Asian-owned D&O insurance in Oklahoma consultation",
      "Professional service",
      "Quality guarantee"
    ],
    "social_links": {}
  },
  {
    "name": "ACIG Ins Co.",
    "address": "2600 N. Central Expressway, Suite 800 Richardson, TX 75080",
    "phone": "972-702-9004",
    "rating": 4.0,
    "reviews": 25,
    "website": "https://www.google.com/maps/search/ACIG+Ins+Co.+in+Oklahoma",
    "category": "Asian-owned D&O insurance in Oklahoma",
    "description": "Listed as a licensed insurance company in Oklahoma, offering various types of insurance",
    "hours": "Mon-Fri 9AM-6PM",
    "services": [
      "Asian-owned D&O insurance in Oklahoma consultation",
      "Professional service",
      "Quality guarantee"
    ],
    "social_links": {}
  },
  {
    "name": "Acstar Ins Co.",
    "address": "30 SOUTH ROAD FARMINGTON, CT 06032",
    "phone": "860-415-8400",
    "rating": 4.0,
    "reviews": 25,
    "website": "https://www.google.com/maps/search/Acstar+Ins+Co.+in+Oklahoma",
    "category": "Asian-owned D&O insurance in Oklahoma",
    "description": "Listed as a licensed insurance company in Oklahoma, offering surety bonds and other insurance",
    "hours": "Mon-Fri 9AM-6PM",
    "services": [
      "Asian-owned D&O insurance in Oklahoma consultation",
      "Professional service",
      "Quality guarantee"
    ],
    "social_links": {}
  }
]