[
  {
    "name": "Dancing Dogs Yoga",
    "address": "26 Waddell St NE, Suite 100, Atlanta, GA 30307",
    "phone": "(404) 494-4040",
    "rating": 4.9,
    "reviews": 25,
    "website": "https://www.dancingdogsyoga.com/",
    "category": "Agnostic-owned Yin yoga in Georgia",
    "description": "Offers hot vinyasa and non-heated Yin yoga classes for all levels, with a focus on community and making yoga approachable and enjoyable",
    "hours": "Mon-Fri 9AM-6PM",
    "services": [
      "Agnostic-owned Yin yoga in Georgia consultation",
      "Professional service",
      "Quality guarantee"
    ],
    "social_links": {}
  },
  {
    "name": "Element Yoga",
    "address": "Multiple locations, including one in Atlanta",
    "phone": "(404) 800-1400 (for Atlanta location)",
    "rating": 4.9,
    "reviews": 25,
    "website": "https://www.elementyoga.com/",
    "category": "Agnostic-owned Yin yoga in Georgia",
    "description": "Provides a variety of classes including Vinyasa, Yin, and Restorative yoga, aiming for a mind-body-spirit experience",
    "hours": "Mon-Fri 9AM-6PM",
    "services": [
      "Agnostic-owned Yin yoga in Georgia consultation",
      "Professional service",
      "Quality guarantee"
    ],
    "social_links": {}
  },
  {
    "name": "The Yoga Hive Atlanta",
    "address": "1000 White St SW, Atlanta, GA 30310",
    "phone": "(404) 549-7064",
    "rating": 4.9,
    "reviews": 25,
    "website": "https://www.theyogahiveatl.com/",
    "category": "Agnostic-owned Yin yoga in Georgia",
    "description": "This studio is built on principles of inclusivity, well-being, and community, offering daily classes, workshops, and teacher training",
    "hours": "Mon-Fri 9AM-6PM",
    "services": [
      "Agnostic-owned Yin yoga in Georgia consultation",
      "Professional service",
      "Quality guarantee"
    ],
    "social_links": {}
  },
  {
    "name": "Haven Yoga ATL",
    "address": "1100 Howell Mill Rd NW, Suite 100, Atlanta, GA 30318",
    "phone": "(404) 407-0044",
    "rating": 4.0,
    "reviews": 25,
    "website": "https://www.havenyogaatl.com/",
    "category": "Agnostic-owned Yin yoga in Georgia",
    "description": "A non-heated community studio offering Power, Vinyasa Flow, Mat Pilates, Vin-Yin, Gentle, and Yin yoga options",
    "hours": "Mon-Fri 9AM-6PM",
    "services": [
      "Agnostic-owned Yin yoga in Georgia consultation",
      "Professional service",
      "Quality guarantee"
    ],
    "social_links": {}
  },
  {
    "name": "Yonder Yoga",
    "address": "Multiple locations, including 1100 Howell Mill Rd NW, Suite 100, Atlanta, GA 30318",
    "phone": "(404) 963-7311",
    "rating": 4.0,
    "reviews": 25,
    "website": "https://yonderyoga.com/",
    "category": "Agnostic-owned Yin yoga in Georgia",
    "description": "Offers infrared hot yoga with vinyasa and yin classes, balancing physical challenge with mental restoration",
    "hours": "Mon-Fri 9AM-6PM",
    "services": [
      "Agnostic-owned Yin yoga in Georgia consultation",
      "Professional service",
      "Quality guarantee"
    ],
    "social_links": {}
  },
  {
    "name": "Southwest Atlanta Yoga",
    "address": "785 West Whitehall Street Southwest, Suite J, Atlanta, GA 30310",
    "phone": "(404) 755-0010",
    "rating": 4.0,
    "reviews": 25,
    "website": "https://www.southwestatlantayoga.com/",
    "category": "Agnostic-owned Yin yoga in Georgia",
    "description": "Specializes in diverse yoga classes in an environment that nurtures the body and mind, located in Atlanta's Historic West End",
    "hours": "Mon-Fri 9AM-6PM",
    "services": [
      "Agnostic-owned Yin yoga in Georgia consultation",
      "Professional service",
      "Quality guarantee"
    ],
    "social_links": {}
  },
  {
    "name": "Sati Yoga & Wellness",
    "address": "150A 3A1A, Atlanta, GA 30307",
    "phone": "(404) 907-0111",
    "rating": 4.0,
    "reviews": 25,
    "website": "https://www.satiyogawellness.com/",
    "category": "Agnostic-owned Yin yoga in Georgia",
    "description": "Atlanta's home for non-heated mindful movement, offering trauma-informed practices to restore and rejuvenate the mind, body, and spirit. They explicitly state \"all bodies are yoga bodies.\"",
    "hours": "Mon-Fri 9AM-6PM",
    "services": [
      "Agnostic-owned Yin yoga in Georgia consultation",
      "Professional service",
      "Quality guarantee"
    ],
    "social_links": {}
  },
  {
    "name": "Highland Yoga",
    "address": "857 Collier Road Northwest #22, Atlanta, GA 30318",
    "phone": "(404) 748-9407",
    "rating": 3.8,
    "reviews": 25,
    "website": "https://www.highlandyoga.com/",
    "category": "Agnostic-owned Yin yoga in Georgia",
    "description": "Offers heated yoga classes, including Vinyasa and Yin Flow, with a focus on challenging and creative sequences",
    "hours": "Mon-Fri 9AM-6PM",
    "services": [
      "Agnostic-owned Yin yoga in Georgia consultation",
      "Professional service",
      "Quality guarantee"
    ],
    "social_links": {}
  },
  {
    "name": "Pure Motion Yoga",
    "address": "1174-B Zonolite Place, Atlanta, GA 30306",
    "phone": "(404) 600-1000",
    "rating": 4.0,
    "reviews": 25,
    "website": "https://www.puremotionyoga.com/",
    "category": "Agnostic-owned Yin yoga in Georgia",
    "description": "Offers vinyasa flow, yin, restorative yoga, and functional body work for all levels",
    "hours": "Mon-Fri 9AM-6PM",
    "services": [
      "Agnostic-owned Yin yoga in Georgia consultation",
      "Professional service",
      "Quality guarantee"
    ],
    "social_links": {}
  },
  {
    "name": "Evolation Yoga Atlanta",
    "address": "950 West Peachtree St NW, Suite 210, Atlanta, GA 30309",
    "phone": "(404) 856-0500",
    "rating": 4.0,
    "reviews": 25,
    "website": "https://www.evolationyoga.com/atlanta",
    "category": "Agnostic-owned Yin yoga in Georgia",
    "description": "Offers a variety of heated and non-heated classes, including Yin yoga, with a focus on down-to-earth instructors and a welcoming atmosphere",
    "hours": "Mon-Fri 9AM-6PM",
    "services": [
      "Agnostic-owned Yin yoga in Georgia consultation",
      "Professional service",
      "Quality guarantee"
    ],
    "social_links": {}
  }
]