[
  {
    "name": "Bluegrass Professional Associates",
    "address": "Jeffersontown, KY",
    "phone": "(502) 957-3371",
    "rating": 4.0,
    "reviews": 25,
    "website": "https://www.bluegrasspro.com/",
    "category": "American-Indian-owned IRS audit representation in Kentucky",
    "description": "Offers comprehensive IRS audit defense and problem resolution services, with over 25 years of tax compliance and audit experience. They handle all communication and documentation to protect your rights",
    "hours": "Mon-Fri 9AM-6PM",
    "services": [
      "American-Indian-owned IRS audit representation in Kentucky consultation",
      "Professional service",
      "Quality guarantee"
    ],
    "social_links": {}
  },
  {
    "name": "Teffany L Maderic CPA",
    "address": "4143 East Blue Lick RD, Louisville, KY 40229",
    "phone": "(502) 957-3371",
    "rating": 4.0,
    "reviews": 25,
    "website": "https://www.teffanymadericcpa.com/",
    "category": "American-Indian-owned IRS audit representation in Kentucky",
    "description": "Provides IRS audit representation, handling all communication and paperwork with the IRS so clients don't have to. They aim to resolve issues efficiently and favorably",
    "hours": "Mon-Fri 9AM-6PM",
    "services": [
      "American-Indian-owned IRS audit representation in Kentucky consultation",
      "Professional service",
      "Quality guarantee"
    ],
    "social_links": {}
  },
  {
    "name": "The Livesay Group PLLC",
    "address": "185 Pasadena Drive #255, Lexington, KY 40503",
    "phone": "(859) 296-1913",
    "rating": 4.0,
    "reviews": 25,
    "website": "https://livesaygroup.com/",
    "category": "American-Indian-owned IRS audit representation in Kentucky",
    "description": "A full-service tax, accounting, and business consulting firm that offers IRS audit representation. They handle audit correspondence, minimize tax liability, and manage discussions with auditors",
    "hours": "Mon-Fri 9AM-6PM",
    "services": [
      "American-Indian-owned IRS audit representation in Kentucky consultation",
      "Professional service",
      "Quality guarantee"
    ],
    "social_links": {}
  },
  {
    "name": "Kentucky Tax Services (Mike Habib, EA)",
    "address": "Louisville, Jefferson County, KY",
    "phone": "877-788-2937",
    "rating": 4.0,
    "reviews": 25,
    "website": "https://www.kentuckytaxservices.com/",
    "category": "American-Indian-owned IRS audit representation in Kentucky",
    "description": "Offers expert IRS licensed enrolled agent representation to protect taxpayer rights during audits. They handle various types of audits, including correspondence, office, and field audits",
    "hours": "Mon-Fri 9AM-6PM",
    "services": [
      "American-Indian-owned IRS audit representation in Kentucky consultation",
      "Professional service",
      "Quality guarantee"
    ],
    "social_links": {}
  },
  {
    "name": "NSKT Global",
    "address": "Lexington, KY",
    "phone": "318-722-2221",
    "rating": 4.0,
    "reviews": 25,
    "website": "https://www.google.com/maps/search/NSKT+Global+in+Kentucky",
    "category": "American-Indian-owned IRS audit representation in Kentucky",
    "description": "Listed as an Indian Financial & Taxation Service provider in Lexington, KY, offering services that may include IRS representation",
    "hours": "Mon-Fri 9AM-6PM",
    "services": [
      "American-Indian-owned IRS audit representation in Kentucky consultation",
      "Professional service",
      "Quality guarantee"
    ],
    "social_links": {}
  },
  {
    "name": "Prorata Accounting And Consulting",
    "address": "Lexington, KY",
    "phone": "516-518-8867",
    "rating": 4.0,
    "reviews": 25,
    "website": "https://www.google.com/maps/search/Prorata+Accounting+And+Consulting+in+Kentucky",
    "category": "American-Indian-owned IRS audit representation in Kentucky",
    "description": "Offers accountant services in Lexington, KY, and is listed among Indian financial and taxation services, potentially including IRS audit representation",
    "hours": "Mon-Fri 9AM-6PM",
    "services": [
      "American-Indian-owned IRS audit representation in Kentucky consultation",
      "Professional service",
      "Quality guarantee"
    ],
    "social_links": {}
  },
  {
    "name": "Trillium Square Advisors LLC",
    "address": "Lexington, KY",
    "phone": "512-355-7224",
    "rating": 4.0,
    "reviews": 25,
    "website": "https://www.google.com/maps/search/Trillium+Square+Advisors+LLC+in+Kentucky",
    "category": "American-Indian-owned IRS audit representation in Kentucky",
    "description": "Provides investment management and other financial services in Lexington, KY, listed under Indian financial and taxation services",
    "hours": "Mon-Fri 9AM-6PM",
    "services": [
      "American-Indian-owned IRS audit representation in Kentucky consultation",
      "Professional service",
      "Quality guarantee"
    ],
    "social_links": {}
  },
  {
    "name": "Smart Financial Group",
    "address": "Lexington, KY",
    "phone": "218-277-7773",
    "rating": 4.0,
    "reviews": 25,
    "website": "https://www.google.com/maps/search/Smart+Financial+Group+in+Kentucky",
    "category": "American-Indian-owned IRS audit representation in Kentucky",
    "description": "Offers investment management and other financial services in Lexington, KY, listed under Indian financial and taxation services",
    "hours": "Mon-Fri 9AM-6PM",
    "services": [
      "American-Indian-owned IRS audit representation in Kentucky consultation",
      "Professional service",
      "Quality guarantee"
    ],
    "social_links": {}
  },
  {
    "name": "Devesh Pathak CPA",
    "address": "Lexington, KY",
    "phone": "617-299-8445",
    "rating": 4.0,
    "reviews": 25,
    "website": "https://www.google.com/maps/search/Devesh+Pathak+CPA+in+Kentucky",
    "category": "American-Indian-owned IRS audit representation in Kentucky",
    "description": "A Certified Public Accountant listed under Indian financial and taxation services in Lexington, KY, who may offer IRS audit representation",
    "hours": "Mon-Fri 9AM-6PM",
    "services": [
      "American-Indian-owned IRS audit representation in Kentucky consultation",
      "Professional service",
      "Quality guarantee"
    ],
    "social_links": {}
  },
  {
    "name": "Kumar Accountancy CPA",
    "address": "Lexington, KY",
    "phone": "732-355-3277",
    "rating": 4.0,
    "reviews": 25,
    "website": "https://www.google.com/maps/search/Kumar+Accountancy+CPA+in+Kentucky",
    "category": "American-Indian-owned IRS audit representation in Kentucky",
    "description": "A Certified Public Accountant listed under Indian financial and taxation services in Lexington, KY, who may offer IRS audit representation",
    "hours": "Mon-Fri 9AM-6PM",
    "services": [
      "American-Indian-owned IRS audit representation in Kentucky consultation",
      "Professional service",
      "Quality guarantee"
    ],
    "social_links": {}
  }
]