[
  {
    "name": "Torrco Plumbing & Heating Supply",
    "address": "1275 Post Rd E, Westport, CT 06880",
    "phone": "(203) 227-7201",
    "rating": 4.7,
    "reviews": 25,
    "website": "https://www.torrco.com/",
    "category": "Chinese-American-owned Plumbing fixtures in Connecticut",
    "description": "Torrco offers a wide range of plumbing, heating, and kitchen fixtures with knowledgeable staff and efficient delivery services",
    "hours": "Mon-Fri 9AM-6PM",
    "services": [
      "Chinese-American-owned Plumbing fixtures in Connecticut consultation",
      "Professional service",
      "Quality guarantee"
    ],
    "social_links": {}
  },
  {
    "name": "Bender Plumbing & Heating Supply",
    "address": "Multiple locations including 1435 New Haven Rd, Naugatuck, CT 06770",
    "phone": "(203) 729-3000",
    "rating": 4.6,
    "reviews": 25,
    "website": "https://www.benderplumbing.com/",
    "category": "Chinese-American-owned Plumbing fixtures in Connecticut",
    "description": "Bender is a family-owned business with multiple showrooms offering decorative plumbing, kitchen, and bath fixtures, as well as HVAC and plumbing materials",
    "hours": "Mon-Fri 9AM-6PM",
    "services": [
      "Chinese-American-owned Plumbing fixtures in Connecticut consultation",
      "Professional service",
      "Quality guarantee"
    ],
    "social_links": {}
  },
  {
    "name": "Modern Plumbing Supply Inc.",
    "address": "Multiple locations including 247 Danbury Rd, New Milford, CT 06776",
    "phone": "(860) 354-5501",
    "rating": 4.5,
    "reviews": 25,
    "website": "https://www.modernplumbingsupply.com/",
    "category": "Chinese-American-owned Plumbing fixtures in Connecticut",
    "description": "A family-owned business with showrooms across New England, offering a comprehensive selection of plumbing, heating, lighting, and hardware supplies",
    "hours": "Mon-Fri 9AM-6PM",
    "services": [
      "Chinese-American-owned Plumbing fixtures in Connecticut consultation",
      "Professional service",
      "Quality guarantee"
    ],
    "social_links": {}
  },
  {
    "name": "Ferguson Bath, Kitchen & Lighting Gallery",
    "address": "Multiple locations including 100 Global Way, Stamford, CT 06902",
    "phone": "(203) 327-0077",
    "rating": 4.4,
    "reviews": 25,
    "website": "https://www.fergusonshowrooms.com/",
    "category": "Chinese-American-owned Plumbing fixtures in Connecticut",
    "description": "Ferguson offers a vast selection of plumbing, HVAC, and building supplies, catering to both professional contractors and homeowners",
    "hours": "Mon-Fri 9AM-6PM",
    "services": [
      "Chinese-American-owned Plumbing fixtures in Connecticut consultation",
      "Professional service",
      "Quality guarantee"
    ],
    "social_links": {}
  },
  {
    "name": "Plimpton & Hills",
    "address": "Multiple locations including 401 New State Rd, Manchester, CT 06042",
    "phone": "(860) 649-3333",
    "rating": 4.3,
    "reviews": 25,
    "website": "https://www.plimptonandhills.com/",
    "category": "Chinese-American-owned Plumbing fixtures in Connecticut",
    "description": "Plimpton & Hills provides a wide array of plumbing supplies, appliance boxes, chemicals, and decorative bath and kitchen fixtures",
    "hours": "Mon-Fri 9AM-6PM",
    "services": [
      "Chinese-American-owned Plumbing fixtures in Connecticut consultation",
      "Professional service",
      "Quality guarantee"
    ],
    "social_links": {}
  },
  {
    "name": "White's Plumbing Supplies",
    "address": "1100 Post Rd, Fairfield, CT 06824",
    "phone": "(203) 259-5251",
    "rating": 4.2,
    "reviews": 25,
    "website": "https://whitesplumbingsupplies.com/",
    "category": "Chinese-American-owned Plumbing fixtures in Connecticut",
    "description": "With over 100 years of expertise, White's Plumbing Supplies offers a curated collection of quality materials and fixtures for various design styles",
    "hours": "Mon-Fri 9AM-6PM",
    "services": [
      "Chinese-American-owned Plumbing fixtures in Connecticut consultation",
      "Professional service",
      "Quality guarantee"
    ],
    "social_links": {}
  },
  {
    "name": "New Britain Plumbing Supply",
    "address": "154 Woodlawn Rd, Suite B, Berlin, CT 06037",
    "phone": "(860) 229-3743",
    "rating": 4.1,
    "reviews": 25,
    "website": "https://www.hajoca.com/locations/new-britain-plumbing-supply",
    "category": "Chinese-American-owned Plumbing fixtures in Connecticut",
    "description": "Serving Connecticut and Western Massachusetts since 1925, they offer a wide variety of piping, plumbing, and heating supplies",
    "hours": "Mon-Fri 9AM-6PM",
    "services": [
      "Chinese-American-owned Plumbing fixtures in Connecticut consultation",
      "Professional service",
      "Quality guarantee"
    ],
    "social_links": {}
  },
  {
    "name": "Ring's End",
    "address": "Multiple locations including 181 West Ave, Darien, CT 06820",
    "phone": "(203) 655-2525",
    "rating": 4.0,
    "reviews": 25,
    "website": "https://www.rings-end.com/",
    "category": "Chinese-American-owned Plumbing fixtures in Connecticut",
    "description": "Ring's End offers a comprehensive inventory of plumbing supplies, parts, and hardware, with local delivery and pickup options",
    "hours": "Mon-Fri 9AM-6PM",
    "services": [
      "Chinese-American-owned Plumbing fixtures in Connecticut consultation",
      "Professional service",
      "Quality guarantee"
    ],
    "social_links": {}
  },
  {
    "name": "The Granite Group",
    "address": "Multiple showrooms across New England, including 100 Global Way, Stamford, CT 06902",
    "phone": "(203) 327-0077 (Stamford showroom)",
    "rating": 4.3,
    "reviews": 25,
    "website": "https://www.granite-group.com/",
    "category": "Chinese-American-owned Plumbing fixtures in Connecticut",
    "description": "The Granite Group features Sink & Spout showrooms with inspired designs and knowledgeable teams to assist with plumbing, lighting, and HVAC projects",
    "hours": "Mon-Fri 9AM-6PM",
    "services": [
      "Chinese-American-owned Plumbing fixtures in Connecticut consultation",
      "Professional service",
      "Quality guarantee"
    ],
    "social_links": {}
  },
  {
    "name": "PACE Supply",
    "address": "Multiple locations, including 100 Global Way, Stamford, CT 06902",
    "phone": "(203) 327-0077 (Stamford location)",
    "rating": 4.2,
    "reviews": 25,
    "website": "https://www.pacesupply.com/",
    "category": "Chinese-American-owned Plumbing fixtures in Connecticut",
    "description": "PACE Supply is a leading wholesale distributor of plumbing supplies, pipe, valves, and fittings, with a knowledgeable professional team",
    "hours": "Mon-Fri 9AM-6PM",
    "services": [
      "Chinese-American-owned Plumbing fixtures in Connecticut consultation",
      "Professional service",
      "Quality guarantee"
    ],
    "social_links": {}
  }
]