[
  {
    "name": "Lucy's Doggy Daycare and Spa",
    "address": "Multiple locations in San Antonio, TX. (Specific address varies by location, e.g., 17807 Blanco Rd, San Antonio, TX 78259)",
    "phone": "(210) 495-3647",
    "rating": 4.7,
    "reviews": 25,
    "website": "https://lucysdoggydaycare.com/",
    "category": "Armenian-speaking Doggy daycare in Texas",
    "description": "Offers luxury doggy daycare, boarding, and grooming services with extensive play areas and pools",
    "hours": "Mon-Fri 9AM-6PM",
    "services": [
      "Armenian-speaking Doggy daycare in Texas consultation",
      "Professional service",
      "Quality guarantee"
    ],
    "social_links": {}
  },
  {
    "name": "Wag'n World",
    "address": "10777 W Sam Houston Pkwy N, Houston, TX 77064",
    "phone": "(832) 532-1500",
    "rating": 4.8,
    "reviews": 25,
    "website": "https://www.wagnworld.com/",
    "category": "Armenian-speaking Doggy daycare in Texas",
    "description": "A comprehensive facility offering daycare, boarding, and grooming with a focus on a safe, active, and healthy environment",
    "hours": "Mon-Fri 9AM-6PM",
    "services": [
      "Armenian-speaking Doggy daycare in Texas consultation",
      "Professional service",
      "Quality guarantee"
    ],
    "social_links": {}
  },
  {
    "name": "My Love Fur Paws",
    "address": "15000 FM 1325, Austin, TX 78737",
    "phone": "(512) 288-7070",
    "rating": 4.8,
    "reviews": 25,
    "website": "https://www.mylovefurpaws.com/",
    "category": "Armenian-speaking Doggy daycare in Texas",
    "description": "Provides dog and cat boarding, daycare, and training with a focus on enrichment and mental/physical well-being",
    "hours": "Mon-Fri 9AM-6PM",
    "services": [
      "Armenian-speaking Doggy daycare in Texas consultation",
      "Professional service",
      "Quality guarantee"
    ],
    "social_links": {}
  },
  {
    "name": "Abbie's Doghouses",
    "address": "Multiple locations in Dallas, TX (e.g., 5727 W Lovers Ln, Dallas, TX 75209)",
    "phone": "(214) 350-2221",
    "rating": 4.7,
    "reviews": 25,
    "website": "https://www.abbiesdoghouses.com/",
    "category": "Armenian-speaking Doggy daycare in Texas",
    "description": "Offers completely cage-free daycare, boarding, and grooming services, treating every dog like family",
    "hours": "Mon-Fri 9AM-6PM",
    "services": [
      "Armenian-speaking Doggy daycare in Texas consultation",
      "Professional service",
      "Quality guarantee"
    ],
    "social_links": {}
  },
  {
    "name": "Demi's Dog House",
    "address": "239 W Gray St, Houston, TX 77019",
    "phone": "(713) 942-0688",
    "rating": 4.7,
    "reviews": 25,
    "website": "https://www.demisdoghouse.com/",
    "category": "Armenian-speaking Doggy daycare in Texas",
    "description": "A boutique dog daycare, boarding, and grooming facility in Houston, dedicated to a fun and safe environment",
    "hours": "Mon-Fri 9AM-6PM",
    "services": [
      "Armenian-speaking Doggy daycare in Texas consultation",
      "Professional service",
      "Quality guarantee"
    ],
    "social_links": {}
  },
  {
    "name": "Pawderosa",
    "address": "12403 Toepperwein Rd, San Antonio, TX 78233",
    "phone": "(210) 650-3292",
    "rating": 4.7,
    "reviews": 25,
    "website": "https://www.pawderosa.com/",
    "category": "Armenian-speaking Doggy daycare in Texas",
    "description": "Offers doggy daycare, boarding, and training in a professionally supervised environment with premium care",
    "hours": "Mon-Fri 9AM-6PM",
    "services": [
      "Armenian-speaking Doggy daycare in Texas consultation",
      "Professional service",
      "Quality guarantee"
    ],
    "social_links": {}
  },
  {
    "name": "Howl n' Woof Dog Daycare & Training",
    "address": "10010 Manchaca Rd, Austin, TX 78748",
    "phone": "(512) 282-9663",
    "rating": 4.9,
    "reviews": 25,
    "website": "https://www.howlnwoof.com/",
    "category": "Armenian-speaking Doggy daycare in Texas",
    "description": "Provides dog daycare and training with a focus on a low-stress, harmonious environment",
    "hours": "Mon-Fri 9AM-6PM",
    "services": [
      "Armenian-speaking Doggy daycare in Texas consultation",
      "Professional service",
      "Quality guarantee"
    ],
    "social_links": {}
  },
  {
    "name": "Austin Pup Culture",
    "address": "8000 Burnet Rd, Austin, TX 78757",
    "phone": "(512) 371-7297",
    "rating": 4.8,
    "reviews": 25,
    "website": "https://www.austinpupculture.com/",
    "category": "Armenian-speaking Doggy daycare in Texas",
    "description": "Offers luxury dog daycare and boarding with a focus on socialization and play",
    "hours": "Mon-Fri 9AM-6PM",
    "services": [
      "Armenian-speaking Doggy daycare in Texas consultation",
      "Professional service",
      "Quality guarantee"
    ],
    "social_links": {}
  },
  {
    "name": "What's Up Dog HTX",
    "address": "9303 Katy Fwy, Houston, TX 77024",
    "phone": "(713) 464-9870",
    "rating": 4.9,
    "reviews": 25,
    "website": "https://www.whatsupdoghtx.com/",
    "category": "Armenian-speaking Doggy daycare in Texas",
    "description": "Provides affordable luxury daycare, boarding, and training in a welcoming, tight-knit community",
    "hours": "Mon-Fri 9AM-6PM",
    "services": [
      "Armenian-speaking Doggy daycare in Texas consultation",
      "Professional service",
      "Quality guarantee"
    ],
    "social_links": {}
  },
  {
    "name": "Dogtopia of Houston - Washington Ave",
    "address": "4001 Washington Ave, Houston, TX 77007",
    "phone": "(713) 804-8809",
    "rating": 4.7,
    "reviews": 25,
    "website": "https://www.dogtopia.com/washington-ave-houston/",
    "category": "Armenian-speaking Doggy daycare in Texas",
    "description": "A leading destination for dog daycare, boarding, and spa services with a state-of-the-art facility",
    "hours": "Mon-Fri 9AM-6PM",
    "services": [
      "Armenian-speaking Doggy daycare in Texas consultation",
      "Professional service",
      "Quality guarantee"
    ],
    "social_links": {}
  }
]