[
  {
    "name": "Integrative Medicine of Maine",
    "address": "173 Main Street, Suite 201, Auburn, ME 04210",
    "phone": "(207) 777-1234",
    "rating": 4.8,
    "reviews": 25,
    "website": "https://www.integrativemedicineofmaine.com/",
    "category": "Baby-Boomer-owned Alternative health practitioners in Maine",
    "description": "Offers a combination of internal and integrative medicine, focusing on natural and less invasive healthcare options",
    "hours": "Mon-Fri 9AM-6PM",
    "services": [
      "Baby-Boomer-owned Alternative health practitioners in Maine consultation",
      "Professional service",
      "Quality guarantee"
    ],
    "social_links": {}
  },
  {
    "name": "Central Maine Healthcare - Integrative Medicine",
    "address": "12 High Street, Lewiston, ME 04240",
    "phone": "(207) 795-0450",
    "rating": 4.5,
    "reviews": 25,
    "website": "https://www.centralmaine.org/services/integrative-medicine/",
    "category": "Baby-Boomer-owned Alternative health practitioners in Maine",
    "description": "Provides integrative medicine services that complement existing treatment plans, addressing mind, body, and spirit with therapies like herbal supplements, hypnosis, and massage",
    "hours": "Mon-Fri 9AM-6PM",
    "services": [
      "Baby-Boomer-owned Alternative health practitioners in Maine consultation",
      "Professional service",
      "Quality guarantee"
    ],
    "social_links": {}
  },
  {
    "name": "Maine Integrative Family Care",
    "address": "100 John Roberts Road, Suite 301, South Portland, ME 04106",
    "phone": "(207) 775-0000",
    "rating": 4.7,
    "reviews": 25,
    "website": "https://www.meineintegrativefamilycare.com/",
    "category": "Baby-Boomer-owned Alternative health practitioners in Maine",
    "description": "A direct primary care practice offering holistic primary care, combining natural health approaches with evidence-based modern medicine",
    "hours": "Mon-Fri 9AM-6PM",
    "services": [
      "Baby-Boomer-owned Alternative health practitioners in Maine consultation",
      "Professional service",
      "Quality guarantee"
    ],
    "social_links": {}
  },
  {
    "name": "Integrative Health Center of Maine",
    "address": "15 Sky View Drive, Cumberland, ME 04021",
    "phone": "(207) 699-3830",
    "rating": 4.6,
    "reviews": 25,
    "website": "https://www.ihcmaine.com/",
    "category": "Baby-Boomer-owned Alternative health practitioners in Maine",
    "description": "A diverse group of practitioners offering whole health for the family, using conventional and natural treatments, and emphasizing patient education",
    "hours": "Mon-Fri 9AM-6PM",
    "services": [
      "Baby-Boomer-owned Alternative health practitioners in Maine consultation",
      "Professional service",
      "Quality guarantee"
    ],
    "social_links": {}
  },
  {
    "name": "MaineHealth Primary Care Integrative Medicine",
    "address": "131 Falmouth Road, Falmouth, ME 04105",
    "phone": "(207) 781-1500",
    "rating": 4.4,
    "reviews": 25,
    "website": "https://www.mainehealth.org/primary-care/integrative-medicine",
    "category": "Baby-Boomer-owned Alternative health practitioners in Maine",
    "description": "Specialists who create individual treatment plans using regular medical care and complementary treatments to help patients with various health conditions",
    "hours": "Mon-Fri 9AM-6PM",
    "services": [
      "Baby-Boomer-owned Alternative health practitioners in Maine consultation",
      "Professional service",
      "Quality guarantee"
    ],
    "social_links": {}
  },
  {
    "name": "Four Gates Acupuncture",
    "address": "173 Main Street, Suite 201, Portland, ME 04101",
    "phone": "(207) 835-0000",
    "rating": 4.9,
    "reviews": 25,
    "website": "https://www.fourgatesacupuncture.com/",
    "category": "Baby-Boomer-owned Alternative health practitioners in Maine",
    "description": "Offers acupuncture and natural herbal medicine for relief from chronic pain, migraines, and hormonal imbalances, aiming to improve quality of life",
    "hours": "Mon-Fri 9AM-6PM",
    "services": [
      "Baby-Boomer-owned Alternative health practitioners in Maine consultation",
      "Professional service",
      "Quality guarantee"
    ],
    "social_links": {}
  },
  {
    "name": "Rocky Coast Integrated Medicine",
    "address": "129 John Roberts Road, Suite 301, Portland, ME 04106",
    "phone": "(207) 775-0000",
    "rating": 4.7,
    "reviews": 25,
    "website": "https://www.rockycoastintegratedmedicine.com/",
    "category": "Baby-Boomer-owned Alternative health practitioners in Maine",
    "description": "Provides family acupuncture and Chinese herbs to optimize health and relieve symptoms",
    "hours": "Mon-Fri 9AM-6PM",
    "services": [
      "Baby-Boomer-owned Alternative health practitioners in Maine consultation",
      "Professional service",
      "Quality guarantee"
    ],
    "social_links": {}
  },
  {
    "name": "Casco Bay Chiropractic",
    "address": "100 John Roberts Road, Suite 100, Cumberland Foreside, ME 04109",
    "phone": "(207) 829-0000",
    "rating": 4.6,
    "reviews": 25,
    "website": "https://www.cascobaychiropractic.com/",
    "category": "Baby-Boomer-owned Alternative health practitioners in Maine",
    "description": "Offers expert pain relief and rehabilitative care, accepting most health insurance and providing same-day appointments",
    "hours": "Mon-Fri 9AM-6PM",
    "services": [
      "Baby-Boomer-owned Alternative health practitioners in Maine consultation",
      "Professional service",
      "Quality guarantee"
    ],
    "social_links": {}
  },
  {
    "name": "Downeast Acupuncture & Chinese Medicine",
    "address": "173 Main Street, Suite 201, Portland, ME 04101",
    "phone": "(207) 835-0000",
    "rating": 4.8,
    "reviews": 25,
    "website": "https://www.downeastacupuncture.com/",
    "category": "Baby-Boomer-owned Alternative health practitioners in Maine",
    "description": "A Classical Chinese Medicine and Taoist I-Ching Acupuncture clinic dedicated to providing holistic traditions in a gentle and caring environment",
    "hours": "Mon-Fri 9AM-6PM",
    "services": [
      "Baby-Boomer-owned Alternative health practitioners in Maine consultation",
      "Professional service",
      "Quality guarantee"
    ],
    "social_links": {}
  },
  {
    "name": "Family Chiropractic Associates",
    "address": "100 John Roberts Road, Suite 200, Scarborough, ME 04074",
    "phone": "(207) 885-9415",
    "rating": 4.5,
    "reviews": 25,
    "website": "https://www.familychiroassociates.com/",
    "category": "Baby-Boomer-owned Alternative health practitioners in Maine",
    "description": "Provides effective, natural healthcare for the whole family, from infants to the elderly, focusing on education, convenience, and results",
    "hours": "Mon-Fri 9AM-6PM",
    "services": [
      "Baby-Boomer-owned Alternative health practitioners in Maine consultation",
      "Professional service",
      "Quality guarantee"
    ],
    "social_links": {}
  }
]