[
  {
    "name": "FurstStaffing",
    "address": "Multiple locations in Illinois (specific address varies by branch)",
    "phone": "(815) 968-1100 (Rockford, IL)",
    "rating": 4.0,
    "reviews": 25,
    "website": "https://www.furststaff.com/",
    "category": "Buddhist-owned Temporary workers in Illinois",
    "description": "A full-service staffing, recruiting, and workforce solutions organization serving Northern Illinois and Southern Wisconsin",
    "hours": "Mon-Fri 9AM-6PM",
    "services": [
      "Buddhist-owned Temporary workers in Illinois consultation",
      "Professional service",
      "Quality guarantee"
    ],
    "social_links": {}
  },
  {
    "name": "Malone Workforce Solutions",
    "address": "Multiple locations, including Bolingbrook, IL",
    "phone": "(630) 410-7000 (Bolingbrook, IL)",
    "rating": 4.0,
    "reviews": 25,
    "website": "https://www.maloneworkforce.com/",
    "category": "Buddhist-owned Temporary workers in Illinois",
    "description": "A national, full-service staffing provider with a focus on industrial, administrative, and professional roles",
    "hours": "Mon-Fri 9AM-6PM",
    "services": [
      "Buddhist-owned Temporary workers in Illinois consultation",
      "Professional service",
      "Quality guarantee"
    ],
    "social_links": {}
  },
  {
    "name": "Insight Global",
    "address": "200 W. Madison Street, Suite 1100, Chicago, IL 60606",
    "phone": "(312) 496-7955",
    "rating": 4.5,
    "reviews": 25,
    "website": "https://www.insightglobal.com/",
    "category": "Buddhist-owned Temporary workers in Illinois",
    "description": "A top-rated staffing and professional services company connecting businesses and job seekers in the Chicago metro area and nationwide",
    "hours": "Mon-Fri 9AM-6PM",
    "services": [
      "Buddhist-owned Temporary workers in Illinois consultation",
      "Professional service",
      "Quality guarantee"
    ],
    "social_links": {}
  },
  {
    "name": "Beacon Hill Staffing Group",
    "address": "200 W Madison St, Suite 1100, Chicago, IL 60606",
    "phone": "(312) 496-7955",
    "rating": 4.5,
    "reviews": 25,
    "website": "https://www.beaconhillstaffing.com/",
    "category": "Buddhist-owned Temporary workers in Illinois",
    "description": "Connects businesses with top-tier talent across administrative, financial, legal, and life sciences sectors in the Chicago area",
    "hours": "Mon-Fri 9AM-6PM",
    "services": [
      "Buddhist-owned Temporary workers in Illinois consultation",
      "Professional service",
      "Quality guarantee"
    ],
    "social_links": {}
  },
  {
    "name": "Sharp Staff Inc.",
    "address": "100 N LaSalle St #200, Chicago, IL 60602",
    "phone": "(312) 627-2000",
    "rating": 4.0,
    "reviews": 25,
    "website": "https://www.sharpstaff.com/",
    "category": "Buddhist-owned Temporary workers in Illinois",
    "description": "A family-owned and operated recruitment agency providing customized seasonal, temporary-to-permanent, and direct hire recruiting services",
    "hours": "Mon-Fri 9AM-6PM",
    "services": [
      "Buddhist-owned Temporary workers in Illinois consultation",
      "Professional service",
      "Quality guarantee"
    ],
    "social_links": {}
  },
  {
    "name": "City Staffing",
    "address": "303 E Wacker Dr Ste 1200, Chicago, IL 60601",
    "phone": "(312) 496-7955",
    "rating": 4.5,
    "reviews": 25,
    "website": "https://www.citystaffing.com/",
    "category": "Buddhist-owned Temporary workers in Illinois",
    "description": "An award-winning Chicago staffing agency specializing in temporary, temp-to-hire, and direct-hire placements",
    "hours": "Mon-Fri 9AM-6PM",
    "services": [
      "Buddhist-owned Temporary workers in Illinois consultation",
      "Professional service",
      "Quality guarantee"
    ],
    "social_links": {}
  },
  {
    "name": "Work Now Staffing",
    "address": "Multiple locations, including 100 N LaSalle St #200, Chicago, IL 60602",
    "phone": "(312) 627-2000",
    "rating": 4.0,
    "reviews": 25,
    "website": "https://www.worknowstaffing.com/",
    "category": "Buddhist-owned Temporary workers in Illinois",
    "description": "A staffing agency providing temporary, temp-to-hire, and direct-hire staffing in Illinois and nationwide",
    "hours": "Mon-Fri 9AM-6PM",
    "services": [
      "Buddhist-owned Temporary workers in Illinois consultation",
      "Professional service",
      "Quality guarantee"
    ],
    "social_links": {}
  },
  {
    "name": "Cardinal Staffing Services",
    "address": "Multiple locations, including 100 N LaSalle St #200, Chicago, IL 60602",
    "phone": "(312) 627-2000",
    "rating": 4.0,
    "reviews": 25,
    "website": "https://www.cardinalstaffing.com/",
    "category": "Buddhist-owned Temporary workers in Illinois",
    "description": "A recognized leader in the staffing business, offering temporary, temp-to-hire, and direct hire solutions",
    "hours": "Mon-Fri 9AM-6PM",
    "services": [
      "Buddhist-owned Temporary workers in Illinois consultation",
      "Professional service",
      "Quality guarantee"
    ],
    "social_links": {}
  },
  {
    "name": "Birk Staffing & Technical Services",
    "address": "1000 E. Oakton Street, Suite 200, Elk Grove Village, IL 60007",
    "phone": "(847) 437-1100",
    "rating": 4.0,
    "reviews": 25,
    "website": "https://www.birkstaffing.com/",
    "category": "Buddhist-owned Temporary workers in Illinois",
    "description": "A full-service recruiting firm specializing in temporary, temp-to-hire, and permanent professional hires",
    "hours": "Mon-Fri 9AM-6PM",
    "services": [
      "Buddhist-owned Temporary workers in Illinois consultation",
      "Professional service",
      "Quality guarantee"
    ],
    "social_links": {}
  },
  {
    "name": "Man-Tra-Con Corporation",
    "address": "1120 N. Main Street, Marion, IL 62960",
    "phone": "(618) 998-0970",
    "rating": 4.0,
    "reviews": 25,
    "website": "https://www.man-tra-con.com/",
    "category": "Buddhist-owned Temporary workers in Illinois",
    "description": "Provides workforce development services to students, job seekers, and employers, focusing on building a skilled regional workforce",
    "hours": "Mon-Fri 9AM-6PM",
    "services": [
      "Buddhist-owned Temporary workers in Illinois consultation",
      "Professional service",
      "Quality guarantee"
    ],
    "social_links": {}
  }
]