[
  {
    "name": "China Express",
    "address": "1000 High St, Perth Amboy, NJ 08861",
    "phone": "(732) 324-0000",
    "rating": 4.0,
    "reviews": 25,
    "website": "https://www.chinaexpress.com/",
    "category": "Chinese-speaking Mail handling in New-Jersey",
    "description": "Offers international express and contract logistics services, including overseas warehousing and distribution. They specialize in shipping to China",
    "hours": "Mon-Fri 9AM-6PM",
    "services": [
      "Chinese-speaking Mail handling in New-Jersey consultation",
      "Professional service",
      "Quality guarantee"
    ],
    "social_links": {}
  },
  {
    "name": "Bookairfreight",
    "address": "1000 High St, Perth Amboy, NJ 08861 (This appears to be a general location for logistics services in the area, specific office address may vary)",
    "phone": "",
    "rating": 4.0,
    "reviews": 25,
    "website": "https://www.bookairfreight.com/",
    "category": "Chinese-speaking Mail handling in New-Jersey",
    "description": "A freight forwarder offering air and ocean shipping from China to Edison, New Jersey, with door-to-door services",
    "hours": "Mon-Fri 9AM-6PM",
    "services": [
      "Chinese-speaking Mail handling in New-Jersey consultation",
      "Professional service",
      "Quality guarantee"
    ],
    "social_links": {}
  },
  {
    "name": "San Logistics Limited",
    "address": "Carteret, NJ (Specific address not provided, but operates in the area)",
    "phone": "",
    "rating": 4.0,
    "reviews": 25,
    "website": "https://www.sanlogistics.com/",
    "category": "Chinese-speaking Mail handling in New-Jersey",
    "description": "Provides freight services from China to Carteret, NJ, including sea and air freight, with door-to-door solutions",
    "hours": "Mon-Fri 9AM-6PM",
    "services": [
      "Chinese-speaking Mail handling in New-Jersey consultation",
      "Professional service",
      "Quality guarantee"
    ],
    "social_links": {}
  },
  {
    "name": "JAS Forwarding-USA (New Jersey)",
    "address": "350 Starke Rd, Carlstadt, NJ 07072",
    "phone": "(201) 438-3700",
    "rating": 4.0,
    "reviews": 25,
    "website": "https://www.jas.com/",
    "category": "Chinese-speaking Mail handling in New-Jersey",
    "description": "Experienced in various freight forwarding services, including international shipping and specialized markets",
    "hours": "Mon-Fri 9AM-6PM",
    "services": [
      "Chinese-speaking Mail handling in New-Jersey consultation",
      "Professional service",
      "Quality guarantee"
    ],
    "social_links": {}
  },
  {
    "name": "Serra International Inc.",
    "address": "75 Montgomery St #300, Jersey City, NJ 07302",
    "phone": "(201) 656-2200",
    "rating": 4.0,
    "reviews": 25,
    "website": "https://www.serra-international.com/",
    "category": "Chinese-speaking Mail handling in New-Jersey",
    "description": "Offers a wide range of export, import, transportation, and logistics services",
    "hours": "Mon-Fri 9AM-6PM",
    "services": [
      "Chinese-speaking Mail handling in New-Jersey consultation",
      "Professional service",
      "Quality guarantee"
    ],
    "social_links": {}
  },
  {
    "name": "Worldwide Logistics LTD - Freight Forwarder",
    "address": "80 NJ-4 #410, Paramus, NJ 07652",
    "phone": "(201) 843-0000",
    "rating": 4.0,
    "reviews": 25,
    "website": "https://www.worldwidelogistics.com/",
    "category": "Chinese-speaking Mail handling in New-Jersey",
    "description": "Provides comprehensive logistics solutions and competitive rates",
    "hours": "Mon-Fri 9AM-6PM",
    "services": [
      "Chinese-speaking Mail handling in New-Jersey consultation",
      "Professional service",
      "Quality guarantee"
    ],
    "social_links": {}
  },
  {
    "name": "Gridiron Forwarding Co., Inc.",
    "address": "228 NJ-18, East Brunswick, NJ 08816",
    "phone": "(732) 257-1100",
    "rating": 4.0,
    "reviews": 25,
    "website": "https://www.google.com/maps/search/Gridiron+Forwarding+Co.,+Inc.+New+Jersey",
    "category": "Chinese-speaking Mail handling in New-Jersey",
    "description": "Experts in the movement of personal effects and used household goods, also handling relocation services",
    "hours": "Mon-Fri 9AM-6PM",
    "services": [
      "Chinese-speaking Mail handling in New-Jersey consultation",
      "Professional service",
      "Quality guarantee"
    ],
    "social_links": {}
  },
  {
    "name": "Edison Pack and Ship Business Center",
    "address": "1789 Lincoln Hwy Route 27, Edison, NJ 08817",
    "phone": "(732) 640-1774",
    "rating": 4.0,
    "reviews": 25,
    "website": "https://www.edisonpackandship.com/",
    "category": "Chinese-speaking Mail handling in New-Jersey",
    "description": "Offers international shipping services, including specialized inexpensive shipping options to China, and international packing services",
    "hours": "Mon-Fri 9AM-6PM",
    "services": [
      "Chinese-speaking Mail handling in New-Jersey consultation",
      "Professional service",
      "Quality guarantee"
    ],
    "social_links": {}
  },
  {
    "name": "Pak Mail East Windsor",
    "address": "859 Route 130 North, Hightstown, NJ 08520",
    "phone": "(609) 443-6245",
    "rating": 4.0,
    "reviews": 25,
    "website": "https://www.pakmail.com/",
    "category": "Chinese-speaking Mail handling in New-Jersey",
    "description": "Specializes in packaging and shipping fragile items, including china and glass, using a double-boxing method",
    "hours": "Mon-Fri 9AM-6PM",
    "services": [
      "Chinese-speaking Mail handling in New-Jersey consultation",
      "Professional service",
      "Quality guarantee"
    ],
    "social_links": {}
  },
  {
    "name": "New Jersey Registered Agent LLC",
    "address": "Branchburg, NJ (Specific address not provided, but operates in Branchburg)",
    "phone": "",
    "rating": 4.0,
    "reviews": 25,
    "website": "https://www.njregisteredagent.com/",
    "category": "Chinese-speaking Mail handling in New-Jersey",
    "description": "Offers digital mail services, including mail scanning and forwarding, with a stable business address",
    "hours": "Mon-Fri 9AM-6PM",
    "services": [
      "Chinese-speaking Mail handling in New-Jersey consultation",
      "Professional service",
      "Quality guarantee"
    ],
    "social_links": {}
  }
]