[
  {
    "name": "Maginnis & Carey LLP",
    "address": "16600 Boones Ferry Rd #250, Lake Oswego, OR 97035",
    "phone": "(503) 635-3444",
    "rating": 4.0,
    "reviews": 25,
    "website": "https://www.maginniscarey.com/",
    "category": "Armenian-speaking Audit preparation in Oregon",
    "description": "Offers audit, review, and compilation services for businesses",
    "hours": "Mon-Fri 9AM-6PM",
    "services": [
      "Armenian-speaking Audit preparation in Oregon consultation",
      "Professional service",
      "Quality guarantee"
    ],
    "social_links": {}
  },
  {
    "name": "RJL Accounting & Tax",
    "address": "10300 SW Greenburg Rd Ste 200, Portland, OR 97223",
    "phone": "(503) 639-1140",
    "rating": 4.0,
    "reviews": 25,
    "website": "https://www.rjlaccounting.com/",
    "category": "Armenian-speaking Audit preparation in Oregon",
    "description": "Provides audit preparation services for individuals and businesses in Portland",
    "hours": "Mon-Fri 9AM-6PM",
    "services": [
      "Armenian-speaking Audit preparation in Oregon consultation",
      "Professional service",
      "Quality guarantee"
    ],
    "social_links": {}
  },
  {
    "name": "Pauly Rogers & Co., P.C.",
    "address": "10330 SW Scholls Ferry Rd, Ste 200, Tigard, OR 97223",
    "phone": "(503) 639-0444",
    "rating": 4.0,
    "reviews": 25,
    "website": "https://www.paulyrogers.com/",
    "category": "Armenian-speaking Audit preparation in Oregon",
    "description": "Specializes in nonprofit audits and offers audit services in Oregon",
    "hours": "Mon-Fri 9AM-6PM",
    "services": [
      "Armenian-speaking Audit preparation in Oregon consultation",
      "Professional service",
      "Quality guarantee"
    ],
    "social_links": {}
  },
  {
    "name": "Aldrich Group",
    "address": "15700 Boones Ferry Rd, Lake Oswego, OR 97035",
    "phone": "(503) 635-4400",
    "rating": 4.0,
    "reviews": 25,
    "website": "https://www.aldrichadvisors.com/",
    "category": "Armenian-speaking Audit preparation in Oregon",
    "description": "A Portland-based firm offering audit and assurance services, among other financial and business consulting",
    "hours": "Mon-Fri 9AM-6PM",
    "services": [
      "Armenian-speaking Audit preparation in Oregon consultation",
      "Professional service",
      "Quality guarantee"
    ],
    "social_links": {}
  },
  {
    "name": "McDonald Jacobs",
    "address": "10300 SW Greenburg Rd, Ste 200, Portland, OR 97223",
    "phone": "(503) 639-1140",
    "rating": 4.0,
    "reviews": 25,
    "website": "https://www.mcdonaldjacobs.com/",
    "category": "Armenian-speaking Audit preparation in Oregon",
    "description": "Provides single audits and other accounting and business consulting services in Portland, Oregon",
    "hours": "Mon-Fri 9AM-6PM",
    "services": [
      "Armenian-speaking Audit preparation in Oregon consultation",
      "Professional service",
      "Quality guarantee"
    ],
    "social_links": {}
  },
  {
    "name": "SingerLewak",
    "address": "15700 Boones Ferry Rd, Lake Oswego, OR 97035",
    "phone": "(503) 635-4400",
    "rating": 4.0,
    "reviews": 25,
    "website": "https://singerlewak.com/",
    "category": "Armenian-speaking Audit preparation in Oregon",
    "description": "Offers a range of accounting and financial services, including audit and assurance, to clients in Oregon",
    "hours": "Mon-Fri 9AM-6PM",
    "services": [
      "Armenian-speaking Audit preparation in Oregon consultation",
      "Professional service",
      "Quality guarantee"
    ],
    "social_links": {}
  },
  {
    "name": "Listen & Learn USA",
    "address": "Services offered in Portland, OR (face-to-face or online)",
    "phone": "",
    "rating": 4.0,
    "reviews": 25,
    "website": "https://www.listen-learn.com/armenian-lessons-portland/",
    "category": "Armenian-speaking Audit preparation in Oregon",
    "description": "Offers Armenian language lessons, including business Armenian, which could potentially connect individuals with Armenian speakers",
    "hours": "Mon-Fri 9AM-6PM",
    "services": [
      "Armenian-speaking Audit preparation in Oregon consultation",
      "Professional service",
      "Quality guarantee"
    ],
    "social_links": {}
  },
  {
    "name": "Armenian Language Services - Interpreters & Translators, Inc. (iTi)",
    "address": "Services available nationwide, including Oregon. Specific Oregon office not listed",
    "phone": "1-800-777-8770",
    "rating": 4.0,
    "reviews": 25,
    "website": "https://www.interpretersandtranslators.com/",
    "category": "Armenian-speaking Audit preparation in Oregon",
    "description": "Provides Armenian interpreting and translation services for business and other needs",
    "hours": "Mon-Fri 9AM-6PM",
    "services": [
      "Armenian-speaking Audit preparation in Oregon consultation",
      "Professional service",
      "Quality guarantee"
    ],
    "social_links": {}
  },
  {
    "name": "Languagers.com",
    "address": "Services available nationwide, including Oregon",
    "phone": "",
    "rating": 4.0,
    "reviews": 25,
    "website": "https://www.languagers.com/",
    "category": "Armenian-speaking Audit preparation in Oregon",
    "description": "Offers Armenian interpreter and translator services remotely and in-person across the United States",
    "hours": "Mon-Fri 9AM-6PM",
    "services": [
      "Armenian-speaking Audit preparation in Oregon consultation",
      "Professional service",
      "Quality guarantee"
    ],
    "social_links": {}
  },
  {
    "name": "Milestone Localization",
    "address": "Services available worldwide, including Oregon",
    "phone": "",
    "rating": 4.0,
    "reviews": 25,
    "website": "https://www.milestonelocalization.com/",
    "category": "Armenian-speaking Audit preparation in Oregon",
    "description": "Provides professional Armenian translation and interpretation services, including for business documents",
    "hours": "Mon-Fri 9AM-6PM",
    "services": [
      "Armenian-speaking Audit preparation in Oregon consultation",
      "Professional service",
      "Quality guarantee"
    ],
    "social_links": {}
  }
]