[
  {
    "name": "Blue Ridge Auto",
    "address": "(Not specified in search results)",
    "phone": "",
    "rating": 4.0,
    "reviews": 25,
    "website": "https://www.blueridgeauto.com/",
    "category": "Chinese-American-owned Tune-ups in Georgia",
    "description": "Specializes in Asian auto repair in Atlanta, GA, servicing brands like Acura, Honda, and Toyota",
    "hours": "Mon-Fri 9AM-6PM",
    "services": [
      "Chinese-American-owned Tune-ups in Georgia consultation",
      "Professional service",
      "Quality guarantee"
    ],
    "social_links": {}
  },
  {
    "name": "ASIAN ONE INC Auto Services",
    "address": "1746 Cobb Parkway S, Marietta, GA 30060",
    "phone": "770-541-6000",
    "rating": 4.0,
    "reviews": 25,
    "website": "https://www.google.com/maps/search/ASIAN+ONE+INC+Auto+Services+in+Georgia",
    "category": "Chinese-American-owned Tune-ups in Georgia",
    "description": "Specializes in Lexus, Toyota, Honda, Acura, European, and Domestic Vehicles. Offers all major services",
    "hours": "Mon-Fri 9AM-6PM",
    "services": [
      "Chinese-American-owned Tune-ups in Georgia consultation",
      "Professional service",
      "Quality guarantee"
    ],
    "social_links": {}
  },
  {
    "name": "Asian Automotive",
    "address": "(Located off GA-400, north of Dawsonville Outlets in Lumpkin County)",
    "phone": "",
    "rating": 4.0,
    "reviews": 25,
    "website": "https://www.google.com/maps/search/Asian+Automotive+in+Georgia",
    "category": "Chinese-American-owned Tune-ups in Georgia",
    "description": "Offers repair and service for Asian-made cars and other car brands, with over 20 years of experience",
    "hours": "Mon-Fri 9AM-6PM",
    "services": [
      "Chinese-American-owned Tune-ups in Georgia consultation",
      "Professional service",
      "Quality guarantee"
    ],
    "social_links": {}
  },
  {
    "name": "North Georgia Automotive",
    "address": "2405 Hwy 92, Acworth, GA 30102",
    "phone": "770-529-4333",
    "rating": 4.0,
    "reviews": 25,
    "website": "https://www.google.com/maps/search/North+Georgia+Automotive+in+Georgia",
    "category": "Chinese-American-owned Tune-ups in Georgia",
    "description": "Full-service auto repair and preventative maintenance facility specializing in Asian vehicles",
    "hours": "Mon-Fri 9AM-6PM",
    "services": [
      "Chinese-American-owned Tune-ups in Georgia consultation",
      "Professional service",
      "Quality guarantee"
    ],
    "social_links": {}
  },
  {
    "name": "Foreign / Asian Vehicles Service",
    "address": "(Not specified in search results, but mentions Kennesaw)",
    "phone": "",
    "rating": 4.0,
    "reviews": 25,
    "website": "https://www.google.com/maps/search/Foreign+/+Asian+Vehicles+Service+in+Georgia",
    "category": "Chinese-American-owned Tune-ups in Georgia",
    "description": "Offers tune-up/engine diagnostics, maintenance tune-up, fuel injection, engine management, and more for foreign/Asian vehicles",
    "hours": "Mon-Fri 9AM-6PM",
    "services": [
      "Chinese-American-owned Tune-ups in Georgia consultation",
      "Professional service",
      "Quality guarantee"
    ],
    "social_links": {}
  },
  {
    "name": "Alan Cox Automotive",
    "address": "1326 Cobb Parkway North, Marietta, GA 30060",
    "phone": "770-427-1745",
    "rating": 4.0,
    "reviews": 25,
    "website": "https://www.google.com/maps/search/Alan+Cox+Automotive+in+Georgia",
    "category": "Chinese-American-owned Tune-ups in Georgia",
    "description": "Specializes in Asian car repair and maintenance services, with ASE-certified technicians",
    "hours": "Mon-Fri 9AM-6PM",
    "services": [
      "Chinese-American-owned Tune-ups in Georgia consultation",
      "Professional service",
      "Quality guarantee"
    ],
    "social_links": {}
  },
  {
    "name": "Moore's Truck & Auto",
    "address": "1044 W Memorial Dr, Dallas, GA 30132",
    "phone": "770-443-0692",
    "rating": 4.0,
    "reviews": 25,
    "website": "https://www.google.com/maps/search/Moore's+Truck+&+Auto+in+Georgia",
    "category": "Chinese-American-owned Tune-ups in Georgia",
    "description": "Local Asian Auto Repair Specialist for cars and trucks, serving drivers since 1998",
    "hours": "Mon-Fri 9AM-6PM",
    "services": [
      "Chinese-American-owned Tune-ups in Georgia consultation",
      "Professional service",
      "Quality guarantee"
    ],
    "social_links": {}
  },
  {
    "name": "Fastlane Import Auto Repair",
    "address": "Locations in Hiram, Smyrna, and Woodstock, GA",
    "phone": "Hiram: 770-222-7004, Smyrna: 770-803-6320, Woodstock: 770-924-8055",
    "rating": 4.0,
    "reviews": 25,
    "website": "https://www.google.com/maps/search/Fastlane+Import+Auto+Repair+in+Georgia",
    "category": "Chinese-American-owned Tune-ups in Georgia",
    "description": "Specializes in tune-up services and import auto repair, with ASE master technicians and factory-trained mechanics",
    "hours": "Mon-Fri 9AM-6PM",
    "services": [
      "Chinese-American-owned Tune-ups in Georgia consultation",
      "Professional service",
      "Quality guarantee"
    ],
    "social_links": {}
  },
  {
    "name": "Foreign Car Center",
    "address": "201 Mansfield St, Brunswick, GA 31520",
    "phone": "912-265-8981",
    "rating": 4.0,
    "reviews": 25,
    "website": "https://www.google.com/maps/search/Foreign+Car+Center+in+Georgia",
    "category": "Chinese-American-owned Tune-ups in Georgia",
    "description": "Provides high-quality auto repair services and customer service, serving the Brunswick area since 1957",
    "hours": "Mon-Fri 9AM-6PM",
    "services": [
      "Chinese-American-owned Tune-ups in Georgia consultation",
      "Professional service",
      "Quality guarantee"
    ],
    "social_links": {}
  },
  {
    "name": "Pro Automotive",
    "address": "1907 Watson Blvd, Warner Robins, GA 31093",
    "phone": "478-923-5591",
    "rating": 4.0,
    "reviews": 25,
    "website": "https://www.google.com/maps/search/Pro+Automotive+in+Georgia",
    "category": "Chinese-American-owned Tune-ups in Georgia",
    "description": "Full-service auto repair and preventative maintenance facility specializing in Asian vehicles",
    "hours": "Mon-Fri 9AM-6PM",
    "services": [
      "Chinese-American-owned Tune-ups in Georgia consultation",
      "Professional service",
      "Quality guarantee"
    ],
    "social_links": {}
  }
]