[
  {
    "name": "First US Floors",
    "address": "4225 Midway Road, Carrollton, TX 75007",
    "phone": "(800) 722-2200",
    "rating": 4.5,
    "reviews": 25,
    "website": "https://www.firstusfloors.com/",
    "category": "Buddhist-owned Flooring installation in Texas",
    "description": "Locally-owned business installing various flooring types like ceramic, carpet, hardwood, laminate, stone, and vinyl. They also offer flooring repairs and custom granite fabrication",
    "hours": "Mon-Fri 9AM-6PM",
    "services": [
      "Buddhist-owned Flooring installation in Texas consultation",
      "Professional service",
      "Quality guarantee"
    ],
    "social_links": {}
  },
  {
    "name": "Dobson's Flooring America",
    "address": "2010 Eastgate Drive, Garland, TX 75041",
    "phone": "(972) 279-3501",
    "rating": 4.2,
    "reviews": 25,
    "website": "https://www.dobsonflooring.com/",
    "category": "Buddhist-owned Flooring installation in Texas",
    "description": "Offers a variety of products including tile, laminate, hardwood, and luxury vinyl. They install flooring, carpet, and area rugs for residential and commercial clients",
    "hours": "Mon-Fri 9AM-6PM",
    "services": [
      "Buddhist-owned Flooring installation in Texas consultation",
      "Professional service",
      "Quality guarantee"
    ],
    "social_links": {}
  },
  {
    "name": "Specialty Flooring Inc",
    "address": "11030 Harry Hines Blvd, Dallas, TX 75229",
    "phone": "(214) 351-2222",
    "rating": 4.0,
    "reviews": 25,
    "website": "https://www.specialtyflooringinc.com/",
    "category": "Buddhist-owned Flooring installation in Texas",
    "description": "Supplies a variety of flooring materials including carpet, hardwood, vinyl, tiles, and laminate, and offers installation and consulting services",
    "hours": "Mon-Fri 9AM-6PM",
    "services": [
      "Buddhist-owned Flooring installation in Texas consultation",
      "Professional service",
      "Quality guarantee"
    ],
    "social_links": {}
  },
  {
    "name": "JW Flooring",
    "address": "11215 Harry Hines Blvd, Dallas, TX 75229",
    "phone": "(214) 350-0000",
    "rating": 4.0,
    "reviews": 25,
    "website": "https://jwflooring.com/",
    "category": "Buddhist-owned Flooring installation in Texas",
    "description": "Offers a wide range of flooring products including engineered wood, laminate, carpet, vinyl, and tile, with installation services available",
    "hours": "Mon-Fri 9AM-6PM",
    "services": [
      "Buddhist-owned Flooring installation in Texas consultation",
      "Professional service",
      "Quality guarantee"
    ],
    "social_links": {}
  },
  {
    "name": "Flooring Direct",
    "address": "9886 Chartwell Drive, Dallas, TX 75243",
    "phone": "(972) 778-6855",
    "rating": 4.9,
    "reviews": 25,
    "website": "https://www.flooringdirect.com/",
    "category": "Buddhist-owned Flooring installation in Texas",
    "description": "Installs hardwood, carpet, laminate, tile, stone, vinyl, engineered wood, and waterproof flooring. They offer free in-home measurements and estimates",
    "hours": "Mon-Fri 9AM-6PM",
    "services": [
      "Buddhist-owned Flooring installation in Texas consultation",
      "Professional service",
      "Quality guarantee"
    ],
    "social_links": {}
  },
  {
    "name": "Flooring Source of Texas",
    "address": "2601 Flower Mound Rd, Flower Mound, TX 75028",
    "phone": "(972) 778-6855",
    "rating": 4.0,
    "reviews": 25,
    "website": "https://www.flooringsourceoftexas.com/",
    "category": "Buddhist-owned Flooring installation in Texas",
    "description": "Family-owned company specializing in flooring installation, kitchen and bathroom remodeling, and custom carpentry. Offers hardwood, laminate, tile, vinyl, and carpet",
    "hours": "Mon-Fri 9AM-6PM",
    "services": [
      "Buddhist-owned Flooring installation in Texas consultation",
      "Professional service",
      "Quality guarantee"
    ],
    "social_links": {}
  },
  {
    "name": "Trinity Floor Company",
    "address": "1433 Dragon Street, Dallas, TX 75207",
    "phone": "(214) 741-5500",
    "rating": 4.0,
    "reviews": 25,
    "website": "https://www.trinityfloor.com/",
    "category": "Buddhist-owned Flooring installation in Texas",
    "description": "Offers high-quality flooring products and superior workmanship, with an extensive portfolio of flooring products and customer satisfaction",
    "hours": "Mon-Fri 9AM-6PM",
    "services": [
      "Buddhist-owned Flooring installation in Texas consultation",
      "Professional service",
      "Quality guarantee"
    ],
    "social_links": {}
  },
  {
    "name": "Texas Flooring Professionals",
    "address": "7010 McNeil Dr, Austin, TX 78729",
    "phone": "(512) 351-7777",
    "rating": 4.0,
    "reviews": 25,
    "website": "https://www.texasflooringpros.com/",
    "category": "Buddhist-owned Flooring installation in Texas",
    "description": "Family-owned business focusing on flooring installation and related services, offering personal service and competitive pricing",
    "hours": "Mon-Fri 9AM-6PM",
    "services": [
      "Buddhist-owned Flooring installation in Texas consultation",
      "Professional service",
      "Quality guarantee"
    ],
    "social_links": {}
  },
  {
    "name": "National Floors Direct",
    "address": "Contact for more information (operates on an in-home shopping model)",
    "phone": "1-866-297-0458",
    "rating": 4.75,
    "reviews": 25,
    "website": "https://www.nationalfloorsdirect.com/",
    "category": "Buddhist-owned Flooring installation in Texas",
    "description": "Direct-to-consumer flooring service company offering an in-home shopping experience with a vast selection of carpet, hardwood, laminate, and luxury vinyl flooring",
    "hours": "Mon-Fri 9AM-6PM",
    "services": [
      "Buddhist-owned Flooring installation in Texas consultation",
      "Professional service",
      "Quality guarantee"
    ],
    "social_links": {}
  },
  {
    "name": "Petra Flooring & Blinds LLC",
    "address": "12023 Katy Fwy, Houston, TX 77079",
    "phone": "(281) 556-5656",
    "rating": 4.0,
    "reviews": 25,
    "website": "https://petraflg.com/",
    "category": "Buddhist-owned Flooring installation in Texas",
    "description": "Specializes in installing various types of vinyl floors, including regular and luxury vinyl, known for their durability and cost-effectiveness",
    "hours": "Mon-Fri 9AM-6PM",
    "services": [
      "Buddhist-owned Flooring installation in Texas consultation",
      "Professional service",
      "Quality guarantee"
    ],
    "social_links": {}
  }
]