[
  {
    "name": "Xtreme Autoglass Pros",
    "address": "10100 Plano Rd #105, Dallas, TX 75238",
    "phone": "(214) 702-7471",
    "rating": 5.0,
    "reviews": 25,
    "website": "https://xtremeautoglasspros.com/",
    "category": "Alaska-Native-owned Windshield repair in Texas",
    "description": "Offers windshield replacement, auto glass repair, and window tinting with free mobile service",
    "hours": "Mon-Fri 9AM-6PM",
    "services": [
      "Alaska-Native-owned Windshield repair in Texas consultation",
      "Professional service",
      "Quality guarantee"
    ],
    "social_links": {}
  },
  {
    "name": "Mister Glass",
    "address": "11415 Harry Hines Blvd, Dallas, TX 75229",
    "phone": "(972) 669-0951",
    "rating": 4.8,
    "reviews": 25,
    "website": "https://www.misterglass.com/",
    "category": "Alaska-Native-owned Windshield repair in Texas",
    "description": "A family-owned business providing auto, residential, and commercial glass services, including mobile windshield repair",
    "hours": "Mon-Fri 9AM-6PM",
    "services": [
      "Alaska-Native-owned Windshield repair in Texas consultation",
      "Professional service",
      "Quality guarantee"
    ],
    "social_links": {}
  },
  {
    "name": "West Texas Windshields",
    "address": "Multiple locations, including 4001 W University Ave, Odessa, TX 79764",
    "phone": "(432) 367-7777",
    "rating": 4.7,
    "reviews": 25,
    "website": "https://www.westtexaswindshields.com/",
    "category": "Alaska-Native-owned Windshield repair in Texas",
    "description": "Offers auto glass repair and replacement with free mobile service and a lifetime guarantee",
    "hours": "Mon-Fri 9AM-6PM",
    "services": [
      "Alaska-Native-owned Windshield repair in Texas consultation",
      "Professional service",
      "Quality guarantee"
    ],
    "social_links": {}
  },
  {
    "name": "Auto Glass Xperts",
    "address": "3000 W 7th St, Fort Worth, TX 76107",
    "phone": "(817) 498-1700",
    "rating": 4.9,
    "reviews": 25,
    "website": "https://autoglassxperts.com/",
    "category": "Alaska-Native-owned Windshield repair in Texas",
    "description": "Provides same-day or next-day auto glass repairs and windshield replacement, serving the North Texas community for over 40 years",
    "hours": "Mon-Fri 9AM-6PM",
    "services": [
      "Alaska-Native-owned Windshield repair in Texas consultation",
      "Professional service",
      "Quality guarantee"
    ],
    "social_links": {}
  },
  {
    "name": "Discount Glass Texas",
    "address": "10100 Plano Rd #105, Dallas, TX 75238",
    "phone": "(972) 900-8748",
    "rating": 4.7,
    "reviews": 25,
    "website": "https://discountglasstexas.com/",
    "category": "Alaska-Native-owned Windshield repair in Texas",
    "description": "Offers 24/7 auto glass repair and replacement, including windshield repair, and also provides commercial and residential glass services",
    "hours": "Mon-Fri 9AM-6PM",
    "services": [
      "Alaska-Native-owned Windshield repair in Texas consultation",
      "Professional service",
      "Quality guarantee"
    ],
    "social_links": {}
  },
  {
    "name": "Yazmine Auto Glass",
    "address": "2802 Cartwright St, Dallas, TX 75212",
    "phone": "(214) 777-2411",
    "rating": 4.9,
    "reviews": 25,
    "website": "https://yazmineautoglass.com/",
    "category": "Alaska-Native-owned Windshield repair in Texas",
    "description": "A family-owned and locally owned business offering windshield repair and replacement with a satisfaction guarantee",
    "hours": "Mon-Fri 9AM-6PM",
    "services": [
      "Alaska-Native-owned Windshield repair in Texas consultation",
      "Professional service",
      "Quality guarantee"
    ],
    "social_links": {}
  },
  {
    "name": "AutoGlassOnly.com",
    "address": "Service available in Onalaska, TX (mobile service)",
    "phone": "1-866-410-5628",
    "rating": 4.8,
    "reviews": 25,
    "website": "https://autoglassonly.com/",
    "category": "Alaska-Native-owned Windshield repair in Texas",
    "description": "Provides mobile auto glass repair and replacement services throughout Onalaska, TX, with affordable prices and a lifetime guarantee",
    "hours": "Mon-Fri 9AM-6PM",
    "services": [
      "Alaska-Native-owned Windshield repair in Texas consultation",
      "Professional service",
      "Quality guarantee"
    ],
    "social_links": {}
  },
  {
    "name": "Auto Glass Native",
    "address": "Service available in Waxahachie, TX (mobile service)",
    "phone": "(972) 903-7640",
    "rating": 5.0,
    "reviews": 25,
    "website": "https://autoglassnative.com/",
    "category": "Alaska-Native-owned Windshield repair in Texas",
    "description": "Offers fast, free mobile windshield repair and replacement services in Waxahachie, TX, and surrounding areas, backed by a Google Guarantee and lifetime warranty",
    "hours": "Mon-Fri 9AM-6PM",
    "services": [
      "Alaska-Native-owned Windshield repair in Texas consultation",
      "Professional service",
      "Quality guarantee"
    ],
    "social_links": {}
  },
  {
    "name": "Auto Glass Native",
    "address": "Service available in Mansfield, TX (mobile service)",
    "phone": "(972) 903-7640",
    "rating": 4.9,
    "reviews": 25,
    "website": "https://autoglassnative.com/",
    "category": "Alaska-Native-owned Windshield repair in Texas",
    "description": "Specializes in auto glass repairs and windshield replacement in Mansfield, TX, with same-day/next-day mobile service and lifetime warranties",
    "hours": "Mon-Fri 9AM-6PM",
    "services": [
      "Alaska-Native-owned Windshield repair in Texas consultation",
      "Professional service",
      "Quality guarantee"
    ],
    "social_links": {}
  },
  {
    "name": "Glass Doctor",
    "address": "Multiple locations, including 10100 Plano Rd #105, Dallas, TX 75238",
    "phone": "(833) 974-0209",
    "rating": 4.6,
    "reviews": 25,
    "website": "https://www.glassdoctor.com/",
    "category": "Alaska-Native-owned Windshield repair in Texas",
    "description": "Provides a wide range of glass repair and replacement services for homes, businesses, and vehicles, including windshield repair and replacement",
    "hours": "Mon-Fri 9AM-6PM",
    "services": [
      "Alaska-Native-owned Windshield repair in Texas consultation",
      "Professional service",
      "Quality guarantee"
    ],
    "social_links": {}
  }
]