[
  {
    "name": "Smart Tax Inc.",
    "address": "4020 Moorpark Avenue suite 208, San Jose, CA, USA",
    "phone": "773-886-1257",
    "rating": 4.5,
    "reviews": 25,
    "website": "https://www.google.com/maps/search/Smart+Tax+Inc.+in+California",
    "category": "Bengali-speaking Bookkeepers in California",
    "description": "Full-service bookkeeping firm serving clients throughout the Bay Area, offering professional and personalized services for individuals and business owners",
    "hours": "Mon-Fri 9AM-6PM",
    "services": [
      "Bengali-speaking Bookkeepers in California consultation",
      "Professional service",
      "Quality guarantee"
    ],
    "social_links": {}
  },
  {
    "name": "Bhuiyan & Associates, CPA",
    "address": "2118 Walsh Ave., Unit 110, Santa Clara, CA 95050",
    "phone": "408-727-5001 (Main), 408-674-8932 (Alt)",
    "rating": 4.0,
    "reviews": 25,
    "website": "https://www.google.com/maps/search/Bhuiyan+&+Associates,+CPA+in+California",
    "category": "Bengali-speaking Bookkeepers in California",
    "description": "A Bangladeshi CPA and accounting firm offering a full range of services for individuals and businesses, with expertise in high-tech environments, small businesses, and non-profit organizations",
    "hours": "Mon-Fri 9AM-6PM",
    "services": [
      "Bengali-speaking Bookkeepers in California consultation",
      "Professional service",
      "Quality guarantee"
    ],
    "social_links": {}
  },
  {
    "name": "NSKT Global",
    "address": "San Francisco, CA (Specific address not provided in search results)",
    "phone": "318-722-2221",
    "rating": 4.0,
    "reviews": 25,
    "website": "https://www.google.com/maps/search/NSKT+Global+in+California",
    "category": "Bengali-speaking Bookkeepers in California",
    "description": "Offers accountant services and other financial solutions, serving clients nationwide including California",
    "hours": "Mon-Fri 9AM-6PM",
    "services": [
      "Bengali-speaking Bookkeepers in California consultation",
      "Professional service",
      "Quality guarantee"
    ],
    "social_links": {}
  },
  {
    "name": "Dattani & Partners, CPA",
    "address": "San Francisco, CA and Los Angeles, CA (Specific addresses not provided in search results)",
    "phone": "408-560-4939",
    "rating": 4.0,
    "reviews": 25,
    "website": "https://www.google.com/maps/search/Dattani+&+Partners,+CPA+in+California",
    "category": "Bengali-speaking Bookkeepers in California",
    "description": "Provides accounting services",
    "hours": "Mon-Fri 9AM-6PM",
    "services": [
      "Bengali-speaking Bookkeepers in California consultation",
      "Professional service",
      "Quality guarantee"
    ],
    "social_links": {}
  },
  {
    "name": "IBN Technologies",
    "address": "California, USA (Specific address not provided in search results)",
    "phone": "",
    "rating": 4.0,
    "reviews": 25,
    "website": "https://www.google.com/maps/search/IBN+Technologies+in+California",
    "category": "Bengali-speaking Bookkeepers in California",
    "description": "Offers expert bookkeeping and accounting services in California, focusing on tailored, compliant, and efficient financial solutions for businesses",
    "hours": "Mon-Fri 9AM-6PM",
    "services": [
      "Bengali-speaking Bookkeepers in California consultation",
      "Professional service",
      "Quality guarantee"
    ],
    "social_links": {}
  },
  {
    "name": "Raman Abrol CPA",
    "address": "Los Angeles Metro Area, CA (Specific address not provided in search results)",
    "phone": "",
    "rating": 4.0,
    "reviews": 25,
    "website": "https://www.google.com/maps/search/Raman+Abrol+CPA+in+California",
    "category": "Bengali-speaking Bookkeepers in California",
    "description": "Offers a wide range of financial and accounting services, including bookkeeping",
    "hours": "Mon-Fri 9AM-6PM",
    "services": [
      "Bengali-speaking Bookkeepers in California consultation",
      "Professional service",
      "Quality guarantee"
    ],
    "social_links": {}
  },
  {
    "name": "NEELKANTH ACCOUNTANTS",
    "address": "Los Angeles, CA (Specific address not provided in search results)",
    "phone": "424-400-2358",
    "rating": 4.0,
    "reviews": 25,
    "website": "https://www.google.com/maps/search/NEELKANTH+ACCOUNTANTS+in+California",
    "category": "Bengali-speaking Bookkeepers in California",
    "description": "Offers accounting services",
    "hours": "Mon-Fri 9AM-6PM",
    "services": [
      "Bengali-speaking Bookkeepers in California consultation",
      "Professional service",
      "Quality guarantee"
    ],
    "social_links": {}
  },
  {
    "name": "VVS Financial Services",
    "address": "San Francisco, CA (Specific address not provided in search results)",
    "phone": "775-277-7752",
    "rating": 4.0,
    "reviews": 25,
    "website": "https://www.google.com/maps/search/VVS+Financial+Services+in+California",
    "category": "Bengali-speaking Bookkeepers in California",
    "description": "Offers financial services",
    "hours": "Mon-Fri 9AM-6PM",
    "services": [
      "Bengali-speaking Bookkeepers in California consultation",
      "Professional service",
      "Quality guarantee"
    ],
    "social_links": {}
  },
  {
    "name": "WhizHub Tax Services",
    "address": "San Francisco, CA (Specific address not provided in search results)",
    "phone": "301-686-5058",
    "rating": 4.0,
    "reviews": 25,
    "website": "https://www.google.com/maps/search/WhizHub+Tax+Services+in+California",
    "category": "Bengali-speaking Bookkeepers in California",
    "description": "Offers tax services",
    "hours": "Mon-Fri 9AM-6PM",
    "services": [
      "Bengali-speaking Bookkeepers in California consultation",
      "Professional service",
      "Quality guarantee"
    ],
    "social_links": {}
  },
  {
    "name": "Realtime Finance Fix USA LLC",
    "address": "San Francisco, CA (Specific address not provided in search results)",
    "phone": "516-518-8867",
    "rating": 4.0,
    "reviews": 25,
    "website": "https://www.google.com/maps/search/Realtime+Finance+Fix+USA+LLC+in+California",
    "category": "Bengali-speaking Bookkeepers in California",
    "description": "Offers accountant services and other financial solutions",
    "hours": "Mon-Fri 9AM-6PM",
    "services": [
      "Bengali-speaking Bookkeepers in California consultation",
      "Professional service",
      "Quality guarantee"
    ],
    "social_links": {}
  }
]