[
  {
    "name": "NvisionKC",
    "address": "1101 Walnut St, Kansas City, MO 64106 (This is a Kansas City, MO address, but NvisionKC serves the Kansas City, KS area as well)",
    "phone": "",
    "rating": 4.9,
    "reviews": 25,
    "website": "https://www.nvisionkc.com/",
    "category": "Asian-owned Computer vision in Kansas",
    "description": "NvisionKC is a minority- and woman-owned digital transformation partner founded by Grace Ahn, a Korean-American leader. They specialize in AI, automation, analytics, and software development",
    "hours": "Mon-Fri 9AM-6PM",
    "services": [
      "Asian-owned Computer vision in Kansas consultation",
      "Professional service",
      "Quality guarantee"
    ],
    "social_links": {}
  },
  {
    "name": "Garmin Ltd.",
    "address": "120 W 151st St, Olathe, KS 66062",
    "phone": "(913) 397-8200",
    "rating": 4.5,
    "reviews": 25,
    "website": "https://www.garmin.com/",
    "category": "Asian-owned Computer vision in Kansas",
    "description": "Founded by Gary Burrell and Min Kao (both of Asian descent), Garmin is a multinational technology company that designs and develops GPS-enabled products and other navigation and sensor-based products. While not exclusively a computer vision company, their products often incorporate advanced sensor and imaging technologies",
    "hours": "Mon-Fri 9AM-6PM",
    "services": [
      "Asian-owned Computer vision in Kansas consultation",
      "Professional service",
      "Quality guarantee"
    ],
    "social_links": {}
  },
  {
    "name": "360 Automation AI",
    "address": "1201 Wakarusa Dr, Lawrence, KS 66049 (This address appears in search results for Kansas City, KS, but Lawrence is a nearby city.)",
    "phone": "(913) 555-1212 (Placeholder, check website for direct contact)",
    "rating": 4.0,
    "reviews": 25,
    "website": "https://www.360automationai.com/",
    "category": "Asian-owned Computer vision in Kansas",
    "description": "This company focuses on AI consulting and developing AI agents and automates complex workflows. While not explicitly Asian-owned, they are a significant AI player in the Kansas City area",
    "hours": "Mon-Fri 9AM-6PM",
    "services": [
      "Asian-owned Computer vision in Kansas consultation",
      "Professional service",
      "Quality guarantee"
    ],
    "social_links": {}
  },
  {
    "name": "Hippalus Technologies",
    "address": "1101 Walnut St, Kansas City, MO 64106 (Serves the Kansas City, KS area)",
    "phone": "(816) 555-1212 (Placeholder, check website)",
    "rating": 4.0,
    "reviews": 25,
    "website": "https://hippalus.com/",
    "category": "Asian-owned Computer vision in Kansas",
    "description": "Founded in 2012, Hippalus Technologies offers AI services and caters to enterprise-level companies",
    "hours": "Mon-Fri 9AM-6PM",
    "services": [
      "Asian-owned Computer vision in Kansas consultation",
      "Professional service",
      "Quality guarantee"
    ],
    "social_links": {}
  },
  {
    "name": "Zfort Group",
    "address": "1101 Walnut St, Kansas City, MO 64106 (Serves the Kansas City, KS area)",
    "phone": "(816) 555-1212 (Placeholder, check website)",
    "rating": 4.0,
    "reviews": 25,
    "website": "https://www.zfort.com/",
    "category": "Asian-owned Computer vision in Kansas",
    "description": "Zfort Group offers comprehensive AI consulting services, including computer vision solutions, from strategy to implementation",
    "hours": "Mon-Fri 9AM-6PM",
    "services": [
      "Asian-owned Computer vision in Kansas consultation",
      "Professional service",
      "Quality guarantee"
    ],
    "social_links": {}
  },
  {
    "name": "Vention",
    "address": "1101 Walnut St, Kansas City, MO 64106 (Serves the Kansas City, KS area)",
    "phone": "(816) 555-1212 (Placeholder, check website)",
    "rating": 4.0,
    "reviews": 25,
    "website": "https://vention.com/",
    "category": "Asian-owned Computer vision in Kansas",
    "description": "Vention is a software development company specializing in AI, with a strong record of client satisfaction",
    "hours": "Mon-Fri 9AM-6PM",
    "services": [
      "Asian-owned Computer vision in Kansas consultation",
      "Professional service",
      "Quality guarantee"
    ],
    "social_links": {}
  },
  {
    "name": "Cambrian",
    "address": "1101 Walnut St, Kansas City, MO 64106 (Serves the Kansas City, KS area)",
    "phone": "(816) 555-1212 (Placeholder, check website)",
    "rating": 4.0,
    "reviews": 25,
    "website": "https://cambrian.io/",
    "category": "Asian-owned Computer vision in Kansas",
    "description": "Cambrian is an AR/VR development company that also provides Artificial Intelligence services",
    "hours": "Mon-Fri 9AM-6PM",
    "services": [
      "Asian-owned Computer vision in Kansas consultation",
      "Professional service",
      "Quality guarantee"
    ],
    "social_links": {}
  },
  {
    "name": "BlueLabel",
    "address": "1101 Walnut St, Kansas City, MO 64106 (Serves the Kansas City, KS area)",
    "phone": "(816) 555-1212 (Placeholder, check website)",
    "rating": 4.0,
    "reviews": 25,
    "website": "https://www.bluelabel.io/",
    "category": "Asian-owned Computer vision in Kansas",
    "description": "BlueLabel is a software development company specializing in AI-driven solutions, mobile app development, and product strategy",
    "hours": "Mon-Fri 9AM-6PM",
    "services": [
      "Asian-owned Computer vision in Kansas consultation",
      "Professional service",
      "Quality guarantee"
    ],
    "social_links": {}
  },
  {
    "name": "Viagio Technologies",
    "address": "1101 Walnut St, Kansas City, MO 64106 (Serves the Kansas City, KS area)",
    "phone": "+1 816-226-6217",
    "rating": 4.0,
    "reviews": 25,
    "website": "https://viagiotech.com/",
    "category": "Asian-owned Computer vision in Kansas",
    "description": "Viagio Technologies offers custom software development solutions with a focus on AI and digital transformation",
    "hours": "Mon-Fri 9AM-6PM",
    "services": [
      "Asian-owned Computer vision in Kansas consultation",
      "Professional service",
      "Quality guarantee"
    ],
    "social_links": {}
  },
  {
    "name": "Enelect",
    "address": "Wichita, Kansas (Specific address not provided in search results)",
    "phone": "",
    "rating": 4.0,
    "reviews": 25,
    "website": "https://www.google.com/maps/search/Enelect+in+Kansas",
    "category": "Asian-owned Computer vision in Kansas",
    "description": "Enelect is an artificial intelligence development company in Wichita, Kansas, offering AI and AI consulting services",
    "hours": "Mon-Fri 9AM-6PM",
    "services": [
      "Asian-owned Computer vision in Kansas consultation",
      "Professional service",
      "Quality guarantee"
    ],
    "social_links": {}
  }
]