[
  {
    "name": "Indiana Buddhist Temple",
    "address": "7528 Thompson Rd, Hoagland, IN 46745",
    "phone": "260-447-5269",
    "rating": 4.0,
    "reviews": 25,
    "website": "http://www.indianabuddhisttemple.org/",
    "category": "Buddhist-owned Shopping ads in Indiana",
    "description": "A meditation learning center founded in 2003, offering public meditation and spiritual guidance",
    "hours": "Mon-Fri 9AM-6PM",
    "services": [
      "Buddhist-owned Shopping ads in Indiana consultation",
      "Professional service",
      "Quality guarantee"
    ],
    "social_links": {}
  },
  {
    "name": "Kadampa Meditation Center Indianapolis (KMC Indianapolis)",
    "address": "6018 N Keystone Ave, Indianapolis, IN 46220",
    "phone": "317-250-7017",
    "rating": 4.0,
    "reviews": 25,
    "website": "https://www.meditationinindianapolis.org/",
    "category": "Buddhist-owned Shopping ads in Indiana",
    "description": "Offers meditation classes and teachings based on Buddhist methods to solve daily life problems. They also have a bookstore and gift shop",
    "hours": "Mon-Fri 9AM-6PM",
    "services": [
      "Buddhist-owned Shopping ads in Indiana consultation",
      "Professional service",
      "Quality guarantee"
    ],
    "social_links": {}
  },
  {
    "name": "Indianapolis Zen Center",
    "address": "3703 N Washington Blvd, Indianapolis, IN 46205",
    "phone": "317-924-7016",
    "rating": 4.0,
    "reviews": 25,
    "website": "https://www.indyzen.org/",
    "category": "Buddhist-owned Shopping ads in Indiana",
    "description": "Offers the practice of Zen Buddhism, including retreats and weekly practice sessions, as part of the Kwan Um School of Zen",
    "hours": "Mon-Fri 9AM-6PM",
    "services": [
      "Buddhist-owned Shopping ads in Indiana consultation",
      "Professional service",
      "Quality guarantee"
    ],
    "social_links": {}
  },
  {
    "name": "Manjushree Hermitage Tibetan Buddhist Center",
    "address": "12700 W 100 N, Michigan City, IN 46360",
    "phone": "219-873-0110",
    "rating": 4.0,
    "reviews": 25,
    "website": "https://manjushreehermitage.org/",
    "category": "Buddhist-owned Shopping ads in Indiana",
    "description": "A center for Buddhist meditation, study, practice, and retreat in Northwest Indiana, offering programs and special events",
    "hours": "Mon-Fri 9AM-6PM",
    "services": [
      "Buddhist-owned Shopping ads in Indiana consultation",
      "Professional service",
      "Quality guarantee"
    ],
    "social_links": {}
  },
  {
    "name": "Tibetan Mongolian Buddhist Cultural Center & Kumbum Chamtse Ling Temple",
    "address": "3601 N 100 W, Bloomington, IN 47404",
    "phone": "812-331-0110",
    "rating": 4.0,
    "reviews": 25,
    "website": "http://tibetancc.org/",
    "category": "Buddhist-owned Shopping ads in Indiana",
    "description": "A center for Tibetan Buddhism, offering a peaceful setting for meditation and reflection, with a temple, gift shop, and educational displays",
    "hours": "Mon-Fri 9AM-6PM",
    "services": [
      "Buddhist-owned Shopping ads in Indiana consultation",
      "Professional service",
      "Quality guarantee"
    ],
    "social_links": {}
  },
  {
    "name": "Indiana Buddhist Center",
    "address": "9260 E 10th St, Indianapolis, IN 46229",
    "phone": "317-225-5499",
    "rating": 4.0,
    "reviews": 25,
    "website": "https://www.indianabuddhist.org/",
    "category": "Buddhist-owned Shopping ads in Indiana",
    "description": "Serves as a local source for information on Buddhism and offers teachings, practice, meditation, and friendship in the lineage of the Dalai Lama",
    "hours": "Mon-Fri 9AM-6PM",
    "services": [
      "Buddhist-owned Shopping ads in Indiana consultation",
      "Professional service",
      "Quality guarantee"
    ],
    "social_links": {}
  },
  {
    "name": "Dagom Geden Kunkyob Ling Buddhist Monastery",
    "address": "2123 N Pennsylvania St, Indianapolis, IN 46202",
    "phone": "317-924-1000",
    "rating": 4.0,
    "reviews": 25,
    "website": "https://dgklbuddhistmonastery.org/",
    "category": "Buddhist-owned Shopping ads in Indiana",
    "description": "Offers free classes on Saturdays in the Gelug Tradition of Tibetan Buddhism, focusing on fundamentals and integrating teachings into daily life",
    "hours": "Mon-Fri 9AM-6PM",
    "services": [
      "Buddhist-owned Shopping ads in Indiana consultation",
      "Professional service",
      "Quality guarantee"
    ],
    "social_links": {}
  },
  {
    "name": "Ten Thousand Buddhas Summit Monastery",
    "address": "3600 Mathis Road, Corydon, IN 47112",
    "phone": "812-738-1104",
    "rating": 4.0,
    "reviews": 25,
    "website": "https://www.google.com/maps/search/Ten+Thousand+Buddhas+Summit+Monastery+in+Indiana",
    "category": "Buddhist-owned Shopping ads in Indiana",
    "description": "A monastery and temple in a wooded setting, emphasizing Buddhist Mindfulness, Loving-Kindness, and Skillfulness for the benefit of family, community, and society",
    "hours": "Mon-Fri 9AM-6PM",
    "services": [
      "Buddhist-owned Shopping ads in Indiana consultation",
      "Professional service",
      "Quality guarantee"
    ],
    "social_links": {}
  },
  {
    "name": "Gaden Khachoe Shing",
    "address": "2123 N. Pennsylvania Street, Indianapolis, IN 46202 (This address appears to be shared with Dagom Geden Kunkyob Ling Buddhist Monastery, further verification may be needed for Gaden Khachoe Shing's specific location if different.)",
    "phone": "812-334-3456",
    "rating": 4.0,
    "reviews": 25,
    "website": "https://www.shing.org/",
    "category": "Buddhist-owned Shopping ads in Indiana",
    "description": "A Buddhist monastery dedicated to preserving Buddha's teachings in the Gaden Nyengyu Gelukpa lineage, located in Bloomington, Indiana",
    "hours": "Mon-Fri 9AM-6PM",
    "services": [
      "Buddhist-owned Shopping ads in Indiana consultation",
      "Professional service",
      "Quality guarantee"
    ],
    "social_links": {}
  },
  {
    "name": "Mon Buddhist Vihara of Indianapolis",
    "address": "3838 W 69th St, Indianapolis, IN 46268",
    "phone": "317-641-9272",
    "rating": 4.0,
    "reviews": 25,
    "website": "http://www.bmaci.org/mon-vihara/",
    "category": "Buddhist-owned Shopping ads in Indiana",
    "description": "A Buddhist organization serving the Burmese American community, offering religious services and community support",
    "hours": "Mon-Fri 9AM-6PM",
    "services": [
      "Buddhist-owned Shopping ads in Indiana consultation",
      "Professional service",
      "Quality guarantee"
    ],
    "social_links": {}
  }
]