[
  {
    "name": "University of Vermont Health - Plastic Surgery",
    "address": "1 South Prospect Street, Burlington, VT 05401",
    "phone": "(802) 847-2000",
    "rating": 4.0,
    "reviews": 25,
    "website": "https://www.uvmhealth.org/medical-services/plastic-surgery",
    "category": "Agnostic-owned Body contouring in Vermont",
    "description": "Offers a wide range of body contouring procedures performed by experienced plastic surgeons",
    "hours": "Mon-Fri 9AM-6PM",
    "services": [
      "Agnostic-owned Body contouring in Vermont consultation",
      "Professional service",
      "Quality guarantee"
    ],
    "social_links": {}
  },
  {
    "name": "Bare Medical Spa + Laser Center",
    "address": "1100 Dorset Street Suite 220, South Burlington, VT 05403",
    "phone": "(802) 846-2177",
    "rating": 4.0,
    "reviews": 25,
    "website": "https://www.baremedicalspa.com/",
    "category": "Agnostic-owned Body contouring in Vermont",
    "description": "Provides body sculpting, CoolSculpting Elite, and other aesthetic services with a focus on personalized care",
    "hours": "Mon-Fri 9AM-6PM",
    "services": [
      "Agnostic-owned Body contouring in Vermont consultation",
      "Professional service",
      "Quality guarantee"
    ],
    "social_links": {}
  },
  {
    "name": "Glow Aesthetics Medical Spa",
    "address": "41 IDX Drive Suite 230, South Burlington, VT 05403",
    "phone": "(802) 338-9599",
    "rating": 4.0,
    "reviews": 25,
    "website": "https://www.glowmedspavt.com/",
    "category": "Agnostic-owned Body contouring in Vermont",
    "description": "Offers body sculpting treatments like EMSculpt Neo, as well as laser treatments and weight loss injections",
    "hours": "Mon-Fri 9AM-6PM",
    "services": [
      "Agnostic-owned Body contouring in Vermont consultation",
      "Professional service",
      "Quality guarantee"
    ],
    "social_links": {}
  },
  {
    "name": "Vermont Medical Spa",
    "address": "16 Railroad St, Essex Junction, VT 05452",
    "phone": "(802) 310-5111",
    "rating": 5.0,
    "reviews": 25,
    "website": "https://www.vermontmedicalspa.com/",
    "category": "Agnostic-owned Body contouring in Vermont",
    "description": "A wellness business offering various aesthetic treatments, including laser hair removal and other services",
    "hours": "Mon-Fri 9AM-6PM",
    "services": [
      "Agnostic-owned Body contouring in Vermont consultation",
      "Professional service",
      "Quality guarantee"
    ],
    "social_links": {}
  },
  {
    "name": "LIFT Medical",
    "address": "1457 US-5, St. Johnsbury, VT 05819",
    "phone": "(802) 745-1000",
    "rating": 4.0,
    "reviews": 25,
    "website": "https://www.liftmedical.com/",
    "category": "Agnostic-owned Body contouring in Vermont",
    "description": "Offers body contouring services targeting fat and skin laxity using advanced technology",
    "hours": "Mon-Fri 9AM-6PM",
    "services": [
      "Agnostic-owned Body contouring in Vermont consultation",
      "Professional service",
      "Quality guarantee"
    ],
    "social_links": {}
  },
  {
    "name": "Radiance Medical Aesthetics and Wellness Spa",
    "address": "1055 Williston Rd Suite 1, Williston, VT 05495",
    "phone": "(802) 654-9111",
    "rating": 4.0,
    "reviews": 25,
    "website": "https://www.radiancemedicalaesthetics.com/",
    "category": "Agnostic-owned Body contouring in Vermont",
    "description": "Provides truSculpt\u00ae iD for non-surgical fat reduction and body sculpting",
    "hours": "Mon-Fri 9AM-6PM",
    "services": [
      "Agnostic-owned Body contouring in Vermont consultation",
      "Professional service",
      "Quality guarantee"
    ],
    "social_links": {}
  },
  {
    "name": "Mountain Lake Plastic Surgery",
    "address": "165 Commerce St, Colchester, VT 05446",
    "phone": "(802) 231-4284",
    "rating": 4.0,
    "reviews": 25,
    "website": "https://www.mountainlakeplasticsurgery.com/",
    "category": "Agnostic-owned Body contouring in Vermont",
    "description": "Offers body contouring procedures, particularly after weight loss, including tummy tucks, arm lifts, and breast lifts",
    "hours": "Mon-Fri 9AM-6PM",
    "services": [
      "Agnostic-owned Body contouring in Vermont consultation",
      "Professional service",
      "Quality guarantee"
    ],
    "social_links": {}
  },
  {
    "name": "Vermont Cosmetic Eye (Dr. Lane)",
    "address": "100 Dorset St Suite 2A, South Burlington, VT 05403",
    "phone": "(802) 862-7550",
    "rating": 4.0,
    "reviews": 25,
    "website": "https://www.vermontcosmeticeye.com/",
    "category": "Agnostic-owned Body contouring in Vermont",
    "description": "While primarily focused on eye surgery, Dr. Lane also performs cosmetic injections and is highly trusted by patients",
    "hours": "Mon-Fri 9AM-6PM",
    "services": [
      "Agnostic-owned Body contouring in Vermont consultation",
      "Professional service",
      "Quality guarantee"
    ],
    "social_links": {}
  },
  {
    "name": "Susan E. Maclennan, MD (Plastic Surgeon)",
    "address": "Colchester, Vermont (Specific address not provided in search results)",
    "phone": "",
    "rating": 5.0,
    "reviews": 25,
    "website": "https://www.google.com/maps/search/Susan+E.+Maclennan,+MD+(Plastic+Surgeon)+in+Vermont",
    "category": "Agnostic-owned Body contouring in Vermont",
    "description": "A board-certified plastic surgeon specializing in various cosmetic procedures, including body contouring",
    "hours": "Mon-Fri 9AM-6PM",
    "services": [
      "Agnostic-owned Body contouring in Vermont consultation",
      "Professional service",
      "Quality guarantee"
    ],
    "social_links": {}
  },
  {
    "name": "Kevin Maguire, MD (Plastic Surgeon)",
    "address": "Colchester, Vermont (Specific address not provided in search results)",
    "phone": "",
    "rating": 4.0,
    "reviews": 25,
    "website": "https://www.google.com/maps/search/Kevin+Maguire,+MD+(Plastic+Surgeon)+in+Vermont",
    "category": "Agnostic-owned Body contouring in Vermont",
    "description": "A board-certified plastic surgeon with 30 years of experience",
    "hours": "Mon-Fri 9AM-6PM",
    "services": [
      "Agnostic-owned Body contouring in Vermont consultation",
      "Professional service",
      "Quality guarantee"
    ],
    "social_links": {}
  }
]