[
  {
    "name": "Richards, Layton & Finger, P.A.",
    "address": "920 N King St, Wilmington, DE 19801",
    "phone": "(302) 651-7700",
    "rating": 4.0,
    "reviews": 25,
    "website": "https://www.rlf.com/",
    "category": "Arabic-speaking Mergers and Acquisitions law in Delaware",
    "description": "Highly ranked for M&A Delaware Counsel and M&A Litigation: Defense. They are one of Delaware's largest and oldest law firms, defining Delaware law since 1899",
    "hours": "Mon-Fri 9AM-6PM",
    "services": [
      "Arabic-speaking Mergers and Acquisitions law in Delaware consultation",
      "Professional service",
      "Quality guarantee"
    ],
    "social_links": {}
  },
  {
    "name": "Potter Anderson & Corroon LLP",
    "address": "1313 N Market St, Wilmington, DE 19801",
    "phone": "(302) 984-5000",
    "rating": 4.0,
    "reviews": 25,
    "website": "https://www.potteranderson.com/",
    "category": "Arabic-speaking Mergers and Acquisitions law in Delaware",
    "description": "Recognized as among the finest M&A attorneys in Delaware, with many partners honored in The Best Lawyers in America. They have significant experience in M&A and corporate law",
    "hours": "Mon-Fri 9AM-6PM",
    "services": [
      "Arabic-speaking Mergers and Acquisitions law in Delaware consultation",
      "Professional service",
      "Quality guarantee"
    ],
    "social_links": {}
  },
  {
    "name": "Morris, Nichols, Arsht & Tunnell LLP",
    "address": "1201 N Market St, Wilmington, DE 19801",
    "phone": "(302) 575-7000",
    "rating": 4.0,
    "reviews": 25,
    "website": "https://www.mnat.com/",
    "category": "Arabic-speaking Mergers and Acquisitions law in Delaware",
    "description": "A preeminent firm with high experience and expertise in corporate disputes and M&A. They play an important role in the development of Delaware corporate law",
    "hours": "Mon-Fri 9AM-6PM",
    "services": [
      "Arabic-speaking Mergers and Acquisitions law in Delaware consultation",
      "Professional service",
      "Quality guarantee"
    ],
    "social_links": {}
  },
  {
    "name": "Skadden, Arps, Slate, Meagher & Flom LLP & Affiliates",
    "address": "1201 N Market St, Wilmington, DE 19801",
    "phone": "(302) 651-3000",
    "rating": 4.0,
    "reviews": 25,
    "website": "https://www.skadden.com/",
    "category": "Arabic-speaking Mergers and Acquisitions law in Delaware",
    "description": "Highly ranked for M&A and corporate litigation in Delaware. They have a strong presence in Delaware's Court of Chancery",
    "hours": "Mon-Fri 9AM-6PM",
    "services": [
      "Arabic-speaking Mergers and Acquisitions law in Delaware consultation",
      "Professional service",
      "Quality guarantee"
    ],
    "social_links": {}
  },
  {
    "name": "Morris James LLP",
    "address": "500 N King St, Wilmington, DE 19801",
    "phone": "(302) 888-5800",
    "rating": 4.0,
    "reviews": 25,
    "website": "https://www.morrisjames.com/",
    "category": "Arabic-speaking Mergers and Acquisitions law in Delaware",
    "description": "Offers full-spectrum M&A services and has attorneys experienced in complex transactions. They have a significant presence across Delaware",
    "hours": "Mon-Fri 9AM-6PM",
    "services": [
      "Arabic-speaking Mergers and Acquisitions law in Delaware consultation",
      "Professional service",
      "Quality guarantee"
    ],
    "social_links": {}
  },
  {
    "name": "Archer & Greiner, P.C.",
    "address": "1201 N Market St, Wilmington, DE 19801",
    "phone": "(302) 777-1000",
    "rating": 4.0,
    "reviews": 25,
    "website": "https://www.archerlaw.com/",
    "category": "Arabic-speaking Mergers and Acquisitions law in Delaware",
    "description": "Listed as a top M&A law firm in Delaware. They have a broad range of legal services",
    "hours": "Mon-Fri 9AM-6PM",
    "services": [
      "Arabic-speaking Mergers and Acquisitions law in Delaware consultation",
      "Professional service",
      "Quality guarantee"
    ],
    "social_links": {}
  },
  {
    "name": "Dilworth Paxson LLP",
    "address": "1201 N Market St, Wilmington, DE 19801",
    "phone": "(302) 425-6400",
    "rating": 4.0,
    "reviews": 25,
    "website": "https://www.dilworthlaw.com/",
    "category": "Arabic-speaking Mergers and Acquisitions law in Delaware",
    "description": "A corporate law company with a focus on M&A transactions",
    "hours": "Mon-Fri 9AM-6PM",
    "services": [
      "Arabic-speaking Mergers and Acquisitions law in Delaware consultation",
      "Professional service",
      "Quality guarantee"
    ],
    "social_links": {}
  },
  {
    "name": "Cooper Levenson, Attorneys at Law",
    "address": "1201 N Market St, Wilmington, DE 19801",
    "phone": "(302) 425-5800",
    "rating": 4.0,
    "reviews": 25,
    "website": "https://www.cooperlevenson.com/",
    "category": "Arabic-speaking Mergers and Acquisitions law in Delaware",
    "description": "Listed as a top M&A law firm in Delaware",
    "hours": "Mon-Fri 9AM-6PM",
    "services": [
      "Arabic-speaking Mergers and Acquisitions law in Delaware consultation",
      "Professional service",
      "Quality guarantee"
    ],
    "social_links": {}
  },
  {
    "name": "Burns White LLC",
    "address": "1201 N Market St, Wilmington, DE 19801",
    "phone": "(302) 425-5800",
    "rating": 4.0,
    "reviews": 25,
    "website": "https://www.burnswhite.com/",
    "category": "Arabic-speaking Mergers and Acquisitions law in Delaware",
    "description": "Listed as a top M&A law firm in Delaware",
    "hours": "Mon-Fri 9AM-6PM",
    "services": [
      "Arabic-speaking Mergers and Acquisitions law in Delaware consultation",
      "Professional service",
      "Quality guarantee"
    ],
    "social_links": {}
  },
  {
    "name": "McElroy, Deutsch, Mulvaney & Carpenter, LLP",
    "address": "1201 N Market St, Wilmington, DE 19801",
    "phone": "(302) 425-5800",
    "rating": 4.0,
    "reviews": 25,
    "website": "https://www.mdmc-law.com/",
    "category": "Arabic-speaking Mergers and Acquisitions law in Delaware",
    "description": "Listed as a top M&A law firm in Delaware",
    "hours": "Mon-Fri 9AM-6PM",
    "services": [
      "Arabic-speaking Mergers and Acquisitions law in Delaware consultation",
      "Professional service",
      "Quality guarantee"
    ],
    "social_links": {}
  }
]