[
  {
    "name": "Northwest Surgery Center",
    "address": "1530 E. Ironwood Drive, Milwaukee, WI 53217",
    "phone": "(414) 355-1000",
    "rating": 4.0,
    "reviews": 25,
    "website": "https://www.northwestsurgerycenter.com/",
    "category": "Atheist-owned Minimally invasive procedures in Wisconsin",
    "description": "Specializes in minimally invasive bunion removal procedures",
    "hours": "Mon-Fri 9AM-6PM",
    "services": [
      "Atheist-owned Minimally invasive procedures in Wisconsin consultation",
      "Professional service",
      "Quality guarantee"
    ],
    "social_links": {}
  },
  {
    "name": "Froedtert & The Medical College of Wisconsin - Wauwatosa",
    "address": "1155 N. Mayfair Rd., Wauwatosa, WI 53226",
    "phone": "(414) 955-5990",
    "rating": 4.0,
    "reviews": 25,
    "website": "https://www.froedtert.com/",
    "category": "Atheist-owned Minimally invasive procedures in Wisconsin",
    "description": "Offers minimally invasive spinal surgery, nerve grafting, spinal cord stimulation, and more",
    "hours": "Mon-Fri 9AM-6PM",
    "services": [
      "Atheist-owned Minimally invasive procedures in Wisconsin consultation",
      "Professional service",
      "Quality guarantee"
    ],
    "social_links": {}
  },
  {
    "name": "Aurora BayCare Medical Center",
    "address": "2845 Greenbrier Rd., Green Bay, WI 54311",
    "phone": "(920) 288-3000",
    "rating": 4.0,
    "reviews": 25,
    "website": "https://baycare.net/",
    "category": "Atheist-owned Minimally invasive procedures in Wisconsin",
    "description": "Utilizes the da Vinci Surgical System for minimally invasive surgeries in gynecology, urology, thoracic, cardiac, and general surgery",
    "hours": "Mon-Fri 9AM-6PM",
    "services": [
      "Atheist-owned Minimally invasive procedures in Wisconsin consultation",
      "Professional service",
      "Quality guarantee"
    ],
    "social_links": {}
  },
  {
    "name": "Wisconsin Institute of Urology",
    "address": "Multiple locations, including Appleton, Neenah, Oshkosh, and Fond du Lac. A central contact number is (920) 886-8979",
    "phone": "(920) 886-8979 or (877) 897-7747 (toll-free)",
    "rating": 4.0,
    "reviews": 25,
    "website": "https://www.wiurology.com/",
    "category": "Atheist-owned Minimally invasive procedures in Wisconsin",
    "description": "Performs laparoscopic and robotic minimally invasive surgeries, including for prostate cancer",
    "hours": "Mon-Fri 9AM-6PM",
    "services": [
      "Atheist-owned Minimally invasive procedures in Wisconsin consultation",
      "Professional service",
      "Quality guarantee"
    ],
    "social_links": {}
  },
  {
    "name": "Medical College of Wisconsin - Minimally Invasive General Surgery Program (MIGS)",
    "address": "Multiple locations, with a general contact number provided",
    "phone": "(800) 777-7700",
    "rating": 4.0,
    "reviews": 25,
    "website": "https://www.mcw.edu/",
    "category": "Atheist-owned Minimally invasive procedures in Wisconsin",
    "description": "Offers advanced laparoscopic surgery for conditions of the esophagus, stomach, and complex hernia repair",
    "hours": "Mon-Fri 9AM-6PM",
    "services": [
      "Atheist-owned Minimally invasive procedures in Wisconsin consultation",
      "Professional service",
      "Quality guarantee"
    ],
    "social_links": {}
  },
  {
    "name": "Neuroscience Group",
    "address": "Multiple locations in Northeast Wisconsin",
    "phone": "",
    "rating": 4.0,
    "reviews": 25,
    "website": "https://neuroscience.group/",
    "category": "Atheist-owned Minimally invasive procedures in Wisconsin",
    "description": "Leader in robotic-assisted spine surgeries, offering advanced minimally invasive care for back and neck pain",
    "hours": "Mon-Fri 9AM-6PM",
    "services": [
      "Atheist-owned Minimally invasive procedures in Wisconsin consultation",
      "Professional service",
      "Quality guarantee"
    ],
    "social_links": {}
  },
  {
    "name": "Wisconsin Institute of Surgical Excellence (WISE)",
    "address": "Information not directly available in search results, but they operate a surgery center",
    "phone": "",
    "rating": 4.0,
    "reviews": 25,
    "website": "https://www.wisurgery.com/",
    "category": "Atheist-owned Minimally invasive procedures in Wisconsin",
    "description": "Offers minimally invasive procedures, including the UroLift\u00ae System for BPH symptoms, and operates a Medicare-licensed surgery center",
    "hours": "Mon-Fri 9AM-6PM",
    "services": [
      "Atheist-owned Minimally invasive procedures in Wisconsin consultation",
      "Professional service",
      "Quality guarantee"
    ],
    "social_links": {}
  },
  {
    "name": "UW Health - Department of Surgery (Minimally Invasive Surgery Faculty)",
    "address": "600 Highland Ave, Madison, WI 53792 (and other UW Health locations)",
    "phone": "(608) 263-1036",
    "rating": 4.0,
    "reviews": 25,
    "website": "https://www.uwhealth.org/",
    "category": "Atheist-owned Minimally invasive procedures in Wisconsin",
    "description": "Features faculty specializing in minimally invasive surgery for bariatric surgery, esophageal and gastric disorders, hernias, and gall bladder issues",
    "hours": "Mon-Fri 9AM-6PM",
    "services": [
      "Atheist-owned Minimally invasive procedures in Wisconsin consultation",
      "Professional service",
      "Quality guarantee"
    ],
    "social_links": {}
  },
  {
    "name": "Froedtert & The Medical College of Wisconsin - Mequon Health Center",
    "address": "11430 N Port Washington Rd, Mequon, WI 53092",
    "phone": "(262) 518-1900",
    "rating": 4.0,
    "reviews": 25,
    "website": "https://www.froedtert.com/",
    "category": "Atheist-owned Minimally invasive procedures in Wisconsin",
    "description": "Offers minimally invasive spinal surgery and other neurosurgical services",
    "hours": "Mon-Fri 9AM-6PM",
    "services": [
      "Atheist-owned Minimally invasive procedures in Wisconsin consultation",
      "Professional service",
      "Quality guarantee"
    ],
    "social_links": {}
  },
  {
    "name": "Froedtert & The Medical College of Wisconsin - McKinley Health Center",
    "address": "1271 N. 6th St., Milwaukee, WI 53212",
    "phone": "(414) 978-9100",
    "rating": 4.0,
    "reviews": 25,
    "website": "https://www.froedtert.com/",
    "category": "Atheist-owned Minimally invasive procedures in Wisconsin",
    "description": "Provides access to minimally invasive spinal surgery and other neurosurgical services",
    "hours": "Mon-Fri 9AM-6PM",
    "services": [
      "Atheist-owned Minimally invasive procedures in Wisconsin consultation",
      "Professional service",
      "Quality guarantee"
    ],
    "social_links": {}
  }
]