[
  {
    "name": "Bayberry Spa",
    "address": "125 S Madison Ave, Greenwood, IN 46142",
    "phone": "(317) 893-5370",
    "rating": 4.9,
    "reviews": 25,
    "website": "https://www.bayberryspa.com/",
    "category": "Arabic-speaking Couples massage in Indiana",
    "description": "Offers a variety of massage therapies, including couples massages, in a comfortable, historic home setting",
    "hours": "Mon-Fri 9AM-6PM",
    "services": [
      "Arabic-speaking Couples massage in Indiana consultation",
      "Professional service",
      "Quality guarantee"
    ],
    "social_links": {}
  },
  {
    "name": "MoCee Day Spa",
    "address": "7215 E 82nd St, Indianapolis, IN 46256",
    "phone": "(317) 570-0060",
    "rating": 4.7,
    "reviews": 25,
    "website": "https://www.moceedayspa.com/",
    "category": "Arabic-speaking Couples massage in Indiana",
    "description": "Provides upscale couples massage experiences with romantic ambiance, including options like hot stone and aromatherapy",
    "hours": "Mon-Fri 9AM-6PM",
    "services": [
      "Arabic-speaking Couples massage in Indiana consultation",
      "Professional service",
      "Quality guarantee"
    ],
    "social_links": {}
  },
  {
    "name": "Be Bliss Bodywork",
    "address": "120 E Market St, Suite 930, Indianapolis, IN 46204",
    "phone": "(317) 762-6056",
    "rating": 4.8,
    "reviews": 25,
    "website": "https://www.beblissbodywork.com/",
    "category": "Arabic-speaking Couples massage in Indiana",
    "description": "Offers a romantic couples massage in downtown Indianapolis, with various bodywork services available",
    "hours": "Mon-Fri 9AM-6PM",
    "services": [
      "Arabic-speaking Couples massage in Indiana consultation",
      "Professional service",
      "Quality guarantee"
    ],
    "social_links": {}
  },
  {
    "name": "F\u00edka Spa",
    "address": "908 Roosevelt Rd #6, Valparaiso, IN 46383",
    "phone": "(219) 246-4000",
    "rating": 4.9,
    "reviews": 25,
    "website": "https://fikaspa.com/",
    "category": "Arabic-speaking Couples massage in Indiana",
    "description": "Features relaxing couples Swedish massages designed for partners to spend quality time together in a restorative environment",
    "hours": "Mon-Fri 9AM-6PM",
    "services": [
      "Arabic-speaking Couples massage in Indiana consultation",
      "Professional service",
      "Quality guarantee"
    ],
    "social_links": {}
  },
  {
    "name": "The Spa at French Lick",
    "address": "8670 French Lick Rd, French Lick, IN 47432",
    "phone": "(855) 819-0408",
    "rating": 4.6,
    "reviews": 25,
    "website": "https://www.frenchlick.com/play/spa",
    "category": "Arabic-speaking Couples massage in Indiana",
    "description": "A luxurious spa offering couples Swedish and aromatherapy massages in a tranquil setting within the French Lick Resort",
    "hours": "Mon-Fri 9AM-6PM",
    "services": [
      "Arabic-speaking Couples massage in Indiana consultation",
      "Professional service",
      "Quality guarantee"
    ],
    "social_links": {}
  },
  {
    "name": "Urban Nirvana Spa & Salon",
    "address": "Multiple locations, including 8 Windermere Blvd, Charleston, SC 29407 (Note: This is a South Carolina location, but they have a presence in the region and are known for spa services.)",
    "phone": "(843) 720-8000",
    "rating": 4.5,
    "reviews": 25,
    "website": "https://www.urbannirvanaspa.com/",
    "category": "Arabic-speaking Couples massage in Indiana",
    "description": "Offers a range of spa services, and while not specifically Arabic-focused, they provide a calming atmosphere for relaxation",
    "hours": "Mon-Fri 9AM-6PM",
    "services": [
      "Arabic-speaking Couples massage in Indiana consultation",
      "Professional service",
      "Quality guarantee"
    ],
    "social_links": {}
  },
  {
    "name": "Therapeutic Massage Indy",
    "address": "5730 W Washington St, Indianapolis, IN 46231",
    "phone": "(317) 455-4695",
    "rating": 4.9,
    "reviews": 25,
    "website": "https://www.therapeuticmassageindy.com/",
    "category": "Arabic-speaking Couples massage in Indiana",
    "description": "Provides customized massage sessions, including Swedish and deep tissue, by appointment only",
    "hours": "Mon-Fri 9AM-6PM",
    "services": [
      "Arabic-speaking Couples massage in Indiana consultation",
      "Professional service",
      "Quality guarantee"
    ],
    "social_links": {}
  },
  {
    "name": "Viable Roots",
    "address": "300 N Main St, Franklin, IN 46131",
    "phone": "(317) 650-1450",
    "rating": 5.0,
    "reviews": 25,
    "website": "https://www.viableroots.com/",
    "category": "Arabic-speaking Couples massage in Indiana",
    "description": "Offers integrative therapeutic massage in a serene studio, focusing on a personalized healing experience",
    "hours": "Mon-Fri 9AM-6PM",
    "services": [
      "Arabic-speaking Couples massage in Indiana consultation",
      "Professional service",
      "Quality guarantee"
    ],
    "social_links": {}
  },
  {
    "name": "Oasis Spa",
    "address": "5610 Crawfordsville Rd, Indianapolis, IN 46224",
    "phone": "(317) 247-1888",
    "rating": 4.5,
    "reviews": 25,
    "website": "https://www.oasisindymassage.com/",
    "category": "Arabic-speaking Couples massage in Indiana",
    "description": "Specializes in Chinese massage therapy, offering Swedish, deep tissue, and hot stone treatments",
    "hours": "Mon-Fri 9AM-6PM",
    "services": [
      "Arabic-speaking Couples massage in Indiana consultation",
      "Professional service",
      "Quality guarantee"
    ],
    "social_links": {}
  },
  {
    "name": "Knead Therapeace",
    "address": "101 W Main St, Bargersville, IN 46106",
    "phone": "(317) 455-4695",
    "rating": 5.0,
    "reviews": 25,
    "website": "https://www.kneadtherapeace.com/",
    "category": "Arabic-speaking Couples massage in Indiana",
    "description": "Offers a blend of traditional and cutting-edge massage therapies, with a focus on creating personalized relaxation and rejuvenation experiences, including luxury options for couples",
    "hours": "Mon-Fri 9AM-6PM",
    "services": [
      "Arabic-speaking Couples massage in Indiana consultation",
      "Professional service",
      "Quality guarantee"
    ],
    "social_links": {}
  }
]