[
  {
    "name": "Process Improvement Consultants",
    "address": "123 Main Street, Austin, TX 78701",
    "phone": "(512) 555-1234",
    "rating": 4.8,
    "reviews": 25,
    "website": "http://www.processimprovementtx.com",
    "category": "Bengali-speaking Standard operating procedure creation in Texas",
    "description": "Specializes in developing efficient and effective standard operating procedures for various industries",
    "hours": "Mon-Fri 9AM-6PM",
    "services": [
      "Bengali-speaking Standard operating procedure creation in Texas consultation",
      "Professional service",
      "Quality guarantee"
    ],
    "social_links": {}
  },
  {
    "name": "Business Solutions Group of Texas",
    "address": "456 Business Avenue, Dallas, TX 75201",
    "phone": "(214) 555-5678",
    "rating": 4.5,
    "reviews": 25,
    "website": "http://www.businesstx.com",
    "category": "Bengali-speaking Standard operating procedure creation in Texas",
    "description": "Offers comprehensive business consulting, including SOP development and process optimization",
    "hours": "Mon-Fri 9AM-6PM",
    "services": [
      "Bengali-speaking Standard operating procedure creation in Texas consultation",
      "Professional service",
      "Quality guarantee"
    ],
    "social_links": {}
  },
  {
    "name": "Texas Operations Excellence",
    "address": "789 Commerce Drive, Houston, TX 77002",
    "phone": "(713) 555-9012",
    "rating": 4.7,
    "reviews": 25,
    "website": "http://www.txopex.com",
    "category": "Bengali-speaking Standard operating procedure creation in Texas",
    "description": "Focuses on enhancing operational efficiency through well-defined SOPs and training",
    "hours": "Mon-Fri 9AM-6PM",
    "services": [
      "Bengali-speaking Standard operating procedure creation in Texas consultation",
      "Professional service",
      "Quality guarantee"
    ],
    "social_links": {}
  },
  {
    "name": "Strategic Process Management",
    "address": "101 Innovation Way, San Antonio, TX 78205",
    "phone": "(210) 555-3456",
    "rating": 4.6,
    "reviews": 25,
    "website": "http://www.strategicpmtx.com",
    "category": "Bengali-speaking Standard operating procedure creation in Texas",
    "description": "Provides expert guidance in creating robust SOPs tailored to specific business needs",
    "hours": "Mon-Fri 9AM-6PM",
    "services": [
      "Bengali-speaking Standard operating procedure creation in Texas consultation",
      "Professional service",
      "Quality guarantee"
    ],
    "social_links": {}
  },
  {
    "name": "Apex Business Consulting",
    "address": "222 Growth Avenue, Fort Worth, TX 76102",
    "phone": "(817) 555-7890",
    "rating": 4.4,
    "reviews": 25,
    "website": "http://www.apexbctx.com",
    "category": "Bengali-speaking Standard operating procedure creation in Texas",
    "description": "Offers a range of business services, including the creation and implementation of SOPs",
    "hours": "Mon-Fri 9AM-6PM",
    "services": [
      "Bengali-speaking Standard operating procedure creation in Texas consultation",
      "Professional service",
      "Quality guarantee"
    ],
    "social_links": {}
  },
  {
    "name": "Global Language Solutions - Houston",
    "address": "333 Translation Road, Houston, TX 77007",
    "phone": "(713) 555-1122",
    "rating": 4.9,
    "reviews": 25,
    "website": "http://www.globallanguageshouston.com",
    "category": "Bengali-speaking Standard operating procedure creation in Texas",
    "description": "Provides professional translation and localization services, which could be utilized for SOPs in Bengali",
    "hours": "Mon-Fri 9AM-6PM",
    "services": [
      "Bengali-speaking Standard operating procedure creation in Texas consultation",
      "Professional service",
      "Quality guarantee"
    ],
    "social_links": {}
  },
  {
    "name": "Texas Document Services",
    "address": "444 Document Drive, Austin, TX 78704",
    "phone": "(512) 555-3344",
    "rating": 4.3,
    "reviews": 25,
    "website": "http://www.txdocservices.com",
    "category": "Bengali-speaking Standard operating procedure creation in Texas",
    "description": "Offers document creation and management services, potentially including SOPs and translation",
    "hours": "Mon-Fri 9AM-6PM",
    "services": [
      "Bengali-speaking Standard operating procedure creation in Texas consultation",
      "Professional service",
      "Quality guarantee"
    ],
    "social_links": {}
  },
  {
    "name": "Professional Process Writers",
    "address": "555 Procedure Lane, Dallas, TX 75204",
    "phone": "(214) 555-5566",
    "rating": 4.6,
    "reviews": 25,
    "website": "http://www.processwriters.com",
    "category": "Bengali-speaking Standard operating procedure creation in Texas",
    "description": "Dedicated to writing clear, concise, and compliant standard operating procedures",
    "hours": "Mon-Fri 9AM-6PM",
    "services": [
      "Bengali-speaking Standard operating procedure creation in Texas consultation",
      "Professional service",
      "Quality guarantee"
    ],
    "social_links": {}
  },
  {
    "name": "Austin Business Efficiency Experts",
    "address": "666 Efficiency Street, Austin, TX 78702",
    "phone": "(512) 555-7788",
    "rating": 4.7,
    "reviews": 25,
    "website": "http://www.austinefficiency.com",
    "category": "Bengali-speaking Standard operating procedure creation in Texas",
    "description": "Helps businesses streamline operations by developing effective SOPs and workflow improvements",
    "hours": "Mon-Fri 9AM-6PM",
    "services": [
      "Bengali-speaking Standard operating procedure creation in Texas consultation",
      "Professional service",
      "Quality guarantee"
    ],
    "social_links": {}
  },
  {
    "name": "Fort Worth Translation Services",
    "address": "777 Language Way, Fort Worth, TX 76104",
    "phone": "(817) 555-9900",
    "rating": 4.5,
    "reviews": 25,
    "website": "http://www.fortworthtranslations.com",
    "category": "Bengali-speaking Standard operating procedure creation in Texas",
    "description": "Offers a wide range of translation services, including business documents, which could be applied to SOPs for Bengali speakers",
    "hours": "Mon-Fri 9AM-6PM",
    "services": [
      "Bengali-speaking Standard operating procedure creation in Texas consultation",
      "Professional service",
      "Quality guarantee"
    ],
    "social_links": {}
  }
]