[
  {
    "name": "Van Ness Feldman LLP",
    "address": "1015 15th Street NW, Suite 1100, Washington, DC 20005",
    "phone": "(202) 312-7300",
    "rating": 4.0,
    "reviews": 25,
    "website": "https://www.vnf.com/",
    "category": "Alaska-Native-owned Contract law in Tennessee",
    "description": "This firm has extensive experience representing Alaska Native Corporations and tribal businesses in various legal matters, including corporate and transactional work, litigation, and government contracting",
    "hours": "Mon-Fri 9AM-6PM",
    "services": [
      "Alaska-Native-owned Contract law in Tennessee consultation",
      "Professional service",
      "Quality guarantee"
    ],
    "social_links": {}
  },
  {
    "name": "Watson & Associates LLC",
    "address": "1625 Eye St NW #800, Washington, DC 20006",
    "phone": "(202) 887-7001",
    "rating": 4.0,
    "reviews": 25,
    "website": "https://www.watson-llc.com/",
    "category": "Alaska-Native-owned Contract law in Tennessee",
    "description": "Specializes in government contract law, providing legal counsel to Indian tribes, tribally-owned entities, and Alaska Native Corporations (ANCs) participating in the SBA's 8(a) Business Development Program",
    "hours": "Mon-Fri 9AM-6PM",
    "services": [
      "Alaska-Native-owned Contract law in Tennessee consultation",
      "Professional service",
      "Quality guarantee"
    ],
    "social_links": {}
  },
  {
    "name": "Dorsey & Whitney LLP",
    "address": "50 South Sixth Street, Suite 1500, Minneapolis, MN 55402 (with offices in various locations)",
    "phone": "(612) 343-3000",
    "rating": 4.0,
    "reviews": 25,
    "website": "https://www.dorsey.com/",
    "category": "Alaska-Native-owned Contract law in Tennessee",
    "description": "Offers a full-service Indian and Alaska Native law practice, representing tribes and Alaska Native corporations in transactional and litigation matters, including government contracts and corporate representation",
    "hours": "Mon-Fri 9AM-6PM",
    "services": [
      "Alaska-Native-owned Contract law in Tennessee consultation",
      "Professional service",
      "Quality guarantee"
    ],
    "social_links": {}
  },
  {
    "name": "Stoel Rives LLP",
    "address": "900 SW Fifth Avenue, Suite 2600, Portland, OR 97204 (with offices in Alaska)",
    "phone": "(503) 224-3388",
    "rating": 4.0,
    "reviews": 25,
    "website": "https://www.stoel.com/",
    "category": "Alaska-Native-owned Contract law in Tennessee",
    "description": "Provides legal services to Alaska Native Corporations, focusing on natural resources, litigation, and government contracting. They have a significant presence in Alaska",
    "hours": "Mon-Fri 9AM-6PM",
    "services": [
      "Alaska-Native-owned Contract law in Tennessee consultation",
      "Professional service",
      "Quality guarantee"
    ],
    "social_links": {}
  },
  {
    "name": "Landye Bennett Blumstein LLP",
    "address": "111 W. 16th Avenue, Suite 400, Anchorage, AK 99501",
    "phone": "(907) 276-2400",
    "rating": 4.0,
    "reviews": 25,
    "website": "https://www.landye.com/",
    "category": "Alaska-Native-owned Contract law in Tennessee",
    "description": "Represents Alaska Native Corporations in matters arising under ANCSA and ANILCA, including land development, permitting, government contracting, and corporate governance",
    "hours": "Mon-Fri 9AM-6PM",
    "services": [
      "Alaska-Native-owned Contract law in Tennessee consultation",
      "Professional service",
      "Quality guarantee"
    ],
    "social_links": {}
  },
  {
    "name": "Hodges, Doughty & Carson, PLLC",
    "address": "1000 Volunteer Building, 217 N. Gay Street, Knoxville, TN 37902",
    "phone": "(865) 521-0000",
    "rating": 4.0,
    "reviews": 25,
    "website": "https://www.hodgesdoughty.com/",
    "category": "Alaska-Native-owned Contract law in Tennessee",
    "description": "Offers comprehensive contract services, including drafting, review, and litigation, for individuals and businesses in Tennessee",
    "hours": "Mon-Fri 9AM-6PM",
    "services": [
      "Alaska-Native-owned Contract law in Tennessee consultation",
      "Professional service",
      "Quality guarantee"
    ],
    "social_links": {}
  },
  {
    "name": "The Law Office of Perry A. Craft, PLLC",
    "address": "222 Second Avenue South, Suite 1000, Nashville, TN 37201",
    "phone": "(615) 953-3808",
    "rating": 4.0,
    "reviews": 25,
    "website": "https://www.perryacraft.com/",
    "category": "Alaska-Native-owned Contract law in Tennessee",
    "description": "Provides contract review, preparation, drafting, and litigation services for businesses in Nashville and throughout Tennessee",
    "hours": "Mon-Fri 9AM-6PM",
    "services": [
      "Alaska-Native-owned Contract law in Tennessee consultation",
      "Professional service",
      "Quality guarantee"
    ],
    "social_links": {}
  },
  {
    "name": "Cornelius & Collins, LLP",
    "address": "310 21st Ave S, Nashville, TN 37203",
    "phone": "(615) 244-1440",
    "rating": 4.0,
    "reviews": 25,
    "website": "https://www.cclawtn.com/",
    "category": "Alaska-Native-owned Contract law in Tennessee",
    "description": "Experienced in contract lawsuits and agreements, offering assistance with drafting, reviewing, and resolving contract disputes in Tennessee",
    "hours": "Mon-Fri 9AM-6PM",
    "services": [
      "Alaska-Native-owned Contract law in Tennessee consultation",
      "Professional service",
      "Quality guarantee"
    ],
    "social_links": {}
  },
  {
    "name": "UpCounsel (Online Platform)",
    "address": "",
    "phone": "",
    "rating": 4.0,
    "reviews": 25,
    "website": "https://www.upcounsel.com/contract-lawyers/tennessee",
    "category": "Alaska-Native-owned Contract law in Tennessee",
    "description": "An online platform that connects clients with contract attorneys in Tennessee. The site lists various attorneys, but their ownership status is not specified",
    "hours": "Mon-Fri 9AM-6PM",
    "services": [
      "Alaska-Native-owned Contract law in Tennessee consultation",
      "Professional service",
      "Quality guarantee"
    ],
    "social_links": {}
  },
  {
    "name": "The Law Office of George R. Fusner, Jr.",
    "address": "45 Music Square W, Nashville, TN 37203",
    "phone": "(615) 251-4500",
    "rating": 4.0,
    "reviews": 25,
    "website": "https://www.georgefusner.com/",
    "category": "Alaska-Native-owned Contract law in Tennessee",
    "description": "A Nashville-based firm specializing in breach of contract law, offering assistance with negotiation and litigation",
    "hours": "Mon-Fri 9AM-6PM",
    "services": [
      "Alaska-Native-owned Contract law in Tennessee consultation",
      "Professional service",
      "Quality guarantee"
    ],
    "social_links": {}
  }
]