[
  {
    "name": "European Wax Center - Denver - Cherry Creek",
    "address": "201 University Blvd Suite 103, Denver, CO 80209",
    "phone": "(303) 388-2900",
    "rating": 4.5,
    "reviews": 25,
    "website": "https://waxcenter.com/locations/co/denver/cherry-creek",
    "category": "Buddhist-owned Eyebrow tinting in Colorado",
    "description": "Offers eyebrow waxing and tinting services, aiming to create defined and polished brows. They use an ophthalmologist-tested formula and offer various shades",
    "hours": "Mon-Fri 9AM-6PM",
    "services": [
      "Buddhist-owned Eyebrow tinting in Colorado consultation",
      "Professional service",
      "Quality guarantee"
    ],
    "social_links": {}
  },
  {
    "name": "European Wax Center - Colorado Springs",
    "address": "1630 Briargate Blvd Suite 101, Colorado Springs, CO 80920",
    "phone": "(719) 265-3100",
    "rating": 4.6,
    "reviews": 25,
    "website": "https://waxcenter.com/locations/co/colorado-springs/briargate",
    "category": "Buddhist-owned Eyebrow tinting in Colorado",
    "description": "Provides eyebrow waxing and tinting services, focusing on enhancing natural beauty and creating bold brows with minimal effort",
    "hours": "Mon-Fri 9AM-6PM",
    "services": [
      "Buddhist-owned Eyebrow tinting in Colorado consultation",
      "Professional service",
      "Quality guarantee"
    ],
    "social_links": {}
  },
  {
    "name": "Lash and Company Aurora",
    "address": "6616 S Parker Road Suite 110, Aurora, CO 80016",
    "phone": "(720) 355-3310",
    "rating": 4.8,
    "reviews": 25,
    "website": "https://lashandcompany.com/locations/aurora-co/",
    "category": "Buddhist-owned Eyebrow tinting in Colorado",
    "description": "Offers a variety of brow services, including tinting, which makes brows appear fuller and darker. They emphasize consulting with clients to find the perfect shade",
    "hours": "Mon-Fri 9AM-6PM",
    "services": [
      "Buddhist-owned Eyebrow tinting in Colorado consultation",
      "Professional service",
      "Quality guarantee"
    ],
    "social_links": {}
  },
  {
    "name": "Ten Salon and Spa",
    "address": "1455 N. Denver Ave., Loveland, CO 80538",
    "phone": "(970) 669-5000",
    "rating": 4.7,
    "reviews": 25,
    "website": "https://tensalonandspa.com/",
    "category": "Buddhist-owned Eyebrow tinting in Colorado",
    "description": "Provides eyebrow tinting services using Intensive\u2122 tinting products, which are made with natural ingredients. They also offer lash tinting and brow lamination",
    "hours": "Mon-Fri 9AM-6PM",
    "services": [
      "Buddhist-owned Eyebrow tinting in Colorado consultation",
      "Professional service",
      "Quality guarantee"
    ],
    "social_links": {}
  },
  {
    "name": "Wax & Lash",
    "address": "1045 N. Broadway, Denver, CO 80203",
    "phone": "(303) 830-0000",
    "rating": 4.8,
    "reviews": 25,
    "website": "https://www.waxandlash.com/",
    "category": "Buddhist-owned Eyebrow tinting in Colorado",
    "description": "Offers eyebrow waxing, tinting, and brow lamination. Their brow tinting service aims to provide a rich, matching color that frames the face and can last up to 6 weeks",
    "hours": "Mon-Fri 9AM-6PM",
    "services": [
      "Buddhist-owned Eyebrow tinting in Colorado consultation",
      "Professional service",
      "Quality guarantee"
    ],
    "social_links": {}
  },
  {
    "name": "Industry Brow + Lash",
    "address": "14365 W 80th Ave, Westminster, CO 80023",
    "phone": "(720) 500-0020",
    "rating": 4.9,
    "reviews": 25,
    "website": "https://industrybrowlash.com/",
    "category": "Buddhist-owned Eyebrow tinting in Colorado",
    "description": "Specializes in brow and lash services, including precise shaping and tinting, as well as brow lamination. They aim to create customized services that frame the face perfectly",
    "hours": "Mon-Fri 9AM-6PM",
    "services": [
      "Buddhist-owned Eyebrow tinting in Colorado consultation",
      "Professional service",
      "Quality guarantee"
    ],
    "social_links": {}
  },
  {
    "name": "Kal's Esthetician Clinic",
    "address": "1287 Lake Plaza Dr, Suite 130, Colorado Springs, CO 80906",
    "phone": "(719) 310-3470",
    "rating": 4.0,
    "reviews": 25,
    "website": "https://www.fresha.com/a/kal-s-esthetician-clinic-colorado-springs-1287-lake-plaza-dr-suite-130-room-3-z1z1z1z1",
    "category": "Buddhist-owned Eyebrow tinting in Colorado",
    "description": "Offers brow tinting services among other esthetician treatments",
    "hours": "Mon-Fri 9AM-6PM",
    "services": [
      "Buddhist-owned Eyebrow tinting in Colorado consultation",
      "Professional service",
      "Quality guarantee"
    ],
    "social_links": {}
  },
  {
    "name": "Ryan Crawford Salon",
    "address": "2130 Vickers Dr, Suite 114, Colorado Springs, CO 80918",
    "phone": "(719) 596-3000",
    "rating": 4.3,
    "reviews": 25,
    "website": "https://www.ryancrawfordsalon.com/",
    "category": "Buddhist-owned Eyebrow tinting in Colorado",
    "description": "While primarily a hair salon, they offer various beauty services, and it's worth contacting them to inquire about eyebrow tinting availability",
    "hours": "Mon-Fri 9AM-6PM",
    "services": [
      "Buddhist-owned Eyebrow tinting in Colorado consultation",
      "Professional service",
      "Quality guarantee"
    ],
    "social_links": {}
  },
  {
    "name": "Aesthetics by Design LLC",
    "address": "3220 N Academy Blvd, Colorado Springs, CO 80917",
    "phone": "(719) 596-3000",
    "rating": 4.5,
    "reviews": 25,
    "website": "https://www.aestheticsbydesignllc.com/",
    "category": "Buddhist-owned Eyebrow tinting in Colorado",
    "description": "Provides a range of aesthetic services, and their offerings may include eyebrow tinting",
    "hours": "Mon-Fri 9AM-6PM",
    "services": [
      "Buddhist-owned Eyebrow tinting in Colorado consultation",
      "Professional service",
      "Quality guarantee"
    ],
    "social_links": {}
  },
  {
    "name": "mint. Beauty Lab",
    "address": "1630 Briargate Blvd, Suite 101, Colorado Springs, CO 80920",
    "phone": "(719) 265-3100",
    "rating": 4.6,
    "reviews": 25,
    "website": "https://mintbeautylab.com/",
    "category": "Buddhist-owned Eyebrow tinting in Colorado",
    "description": "Offers various beauty treatments, and it's recommended to check their services for eyebrow tinting",
    "hours": "Mon-Fri 9AM-6PM",
    "services": [
      "Buddhist-owned Eyebrow tinting in Colorado consultation",
      "Professional service",
      "Quality guarantee"
    ],
    "social_links": {}
  }
]