[
  {
    "name": "Dr. Mirna Barakat, MD",
    "address": "7000 Baymeadows Rd, Jacksonville, FL 32256",
    "phone": "(904) 389-2300",
    "rating": 4.0,
    "reviews": 25,
    "website": "https://www.everydayhealth.com/doctors/mirna-barakat-md",
    "category": "Arabic-speaking Rheumatologists in Florida",
    "description": "Dr. Barakat is a Rheumatologist who speaks English, Arabic, and French. She is board certified and accepting new patients",
    "hours": "Mon-Fri 9AM-6PM",
    "services": [
      "Arabic-speaking Rheumatologists in Florida consultation",
      "Professional service",
      "Quality guarantee"
    ],
    "social_links": {}
  },
  {
    "name": "Dr. Loutfi Succari",
    "address": "2300 S. MacDill Ave., Suite 201, Tampa, FL 33629",
    "phone": "(813) 871-7000",
    "rating": 4.0,
    "reviews": 25,
    "website": "https://www.medicover.com/doctor/loutfi-succari-md-167229",
    "category": "Arabic-speaking Rheumatologists in Florida",
    "description": "Dr. Succari is a Rheumatologist in Tampa, Florida, specializing in conditions such as Sjogren Syndrome and Rheumatoid Arthritis. He is currently accepting new patients",
    "hours": "Mon-Fri 9AM-6PM",
    "services": [
      "Arabic-speaking Rheumatologists in Florida consultation",
      "Professional service",
      "Quality guarantee"
    ],
    "social_links": {}
  },
  {
    "name": "Dr. Hassan H. Amer, MD",
    "address": "10000 SW Innovation Way, Port Saint Lucie, FL 34987",
    "phone": "(772) 345-8100",
    "rating": 2.3,
    "reviews": 25,
    "website": "https://www.healthgrades.com/physician/dr-hassan-amer-3y78w",
    "category": "Arabic-speaking Rheumatologists in Florida",
    "description": "Dr. Amer is a Rheumatologist in Port Saint Lucie, Florida, with expertise in Osteoporosis and other conditions. He speaks English and Arabic and is accepting new patients and telehealth appointments",
    "hours": "Mon-Fri 9AM-6PM",
    "services": [
      "Arabic-speaking Rheumatologists in Florida consultation",
      "Professional service",
      "Quality guarantee"
    ],
    "social_links": {}
  },
  {
    "name": "Dr. Ahmed Elghawy, DO, CAQSM",
    "address": "Mount Sinai Medical Center, 4300 Alton Rd, Miami Beach, FL 33140",
    "phone": "(305) 674-2700",
    "rating": 4.0,
    "reviews": 25,
    "website": "https://www.mountsinai.org/find-a-provider/provider/ahmed-elghawy-do-caqsm-1508178433",
    "category": "Arabic-speaking Rheumatologists in Florida",
    "description": "Dr. Elghawy is the Chief of Arthritis & Rheumatology at Mount Sinai Medical Center. He has extensive experience in diagnosing and managing complex autoimmune and musculoskeletal disorders",
    "hours": "Mon-Fri 9AM-6PM",
    "services": [
      "Arabic-speaking Rheumatologists in Florida consultation",
      "Professional service",
      "Quality guarantee"
    ],
    "social_links": {}
  },
  {
    "name": "Dr. Jihan M. Saba",
    "address": "4701 N Federal Hwy B, Holy Cross Medical Group, Ft Lauderdale, FL 33308",
    "phone": "(954) 229-6000",
    "rating": 4.0,
    "reviews": 25,
    "website": "https://www.healthgrades.com/physician/dr-jihan-saba-1f1f4",
    "category": "Arabic-speaking Rheumatologists in Florida",
    "description": "Dr. Saba is a Rheumatologist in Ft Lauderdale, Florida, specializing in conditions such as Rheumatoid Arthritis and Osteoporosis. She speaks English, Arabic, French, and Spanish",
    "hours": "Mon-Fri 9AM-6PM",
    "services": [
      "Arabic-speaking Rheumatologists in Florida consultation",
      "Professional service",
      "Quality guarantee"
    ],
    "social_links": {}
  },
  {
    "name": "Dr. Javaid S Sheikh, MD",
    "address": "58 W Michigan St, Orlando, FL 32806",
    "phone": "(407) 650-9220",
    "rating": 4.0,
    "reviews": 25,
    "website": "https://www.orlandohealth.com/physicianfinder/javaid-s-sheikh-md-40176",
    "category": "Arabic-speaking Rheumatologists in Florida",
    "description": "Dr. Sheikh is a Rheumatologist in Orlando, Florida. He offers language assistance in Arabic and other languages",
    "hours": "Mon-Fri 9AM-6PM",
    "services": [
      "Arabic-speaking Rheumatologists in Florida consultation",
      "Professional service",
      "Quality guarantee"
    ],
    "social_links": {}
  },
  {
    "name": "Dr. Benidecto Fernandez, MD",
    "address": "2140 West 68th St, Suite 406, Hialeah, FL 33016",
    "phone": "(786) 620-2361",
    "rating": 4.0,
    "reviews": 25,
    "website": "https://www.templehealth.org/doctors/benidecto-fernandez-md",
    "category": "Arabic-speaking Rheumatologists in Florida",
    "description": "Dr. Fernandez is a Rheumatologist in Hialeah, Florida, with over 43 years of experience, specializing in Rheumatoid Arthritis and Fibromyalgia",
    "hours": "Mon-Fri 9AM-6PM",
    "services": [
      "Arabic-speaking Rheumatologists in Florida consultation",
      "Professional service",
      "Quality guarantee"
    ],
    "social_links": {}
  },
  {
    "name": "Dr. Mohamed M. Aboyoussef",
    "address": "4332 South Hopkins Ave, Titusville, FL 32780",
    "phone": "(321) 383-7100",
    "rating": 4.0,
    "reviews": 25,
    "website": "https://www.spacecoastrheumatology.com/about-us",
    "category": "Arabic-speaking Rheumatologists in Florida",
    "description": "Dr. Aboyoussef is a board-certified rheumatologist with over 15 years of experience in the USA and the United Arab Emirates. He specializes in Rheumatology Diseases and Bone Health",
    "hours": "Mon-Fri 9AM-6PM",
    "services": [
      "Arabic-speaking Rheumatologists in Florida consultation",
      "Professional service",
      "Quality guarantee"
    ],
    "social_links": {}
  },
  {
    "name": "Dr. David Alboukrek, MD, FACR",
    "address": "900 NW 13th St, Suite 101, Boca Raton, FL 33486",
    "phone": "(561) 997-0050",
    "rating": 4.0,
    "reviews": 25,
    "website": "https://www.arthritisandrheumatologyassociates.com/about-us",
    "category": "Arabic-speaking Rheumatologists in Florida",
    "description": "Dr. Alboukrek is board-certified in internal medicine and rheumatology. He has extensive experience and maintains privileges at Boca Raton Regional Hospital and Delray Medical Center",
    "hours": "Mon-Fri 9AM-6PM",
    "services": [
      "Arabic-speaking Rheumatologists in Florida consultation",
      "Professional service",
      "Quality guarantee"
    ],
    "social_links": {}
  },
  {
    "name": "Dr. Abdul Aziz, MD",
    "address": "1400 W Oak St, Suites B And C, Kissimmee, FL 34741",
    "phone": "(407) 902-0200",
    "rating": 4.0,
    "reviews": 25,
    "website": "https://www.adventhealth.com/find-a-doctor/abdul-aziz-md-1001000000000000000000000000000000000000",
    "category": "Arabic-speaking Rheumatologists in Florida",
    "description": "Dr. Aziz specializes in Rheumatology and treats conditions such as Fibromyalgia, Gout, and Lupus. He practices at AdventHealth in Kissimmee",
    "hours": "Mon-Fri 9AM-6PM",
    "services": [
      "Arabic-speaking Rheumatologists in Florida consultation",
      "Professional service",
      "Quality guarantee"
    ],
    "social_links": {}
  }
]