[
  {
    "name": "Innovative Basement Authority (Groundworks)",
    "address": "1330 41st St. N, Fargo, ND 58102",
    "phone": "",
    "rating": 4.7,
    "reviews": 25,
    "website": "https://www.groundworks.com/",
    "category": "Central-American-owned Foundation repair in North-Dakota",
    "description": "Offers a wide range of foundation repair services, including foundation piers, wall braces, and carbon fiber straps. They have multiple locations serving various North Dakota cities",
    "hours": "Mon-Fri 9AM-6PM",
    "services": [
      "Central-American-owned Foundation repair in North-Dakota consultation",
      "Professional service",
      "Quality guarantee"
    ],
    "social_links": {}
  },
  {
    "name": "American Waterworks",
    "address": "1307 Valleyhigh Dr NW, Rochester, MN 55901 (serves North Dakota)",
    "phone": "1-844-801-9520",
    "rating": 4.78,
    "reviews": 25,
    "website": "https://www.american-waterworks.com/",
    "category": "Central-American-owned Foundation repair in North-Dakota",
    "description": "Provides basement waterproofing, foundation repair, radon mitigation, and concrete repair services. They serve multiple states including North Dakota",
    "hours": "Mon-Fri 9AM-6PM",
    "services": [
      "Central-American-owned Foundation repair in North-Dakota consultation",
      "Professional service",
      "Quality guarantee"
    ],
    "social_links": {}
  },
  {
    "name": "SafeBasements North",
    "address": "840 40th St N, Grand Forks, ND 58203",
    "phone": "(800) 430-5851",
    "rating": 4.0,
    "reviews": 25,
    "website": "https://www.safebasements.com/",
    "category": "Central-American-owned Foundation repair in North-Dakota",
    "description": "Offers foundation and basement repair services, specializing in foundation crack repair, waterproofing, and settlement repair",
    "hours": "Mon-Fri 9AM-6PM",
    "services": [
      "Central-American-owned Foundation repair in North-Dakota consultation",
      "Professional service",
      "Quality guarantee"
    ],
    "social_links": {}
  },
  {
    "name": "Kaelberer Construction",
    "address": "1800 40th Ave SE, Mandan, ND 58554",
    "phone": "+1 701-663-5313",
    "rating": 5.0,
    "reviews": 25,
    "website": "http://kaelbererconstruction.com/",
    "category": "Central-American-owned Foundation repair in North-Dakota",
    "description": "Provides foundation repair services, focusing on common structural issues and delivering lasting repairs",
    "hours": "Mon-Fri 9AM-6PM",
    "services": [
      "Central-American-owned Foundation repair in North-Dakota consultation",
      "Professional service",
      "Quality guarantee"
    ],
    "social_links": {}
  },
  {
    "name": "Buffalo Concrete",
    "address": "2311 3rd St SE, Mandan, ND 58554",
    "phone": "+1 701-663-5240",
    "rating": 3.0,
    "reviews": 25,
    "website": "http://buffconcrete.com/",
    "category": "Central-American-owned Foundation repair in North-Dakota",
    "description": "Offers foundation repair and concrete services, known for affordable reliability",
    "hours": "Mon-Fri 9AM-6PM",
    "services": [
      "Central-American-owned Foundation repair in North-Dakota consultation",
      "Professional service",
      "Quality guarantee"
    ],
    "social_links": {}
  },
  {
    "name": "Fortified Foundations",
    "address": "(Fargo, ND - specific address not provided in search results, but service area is confirmed)",
    "phone": "(701) 204-0550",
    "rating": 4.0,
    "reviews": 25,
    "website": "https://www.google.com/maps/search/Fortified+Foundations+North+Dakota",
    "category": "Central-American-owned Foundation repair in North-Dakota",
    "description": "Provides expert foundation repair services in Fargo, ND, including house foundation repair and inspections",
    "hours": "Mon-Fri 9AM-6PM",
    "services": [
      "Central-American-owned Foundation repair in North-Dakota consultation",
      "Professional service",
      "Quality guarantee"
    ],
    "social_links": {}
  },
  {
    "name": "Bismarck Concrete Co.",
    "address": "3045 Ontario Ln, Bismarck, ND 58503",
    "phone": "(701) 409-1597",
    "rating": 4.0,
    "reviews": 25,
    "website": "https://www.google.com/maps/search/Bismarck+Concrete+Co.+North+Dakota",
    "category": "Central-American-owned Foundation repair in North-Dakota",
    "description": "Offers foundation repair services and is noted for educating customers and good customer service",
    "hours": "Mon-Fri 9AM-6PM",
    "services": [
      "Central-American-owned Foundation repair in North-Dakota consultation",
      "Professional service",
      "Quality guarantee"
    ],
    "social_links": {}
  },
  {
    "name": "Climax Concrete",
    "address": "8127 Jeaner Pl, Bismarck, ND 58504",
    "phone": "(701) 426-2059",
    "rating": 4.0,
    "reviews": 25,
    "website": "https://www.google.com/maps/search/Climax+Concrete+North+Dakota",
    "category": "Central-American-owned Foundation repair in North-Dakota",
    "description": "Provides foundation repair, retaining walls, and driveway services",
    "hours": "Mon-Fri 9AM-6PM",
    "services": [
      "Central-American-owned Foundation repair in North-Dakota consultation",
      "Professional service",
      "Quality guarantee"
    ],
    "social_links": {}
  },
  {
    "name": "Winn Construction Inc.",
    "address": "882 S Main Ave, Dickinson, ND 58601",
    "phone": "(701) 483-1190",
    "rating": 4.0,
    "reviews": 25,
    "website": "https://www.google.com/maps/search/Winn+Construction+Inc.+North+Dakota",
    "category": "Central-American-owned Foundation repair in North-Dakota",
    "description": "Offers foundation repair services in Dickinson, ND",
    "hours": "Mon-Fri 9AM-6PM",
    "services": [
      "Central-American-owned Foundation repair in North-Dakota consultation",
      "Professional service",
      "Quality guarantee"
    ],
    "social_links": {}
  },
  {
    "name": "Rock's Egress & Concrete",
    "address": "101 1st St, Trenton, ND 58853",
    "phone": "(734) 652-7822",
    "rating": 4.0,
    "reviews": 25,
    "website": "https://www.google.com/maps/search/Rock's+Egress+&+Concrete+North+Dakota",
    "category": "Central-American-owned Foundation repair in North-Dakota",
    "description": "Provides concrete services, including foundation repair",
    "hours": "Mon-Fri 9AM-6PM",
    "services": [
      "Central-American-owned Foundation repair in North-Dakota consultation",
      "Professional service",
      "Quality guarantee"
    ],
    "social_links": {}
  }
]