[
  {
    "name": "Leavitt Machinery",
    "address": "Multiple locations in Washington, including Lakewood, Seattle, Spokane, and Yakima",
    "phone": "(253) 236-4153 (General Inquiries)",
    "rating": 4.0,
    "reviews": 25,
    "website": "https://www.leavittmachinery.com/",
    "category": "Atheist-owned Equipment procurement in Washington",
    "description": "Provider of material handling equipment, rentals, parts, service, and forklift training",
    "hours": "Mon-Fri 9AM-6PM",
    "services": [
      "Atheist-owned Equipment procurement in Washington consultation",
      "Professional service",
      "Quality guarantee"
    ],
    "social_links": {}
  },
  {
    "name": "PacWest Machinery",
    "address": "Multiple locations in Washington, including Seattle (Kent), Pasco, and Mt. Vernon",
    "phone": "800-935-5933 (Seattle area)",
    "rating": 4.0,
    "reviews": 25,
    "website": "https://www.pacwestmachinery.com/",
    "category": "Atheist-owned Equipment procurement in Washington",
    "description": "Heavy equipment dealer specializing in sales, rental, and aftermarket support for various industries",
    "hours": "Mon-Fri 9AM-6PM",
    "services": [
      "Atheist-owned Equipment procurement in Washington consultation",
      "Professional service",
      "Quality guarantee"
    ],
    "social_links": {}
  },
  {
    "name": "Powerscreen of Washington",
    "address": "(253) 236-4153 (Contact number for inquiries)",
    "phone": "(253) 236-4153",
    "rating": 4.0,
    "reviews": 25,
    "website": "https://www.powerscreenofwashington.com/",
    "category": "Atheist-owned Equipment procurement in Washington",
    "description": "Dealer of new and used industrial equipment, with a focus on materials processing and handling equipment",
    "hours": "Mon-Fri 9AM-6PM",
    "services": [
      "Atheist-owned Equipment procurement in Washington consultation",
      "Professional service",
      "Quality guarantee"
    ],
    "social_links": {}
  },
  {
    "name": "Bargreen Ellingson (Seattle Showroom)",
    "address": "3627 1st Ave S, Seattle, WA 98134",
    "phone": "206.682.1472",
    "rating": 4.0,
    "reviews": 25,
    "website": "https://www.bargreene.com/locations/seattle/",
    "category": "Atheist-owned Equipment procurement in Washington",
    "description": "Supplier of restaurant equipment and supplies, including kitchen supplies, bar essentials, and janitorial products",
    "hours": "Mon-Fri 9AM-6PM",
    "services": [
      "Atheist-owned Equipment procurement in Washington consultation",
      "Professional service",
      "Quality guarantee"
    ],
    "social_links": {}
  },
  {
    "name": "Cunningham Equipment Services Inc.",
    "address": "3210 B ST SE, Auburn, WA 98002",
    "phone": "(253) 833-2500 (General Inquiries)",
    "rating": 4.0,
    "reviews": 25,
    "website": "https://www.cunninghamequip.com/",
    "category": "Atheist-owned Equipment procurement in Washington",
    "description": "Dealer of heavy equipment parts, specializing in Cat, Komatsu, John Deere, and Terex replacement parts",
    "hours": "Mon-Fri 9AM-6PM",
    "services": [
      "Atheist-owned Equipment procurement in Washington consultation",
      "Professional service",
      "Quality guarantee"
    ],
    "social_links": {}
  },
  {
    "name": "Equipment Sales Co Inc.",
    "address": "Snohomish, WA (Specific address not provided in search results)",
    "phone": "425-513-8263",
    "rating": 4.0,
    "reviews": 25,
    "website": "https://www.equipmentsalesco.com/",
    "category": "Atheist-owned Equipment procurement in Washington",
    "description": "Distributor and contractor specializing in automotive service equipment, offering sales, service, and installation",
    "hours": "Mon-Fri 9AM-6PM",
    "services": [
      "Atheist-owned Equipment procurement in Washington consultation",
      "Professional service",
      "Quality guarantee"
    ],
    "social_links": {}
  },
  {
    "name": "Sanson Machinery Group",
    "address": "Serves the Northwest United States, including Washington. (Specific WA address not provided in search results)",
    "phone": "800-822-8152",
    "rating": 4.0,
    "reviews": 25,
    "website": "https://www.sansonmachinery.com/",
    "category": "Atheist-owned Equipment procurement in Washington",
    "description": "Provider of metal fabrication and machining equipment, including cutting systems, forming technology, and welding equipment",
    "hours": "Mon-Fri 9AM-6PM",
    "services": [
      "Atheist-owned Equipment procurement in Washington consultation",
      "Professional service",
      "Quality guarantee"
    ],
    "social_links": {}
  },
  {
    "name": "Birch Equipment",
    "address": "Multiple locations in Washington, including Bellingham",
    "phone": "1-866-72-BIRCH or 360.734.5744",
    "rating": 4.0,
    "reviews": 25,
    "website": "https://www.birchequipment.com/",
    "category": "Atheist-owned Equipment procurement in Washington",
    "description": "Offers equipment rental and sales, as well as safety and job site supplies, transportation, and emergency response services",
    "hours": "Mon-Fri 9AM-6PM",
    "services": [
      "Atheist-owned Equipment procurement in Washington consultation",
      "Professional service",
      "Quality guarantee"
    ],
    "social_links": {}
  },
  {
    "name": "Honda Kubota",
    "address": "1745 NW Mall St, Issaquah, WA 98027",
    "phone": "(425) 392-5151",
    "rating": 4.0,
    "reviews": 25,
    "website": "https://www.google.com/maps/search/Honda+Kubota+in+Washington",
    "category": "Atheist-owned Equipment procurement in Washington",
    "description": "Supplier of industrial equipment",
    "hours": "Mon-Fri 9AM-6PM",
    "services": [
      "Atheist-owned Equipment procurement in Washington consultation",
      "Professional service",
      "Quality guarantee"
    ],
    "social_links": {}
  },
  {
    "name": "Madsen's Shop & Supply Inc.",
    "address": "1408 S Gold St Ste 2, Centralia, WA 98531",
    "phone": "(360) 736-9322",
    "rating": 4.0,
    "reviews": 25,
    "website": "https://www.google.com/maps/search/Madsen's+Shop+&+Supply+Inc.+in+Washington",
    "category": "Atheist-owned Equipment procurement in Washington",
    "description": "Supplier of industrial equipment",
    "hours": "Mon-Fri 9AM-6PM",
    "services": [
      "Atheist-owned Equipment procurement in Washington consultation",
      "Professional service",
      "Quality guarantee"
    ],
    "social_links": {}
  }
]