[
  {
    "name": "CrossFit EMC",
    "address": "3300 S 1100 E, Millcreek, UT 84106",
    "phone": "(801) 432-0088",
    "rating": 4.8,
    "reviews": 25,
    "website": "https://www.crossfitemc.com/",
    "category": "Buddhist-owned CrossFit coaching in Utah",
    "description": "Offers expert-led CrossFit, SweatFest, and Foundations classes for all fitness levels in a supportive environment",
    "hours": "Mon-Fri 9AM-6PM",
    "services": [
      "Buddhist-owned CrossFit coaching in Utah consultation",
      "Professional service",
      "Quality guarantee"
    ],
    "social_links": {}
  },
  {
    "name": "Ute CrossFit",
    "address": "633 E 3300 S, Suite B, Salt Lake City, UT 84106",
    "phone": "(385) 985-3883",
    "rating": 4.7,
    "reviews": 25,
    "website": "https://www.utecf.com/",
    "category": "Buddhist-owned CrossFit coaching in Utah",
    "description": "Provides CrossFit classes, including a dedicated \"Elements\" course for beginners, with a strong community focus and expert coaching",
    "hours": "Mon-Fri 9AM-6PM",
    "services": [
      "Buddhist-owned CrossFit coaching in Utah consultation",
      "Professional service",
      "Quality guarantee"
    ],
    "social_links": {}
  },
  {
    "name": "CrossFit Spearhead",
    "address": "1650 W 2270 S, Ogden, UT 84401",
    "phone": "(801) 721-7269",
    "rating": 4.9,
    "reviews": 25,
    "website": "https://www.crossfitspearhead.com/",
    "category": "Buddhist-owned CrossFit coaching in Utah",
    "description": "Known for its knowledgeable coaches, welcoming community, and well-balanced workouts suitable for all ages and fitness levels",
    "hours": "Mon-Fri 9AM-6PM",
    "services": [
      "Buddhist-owned CrossFit coaching in Utah consultation",
      "Professional service",
      "Quality guarantee"
    ],
    "social_links": {}
  },
  {
    "name": "High Mountain CrossFit",
    "address": "744 N 800 W, Cedar City, UT 84721",
    "phone": "(435) 867-1333",
    "rating": 4.9,
    "reviews": 25,
    "website": "https://highmountaincrossfit.com/",
    "category": "Buddhist-owned CrossFit coaching in Utah",
    "description": "Offers expert-led group CrossFit, individual design, and nutrition coaching in a comfortable and accessible gym",
    "hours": "Mon-Fri 9AM-6PM",
    "services": [
      "Buddhist-owned CrossFit coaching in Utah consultation",
      "Professional service",
      "Quality guarantee"
    ],
    "social_links": {}
  },
  {
    "name": "Rock Canyon CrossFit",
    "address": "1060 S 1500 E, Provo, UT 84606",
    "phone": "(801) 374-4673",
    "rating": 4.8,
    "reviews": 25,
    "website": "https://www.rockcanyoncrossfit.com/",
    "category": "Buddhist-owned CrossFit coaching in Utah",
    "description": "A large gym with a neighborhood feel, focusing on CrossFit as an effective way to get fit, with easy entry points and free trial sessions",
    "hours": "Mon-Fri 9AM-6PM",
    "services": [
      "Buddhist-owned CrossFit coaching in Utah consultation",
      "Professional service",
      "Quality guarantee"
    ],
    "social_links": {}
  },
  {
    "name": "Wasatch CrossFit",
    "address": "750 W 100 N, Layton, UT 84041",
    "phone": "(801) 547-0444",
    "rating": 4.7,
    "reviews": 25,
    "website": "https://www.wasatchcrossfit.com/",
    "category": "Buddhist-owned CrossFit coaching in Utah",
    "description": "One of the earliest CrossFit gyms in the U.S., offering classes for all levels, including specialized programs like Olympic lifting and yoga",
    "hours": "Mon-Fri 9AM-6PM",
    "services": [
      "Buddhist-owned CrossFit coaching in Utah consultation",
      "Professional service",
      "Quality guarantee"
    ],
    "social_links": {}
  },
  {
    "name": "Tekton Fitness",
    "address": "5725 W 700 S, Murray, UT 84123",
    "phone": "(801) 560-1111",
    "rating": 4.8,
    "reviews": 25,
    "website": "https://tektonfitness.com/",
    "category": "Buddhist-owned CrossFit coaching in Utah",
    "description": "A large warehouse gym known for intense, varied workouts combining weightlifting, gymnastics, and cardio",
    "hours": "Mon-Fri 9AM-6PM",
    "services": [
      "Buddhist-owned CrossFit coaching in Utah consultation",
      "Professional service",
      "Quality guarantee"
    ],
    "social_links": {}
  },
  {
    "name": "CrossFit Black Ridge",
    "address": "1070 W 200 N, La Verkin, UT 84745",
    "phone": "(435) 669-0555",
    "rating": 4.9,
    "reviews": 25,
    "website": "https://www.crossfitblackridge.com/",
    "category": "Buddhist-owned CrossFit coaching in Utah",
    "description": "Offers challenging yet scalable CrossFit classes with a positive and encouraging atmosphere, welcoming to all fitness levels",
    "hours": "Mon-Fri 9AM-6PM",
    "services": [
      "Buddhist-owned CrossFit coaching in Utah consultation",
      "Professional service",
      "Quality guarantee"
    ],
    "social_links": {}
  },
  {
    "name": "Salty Hive CrossFit",
    "address": "120 W 3300 S, Salt Lake City, UT 84115",
    "phone": "(801) 901-0100",
    "rating": 4.8,
    "reviews": 25,
    "website": "https://www.saltyhivecrossfit.com/",
    "category": "Buddhist-owned CrossFit coaching in Utah",
    "description": "Focuses on creating an environment for self-improvement through CrossFit methodology, with highly trained coaches ensuring safe and effective workouts",
    "hours": "Mon-Fri 9AM-6PM",
    "services": [
      "Buddhist-owned CrossFit coaching in Utah consultation",
      "Professional service",
      "Quality guarantee"
    ],
    "social_links": {}
  },
  {
    "name": "CrossFit 801",
    "address": "1065 S 100 W, Woods Cross, UT 84010",
    "phone": "(801) 294-0801",
    "rating": 4.8,
    "reviews": 25,
    "website": "https://crossfit801.com/",
    "category": "Buddhist-owned CrossFit coaching in Utah",
    "description": "Offers dynamic group fitness classes for all skill levels, emphasizing a supportive community, expert coaching, and functional fitness",
    "hours": "Mon-Fri 9AM-6PM",
    "services": [
      "Buddhist-owned CrossFit coaching in Utah consultation",
      "Professional service",
      "Quality guarantee"
    ],
    "social_links": {}
  }
]