[
  {
    "name": "The Crane Bay Event Center",
    "address": "551 W Merrill St, Indianapolis, IN 46225",
    "phone": "(317) 423-2727",
    "rating": 4.7,
    "reviews": 25,
    "website": "https://www.thecranebay.com/",
    "category": "Baby-Boomer-owned Event space rentals in Indiana",
    "description": "A unique, modern, and versatile event venue with a private outdoor patio facing the downtown skyline",
    "hours": "Mon-Fri 9AM-6PM",
    "services": [
      "Baby-Boomer-owned Event space rentals in Indiana consultation",
      "Professional service",
      "Quality guarantee"
    ],
    "social_links": {}
  },
  {
    "name": "INDUSTRY",
    "address": "545 Kentucky Ave, Indianapolis, IN 46225",
    "phone": "(317) 750-3011",
    "rating": 4.0,
    "reviews": 25,
    "website": "https://www.industryindy.com/",
    "category": "Baby-Boomer-owned Event space rentals in Indiana",
    "description": "A chic, urban venue with a modern, industrial vibe, offering a customizable open floor plan for various events",
    "hours": "Mon-Fri 9AM-6PM",
    "services": [
      "Baby-Boomer-owned Event space rentals in Indiana consultation",
      "Professional service",
      "Quality guarantee"
    ],
    "social_links": {}
  },
  {
    "name": "Salomon Farm Park",
    "address": "8177 U.S. 31, Fort Wayne, IN 46818",
    "phone": "(260) 427-6000",
    "rating": 4.0,
    "reviews": 25,
    "website": "https://www.fortwayneparks.org/facilities/salomon-farm-park.html",
    "category": "Baby-Boomer-owned Event space rentals in Indiana",
    "description": "A historic 170-acre farm park offering multiple rental facilities, including barns and smaller spaces, suitable for a variety of events",
    "hours": "Mon-Fri 9AM-6PM",
    "services": [
      "Baby-Boomer-owned Event space rentals in Indiana consultation",
      "Professional service",
      "Quality guarantee"
    ],
    "social_links": {}
  },
  {
    "name": "BASH",
    "address": "12010 Technology Dr, Carmel, IN 46032",
    "phone": "(317) 575-0000",
    "rating": 4.0,
    "reviews": 25,
    "website": "https://www.bashcarmel.com/",
    "category": "Baby-Boomer-owned Event space rentals in Indiana",
    "description": "An industrial blank canvas event space with white shiplap walls and natural light, located in Carmel's Merchant's Square",
    "hours": "Mon-Fri 9AM-6PM",
    "services": [
      "Baby-Boomer-owned Event space rentals in Indiana consultation",
      "Professional service",
      "Quality guarantee"
    ],
    "social_links": {}
  },
  {
    "name": "Parlor Public House",
    "address": "600 E Ohio St, Indianapolis, IN 46202",
    "phone": "(317) 946-0771",
    "rating": 4.0,
    "reviews": 25,
    "website": "https://parlorpublic.com/events/",
    "category": "Baby-Boomer-owned Event space rentals in Indiana",
    "description": "A unique loft-style space with mid-century modern furniture, offering individual parlor rentals, partial, and full venue buyouts",
    "hours": "Mon-Fri 9AM-6PM",
    "services": [
      "Baby-Boomer-owned Event space rentals in Indiana consultation",
      "Professional service",
      "Quality guarantee"
    ],
    "social_links": {}
  },
  {
    "name": "Hoosier Tent & Party Rental",
    "address": "7035 Coffman Rd, Indianapolis, IN 46268",
    "phone": "(317) 750-2111",
    "rating": 4.0,
    "reviews": 25,
    "website": "https://hoosiertent.com/",
    "category": "Baby-Boomer-owned Event space rentals in Indiana",
    "description": "A family-owned business offering a wide selection of rental equipment, including tents, tables, chairs, and decor, for events of all sizes",
    "hours": "Mon-Fri 9AM-6PM",
    "services": [
      "Baby-Boomer-owned Event space rentals in Indiana consultation",
      "Professional service",
      "Quality guarantee"
    ],
    "social_links": {}
  },
  {
    "name": "ACE Party Rental",
    "address": "7035 Coffman Rd, Indianapolis, IN 46268",
    "phone": "(317) 872-8368",
    "rating": 4.0,
    "reviews": 25,
    "website": "https://www.acepartyrental.com/",
    "category": "Baby-Boomer-owned Event space rentals in Indiana",
    "description": "Provides tents, chairs, tables, drapery, dance floors, and more for events in Indianapolis and the state of Indiana",
    "hours": "Mon-Fri 9AM-6PM",
    "services": [
      "Baby-Boomer-owned Event space rentals in Indiana consultation",
      "Professional service",
      "Quality guarantee"
    ],
    "social_links": {}
  },
  {
    "name": "Irvington Event Center",
    "address": "9 Johnson Ave, Indianapolis, IN 46219",
    "phone": "(317) 357-5144",
    "rating": 4.0,
    "reviews": 25,
    "website": "https://irvington-event-center.com/",
    "category": "Baby-Boomer-owned Event space rentals in Indiana",
    "description": "Offers versatile spaces for weddings, parties, and corporate events, along with bartending and event planning services",
    "hours": "Mon-Fri 9AM-6PM",
    "services": [
      "Baby-Boomer-owned Event space rentals in Indiana consultation",
      "Professional service",
      "Quality guarantee"
    ],
    "social_links": {}
  },
  {
    "name": "The Gallery Event Center",
    "address": "5852 E 82nd St, Indianapolis, IN 46250",
    "phone": "(317) 432-5000",
    "rating": 4.9,
    "reviews": 25,
    "website": "https://www.thegalleryeventcenter.com/",
    "category": "Baby-Boomer-owned Event space rentals in Indiana",
    "description": "A venue perfect for brunches, micro weddings, and celebrations, located on the northeast side of Indianapolis",
    "hours": "Mon-Fri 9AM-6PM",
    "services": [
      "Baby-Boomer-owned Event space rentals in Indiana consultation",
      "Professional service",
      "Quality guarantee"
    ],
    "social_links": {}
  },
  {
    "name": "Olas Villa Event Center",
    "address": "7205 E Washington St, Indianapolis, IN 46219",
    "phone": "(317) 374-0000",
    "rating": 4.0,
    "reviews": 25,
    "website": "https://olasvilla.com/",
    "category": "Baby-Boomer-owned Event space rentals in Indiana",
    "description": "An event center suitable for weddings, birthdays, baby showers, and corporate events, with ample parking and close proximity to downtown Indianapolis",
    "hours": "Mon-Fri 9AM-6PM",
    "services": [
      "Baby-Boomer-owned Event space rentals in Indiana consultation",
      "Professional service",
      "Quality guarantee"
    ],
    "social_links": {}
  }
]