[
  {
    "name": "Expeditors International of Washington, Inc.",
    "address": "1101 SW 16th St, Renton, WA 98057",
    "phone": "(425) 747-3000",
    "rating": 4.0,
    "reviews": 25,
    "website": "https://www.expeditors.com/",
    "category": "Central-American-owned Logistics consulting in Washington",
    "description": "A global logistics and freight forwarding company offering supply chain solutions, customs brokerage, and transportation services",
    "hours": "Mon-Fri 9AM-6PM",
    "services": [
      "Central-American-owned Logistics consulting in Washington consultation",
      "Professional service",
      "Quality guarantee"
    ],
    "social_links": {}
  },
  {
    "name": "Logistics Plus",
    "address": "1400 F St NE, Auburn, WA 98002 (and other locations)",
    "phone": "(253) 333-2020",
    "rating": 4.7,
    "reviews": 25,
    "website": "https://logisticsplus.com/",
    "category": "Central-American-owned Logistics consulting in Washington",
    "description": "Provides comprehensive logistics and supply chain management solutions, including transportation, warehousing, and fulfillment",
    "hours": "Mon-Fri 9AM-6PM",
    "services": [
      "Central-American-owned Logistics consulting in Washington consultation",
      "Professional service",
      "Quality guarantee"
    ],
    "social_links": {}
  },
  {
    "name": "Waggon",
    "address": "Multiple locations including Federal Way, Renton, Everett, and Yakima. (Specific office address varies by location)",
    "phone": "(253) 248-0038 (Federal Way example)",
    "rating": 4.0,
    "reviews": 25,
    "website": "https://waggon.io/",
    "category": "Central-American-owned Logistics consulting in Washington",
    "description": "Offers a range of logistics services including freight, warehouse management, and expedited shipping, serving various industries",
    "hours": "Mon-Fri 9AM-6PM",
    "services": [
      "Central-American-owned Logistics consulting in Washington consultation",
      "Professional service",
      "Quality guarantee"
    ],
    "social_links": {}
  },
  {
    "name": "ARS Transport Brokerage, LLC",
    "address": "1003 University Parkway, Yakima, WA 98901",
    "phone": "(509) 966-3292",
    "rating": 4.0,
    "reviews": 25,
    "website": "https://arstransport.com/",
    "category": "Central-American-owned Logistics consulting in Washington",
    "description": "Founded by Antonio Silva, this company specializes in transportation and logistics coordination, with a focus on produce",
    "hours": "Mon-Fri 9AM-6PM",
    "services": [
      "Central-American-owned Logistics consulting in Washington consultation",
      "Professional service",
      "Quality guarantee"
    ],
    "social_links": {}
  },
  {
    "name": "Osprey Logistics",
    "address": "1201 7th Ave, Everett, WA 98201",
    "phone": "(425) 252-0000",
    "rating": 4.0,
    "reviews": 25,
    "website": "https://ospreylogistics.com/",
    "category": "Central-American-owned Logistics consulting in Washington",
    "description": "A full-service, intermodal terminal and freight broker providing logistics and supply chain management solutions in the Pacific Northwest",
    "hours": "Mon-Fri 9AM-6PM",
    "services": [
      "Central-American-owned Logistics consulting in Washington consultation",
      "Professional service",
      "Quality guarantee"
    ],
    "social_links": {}
  },
  {
    "name": "Direct Drive Logistics",
    "address": "Multiple locations, including Vancouver, WA. (Specific office address may vary)",
    "phone": "(877) 600-0555",
    "rating": 5.0,
    "reviews": 25,
    "website": "https://www.directdrivelogistics.com/",
    "category": "Central-American-owned Logistics consulting in Washington",
    "description": "Offers freight brokerage and logistics consulting, with services including LTL, truckload, and international freight forwarding",
    "hours": "Mon-Fri 9AM-6PM",
    "services": [
      "Central-American-owned Logistics consulting in Washington consultation",
      "Professional service",
      "Quality guarantee"
    ],
    "social_links": {}
  },
  {
    "name": "Nissin International Transport U.S.A., Inc.",
    "address": "1200 NW 116th St, Vancouver, WA 98661",
    "phone": "(360) 695-1111",
    "rating": 4.0,
    "reviews": 25,
    "website": "https://www.nissin-usa.com/",
    "category": "Central-American-owned Logistics consulting in Washington",
    "description": "Provides international freight forwarding, customs brokerage, warehousing, and distribution services",
    "hours": "Mon-Fri 9AM-6PM",
    "services": [
      "Central-American-owned Logistics consulting in Washington consultation",
      "Professional service",
      "Quality guarantee"
    ],
    "social_links": {}
  },
  {
    "name": "SEKO Logistics Spokane",
    "address": "17710 E Sprague Ave, Spokane Valley, WA 99037",
    "phone": "(509) 891-7700",
    "rating": 4.0,
    "reviews": 25,
    "website": "https://www.sekologistics.com/locations/spokane/",
    "category": "Central-American-owned Logistics consulting in Washington",
    "description": "Offers tailored logistics and supply chain services, including global shipping, warehousing, and distribution",
    "hours": "Mon-Fri 9AM-6PM",
    "services": [
      "Central-American-owned Logistics consulting in Washington consultation",
      "Professional service",
      "Quality guarantee"
    ],
    "social_links": {}
  },
  {
    "name": "Holman Logistics",
    "address": "Multiple locations, including Seattle, WA. (Specific office address may vary)",
    "phone": "(253) 922-8700",
    "rating": 4.0,
    "reviews": 25,
    "website": "https://www.holmanlogistics.com/",
    "category": "Central-American-owned Logistics consulting in Washington",
    "description": "A provider of third-party logistics (3PL) and supply chain management services, with public and contract warehousing facilities",
    "hours": "Mon-Fri 9AM-6PM",
    "services": [
      "Central-American-owned Logistics consulting in Washington consultation",
      "Professional service",
      "Quality guarantee"
    ],
    "social_links": {}
  },
  {
    "name": "A & A Contract Customs Brokers",
    "address": "11205 Best Rd, Blaine, WA 98230",
    "phone": "(360) 332-7667",
    "rating": 4.0,
    "reviews": 25,
    "website": "https://www.aacb.com/",
    "category": "Central-American-owned Logistics consulting in Washington",
    "description": "A customs brokerage firm offering freight, brokerage, and distribution services",
    "hours": "Mon-Fri 9AM-6PM",
    "services": [
      "Central-American-owned Logistics consulting in Washington consultation",
      "Professional service",
      "Quality guarantee"
    ],
    "social_links": {}
  }
]