[
  {
    "name": "Searchbloom",
    "address": "1177 W Utopia Ave, Salt Lake City, UT 84119",
    "phone": "(801) 521-4422",
    "rating": 4.9,
    "reviews": 25,
    "website": "https://www.searchbloom.com/",
    "category": "Arabic-speaking Keyword research in Utah",
    "description": "Searchbloom is a digital marketing agency specializing in SEO, PPC, and CRO services, known for driving measurable results and offering strategic execution",
    "hours": "Mon-Fri 9AM-6PM",
    "services": [
      "Arabic-speaking Keyword research in Utah consultation",
      "Professional service",
      "Quality guarantee"
    ],
    "social_links": {}
  },
  {
    "name": "SEO Werkz",
    "address": "12110 S State St, Riverton, UT 84065",
    "phone": "(801) 400-9000",
    "rating": 4.9,
    "reviews": 25,
    "website": "https://seowerkz.com/",
    "category": "Arabic-speaking Keyword research in Utah",
    "description": "SEO Werkz is a Utah-based SEO company offering comprehensive digital marketing services, including keyword research, on-page optimization, and social media management",
    "hours": "Mon-Fri 9AM-6PM",
    "services": [
      "Arabic-speaking Keyword research in Utah consultation",
      "Professional service",
      "Quality guarantee"
    ],
    "social_links": {}
  },
  {
    "name": "Big Leap",
    "address": "10000 S. Centennial Parkway, Suite 100, Sandy, UT 84070",
    "phone": "(801) 523-3200",
    "rating": 4.9,
    "reviews": 25,
    "website": "https://www.bigleap.com/",
    "category": "Arabic-speaking Keyword research in Utah",
    "description": "Big Leap is a leading SEO agency in Utah focused on driving sustainable growth through ethical marketing, offering services like SEO, social media management, and content marketing",
    "hours": "Mon-Fri 9AM-6PM",
    "services": [
      "Arabic-speaking Keyword research in Utah consultation",
      "Professional service",
      "Quality guarantee"
    ],
    "social_links": {}
  },
  {
    "name": "Avalaunch Media",
    "address": "1177 W Utopia Ave, Salt Lake City, UT 84119",
    "phone": "(801) 341-8044",
    "rating": 4.9,
    "reviews": 25,
    "website": "https://avalaunchmedia.com/",
    "category": "Arabic-speaking Keyword research in Utah",
    "description": "Avalaunch Media is a full-service digital marketing agency in Utah specializing in marketing leadership, SEO, advertising, and content creation",
    "hours": "Mon-Fri 9AM-6PM",
    "services": [
      "Arabic-speaking Keyword research in Utah consultation",
      "Professional service",
      "Quality guarantee"
    ],
    "social_links": {}
  },
  {
    "name": "PWA Media (Salt Lake City SEO Company)",
    "address": "4505 S. Wasatch Blvd, Suite 300, Salt Lake City, UT 84124",
    "phone": "(801) 876-0555",
    "rating": 4.9,
    "reviews": 25,
    "website": "https://pwamedia.com/",
    "category": "Arabic-speaking Keyword research in Utah",
    "description": "PWA Media provides SEO and digital marketing solutions to help Utah businesses grow online, focusing on search engine optimization, social media marketing, and web design",
    "hours": "Mon-Fri 9AM-6PM",
    "services": [
      "Arabic-speaking Keyword research in Utah consultation",
      "Professional service",
      "Quality guarantee"
    ],
    "social_links": {}
  },
  {
    "name": "Summit Scout",
    "address": "1211 E. 3300 S., Salt Lake City, UT 84106",
    "phone": "(801) 613-1000",
    "rating": 4.8,
    "reviews": 25,
    "website": "https://summitscout.com/",
    "category": "Arabic-speaking Keyword research in Utah",
    "description": "Summit Scout is a Utah-based SEO agency focused on helping small businesses improve their online visibility through strategies like local search optimization and keyword research",
    "hours": "Mon-Fri 9AM-6PM",
    "services": [
      "Arabic-speaking Keyword research in Utah consultation",
      "Professional service",
      "Quality guarantee"
    ],
    "social_links": {}
  },
  {
    "name": "Stryde",
    "address": "10775 S. State St., Suite 200, Sandy, UT 84070",
    "phone": "(801) 733-2200",
    "rating": 4.8,
    "reviews": 25,
    "website": "https://stryde.digital/",
    "category": "Arabic-speaking Keyword research in Utah",
    "description": "Stryde is a Utah-based agency focused on eCommerce marketing and SEO for product-driven businesses, specializing in custom strategies to drive traffic and increase revenue",
    "hours": "Mon-Fri 9AM-6PM",
    "services": [
      "Arabic-speaking Keyword research in Utah consultation",
      "Professional service",
      "Quality guarantee"
    ],
    "social_links": {}
  },
  {
    "name": "OLWM (Online Web Marketing)",
    "address": "125 E 400 N, St. George, UT 84770",
    "phone": "(435) 210-0001",
    "rating": 4.7,
    "reviews": 25,
    "website": "https://www.olwm.com/",
    "category": "Arabic-speaking Keyword research in Utah",
    "description": "OLWM is a respected SEO company in St. George, Utah, that helps businesses improve online visibility and drive targeted traffic, conducting thorough keyword research",
    "hours": "Mon-Fri 9AM-6PM",
    "services": [
      "Arabic-speaking Keyword research in Utah consultation",
      "Professional service",
      "Quality guarantee"
    ],
    "social_links": {}
  },
  {
    "name": "Be Locally SEO",
    "address": "12110 S State St, Riverton, UT 84065",
    "phone": "(801) 800-8457",
    "rating": 4.8,
    "reviews": 25,
    "website": "https://belocallyseo.com/",
    "category": "Arabic-speaking Keyword research in Utah",
    "description": "Be Locally SEO is a Utah-based company excelling in search engine optimization and digital marketing, focusing on customized SEO strategies and thorough keyword research",
    "hours": "Mon-Fri 9AM-6PM",
    "services": [
      "Arabic-speaking Keyword research in Utah consultation",
      "Professional service",
      "Quality guarantee"
    ],
    "social_links": {}
  },
  {
    "name": "Arvo",
    "address": "4801 N University Ave, Suite 300, Provo, UT 84604",
    "phone": "(801) 877-5000",
    "rating": 4.9,
    "reviews": 25,
    "website": "https://arvo.digital/",
    "category": "Arabic-speaking Keyword research in Utah",
    "description": "Arvo is a digital marketing agency in Provo, Utah, focusing on trust, transparency, and long-term results, offering comprehensive marketing strategies",
    "hours": "Mon-Fri 9AM-6PM",
    "services": [
      "Arabic-speaking Keyword research in Utah consultation",
      "Professional service",
      "Quality guarantee"
    ],
    "social_links": {}
  }
]