[
  {
    "name": "Bikram Yoga North Texas",
    "address": "240 North Main St, Grapevine, TX 76051",
    "phone": "(817) 416-0000",
    "rating": 4.5,
    "reviews": 25,
    "website": "https://www.bikramyoganorthtexas.com/",
    "category": "Atheist-owned Bikram yoga in Texas",
    "description": "Offers Bikram Method, Inferno Hot Pilates, and Yin Yoga classes in a heated environment",
    "hours": "Mon-Fri 9AM-6PM",
    "services": [
      "Atheist-owned Bikram yoga in Texas consultation",
      "Professional service",
      "Quality guarantee"
    ],
    "social_links": {}
  },
  {
    "name": "PURE Yoga Texas",
    "address": "6333 East Mockingbird Lane, Suite 253, Dallas, TX 75214",
    "phone": "(214) 826-9642",
    "rating": 4.7,
    "reviews": 25,
    "website": "https://pureyogatx.com/",
    "category": "Atheist-owned Bikram yoga in Texas",
    "description": "Locally owned since 2003, offering Original Hot Yoga (Bikram Yoga), Hot Power Vinyasa, Inferno Hot Pilates, and other heated fitness classes, as well as non-heated options",
    "hours": "Mon-Fri 9AM-6PM",
    "services": [
      "Atheist-owned Bikram yoga in Texas consultation",
      "Professional service",
      "Quality guarantee"
    ],
    "social_links": {}
  },
  {
    "name": "Hot Yoga Richardson",
    "address": "1330 W Campbell Rd #106, Richardson, TX 75080",
    "phone": "(972) 234-9642",
    "rating": 4.6,
    "reviews": 25,
    "website": "https://www.hotyogarichardson.com/",
    "category": "Atheist-owned Bikram yoga in Texas",
    "description": "Offers the Bikram Method exclusively, with classes designed to strengthen, heal, and detoxify the body",
    "hours": "Mon-Fri 9AM-6PM",
    "services": [
      "Atheist-owned Bikram yoga in Texas consultation",
      "Professional service",
      "Quality guarantee"
    ],
    "social_links": {}
  },
  {
    "name": "Bikram Yoga East Dallas",
    "address": "8405 Lakeview Pkwy Suite 200, Rowlett, TX 75088",
    "phone": "(972) 947-9642",
    "rating": 4.4,
    "reviews": 25,
    "website": "https://www.bikramyogaeastdallas.com/",
    "category": "Atheist-owned Bikram yoga in Texas",
    "description": "Provides Bikram, Hot Yoga, Vinyasa, and Pilates classes",
    "hours": "Mon-Fri 9AM-6PM",
    "services": [
      "Atheist-owned Bikram yoga in Texas consultation",
      "Professional service",
      "Quality guarantee"
    ],
    "social_links": {}
  },
  {
    "name": "Hot Yoga San Marcos",
    "address": "120 E San Antonio St, San Marcos, TX 78666",
    "phone": "(512) 667-7777",
    "rating": 4.8,
    "reviews": 25,
    "website": "https://www.hotyogasanmarcos.com/",
    "category": "Atheist-owned Bikram yoga in Texas",
    "description": "Offers The Original Hot Yoga (Bikram Yoga) and Inferno Hot Pilates in a welcoming environment",
    "hours": "Mon-Fri 9AM-6PM",
    "services": [
      "Atheist-owned Bikram yoga in Texas consultation",
      "Professional service",
      "Quality guarantee"
    ],
    "social_links": {}
  },
  {
    "name": "Hot Yoga Houston",
    "address": "2438 South Blvd, Houston, TX 77098",
    "phone": "(713) 664-5333",
    "rating": 4.5,
    "reviews": 25,
    "website": "https://www.hotyogahouston.com/",
    "category": "Atheist-owned Bikram yoga in Texas",
    "description": "Offers a variety of hot yoga classes, including the Bikram method, and Inferno Hot Pilates, focusing on healing and strength",
    "hours": "Mon-Fri 9AM-6PM",
    "services": [
      "Atheist-owned Bikram yoga in Texas consultation",
      "Professional service",
      "Quality guarantee"
    ],
    "social_links": {}
  },
  {
    "name": "Bikram Yoga Katy",
    "address": "25485 Katy Fwy, Suite 100, Katy, TX 77494",
    "phone": "(281) 665-7777",
    "rating": 4.6,
    "reviews": 25,
    "website": "https://www.bikramyogakaty.com/",
    "category": "Atheist-owned Bikram yoga in Texas",
    "description": "Provides the original Bikram Yoga 26 postures and 2 breathing exercises in a heated room, focusing on healing and balance",
    "hours": "Mon-Fri 9AM-6PM",
    "services": [
      "Atheist-owned Bikram yoga in Texas consultation",
      "Professional service",
      "Quality guarantee"
    ],
    "social_links": {}
  },
  {
    "name": "Horizon Hot Yoga",
    "address": "7151 Preston Rd, Suite 221B, Frisco, TX 75034",
    "phone": "(469) 200-5050",
    "rating": 4.3,
    "reviews": 25,
    "website": "https://www.horizonhotyoga.com/",
    "category": "Atheist-owned Bikram yoga in Texas",
    "description": "Offers hot yoga classes, including variations of the Bikram method, and other fitness classes",
    "hours": "Mon-Fri 9AM-6PM",
    "services": [
      "Atheist-owned Bikram yoga in Texas consultation",
      "Professional service",
      "Quality guarantee"
    ],
    "social_links": {}
  },
  {
    "name": "Mai Town Yoga - MTX Fitness",
    "address": "213 S. State Highway 342 Suite 301, Red Oak, TX 75154",
    "phone": "(469) 571-7777",
    "rating": 4.5,
    "reviews": 25,
    "website": "https://www.maitownyoga.com/",
    "category": "Atheist-owned Bikram yoga in Texas",
    "description": "Provides a range of classes including Hot Bikram Yoga, Power Flow Yoga, Pilates, and Strength Training",
    "hours": "Mon-Fri 9AM-6PM",
    "services": [
      "Atheist-owned Bikram yoga in Texas consultation",
      "Professional service",
      "Quality guarantee"
    ],
    "social_links": {}
  },
  {
    "name": "Yoga Rocks Dallas",
    "address": "8405 Lakeview Parkway, Suite 200, Rowlett, TX 75088",
    "phone": "(972) 947-9642",
    "rating": 4.4,
    "reviews": 25,
    "website": "https://yogarocks.com/",
    "category": "Atheist-owned Bikram yoga in Texas",
    "description": "Offers various yoga and fitness classes, including hot yoga options",
    "hours": "Mon-Fri 9AM-6PM",
    "services": [
      "Atheist-owned Bikram yoga in Texas consultation",
      "Professional service",
      "Quality guarantee"
    ],
    "social_links": {}
  }
]