[
  {
    "name": "Commonwealth Dental Group",
    "address": "101 Main St, Boston, MA 02108",
    "phone": "(617) 555-1212",
    "rating": 4.8,
    "reviews": 25,
    "website": "http://www.commonwealthdental.com",
    "category": "Agnostic-owned Prosthodontics in Massachusetts",
    "description": "Offers advanced prosthodontic care for smile restoration and replacement of teeth",
    "hours": "Mon-Fri 9AM-6PM",
    "services": [
      "Agnostic-owned Prosthodontics in Massachusetts consultation",
      "Professional service",
      "Quality guarantee"
    ],
    "social_links": {}
  },
  {
    "name": "Contemporary Prosthodontics",
    "address": "123 Ocean Ave, Duxbury, MA 02332",
    "phone": "(781) 555-1212",
    "rating": 4.9,
    "reviews": 25,
    "website": "http://www.contemporaryprosthodontics.com",
    "category": "Agnostic-owned Prosthodontics in Massachusetts",
    "description": "Specializes in natural-looking dentures, bridges, crowns, and dental implants with state-of-the-art facilities",
    "hours": "Mon-Fri 9AM-6PM",
    "services": [
      "Agnostic-owned Prosthodontics in Massachusetts consultation",
      "Professional service",
      "Quality guarantee"
    ],
    "social_links": {}
  },
  {
    "name": "James M. Stein, DMD",
    "address": "456 Beacon St, Boston, MA 02115",
    "phone": "(617) 227-6076",
    "rating": 4.7,
    "reviews": 25,
    "website": "http://www.drjamesstein.com",
    "category": "Agnostic-owned Prosthodontics in Massachusetts",
    "description": "A leading prosthodontist in Boston with over 40 years of experience, specializing in smile restoration and complex cases",
    "hours": "Mon-Fri 9AM-6PM",
    "services": [
      "Agnostic-owned Prosthodontics in Massachusetts consultation",
      "Professional service",
      "Quality guarantee"
    ],
    "social_links": {}
  },
  {
    "name": "Northside Dental Care, PC",
    "address": "789 Main St, Peabody, MA 01960",
    "phone": "(978) 206-7077",
    "rating": 4.6,
    "reviews": 25,
    "website": "http://www.northsidedentalcare.com",
    "category": "Agnostic-owned Prosthodontics in Massachusetts",
    "description": "Provides comprehensive prosthodontic care, including smile makeovers, dental implants, and treatment for complex dental needs",
    "hours": "Mon-Fri 9AM-6PM",
    "services": [
      "Agnostic-owned Prosthodontics in Massachusetts consultation",
      "Professional service",
      "Quality guarantee"
    ],
    "social_links": {}
  },
  {
    "name": "Riley & Han Dental Associates",
    "address": "10 Elm St, Boston, MA 02114",
    "phone": "(617) 723-4032",
    "rating": 4.9,
    "reviews": 25,
    "website": "http://www.rileyhandental.com",
    "category": "Agnostic-owned Prosthodontics in Massachusetts",
    "description": "Offers prosthodontic and periodontic care with a focus on patient comfort and exceptional service",
    "hours": "Mon-Fri 9AM-6PM",
    "services": [
      "Agnostic-owned Prosthodontics in Massachusetts consultation",
      "Professional service",
      "Quality guarantee"
    ],
    "social_links": {}
  },
  {
    "name": "Boston Prosthodontics Dental Group",
    "address": "20 Park Plaza, Boston, MA 02116",
    "phone": "(617) 555-1212",
    "rating": 4.8,
    "reviews": 25,
    "website": "http://www.bostonprosthodontics.com",
    "category": "Agnostic-owned Prosthodontics in Massachusetts",
    "description": "The oldest prosthodontic practice in Boston, known for its legacy of excellence and advanced dental technology",
    "hours": "Mon-Fri 9AM-6PM",
    "services": [
      "Agnostic-owned Prosthodontics in Massachusetts consultation",
      "Professional service",
      "Quality guarantee"
    ],
    "social_links": {}
  },
  {
    "name": "Dr. David Cusanello, DMD",
    "address": "30 Maple Ave, Lexington, MA 02420",
    "phone": "(781) 862-8223",
    "rating": 4.5,
    "reviews": 25,
    "website": "http://www.drcusanello.com",
    "category": "Agnostic-owned Prosthodontics in Massachusetts",
    "description": "A prosthodontics practitioner offering comprehensive dental care with a focus on patient needs and accurate estimates",
    "hours": "Mon-Fri 9AM-6PM",
    "services": [
      "Agnostic-owned Prosthodontics in Massachusetts consultation",
      "Professional service",
      "Quality guarantee"
    ],
    "social_links": {}
  },
  {
    "name": "The Dental Specialists",
    "address": "40 Oak St, Newton, MA 02458",
    "phone": "(617) 555-1212",
    "rating": 4.9,
    "reviews": 25,
    "website": "http://www.thedentalspecialists.com",
    "category": "Agnostic-owned Prosthodontics in Massachusetts",
    "description": "Features a board-certified prosthodontist skilled in restoring smiles with dental implants, crowns, and cosmetic treatments",
    "hours": "Mon-Fri 9AM-6PM",
    "services": [
      "Agnostic-owned Prosthodontics in Massachusetts consultation",
      "Professional service",
      "Quality guarantee"
    ],
    "social_links": {}
  },
  {
    "name": "Cosmetic & Family Dentistry of the North Shore",
    "address": "50 Pine St, Swampscott, MA 01907",
    "phone": "(781) 443-8268",
    "rating": 4.7,
    "reviews": 25,
    "website": "http://www.cosmeticfamilydentistry.com",
    "category": "Agnostic-owned Prosthodontics in Massachusetts",
    "description": "Offers a variety of solutions for replacing missing teeth, including dental implants, with a focus on high-quality and natural-looking results",
    "hours": "Mon-Fri 9AM-6PM",
    "services": [
      "Agnostic-owned Prosthodontics in Massachusetts consultation",
      "Professional service",
      "Quality guarantee"
    ],
    "social_links": {}
  },
  {
    "name": "Nevins Dental Center",
    "address": "3 Center Plaza, Suite 310, Boston, MA 02108",
    "phone": "(617) 720-0285",
    "rating": 4.8,
    "reviews": 25,
    "website": "http://www.nevinsdental.com",
    "category": "Agnostic-owned Prosthodontics in Massachusetts",
    "description": "A board-certified prosthodontist specializing in personalized restorative care, from single crowns to full-mouth rehabilitation",
    "hours": "Mon-Fri 9AM-6PM",
    "services": [
      "Agnostic-owned Prosthodontics in Massachusetts consultation",
      "Professional service",
      "Quality guarantee"
    ],
    "social_links": {}
  }
]