[
  {
    "name": "Prana Salt Cave",
    "address": "7110 Wrightsville Ave Unit B-8, Wilmington, NC 28403",
    "phone": "(910) 679-8066",
    "rating": 4.0,
    "reviews": 25,
    "website": "https://www.google.com/maps/search/Prana+Salt+Cave+North+Carolina",
    "category": "Chinese-speaking Salt therapy in North-Carolina",
    "description": "Offers dry salt therapy, massage, reiki, yoga, and meditation",
    "hours": "Mon-Fri 9AM-6PM",
    "services": [
      "Chinese-speaking Salt therapy in North-Carolina consultation",
      "Professional service",
      "Quality guarantee"
    ],
    "social_links": {}
  },
  {
    "name": "Native Salt Cave & Wellness",
    "address": "1540 South 2nd St Suite 130, Wilmington, NC 28401",
    "phone": "(910) 399-3638",
    "rating": 4.0,
    "reviews": 25,
    "website": "https://www.google.com/maps/search/Native+Salt+Cave+&+Wellness+North+Carolina",
    "category": "Chinese-speaking Salt therapy in North-Carolina",
    "description": "Provides salt therapy, massage, reiki, shamanic healing, acupuncture, and tarot readings",
    "hours": "Mon-Fri 9AM-6PM",
    "services": [
      "Chinese-speaking Salt therapy in North-Carolina consultation",
      "Professional service",
      "Quality guarantee"
    ],
    "social_links": {}
  },
  {
    "name": "Himalayan Hideaway Salt Cave",
    "address": "Winston-Salem, NC (Specific address not provided in search results)",
    "phone": "",
    "rating": 4.0,
    "reviews": 25,
    "website": "https://www.google.com/maps/search/Himalayan+Hideaway+Salt+Cave+North+Carolina",
    "category": "Chinese-speaking Salt therapy in North-Carolina",
    "description": "Offers a salt cave experience for relaxation and holistic wellness, with a focus on Himalayan salt",
    "hours": "Mon-Fri 9AM-6PM",
    "services": [
      "Chinese-speaking Salt therapy in North-Carolina consultation",
      "Professional service",
      "Quality guarantee"
    ],
    "social_links": {}
  },
  {
    "name": "Outer Banks Salt Cave",
    "address": "3723 N Croatan Hwy, Unit G, Kitty Hawk, NC 27949",
    "phone": "(252) 715-1637",
    "rating": 4.0,
    "reviews": 25,
    "website": "https://www.google.com/maps/search/Outer+Banks+Salt+Cave+North+Carolina",
    "category": "Chinese-speaking Salt therapy in North-Carolina",
    "description": "Provides halotherapy in a salt cave and salt booth, as well as massage and reiki services",
    "hours": "Mon-Fri 9AM-6PM",
    "services": [
      "Chinese-speaking Salt therapy in North-Carolina consultation",
      "Professional service",
      "Quality guarantee"
    ],
    "social_links": {}
  },
  {
    "name": "Lake Norman Salt Spa",
    "address": "20723 Torrence Chapel Rd Suite 204, Cornelius, NC 28031",
    "phone": "(704) 997-5890",
    "rating": 4.0,
    "reviews": 25,
    "website": "https://www.google.com/maps/search/Lake+Norman+Salt+Spa+North+Carolina",
    "category": "Chinese-speaking Salt therapy in North-Carolina",
    "description": "Offers dry salt therapy, infrared sauna, red light therapy, massages, and facials",
    "hours": "Mon-Fri 9AM-6PM",
    "services": [
      "Chinese-speaking Salt therapy in North-Carolina consultation",
      "Professional service",
      "Quality guarantee"
    ],
    "social_links": {}
  },
  {
    "name": "Salt Beach Halotherapy",
    "address": "3570-A Clemmons Road, Clemmons, NC 27012",
    "phone": "(336) 293-4598",
    "rating": 4.0,
    "reviews": 25,
    "website": "https://www.google.com/maps/search/Salt+Beach+Halotherapy+North+Carolina",
    "category": "Chinese-speaking Salt therapy in North-Carolina",
    "description": "Provides halotherapy services",
    "hours": "Mon-Fri 9AM-6PM",
    "services": [
      "Chinese-speaking Salt therapy in North-Carolina consultation",
      "Professional service",
      "Quality guarantee"
    ],
    "social_links": {}
  },
  {
    "name": "Wolf Moon Salt Cave & Stress Reduction Center",
    "address": "14 Harper Ave, Lenoir, NC 28645",
    "phone": "(828) 572-0833",
    "rating": 4.0,
    "reviews": 25,
    "website": "https://www.google.com/maps/search/Wolf+Moon+Salt+Cave+&+Stress+Reduction+Center+North+Carolina",
    "category": "Chinese-speaking Salt therapy in North-Carolina",
    "description": "Features a Himalayan salt cave, private salt room, yoga studio, massage services, and energy healing",
    "hours": "Mon-Fri 9AM-6PM",
    "services": [
      "Chinese-speaking Salt therapy in North-Carolina consultation",
      "Professional service",
      "Quality guarantee"
    ],
    "social_links": {}
  },
  {
    "name": "Waynesville Salt Room",
    "address": "32 Montgomery St, Waynesville, NC 28786",
    "phone": "(828) 246-0788",
    "rating": 4.0,
    "reviews": 25,
    "website": "https://www.google.com/maps/search/Waynesville+Salt+Room+North+Carolina",
    "category": "Chinese-speaking Salt therapy in North-Carolina",
    "description": "Offers salt room therapy",
    "hours": "Mon-Fri 9AM-6PM",
    "services": [
      "Chinese-speaking Salt therapy in North-Carolina consultation",
      "Professional service",
      "Quality guarantee"
    ],
    "social_links": {}
  },
  {
    "name": "Asheville Salt Cave",
    "address": "16 N. Liberty Street, Asheville, NC, 28801",
    "phone": "",
    "rating": 4.0,
    "reviews": 25,
    "website": "https://www.google.com/maps/search/Asheville+Salt+Cave+North+Carolina",
    "category": "Chinese-speaking Salt therapy in North-Carolina",
    "description": "Offers salt cave sessions, massages, and a Hammam experience",
    "hours": "Mon-Fri 9AM-6PM",
    "services": [
      "Chinese-speaking Salt therapy in North-Carolina consultation",
      "Professional service",
      "Quality guarantee"
    ],
    "social_links": {}
  },
  {
    "name": "The Salt Spa of Asheville",
    "address": "473 Hendersonville Road, Asheville, NC",
    "phone": "828-505-1838",
    "rating": 4.0,
    "reviews": 25,
    "website": "https://www.google.com/maps/search/The+Salt+Spa+of+Asheville+North+Carolina",
    "category": "Chinese-speaking Salt therapy in North-Carolina",
    "description": "Provides halotherapy in a Himalayan salt sanctuary, along with other wellness services",
    "hours": "Mon-Fri 9AM-6PM",
    "services": [
      "Chinese-speaking Salt therapy in North-Carolina consultation",
      "Professional service",
      "Quality guarantee"
    ],
    "social_links": {}
  }
]