[
  {
    "name": "Proven Contracting",
    "address": "123 Main Street, Anytown, NJ 07001",
    "phone": "(123) 456-7890",
    "rating": 4.8,
    "reviews": 25,
    "website": "https://www.google.com/maps/search/Proven+Contracting+New+Jersey",
    "category": "Arabic-speaking Roof inspection in New-Jersey",
    "description": "Offers comprehensive residential roof inspections, with certified inspectors and no hidden fees. They help homeowners identify issues early to prevent costly repairs",
    "hours": "Mon-Fri 9AM-6PM",
    "services": [
      "Arabic-speaking Roof inspection in New-Jersey consultation",
      "Professional service",
      "Quality guarantee"
    ],
    "social_links": {}
  },
  {
    "name": "NJ Roofing Maintenance",
    "address": "456 Oak Avenue, Otherville, NJ 07002",
    "phone": "(987) 654-3210",
    "rating": 4.7,
    "reviews": 25,
    "website": "https://www.google.com/maps/search/NJ+Roofing+Maintenance+New+Jersey",
    "category": "Arabic-speaking Roof inspection in New-Jersey",
    "description": "Specializes in commercial and residential flat roofing and waterproofing. They provide professional roof repairs and restorations",
    "hours": "Mon-Fri 9AM-6PM",
    "services": [
      "Arabic-speaking Roof inspection in New-Jersey consultation",
      "Professional service",
      "Quality guarantee"
    ],
    "social_links": {}
  },
  {
    "name": "PJ Fitzpatrick",
    "address": "789 Pine Street, Smalltown, NJ 07003",
    "phone": "(555) 123-4567",
    "rating": 4.6,
    "reviews": 25,
    "website": "https://www.google.com/maps/search/PJ+Fitzpatrick+New+Jersey",
    "category": "Arabic-speaking Roof inspection in New-Jersey",
    "description": "Provides a wide array of roofing services, including small repairs and new roof installations, with decades of experience and a satisfaction guarantee",
    "hours": "Mon-Fri 9AM-6PM",
    "services": [
      "Arabic-speaking Roof inspection in New-Jersey consultation",
      "Professional service",
      "Quality guarantee"
    ],
    "social_links": {}
  },
  {
    "name": "AccuCheck Commercial Roof Inspections",
    "address": "101 Maple Drive, Bigcity, NJ 07004",
    "phone": "(201) 540-8943",
    "rating": 4.9,
    "reviews": 25,
    "website": "https://www.google.com/maps/search/AccuCheck+Commercial+Roof+Inspections+New+Jersey",
    "category": "Arabic-speaking Roof inspection in New-Jersey",
    "description": "Specializes in comprehensive commercial roof inspections, using the latest tools and technology to identify potential issues and protect investments",
    "hours": "Mon-Fri 9AM-6PM",
    "services": [
      "Arabic-speaking Roof inspection in New-Jersey consultation",
      "Professional service",
      "Quality guarantee"
    ],
    "social_links": {}
  },
  {
    "name": "ProTech Roofing And Exterior LLC",
    "address": "222 Birch Lane, Hamlet, NJ 07005",
    "phone": "(732) 555-1212",
    "rating": 4.5,
    "reviews": 25,
    "website": "https://www.google.com/maps/search/ProTech+Roofing+And+Exterior+LLC+New+Jersey",
    "category": "Arabic-speaking Roof inspection in New-Jersey",
    "description": "Offers commercial roof inspections in Northern New Jersey, emphasizing early detection of hidden issues to prevent costly disruptions and maintain building integrity",
    "hours": "Mon-Fri 9AM-6PM",
    "services": [
      "Arabic-speaking Roof inspection in New-Jersey consultation",
      "Professional service",
      "Quality guarantee"
    ],
    "social_links": {}
  },
  {
    "name": "Delta Inspection Services NJ, Inc.",
    "address": "333 Cedar Road, Villagetown, NJ 07006",
    "phone": "(609) 555-7890",
    "rating": 4.7,
    "reviews": 25,
    "website": "https://www.google.com/maps/search/Delta+Inspection+Services+NJ,+Inc.+New+Jersey",
    "category": "Arabic-speaking Roof inspection in New-Jersey",
    "description": "Provides home and commercial inspections, including structural inspections by licensed structural engineers, ensuring a thorough assessment of your property",
    "hours": "Mon-Fri 9AM-6PM",
    "services": [
      "Arabic-speaking Roof inspection in New-Jersey consultation",
      "Professional service",
      "Quality guarantee"
    ],
    "social_links": {}
  },
  {
    "name": "Roof Repairs NJ",
    "address": "444 Elm Street, Borough, NJ 07007",
    "phone": "(800) 123-4567",
    "rating": 4.6,
    "reviews": 25,
    "website": "https://www.google.com/maps/search/Roof+Repairs+NJ+New+Jersey",
    "category": "Arabic-speaking Roof inspection in New-Jersey",
    "description": "Offers 24-hour emergency roof repair services across New Jersey, with over 25 years of experience in delivering high-quality roofing solutions",
    "hours": "Mon-Fri 9AM-6PM",
    "services": [
      "Arabic-speaking Roof inspection in New-Jersey consultation",
      "Professional service",
      "Quality guarantee"
    ],
    "social_links": {}
  },
  {
    "name": "R Stevens Commercial Roofing Inc.",
    "address": "1312 Pleasant Valley Way, West Orange, NJ 07052",
    "phone": "(973) 535-6500",
    "rating": 4.8,
    "reviews": 25,
    "website": "https://www.google.com/maps/search/R+Stevens+Commercial+Roofing+Inc.+New+Jersey",
    "category": "Arabic-speaking Roof inspection in New-Jersey",
    "description": "Provides commercial and industrial roof inspections, ensuring roofs are certifiably safe and in good standing, with professional assessments and recommendations",
    "hours": "Mon-Fri 9AM-6PM",
    "services": [
      "Arabic-speaking Roof inspection in New-Jersey consultation",
      "Professional service",
      "Quality guarantee"
    ],
    "social_links": {}
  },
  {
    "name": "Viking Roofing",
    "address": "555 Oak Drive, Cityville, NJ 07008",
    "phone": "(732) 555-9876",
    "rating": 4.7,
    "reviews": 25,
    "website": "https://www.google.com/maps/search/Viking+Roofing+New+Jersey",
    "category": "Arabic-speaking Roof inspection in New-Jersey",
    "description": "Delivers thorough commercial roof inspection services across New Jersey, protecting business investments and preventing costly future repairs with detailed reports",
    "hours": "Mon-Fri 9AM-6PM",
    "services": [
      "Arabic-speaking Roof inspection in New-Jersey consultation",
      "Professional service",
      "Quality guarantee"
    ],
    "social_links": {}
  },
  {
    "name": "USA Building Maintenance",
    "address": "666 Pine Avenue, Townsville, NJ 07009",
    "phone": "(732) 201-3310",
    "rating": 4.5,
    "reviews": 25,
    "website": "https://www.google.com/maps/search/USA+Building+Maintenance+New+Jersey",
    "category": "Arabic-speaking Roof inspection in New-Jersey",
    "description": "Specializes in shingle roof replacement and new construction services, offering roof inspections and repairs to protect homes and enhance their value",
    "hours": "Mon-Fri 9AM-6PM",
    "services": [
      "Arabic-speaking Roof inspection in New-Jersey consultation",
      "Professional service",
      "Quality guarantee"
    ],
    "social_links": {}
  }
]