[
  {
    "name": "Nadler Modular",
    "address": "1400 Franklin St, Detroit, MI 48207",
    "phone": "(313) 963-9000",
    "rating": 4.0,
    "reviews": 25,
    "website": "https://www.nadlermodular.com/",
    "category": "Baby-Boomer-owned Mobile workspaces in Michigan",
    "description": "Offers a variety of portable and modular office solutions for businesses in Detroit and Southeast Michigan",
    "hours": "Mon-Fri 9AM-6PM",
    "services": [
      "Baby-Boomer-owned Mobile workspaces in Michigan consultation",
      "Professional service",
      "Quality guarantee"
    ],
    "social_links": {}
  },
  {
    "name": "ZTERS",
    "address": "26500 Haggerty Rd, Farmington Hills, MI 48331",
    "phone": "(855) 983-7700",
    "rating": 4.0,
    "reviews": 25,
    "website": "https://www.zters.com/",
    "category": "Baby-Boomer-owned Mobile workspaces in Michigan",
    "description": "Provides portable office rentals in Detroit, offering flexible and convenient on-site mobile office solutions",
    "hours": "Mon-Fri 9AM-6PM",
    "services": [
      "Baby-Boomer-owned Mobile workspaces in Michigan consultation",
      "Professional service",
      "Quality guarantee"
    ],
    "social_links": {}
  },
  {
    "name": "US Construction Trailers",
    "address": "Various locations across Michigan (specific address not provided, but serves the state)",
    "phone": "(866) 305-2449",
    "rating": 4.0,
    "reviews": 25,
    "website": "https://www.usconstructiontrailers.com/michigan/",
    "category": "Baby-Boomer-owned Mobile workspaces in Michigan",
    "description": "Offers cost-effective solutions for job site construction office trailers for rent or sale throughout Michigan",
    "hours": "Mon-Fri 9AM-6PM",
    "services": [
      "Baby-Boomer-owned Mobile workspaces in Michigan consultation",
      "Professional service",
      "Quality guarantee"
    ],
    "social_links": {}
  },
  {
    "name": "Mobile Modular",
    "address": "Various locations across Michigan (specific address not provided, but serves the state)",
    "phone": "(800) 843-4444",
    "rating": 4.0,
    "reviews": 25,
    "website": "https://www.mobilemodular.com/",
    "category": "Baby-Boomer-owned Mobile workspaces in Michigan",
    "description": "Provides a selection of new and pre-owned mobile offices with flexible leasing and purchasing options across Michigan",
    "hours": "Mon-Fri 9AM-6PM",
    "services": [
      "Baby-Boomer-owned Mobile workspaces in Michigan consultation",
      "Professional service",
      "Quality guarantee"
    ],
    "social_links": {}
  },
  {
    "name": "Bamboo",
    "address": "301 W Washington St, Ann Arbor, MI 48103",
    "phone": "(734) 222-0300",
    "rating": 4.0,
    "reviews": 25,
    "website": "https://www.bamboocowork.com/locations/bamboo-ann-arbor/",
    "category": "Baby-Boomer-owned Mobile workspaces in Michigan",
    "description": "A coworking community in Ann Arbor offering flexible coworking, private offices, event space, and meeting rooms",
    "hours": "Mon-Fri 9AM-6PM",
    "services": [
      "Baby-Boomer-owned Mobile workspaces in Michigan consultation",
      "Professional service",
      "Quality guarantee"
    ],
    "social_links": {}
  },
  {
    "name": "Bamboo",
    "address": "220 S Main St, Royal Oak, MI 48067",
    "phone": "(248) 591-7000",
    "rating": 4.0,
    "reviews": 25,
    "website": "https://www.bamboocowork.com/locations/bamboo-royal-oak/",
    "category": "Baby-Boomer-owned Mobile workspaces in Michigan",
    "description": "Offers private offices, desks, coworking areas, and meeting spaces in Royal Oak",
    "hours": "Mon-Fri 9AM-6PM",
    "services": [
      "Baby-Boomer-owned Mobile workspaces in Michigan consultation",
      "Professional service",
      "Quality guarantee"
    ],
    "social_links": {}
  },
  {
    "name": "Workantile",
    "address": "118 S Main St, Ann Arbor, MI 48104",
    "phone": "(734) 707-1744",
    "rating": 4.0,
    "reviews": 25,
    "website": "http://workantile.com/",
    "category": "Baby-Boomer-owned Mobile workspaces in Michigan",
    "description": "A coworking space in Ann Arbor designed for remote employees and self-employed individuals, offering trial and monthly memberships",
    "hours": "Mon-Fri 9AM-6PM",
    "services": [
      "Baby-Boomer-owned Mobile workspaces in Michigan consultation",
      "Professional service",
      "Quality guarantee"
    ],
    "social_links": {}
  },
  {
    "name": "BrightWorks Coworking",
    "address": "777 E. Eisenhower Parkway, Ann Arbor, MI 48108",
    "phone": "(734) 222-0300",
    "rating": 4.0,
    "reviews": 25,
    "website": "https://brightworkscoworking.com/",
    "category": "Baby-Boomer-owned Mobile workspaces in Michigan",
    "description": "Offers flexible coworking spaces, furnished private offices, and meeting rooms in Ann Arbor",
    "hours": "Mon-Fri 9AM-6PM",
    "services": [
      "Baby-Boomer-owned Mobile workspaces in Michigan consultation",
      "Professional service",
      "Quality guarantee"
    ],
    "social_links": {}
  },
  {
    "name": "The Loft Coworking Space",
    "address": "152 E. Main Street (Upstairs), Harbor Springs, Michigan 49740",
    "phone": "(601) 208-0745",
    "rating": 4.0,
    "reviews": 25,
    "website": "https://www.theloftcoworking.com/",
    "category": "Baby-Boomer-owned Mobile workspaces in Michigan",
    "description": "A nonprofit coworking space in Harbor Springs offering flexible memberships for business owners, remote workers, and entrepreneurs",
    "hours": "Mon-Fri 9AM-6PM",
    "services": [
      "Baby-Boomer-owned Mobile workspaces in Michigan consultation",
      "Professional service",
      "Quality guarantee"
    ],
    "social_links": {}
  },
  {
    "name": "Hunt Street Station",
    "address": "607 Shelby Street #700, Detroit, MI 48226",
    "phone": "(313) 444-0100",
    "rating": 4.0,
    "reviews": 25,
    "website": "https://huntstreetstation.com/",
    "category": "Baby-Boomer-owned Mobile workspaces in Michigan",
    "description": "Described as Detroit's most historic coworking space, offering various membership options and community events",
    "hours": "Mon-Fri 9AM-6PM",
    "services": [
      "Baby-Boomer-owned Mobile workspaces in Michigan consultation",
      "Professional service",
      "Quality guarantee"
    ],
    "social_links": {}
  }
]