[
  {
    "name": "Blue Llama Events",
    "address": "Indianapolis, IN (Specific address not publicly listed, contact for details)",
    "phone": "(317) 550-5700",
    "rating": 4.8,
    "reviews": 25,
    "website": "https://www.bluellamaindiana.com/",
    "category": "Arabic-speaking Weeding in Indiana",
    "description": "Blue Llama Events specializes in cultural events and has experience with various traditions, including Indian, Pakistani, Jewish, Persian, and Egyptian weddings. They are known for their ability to fuse multiple cultures and traditions",
    "hours": "Mon-Fri 9AM-6PM",
    "services": [
      "Arabic-speaking Weeding in Indiana consultation",
      "Professional service",
      "Quality guarantee"
    ],
    "social_links": {}
  },
  {
    "name": "Atmosphere Indy",
    "address": "Indianapolis, IN (Specific address not publicly listed, contact for details)",
    "phone": "(317) 450-0000",
    "rating": 4.0,
    "reviews": 25,
    "website": "https://www.atmosphereindy.com/",
    "category": "Arabic-speaking Weeding in Indiana",
    "description": "This company specializes in Pakistani weddings and is adept at blending tradition with modern elegance, understanding cultural nuances and rituals",
    "hours": "Mon-Fri 9AM-6PM",
    "services": [
      "Arabic-speaking Weeding in Indiana consultation",
      "Professional service",
      "Quality guarantee"
    ],
    "social_links": {}
  },
  {
    "name": "Masjid Al Mumineen",
    "address": "3330 W. 30th Street, Indianapolis, IN 46222",
    "phone": "(317) 925-0100",
    "rating": 4.0,
    "reviews": 25,
    "website": "https://masjidalmumineen.org/",
    "category": "Arabic-speaking Weeding in Indiana",
    "description": "This mosque offers marriage and Nikkah contract services according to Islamic Sharia and has imams authorized to perform marriages within Indiana",
    "hours": "Mon-Fri 9AM-6PM",
    "services": [
      "Arabic-speaking Weeding in Indiana consultation",
      "Professional service",
      "Quality guarantee"
    ],
    "social_links": {}
  },
  {
    "name": "Naf Naf Middle Eastern Grill Catering",
    "address": "921 Indiana Ave, Indianapolis, IN 46202",
    "phone": "(317) 600-3000",
    "rating": 4.0,
    "reviews": 25,
    "website": "https://www.ezcater.com/catering/naf-naf-middle-eastern-grill-indianapolis",
    "category": "Arabic-speaking Weeding in Indiana",
    "description": "Offers Middle Eastern catering, which can be a key component of an Arabic wedding",
    "hours": "Mon-Fri 9AM-6PM",
    "services": [
      "Arabic-speaking Weeding in Indiana consultation",
      "Professional service",
      "Quality guarantee"
    ],
    "social_links": {}
  },
  {
    "name": "ZZTanoor Kabab Catering",
    "address": "Indianapolis, IN (Specific address not publicly listed, contact for details)",
    "phone": "",
    "rating": 4.0,
    "reviews": 25,
    "website": "https://catercurator.com/caterers/zz-tanoor-kabab",
    "category": "Arabic-speaking Weeding in Indiana",
    "description": "Provides authentic, halal Middle Eastern catering, including kebabs and falafel",
    "hours": "Mon-Fri 9AM-6PM",
    "services": [
      "Arabic-speaking Weeding in Indiana consultation",
      "Professional service",
      "Quality guarantee"
    ],
    "social_links": {}
  },
  {
    "name": "Murat Shrine / Oasis Catering & Events",
    "address": "502 N New Jersey St, Indianapolis, IN 46204",
    "phone": "(317) 635-2433",
    "rating": 4.0,
    "reviews": 25,
    "website": "https://www.muratshriners.org/catering-events",
    "category": "Arabic-speaking Weeding in Indiana",
    "description": "Offers multiple ballroom settings for events and has in-house catering with a variety of options",
    "hours": "Mon-Fri 9AM-6PM",
    "services": [
      "Arabic-speaking Weeding in Indiana consultation",
      "Professional service",
      "Quality guarantee"
    ],
    "social_links": {}
  },
  {
    "name": "DJ Indiana",
    "address": "Indianapolis, IN (Specific address not publicly listed, contact for details)",
    "phone": "(317) 965-0792",
    "rating": 4.0,
    "reviews": 25,
    "website": "https://www.djindiana.com/",
    "category": "Arabic-speaking Weeding in Indiana",
    "description": "While not specifically Arabic, they offer a wide range of musical genres, including Arabic or Persian, and are experienced in wedding entertainment",
    "hours": "Mon-Fri 9AM-6PM",
    "services": [
      "Arabic-speaking Weeding in Indiana consultation",
      "Professional service",
      "Quality guarantee"
    ],
    "social_links": {}
  },
  {
    "name": "Indy Get Married",
    "address": "Indianapolis, IN (Specific address not publicly listed, contact for details)",
    "phone": "(317) 918-4431",
    "rating": 4.9,
    "reviews": 25,
    "website": "https://indygetmarried.com/",
    "category": "Arabic-speaking Weeding in Indiana",
    "description": "An inclusive wedding officiant service open to all couples, capable of incorporating various traditions and beliefs",
    "hours": "Mon-Fri 9AM-6PM",
    "services": [
      "Arabic-speaking Weeding in Indiana consultation",
      "Professional service",
      "Quality guarantee"
    ],
    "social_links": {}
  },
  {
    "name": "Conforti Photography",
    "address": "Indianapolis, IN (Specific address not publicly listed, contact for details)",
    "phone": "(317) 660-5257",
    "rating": 4.0,
    "reviews": 25,
    "website": "https://confortiphoto.com/",
    "category": "Arabic-speaking Weeding in Indiana",
    "description": "This photography service has documented an Arabic wedding at the Omni in Indianapolis, indicating experience with such events",
    "hours": "Mon-Fri 9AM-6PM",
    "services": [
      "Arabic-speaking Weeding in Indiana consultation",
      "Professional service",
      "Quality guarantee"
    ],
    "social_links": {}
  },
  {
    "name": "Tara Nicole Weddings",
    "address": "Indianapolis, IN (Specific address not publicly listed, contact for details)",
    "phone": "",
    "rating": 4.0,
    "reviews": 25,
    "website": "https://tarawithlove.com/",
    "category": "Arabic-speaking Weeding in Indiana",
    "description": "While specializing in timeless, romantic, and elegant celebrations, they also mention experience with South Asian weddings and a commitment to tailoring events to the couple's vision, suggesting cultural adaptability",
    "hours": "Mon-Fri 9AM-6PM",
    "services": [
      "Arabic-speaking Weeding in Indiana consultation",
      "Professional service",
      "Quality guarantee"
    ],
    "social_links": {}
  }
]