[
  {
    "name": "DJ DanCo.",
    "address": "Nashville, TN",
    "phone": "615-585-5471",
    "rating": 4.0,
    "reviews": 25,
    "website": "https://www.google.com/maps/search/DJ+DanCo.+in+Tennessee",
    "category": "Armenian-speaking Party DJs in Tennessee",
    "description": "Offers professional and affordable DJ entertainment for weddings, parties, and dances",
    "hours": "Mon-Fri 9AM-6PM",
    "services": [
      "Armenian-speaking Party DJs in Tennessee consultation",
      "Professional service",
      "Quality guarantee"
    ],
    "social_links": {}
  },
  {
    "name": "Blue Tone Music USA",
    "address": "Nashville, TN",
    "phone": "615-352-6358",
    "rating": 4.0,
    "reviews": 25,
    "website": "https://www.google.com/maps/search/Blue+Tone+Music+USA+in+Tennessee",
    "category": "Armenian-speaking Party DJs in Tennessee",
    "description": "A DJ service operating in the Nashville area",
    "hours": "Mon-Fri 9AM-6PM",
    "services": [
      "Armenian-speaking Party DJs in Tennessee consultation",
      "Professional service",
      "Quality guarantee"
    ],
    "social_links": {}
  },
  {
    "name": "DJ Emcees",
    "address": "Nashville, TN",
    "phone": "615-585-5471",
    "rating": 4.0,
    "reviews": 25,
    "website": "https://www.google.com/maps/search/DJ+Emcees+in+Tennessee",
    "category": "Armenian-speaking Party DJs in Tennessee",
    "description": "Provides DJ and MC services for events",
    "hours": "Mon-Fri 9AM-6PM",
    "services": [
      "Armenian-speaking Party DJs in Tennessee consultation",
      "Professional service",
      "Quality guarantee"
    ],
    "social_links": {}
  },
  {
    "name": "Louis Lee Entertainment",
    "address": "Nashville, TN",
    "phone": "615-771-0882",
    "rating": 4.0,
    "reviews": 25,
    "website": "https://www.google.com/maps/search/Louis+Lee+Entertainment+in+Tennessee",
    "category": "Armenian-speaking Party DJs in Tennessee",
    "description": "Offers entertainment services for various events",
    "hours": "Mon-Fri 9AM-6PM",
    "services": [
      "Armenian-speaking Party DJs in Tennessee consultation",
      "Professional service",
      "Quality guarantee"
    ],
    "social_links": {}
  },
  {
    "name": "Irwin Entertainment",
    "address": "Nashville, TN",
    "phone": "615-439-8024",
    "rating": 4.0,
    "reviews": 25,
    "website": "https://www.google.com/maps/search/Irwin+Entertainment+in+Tennessee",
    "category": "Armenian-speaking Party DJs in Tennessee",
    "description": "Provides entertainment solutions for events",
    "hours": "Mon-Fri 9AM-6PM",
    "services": [
      "Armenian-speaking Party DJs in Tennessee consultation",
      "Professional service",
      "Quality guarantee"
    ],
    "social_links": {}
  },
  {
    "name": "Dynamite DJ Service",
    "address": "Ashland City, TN",
    "phone": "615-631-8451",
    "rating": 4.0,
    "reviews": 25,
    "website": "https://www.google.com/maps/search/Dynamite+DJ+Service+in+Tennessee",
    "category": "Armenian-speaking Party DJs in Tennessee",
    "description": "Offers DJ services for parties and events",
    "hours": "Mon-Fri 9AM-6PM",
    "services": [
      "Armenian-speaking Party DJs in Tennessee consultation",
      "Professional service",
      "Quality guarantee"
    ],
    "social_links": {}
  },
  {
    "name": "TN Elite Entertainment",
    "address": "Middle Tennessee and Nashville",
    "phone": "",
    "rating": 4.0,
    "reviews": 25,
    "website": "https://www.google.com/maps/search/TN+Elite+Entertainment+in+Tennessee",
    "category": "Armenian-speaking Party DJs in Tennessee",
    "description": "Specializes in events from birthdays to weddings, offering DJ and Photo Booth services",
    "hours": "Mon-Fri 9AM-6PM",
    "services": [
      "Armenian-speaking Party DJs in Tennessee consultation",
      "Professional service",
      "Quality guarantee"
    ],
    "social_links": {}
  },
  {
    "name": "Nashville DJ (from Bark.com listings)",
    "address": "Nashville, TN",
    "phone": "",
    "rating": 4.0,
    "reviews": 25,
    "website": "https://www.google.com/maps/search/Nashville+DJ+(from+Bark.com+listings)+in+Tennessee",
    "category": "Armenian-speaking Party DJs in Tennessee",
    "description": "Available for weddings, birthdays, and corporate events, well-versed in all genres of music",
    "hours": "Mon-Fri 9AM-6PM",
    "services": [
      "Armenian-speaking Party DJs in Tennessee consultation",
      "Professional service",
      "Quality guarantee"
    ],
    "social_links": {}
  },
  {
    "name": "Entertain!",
    "address": "Nashville, TN",
    "phone": "",
    "rating": 4.9,
    "reviews": 25,
    "website": "https://www.google.com/maps/search/Entertain!+in+Tennessee",
    "category": "Armenian-speaking Party DJs in Tennessee",
    "description": "Offers DJ services, photo booths, casino parties, and event lighting, aiming to create the ultimate party experience",
    "hours": "Mon-Fri 9AM-6PM",
    "services": [
      "Armenian-speaking Party DJs in Tennessee consultation",
      "Professional service",
      "Quality guarantee"
    ],
    "social_links": {}
  },
  {
    "name": "LIV Entertainment Group",
    "address": "Nashville, TN",
    "phone": "",
    "rating": 4.0,
    "reviews": 25,
    "website": "https://www.google.com/maps/search/LIV+Entertainment+Group+in+Tennessee",
    "category": "Armenian-speaking Party DJs in Tennessee",
    "description": "Provides DJs for weddings, birthdays, corporate functions, and private parties. They mention DJ Oren, who has a diverse repertoire including Hebrew and Farsi, which might indicate a broader international music capability",
    "hours": "Mon-Fri 9AM-6PM",
    "services": [
      "Armenian-speaking Party DJs in Tennessee consultation",
      "Professional service",
      "Quality guarantee"
    ],
    "social_links": {}
  }
]