[
  {
    "name": "Crash Champions - Bozeman",
    "address": "522 West Aspen Street, Bozeman, MT, 59715",
    "phone": "(406) 586-7791",
    "rating": 4.8,
    "reviews": 25,
    "website": "https://www.crashchampions.com/locations/bozeman-mt/",
    "category": "Arabic-speaking Collision repair in Montana",
    "description": "Offers unparalleled collision repair experience with a written lifetime guarantee. They are I-CAR certified and work with all insurance companies",
    "hours": "Mon-Fri 9AM-6PM",
    "services": [
      "Arabic-speaking Collision repair in Montana consultation",
      "Professional service",
      "Quality guarantee"
    ],
    "social_links": {}
  },
  {
    "name": "Collision Craft Kalispell",
    "address": "1740 US-93, Kalispell, MT 59901",
    "phone": "(406) 755-4000",
    "rating": 4.0,
    "reviews": 25,
    "website": "https://collisioncraftkalispell.com/",
    "category": "Arabic-speaking Collision repair in Montana",
    "description": "Provides manufacturer-certified repairs and aims to make your car look like the accident never happened, with a warranty good for as long as you own your vehicle",
    "hours": "Mon-Fri 9AM-6PM",
    "services": [
      "Arabic-speaking Collision repair in Montana consultation",
      "Professional service",
      "Quality guarantee"
    ],
    "social_links": {}
  },
  {
    "name": "Bozeman Auto Body, LLC",
    "address": "1717 W Babcock St, Bozeman, MT 59715",
    "phone": "(406) 404-1352",
    "rating": 4.0,
    "reviews": 25,
    "website": "https://bozemanautobodyllc.com/",
    "category": "Arabic-speaking Collision repair in Montana",
    "description": "Offers hands-on collision repairs using state-of-the-art equipment to restore vehicles to factory specifications, with over 20 years of experience. They also provide a free detail service upon completion",
    "hours": "Mon-Fri 9AM-6PM",
    "services": [
      "Arabic-speaking Collision repair in Montana consultation",
      "Professional service",
      "Quality guarantee"
    ],
    "social_links": {}
  },
  {
    "name": "Top Gun Auto Body",
    "address": "1100 N Last Chance Gulch, Helena, MT 59601",
    "phone": "(406) 443-6010",
    "rating": 4.0,
    "reviews": 25,
    "website": "https://www.topgunautobody.com/",
    "category": "Arabic-speaking Collision repair in Montana",
    "description": "A collision repair and restoration company in Helena, Montana, known for its passion for cars and attention to detail, working with all insurance companies",
    "hours": "Mon-Fri 9AM-6PM",
    "services": [
      "Arabic-speaking Collision repair in Montana consultation",
      "Professional service",
      "Quality guarantee"
    ],
    "social_links": {}
  },
  {
    "name": "Ressler Collision Center",
    "address": "8472 Huffine Lane, Bozeman, Montana",
    "phone": "(406) 587-9500",
    "rating": 4.0,
    "reviews": 25,
    "website": "https://www.resslermotors.com/collision-center/",
    "category": "Arabic-speaking Collision repair in Montana",
    "description": "A Direct Repair Facility for many major insurance companies, offering quality repairs and a streamlined process. They also provide financing options",
    "hours": "Mon-Fri 9AM-6PM",
    "services": [
      "Arabic-speaking Collision repair in Montana consultation",
      "Professional service",
      "Quality guarantee"
    ],
    "social_links": {}
  },
  {
    "name": "Revive Auto Body and Paint",
    "address": "1013 N Wallace Ave, Bozeman, MT 59715",
    "phone": "(406) 624-0943",
    "rating": 4.0,
    "reviews": 25,
    "website": "https://reviveautobodyandpaint.com/",
    "category": "Arabic-speaking Collision repair in Montana",
    "description": "A family-owned and operated auto body repair center with over 15 years of experience, committed to repairing vehicles to factory specifications with a lifetime guarantee",
    "hours": "Mon-Fri 9AM-6PM",
    "services": [
      "Arabic-speaking Collision repair in Montana consultation",
      "Professional service",
      "Quality guarantee"
    ],
    "social_links": {}
  },
  {
    "name": "J & C Body Shop",
    "address": "1000 S Montana St, Butte, MT 59701",
    "phone": "(406) 494-4041",
    "rating": 4.0,
    "reviews": 25,
    "website": "https://www.jc-bodyshop.com/",
    "category": "Arabic-speaking Collision repair in Montana",
    "description": "Offers high-quality complete collision and auto body repair services in the Butte, MT area, including frame repair, auto glass replacement, and custom auto painting",
    "hours": "Mon-Fri 9AM-6PM",
    "services": [
      "Arabic-speaking Collision repair in Montana consultation",
      "Professional service",
      "Quality guarantee"
    ],
    "social_links": {}
  },
  {
    "name": "Crash Champions - Livingston",
    "address": "1324 West Front Street, Livingston, MT 59047",
    "phone": "(406) 222-2420",
    "rating": 4.0,
    "reviews": 25,
    "website": "https://www.crashchampions.com/locations/livingston-mt/",
    "category": "Arabic-speaking Collision repair in Montana",
    "description": "Provides a comprehensive repair plan with regular communication and a lifetime guarantee on all repair work. They are certified by manufacturers and industry organizations",
    "hours": "Mon-Fri 9AM-6PM",
    "services": [
      "Arabic-speaking Collision repair in Montana consultation",
      "Professional service",
      "Quality guarantee"
    ],
    "social_links": {}
  },
  {
    "name": "Custom Collision Repair",
    "address": "Locations in Havre and Chinook, MT. (Specific addresses not found in search results)",
    "phone": "(406) 394-5333 (Havre) / (406) 394-5333 (Chinook)",
    "rating": 4.0,
    "reviews": 25,
    "website": "https://customcollisionrepair.com/",
    "category": "Arabic-speaking Collision repair in Montana",
    "description": "An auto body shop specializing in dents, minor to major collisions, insurance work, and customizations, with a focus on quality and state-of-the-art equipment",
    "hours": "Mon-Fri 9AM-6PM",
    "services": [
      "Arabic-speaking Collision repair in Montana consultation",
      "Professional service",
      "Quality guarantee"
    ],
    "social_links": {}
  },
  {
    "name": "Rick's Auto Body",
    "address": "2200 W Broadway St, Missoula, MT 59808",
    "phone": "(406) 543-7171",
    "rating": 4.0,
    "reviews": 25,
    "website": "https://ricksautobodymt.com/",
    "category": "Arabic-speaking Collision repair in Montana",
    "description": "A collision repair shop in Missoula with technicians possessing over 200 years of combined experience, utilizing the latest repair technology and assisting with insurance claims",
    "hours": "Mon-Fri 9AM-6PM",
    "services": [
      "Arabic-speaking Collision repair in Montana consultation",
      "Professional service",
      "Quality guarantee"
    ],
    "social_links": {}
  }
]