[
  {
    "name": "Caliber Collision",
    "address": "1701 W Newport Pike, Wilmington, DE 19804",
    "phone": "1-888-CALIBER (225-4237)",
    "rating": 4.0,
    "reviews": 25,
    "website": "https://calibercollision.com/locations/wilmington-de/1701-w-newport-pike",
    "category": "Baby-Boomer-owned Bumper repair in Delaware",
    "description": "Offers a range of services including paint, dent, and auto glass repair. They partner with insurance companies and focus on customer service",
    "hours": "Mon-Fri 9AM-6PM",
    "services": [
      "Baby-Boomer-owned Bumper repair in Delaware consultation",
      "Professional service",
      "Quality guarantee"
    ],
    "social_links": {}
  },
  {
    "name": "Maaco Auto Body Shop & Painting",
    "address": "1008 N DuPont Hwy, New Castle, DE 19720",
    "phone": "(302) 654-4444",
    "rating": 4.0,
    "reviews": 25,
    "website": "https://www.maaco.com/locations/de/new-castle/1008-n-dupont-hwy/",
    "category": "Baby-Boomer-owned Bumper repair in Delaware",
    "description": "Specializes in repairing dents, dings, and structural damages, as well as auto painting. They offer various packages and work with insurance companies",
    "hours": "Mon-Fri 9AM-6PM",
    "services": [
      "Baby-Boomer-owned Bumper repair in Delaware consultation",
      "Professional service",
      "Quality guarantee"
    ],
    "social_links": {}
  },
  {
    "name": "Northeast Body Shop",
    "address": "1501 W 7th St, Wilmington, DE 19805",
    "phone": "(302) 655-1551",
    "rating": 4.0,
    "reviews": 25,
    "website": "http://www.northeastbodyshop.com/",
    "category": "Baby-Boomer-owned Bumper repair in Delaware",
    "description": "Provides auto and truck repair services for foreign and domestic vehicles, with a history dating back to 1964. They also offer towing services",
    "hours": "Mon-Fri 9AM-6PM",
    "services": [
      "Baby-Boomer-owned Bumper repair in Delaware consultation",
      "Professional service",
      "Quality guarantee"
    ],
    "social_links": {}
  },
  {
    "name": "Edward J. Henry & Sons",
    "address": "107 S Heald St, Wilmington, DE 19801",
    "phone": "(302) 655-1401",
    "rating": 4.0,
    "reviews": 25,
    "website": "https://www.google.com/maps/search/Edward+J.+Henry+&+Sons+in+Delaware",
    "category": "Baby-Boomer-owned Bumper repair in Delaware",
    "description": "Known for quality repairs",
    "hours": "Mon-Fri 9AM-6PM",
    "services": [
      "Baby-Boomer-owned Bumper repair in Delaware consultation",
      "Professional service",
      "Quality guarantee"
    ],
    "social_links": {}
  },
  {
    "name": "Paragon Auto Body",
    "address": "11253 US-113, Frankford, DE 19945",
    "phone": "(302) 732-9100",
    "rating": 4.0,
    "reviews": 25,
    "website": "https://www.paragonautobody.com/",
    "category": "Baby-Boomer-owned Bumper repair in Delaware",
    "description": "Offers auto body repairs, including vehicle and window repairs",
    "hours": "Mon-Fri 9AM-6PM",
    "services": [
      "Baby-Boomer-owned Bumper repair in Delaware consultation",
      "Professional service",
      "Quality guarantee"
    ],
    "social_links": {}
  },
  {
    "name": "Service King Collision Repair of Wilmington",
    "address": "1000 S Heald St, Wilmington, DE 19801",
    "phone": "(302) 655-1401 (This appears to be the same number as Edward J. Henry & Sons, which might indicate a connection or error in the search results. It's advisable to verify.)",
    "rating": 4.0,
    "reviews": 25,
    "website": "https://www.serviceking.com/locations/wilmington-de",
    "category": "Baby-Boomer-owned Bumper repair in Delaware",
    "description": "A national chain offering collision repair services",
    "hours": "Mon-Fri 9AM-6PM",
    "services": [
      "Baby-Boomer-owned Bumper repair in Delaware consultation",
      "Professional service",
      "Quality guarantee"
    ],
    "social_links": {}
  },
  {
    "name": "DG Auto Body & Paint Inc.",
    "address": "Not explicitly provided in search results",
    "phone": "",
    "rating": 4.0,
    "reviews": 25,
    "website": "https://www.google.com/maps/search/DG+Auto+Body+&+Paint+Inc.+in+Delaware",
    "category": "Baby-Boomer-owned Bumper repair in Delaware",
    "description": "Mentioned in a customer review regarding paint quality",
    "hours": "Mon-Fri 9AM-6PM",
    "services": [
      "Baby-Boomer-owned Bumper repair in Delaware consultation",
      "Professional service",
      "Quality guarantee"
    ],
    "social_links": {}
  },
  {
    "name": "Amertec",
    "address": "Not explicitly provided in search results",
    "phone": "",
    "rating": 4.0,
    "reviews": 25,
    "website": "https://www.google.com/maps/search/Amertec+in+Delaware",
    "category": "Baby-Boomer-owned Bumper repair in Delaware",
    "description": "Recommended for auto body work, with a focus on honesty regarding insurance dealings",
    "hours": "Mon-Fri 9AM-6PM",
    "services": [
      "Baby-Boomer-owned Bumper repair in Delaware consultation",
      "Professional service",
      "Quality guarantee"
    ],
    "social_links": {}
  },
  {
    "name": "Castillo Auto Repair",
    "address": "Not explicitly provided in search results",
    "phone": "",
    "rating": 4.0,
    "reviews": 25,
    "website": "https://www.google.com/maps/search/Castillo+Auto+Repair+in+Delaware",
    "category": "Baby-Boomer-owned Bumper repair in Delaware",
    "description": "Described as not the \"prettiest place\" but delivers excellent value",
    "hours": "Mon-Fri 9AM-6PM",
    "services": [
      "Baby-Boomer-owned Bumper repair in Delaware consultation",
      "Professional service",
      "Quality guarantee"
    ],
    "social_links": {}
  },
  {
    "name": "Rogers Customs Collision",
    "address": "Not explicitly provided in search results",
    "phone": "",
    "rating": 4.0,
    "reviews": 25,
    "website": "https://www.google.com/maps/search/Rogers+Customs+Collision+in+Delaware",
    "category": "Baby-Boomer-owned Bumper repair in Delaware",
    "description": "Mentioned as a place to get quotes and has received positive feedback",
    "hours": "Mon-Fri 9AM-6PM",
    "services": [
      "Baby-Boomer-owned Bumper repair in Delaware consultation",
      "Professional service",
      "Quality guarantee"
    ],
    "social_links": {}
  }
]