[
  {
    "name": "Fix Auto Gilbert",
    "address": "1625 West Sunrise Boulevard, Gilbert, AZ 85233",
    "phone": "(480) 361-3006",
    "rating": 4.9,
    "reviews": 25,
    "website": "https://fixautousa.com/locations/arizona/gilbert/",
    "category": "Baby-Boomer-owned Collision repair in Arizona",
    "description": "Offers a wide range of auto body services, including collision repair, paintless dent repair, and windshield repair. They employ certified technicians and work with insurance companies",
    "hours": "Mon-Fri 9AM-6PM",
    "services": [
      "Baby-Boomer-owned Collision repair in Arizona consultation",
      "Professional service",
      "Quality guarantee"
    ],
    "social_links": {}
  },
  {
    "name": "Caliber Collision Gilbert",
    "address": "1625 West Sunrise Boulevard, Gilbert, AZ 85233",
    "phone": "(480) 361-3006",
    "rating": 4.9,
    "reviews": 25,
    "website": "https://calibercollision.com/locations/gilbert-az-10019",
    "category": "Baby-Boomer-owned Collision repair in Arizona",
    "description": "A family-owned auto body repair and paint shop offering reliable collision services, insurance referrals, and a written lifetime warranty on all repairs",
    "hours": "Mon-Fri 9AM-6PM",
    "services": [
      "Baby-Boomer-owned Collision repair in Arizona consultation",
      "Professional service",
      "Quality guarantee"
    ],
    "social_links": {}
  },
  {
    "name": "Arizona Collision Center",
    "address": "1717 E Baseline Rd, Tempe, AZ 85283",
    "phone": "(480) 668-3105",
    "rating": 4.7,
    "reviews": 25,
    "website": "https://www.arizonacollisioncenter.com/",
    "category": "Baby-Boomer-owned Collision repair in Arizona",
    "description": "Provides a full auto body shop for physical repairs and car detailing services. They are I-CAR Gold Class certified and a recognized trusted repair facility for major vehicle manufacturers",
    "hours": "Mon-Fri 9AM-6PM",
    "services": [
      "Baby-Boomer-owned Collision repair in Arizona consultation",
      "Professional service",
      "Quality guarantee"
    ],
    "social_links": {}
  },
  {
    "name": "Sands Collision Center",
    "address": "5620 W. Glendale Ave, Glendale, AZ 85301",
    "phone": "(623) 842-5259",
    "rating": 4.8,
    "reviews": 25,
    "website": "https://glendale.sandsautobody.com/",
    "category": "Baby-Boomer-owned Collision repair in Arizona",
    "description": "Offers friendly, fast, efficient, and high-quality service with skilled technicians using modern technology. They are I-CAR Gold Class Certified and ASE Certified",
    "hours": "Mon-Fri 9AM-6PM",
    "services": [
      "Baby-Boomer-owned Collision repair in Arizona consultation",
      "Professional service",
      "Quality guarantee"
    ],
    "social_links": {}
  },
  {
    "name": "Caliber Collision Glendale",
    "address": "16812 North 53rd Avenue, Glendale, AZ 85306",
    "phone": "(623) 401-1086",
    "rating": 4.8,
    "reviews": 25,
    "website": "https://calibercollision.com/locations/glendale-az-85306",
    "category": "Baby-Boomer-owned Collision repair in Arizona",
    "description": "Provides friendly, fast, efficient, and high-quality service for customer vehicles, handling everything from minor dents to major collision repairs",
    "hours": "Mon-Fri 9AM-6PM",
    "services": [
      "Baby-Boomer-owned Collision repair in Arizona consultation",
      "Professional service",
      "Quality guarantee"
    ],
    "social_links": {}
  },
  {
    "name": "Collision Works Mesa",
    "address": "1140 S. Mesa Dr., Mesa, AZ 85210",
    "phone": "(480) 834-7222",
    "rating": 4.9,
    "reviews": 25,
    "website": "https://collisionworksmesa.com/",
    "category": "Baby-Boomer-owned Collision repair in Arizona",
    "description": "A family-owned auto body repair shop with over 40 years of experience, offering personalized care and attention. They are praised for quality work, fair pricing, and exceptional customer service",
    "hours": "Mon-Fri 9AM-6PM",
    "services": [
      "Baby-Boomer-owned Collision repair in Arizona consultation",
      "Professional service",
      "Quality guarantee"
    ],
    "social_links": {}
  },
  {
    "name": "All Star Collision",
    "address": "6124 N 59th Ave, Glendale, AZ 85301",
    "phone": "(602) 692-0524",
    "rating": 4.8,
    "reviews": 25,
    "website": "https://www.allstarcollisionaz.com/",
    "category": "Baby-Boomer-owned Collision repair in Arizona",
    "description": "Known for skilled and knowledgeable technicians, great communication, and high-quality repairs. They offer deductible waivers and specials",
    "hours": "Mon-Fri 9AM-6PM",
    "services": [
      "Baby-Boomer-owned Collision repair in Arizona consultation",
      "Professional service",
      "Quality guarantee"
    ],
    "social_links": {}
  },
  {
    "name": "5 Star Collision Center",
    "address": "4646 E 22nd St, Tucson, AZ 85711",
    "phone": "(520) 327-0123",
    "rating": 4.8,
    "reviews": 25,
    "website": "https://5starcollisionaz.com/",
    "category": "Baby-Boomer-owned Collision repair in Arizona",
    "description": "Works with customers to complete repairs efficiently and assists with rental car arrangements. They are praised for their quality work and timely service",
    "hours": "Mon-Fri 9AM-6PM",
    "services": [
      "Baby-Boomer-owned Collision repair in Arizona consultation",
      "Professional service",
      "Quality guarantee"
    ],
    "social_links": {}
  },
  {
    "name": "Fix Auto Tucson",
    "address": "4020 E. Speedway Blvd., Tucson, AZ 85712",
    "phone": "(520) 327-0123",
    "rating": 4.8,
    "reviews": 25,
    "website": "https://fixautousa.com/locations/arizona/tucson/",
    "category": "Baby-Boomer-owned Collision repair in Arizona",
    "description": "A military veteran-owned business offering exceptional quality repair services. They hold the I-CAR Gold Class Certification and provide a limited lifetime warranty on all repair jobs",
    "hours": "Mon-Fri 9AM-6PM",
    "services": [
      "Baby-Boomer-owned Collision repair in Arizona consultation",
      "Professional service",
      "Quality guarantee"
    ],
    "social_links": {}
  },
  {
    "name": "Prime Collision",
    "address": "801 South Arizona Avenue, Chandler, Arizona 85225",
    "phone": "(480) 732-7900",
    "rating": 4.7,
    "reviews": 25,
    "website": "https://www.primecollisionaz.com/",
    "category": "Baby-Boomer-owned Collision repair in Arizona",
    "description": "Leverages 20 years of expertise with a commitment to professionalism, honesty, and communication. They emphasize meticulous attention to detail and family values",
    "hours": "Mon-Fri 9AM-6PM",
    "services": [
      "Baby-Boomer-owned Collision repair in Arizona consultation",
      "Professional service",
      "Quality guarantee"
    ],
    "social_links": {}
  }
]