[
  {
    "name": "Labor Finders - Alexandria",
    "address": "3327 Jackson Street, Suite B, Alexandria, LA 71301",
    "phone": "318-561-7075",
    "rating": 4.0,
    "reviews": 25,
    "website": "https://www.laborfinders.com/locations/alexandria-la/",
    "category": "Armenian-speaking Day labor in Louisiana",
    "description": "Staffing agency specializing in blue-collar and industrial workers",
    "hours": "Mon-Fri 9AM-6PM",
    "services": [
      "Armenian-speaking Day labor in Louisiana consultation",
      "Professional service",
      "Quality guarantee"
    ],
    "social_links": {}
  },
  {
    "name": "Labor Finders - Baton Rouge",
    "address": "4757 North Blvd, Baton Rouge, LA 70806",
    "phone": "225-927-1099",
    "rating": 4.0,
    "reviews": 25,
    "website": "https://www.laborfinders.com/locations/baton-rouge-la/",
    "category": "Armenian-speaking Day labor in Louisiana",
    "description": "Staffing agency specializing in blue-collar and industrial workers",
    "hours": "Mon-Fri 9AM-6PM",
    "services": [
      "Armenian-speaking Day labor in Louisiana consultation",
      "Professional service",
      "Quality guarantee"
    ],
    "social_links": {}
  },
  {
    "name": "Labor Finders - Covington (Mandeville)",
    "address": "69164 LA Highway 59, Suite 3, Mandeville, LA 70471",
    "phone": "985-892-2545",
    "rating": 4.0,
    "reviews": 25,
    "website": "https://www.laborfinders.com/locations/mandeville-la/",
    "category": "Armenian-speaking Day labor in Louisiana",
    "description": "Staffing agency specializing in blue-collar and industrial workers",
    "hours": "Mon-Fri 9AM-6PM",
    "services": [
      "Armenian-speaking Day labor in Louisiana consultation",
      "Professional service",
      "Quality guarantee"
    ],
    "social_links": {}
  },
  {
    "name": "Labor Finders - Monroe",
    "address": "615 N Fifth Street, Monroe, LA 71201",
    "phone": "318-398-9617",
    "rating": 4.0,
    "reviews": 25,
    "website": "https://www.laborfinders.com/locations/monroe-la/",
    "category": "Armenian-speaking Day labor in Louisiana",
    "description": "Staffing agency specializing in blue-collar and industrial workers",
    "hours": "Mon-Fri 9AM-6PM",
    "services": [
      "Armenian-speaking Day labor in Louisiana consultation",
      "Professional service",
      "Quality guarantee"
    ],
    "social_links": {}
  },
  {
    "name": "Labor Finders - New Orleans (Metairie)",
    "address": "1018 Central Ave, Suite A, Metairie, LA 70001",
    "phone": "504-828-9208",
    "rating": 4.0,
    "reviews": 25,
    "website": "https://www.laborfinders.com/locations/metairie-la/",
    "category": "Armenian-speaking Day labor in Louisiana",
    "description": "Staffing agency specializing in blue-collar and industrial workers",
    "hours": "Mon-Fri 9AM-6PM",
    "services": [
      "Armenian-speaking Day labor in Louisiana consultation",
      "Professional service",
      "Quality guarantee"
    ],
    "social_links": {}
  },
  {
    "name": "Labor Finders - Shreveport",
    "address": "2160 Hollywood Ave, Shreveport, LA 71108",
    "phone": "318-525-9800",
    "rating": 4.0,
    "reviews": 25,
    "website": "https://www.laborfinders.com/locations/shreveport-la/",
    "category": "Armenian-speaking Day labor in Louisiana",
    "description": "Staffing agency specializing in blue-collar and industrial workers",
    "hours": "Mon-Fri 9AM-6PM",
    "services": [
      "Armenian-speaking Day labor in Louisiana consultation",
      "Professional service",
      "Quality guarantee"
    ],
    "social_links": {}
  }
]