[
  {
    "name": "SageSpring Wealth Partners",
    "address": "Multiple locations in Tennessee, including Franklin",
    "phone": "(615) 251-0004",
    "rating": 4.0,
    "reviews": 25,
    "website": "https://www.sagespringwealth.com/",
    "category": "Atheist-owned Budget management in Tennessee",
    "description": "Offers comprehensive financial planning and wealth management services, including retirement planning, estate strategies, investment management, and debt management",
    "hours": "Mon-Fri 9AM-6PM",
    "services": [
      "Atheist-owned Budget management in Tennessee consultation",
      "Professional service",
      "Quality guarantee"
    ],
    "social_links": {}
  },
  {
    "name": "Patriot Investment Management Group",
    "address": "Knoxville, TN",
    "phone": "(865) 539-3456",
    "rating": 4.0,
    "reviews": 25,
    "website": "https://www.patriotimg.com/",
    "category": "Atheist-owned Budget management in Tennessee",
    "description": "Provides asset management, financial planning, and wealth management services to individuals, charities, and businesses",
    "hours": "Mon-Fri 9AM-6PM",
    "services": [
      "Atheist-owned Budget management in Tennessee consultation",
      "Professional service",
      "Quality guarantee"
    ],
    "social_links": {}
  },
  {
    "name": "Oasis Wealth",
    "address": "Nashville, TN and other locations",
    "phone": "(615) 721-3700",
    "rating": 4.0,
    "reviews": 25,
    "website": "https://www.oasiswealth.com/",
    "category": "Atheist-owned Budget management in Tennessee",
    "description": "A fee-only financial advisory team offering tax-focused wealth management, income tax planning, and investment advisory services",
    "hours": "Mon-Fri 9AM-6PM",
    "services": [
      "Atheist-owned Budget management in Tennessee consultation",
      "Professional service",
      "Quality guarantee"
    ],
    "social_links": {}
  },
  {
    "name": "Financial Partners of TN, LLC",
    "address": "Not explicitly stated in search results",
    "phone": "(615) 371-7400",
    "rating": 4.0,
    "reviews": 25,
    "website": "https://www.financialpartnersoftn.com/",
    "category": "Atheist-owned Budget management in Tennessee",
    "description": "Specializes in creating retirement income strategies and offers personalized financial planning solutions",
    "hours": "Mon-Fri 9AM-6PM",
    "services": [
      "Atheist-owned Budget management in Tennessee consultation",
      "Professional service",
      "Quality guarantee"
    ],
    "social_links": {}
  },
  {
    "name": "Goldstone Financial Group",
    "address": "Nashville, TN",
    "phone": "(615) 551-1001",
    "rating": 4.0,
    "reviews": 25,
    "website": "https://www.goldstonefinancialgroup.com/",
    "category": "Atheist-owned Budget management in Tennessee",
    "description": "Offers a full suite of retirement planning services, including wealth building, tax strategies, and personalized financial advice",
    "hours": "Mon-Fri 9AM-6PM",
    "services": [
      "Atheist-owned Budget management in Tennessee consultation",
      "Professional service",
      "Quality guarantee"
    ],
    "social_links": {}
  },
  {
    "name": "Maury County Office of Financial Management",
    "address": "1 Public Square, Suite 200, Columbia, TN 38401",
    "phone": "(931) 375-2301",
    "rating": 4.0,
    "reviews": 25,
    "website": "https://maurycounty-tn.gov/215/Financial-Management",
    "category": "Atheist-owned Budget management in Tennessee",
    "description": "Responsible for fiscally responsible budgeting practices, proper accounting, and timely presentation of financial information for Maury County government",
    "hours": "Mon-Fri 9AM-6PM",
    "services": [
      "Atheist-owned Budget management in Tennessee consultation",
      "Professional service",
      "Quality guarantee"
    ],
    "social_links": {}
  },
  {
    "name": "Office of Management and Budget (Nashville)",
    "address": "Howard Office Building, 700 President Ronald Reagan Way, Suite 310, Nashville, TN 37210",
    "phone": "(615) 862-6120",
    "rating": 4.0,
    "reviews": 25,
    "website": "https://www.nashville.gov/departments/finance/office-of-management-and-budget",
    "category": "Atheist-owned Budget management in Tennessee",
    "description": "Provides financial leadership and innovative solutions in the management of public resources for Metro Government, driving financial planning and strategic management processes",
    "hours": "Mon-Fri 9AM-6PM",
    "services": [
      "Atheist-owned Budget management in Tennessee consultation",
      "Professional service",
      "Quality guarantee"
    ],
    "social_links": {}
  },
  {
    "name": "Budget and Financial Planning Office (MTSU)",
    "address": "Cope Administration Building, Room 102, Murfreesboro, TN",
    "phone": "(615) 898-5790",
    "rating": 4.0,
    "reviews": 25,
    "website": "https://www.mtsu.edu/divisionofbusinessandfinance/budget/",
    "category": "Atheist-owned Budget management in Tennessee",
    "description": "Provides budgetary support services to administrative departments and prepares budgets for Middle Tennessee State University",
    "hours": "Mon-Fri 9AM-6PM",
    "services": [
      "Atheist-owned Budget management in Tennessee consultation",
      "Professional service",
      "Quality guarantee"
    ],
    "social_links": {}
  },
  {
    "name": "Tennessee Department of Finance & Administration - Budget Division",
    "address": "312 Rosa L. Parks Avenue, Nashville, TN 37243",
    "phone": "(615) 741-0320",
    "rating": 4.0,
    "reviews": 25,
    "website": "https://www.tn.gov/finance/budget.html",
    "category": "Atheist-owned Budget management in Tennessee",
    "description": "Develops revenue estimates, monitors tax collections, and provides information on Tennessee's budgetary process",
    "hours": "Mon-Fri 9AM-6PM",
    "services": [
      "Atheist-owned Budget management in Tennessee consultation",
      "Professional service",
      "Quality guarantee"
    ],
    "social_links": {}
  },
  {
    "name": "GreenPath Financial Wellness",
    "address": "Multiple locations, with phone counseling available nationwide",
    "phone": "844-477-6520",
    "rating": 4.0,
    "reviews": 25,
    "website": "https://www.greenpath.org/",
    "category": "Atheist-owned Budget management in Tennessee",
    "description": "Offers free financial counseling services, including debt management, budgeting assistance, and guidance for homeownership",
    "hours": "Mon-Fri 9AM-6PM",
    "services": [
      "Atheist-owned Budget management in Tennessee consultation",
      "Professional service",
      "Quality guarantee"
    ],
    "social_links": {}
  }
]