[
  {
    "name": "Rainier Veterinary Hospital",
    "address": "4703 25th Ave NE, Seattle, WA 98105",
    "phone": "(206) 324-4144",
    "rating": 4.7,
    "reviews": 25,
    "website": "https://www.rainiervet.com/",
    "category": "Buddhist-owned Veterinarians in Washington",
    "description": "A full-service veterinary practice offering compassionate care for pets of all ages, including wellness exams, urgent care, surgery, and advanced diagnostics",
    "hours": "Mon-Fri 9AM-6PM",
    "services": [
      "Buddhist-owned Veterinarians in Washington consultation",
      "Professional service",
      "Quality guarantee"
    ],
    "social_links": {}
  },
  {
    "name": "Renton Veterinary Hospital",
    "address": "321 Burnett Ave S, Renton, WA 98057",
    "phone": "(425) 255-8676",
    "rating": 4.7,
    "reviews": 25,
    "website": "https://www.rentonvet.com/",
    "category": "Buddhist-owned Veterinarians in Washington",
    "description": "Provides high-level veterinary medicine and compassionate service, with a focus on quality care and client-patient communication",
    "hours": "Mon-Fri 9AM-6PM",
    "services": [
      "Buddhist-owned Veterinarians in Washington consultation",
      "Professional service",
      "Quality guarantee"
    ],
    "social_links": {}
  },
  {
    "name": "Auburn Valley Animal Clinic",
    "address": "420 Auburn Ave, Auburn, WA 98002",
    "phone": "(253) 939-0630",
    "rating": 4.7,
    "reviews": 25,
    "website": "https://www.auburnvalleyvet.com/",
    "category": "Buddhist-owned Veterinarians in Washington",
    "description": "Offers state-of-the-art medical care, nurturing the human-pet bond with a friendly team and comprehensive services including surgery, wellness, and vaccinations",
    "hours": "Mon-Fri 9AM-6PM",
    "services": [
      "Buddhist-owned Veterinarians in Washington consultation",
      "Professional service",
      "Quality guarantee"
    ],
    "social_links": {}
  },
  {
    "name": "Soundview Veterinary Hospital",
    "address": "7024 27th St W, Tacoma, WA 98407",
    "phone": "(253) 565-1100",
    "rating": 4.6,
    "reviews": 25,
    "website": "https://www.soundviewvet.com/",
    "category": "Buddhist-owned Veterinarians in Washington",
    "description": "A full-service veterinary medical facility providing the best possible medical, surgical, and dental care, promoting responsible pet ownership and preventative health care",
    "hours": "Mon-Fri 9AM-6PM",
    "services": [
      "Buddhist-owned Veterinarians in Washington consultation",
      "Professional service",
      "Quality guarantee"
    ],
    "social_links": {}
  },
  {
    "name": "Diamond Veterinary Hospital",
    "address": "1111 52nd St SE, Everett, WA 98203",
    "phone": "(425) 337-1920",
    "rating": 4.6,
    "reviews": 25,
    "website": "https://www.diamondvet.com/",
    "category": "Buddhist-owned Veterinarians in Washington",
    "description": "An emergency animal hospital with over 30 years of experience, offering laboratory services, dental, surgical, and medical boarding",
    "hours": "Mon-Fri 9AM-6PM",
    "services": [
      "Buddhist-owned Veterinarians in Washington consultation",
      "Professional service",
      "Quality guarantee"
    ],
    "social_links": {}
  },
  {
    "name": "The Family Pet Veterinary Hospital",
    "address": "1410 NW 85th St, Seattle, WA 98117",
    "phone": "(206) 783-4444",
    "rating": 4.5,
    "reviews": 25,
    "website": "https://www.thefamilypet.com/",
    "category": "Buddhist-owned Veterinarians in Washington",
    "description": "A full-service veterinary hospital offering preventative, wellness, diagnostic, emergency, and surgical care, as well as boarding and grooming",
    "hours": "Mon-Fri 9AM-6PM",
    "services": [
      "Buddhist-owned Veterinarians in Washington consultation",
      "Professional service",
      "Quality guarantee"
    ],
    "social_links": {}
  },
  {
    "name": "Newaukum Valley Veterinary Services",
    "address": "1010 Chehalis Ave, Chehalis, WA 98532",
    "phone": "(360) 748-1511",
    "rating": 4.9,
    "reviews": 25,
    "website": "https://www.newaukumvalleyvet.com/",
    "category": "Buddhist-owned Veterinarians in Washington",
    "description": "Dedicated to helping pets live long, happy, and healthy lives, with a focus on Fear Free certification and compassionate care",
    "hours": "Mon-Fri 9AM-6PM",
    "services": [
      "Buddhist-owned Veterinarians in Washington consultation",
      "Professional service",
      "Quality guarantee"
    ],
    "social_links": {}
  },
  {
    "name": "Woodhaven Veterinary Clinic",
    "address": "10200 Edmonds Way, Edmonds, WA 98020",
    "phone": "(425) 778-0772",
    "rating": 4.5,
    "reviews": 25,
    "website": "https://www.woodhavenvet.com/",
    "category": "Buddhist-owned Veterinarians in Washington",
    "description": "Offers compassionate care led by experienced veterinarians, with a team of diverse doctors providing a wide range of services",
    "hours": "Mon-Fri 9AM-6PM",
    "services": [
      "Buddhist-owned Veterinarians in Washington consultation",
      "Professional service",
      "Quality guarantee"
    ],
    "social_links": {}
  },
  {
    "name": "BluePearl Pet Hospital (Kirkland)",
    "address": "11800 NE 116th St, Kirkland, WA 98034",
    "phone": "(425) 827-8744",
    "rating": 4.7,
    "reviews": 25,
    "website": "https://bluepearlvet.com/hospital/kirkland-wa/",
    "category": "Buddhist-owned Veterinarians in Washington",
    "description": "A veterinary specialty and emergency hospital with veterinarians specializing in various areas, including surgery and internal medicine",
    "hours": "Mon-Fri 9AM-6PM",
    "services": [
      "Buddhist-owned Veterinarians in Washington consultation",
      "Professional service",
      "Quality guarantee"
    ],
    "social_links": {}
  },
  {
    "name": "Evergreen Avian and Exotic Animal Hospital",
    "address": "1401 4th Ave, Kirkland, WA 98033",
    "phone": "(425) 821-3370",
    "rating": 4.8,
    "reviews": 25,
    "website": "https://www.evergreenexotic.com/",
    "category": "Buddhist-owned Veterinarians in Washington",
    "description": "Specializes in avian and exotic animal medicine, with veterinarians experienced in treating a wide range of non-traditional pets",
    "hours": "Mon-Fri 9AM-6PM",
    "services": [
      "Buddhist-owned Veterinarians in Washington consultation",
      "Professional service",
      "Quality guarantee"
    ],
    "social_links": {}
  }
]