[
  {
    "name": "Ropes & Gray LLP",
    "address": "Prudential Tower, 800 Boylston Street, Suite 2400, Boston, MA 02199",
    "phone": "(617) 951-8000",
    "rating": 4.0,
    "reviews": 25,
    "website": "https://www.ropesgray.com/",
    "category": "Baby-Boomer-owned Corporate law in Massachusetts",
    "description": "A top-tier law firm known for its strength in private equity and a broad range of legal practice areas",
    "hours": "Mon-Fri 9AM-6PM",
    "services": [
      "Baby-Boomer-owned Corporate law in Massachusetts consultation",
      "Professional service",
      "Quality guarantee"
    ],
    "social_links": {}
  },
  {
    "name": "Goodwin",
    "address": "100 Northern Ave, Boston, MA 02210",
    "phone": "(617) 570- Goodwin (4663)",
    "rating": 4.0,
    "reviews": 25,
    "website": "https://www.goodwinlaw.com/",
    "category": "Baby-Boomer-owned Corporate law in Massachusetts",
    "description": "A global law firm with particular strength in corporate law and real estate, serving a diverse clientele from startups to Fortune 500 companies",
    "hours": "Mon-Fri 9AM-6PM",
    "services": [
      "Baby-Boomer-owned Corporate law in Massachusetts consultation",
      "Professional service",
      "Quality guarantee"
    ],
    "social_links": {}
  },
  {
    "name": "Mintz",
    "address": "One Financial Center, Boston, MA 02111",
    "phone": "(617) 542-6000",
    "rating": 4.0,
    "reviews": 25,
    "website": "https://www.mintz.com/",
    "category": "Baby-Boomer-owned Corporate law in Massachusetts",
    "description": "A law firm with a strong presence in Boston, serving clients in sectors like life sciences, technology, and renewable energy",
    "hours": "Mon-Fri 9AM-6PM",
    "services": [
      "Baby-Boomer-owned Corporate law in Massachusetts consultation",
      "Professional service",
      "Quality guarantee"
    ],
    "social_links": {}
  },
  {
    "name": "Sullivan & Worcester LLP",
    "address": "One Post Office Square, Boston, MA 02109",
    "phone": "(617) 338-2800",
    "rating": 4.0,
    "reviews": 25,
    "website": "https://www.sullivanworcester.com/",
    "category": "Baby-Boomer-owned Corporate law in Massachusetts",
    "description": "Advises a wide range of clients, from Fortune 500 companies to emerging businesses, across various practice areas including corporate finance and M&A",
    "hours": "Mon-Fri 9AM-6PM",
    "services": [
      "Baby-Boomer-owned Corporate law in Massachusetts consultation",
      "Professional service",
      "Quality guarantee"
    ],
    "social_links": {}
  },
  {
    "name": "WilmerHale",
    "address": "60 State Street, Boston, MA 02109",
    "phone": "(617) 526-6000",
    "rating": 4.0,
    "reviews": 25,
    "website": "https://www.wilmerhale.com/",
    "category": "Baby-Boomer-owned Corporate law in Massachusetts",
    "description": "Known for its litigation strength and expertise in intellectual property, with a respectful culture and commitment to pro bono work",
    "hours": "Mon-Fri 9AM-6PM",
    "services": [
      "Baby-Boomer-owned Corporate law in Massachusetts consultation",
      "Professional service",
      "Quality guarantee"
    ],
    "social_links": {}
  },
  {
    "name": "Cooley LLP",
    "address": "101 Huntington Ave, Boston, MA 02199",
    "phone": "(617) 912-2000",
    "rating": 4.0,
    "reviews": 25,
    "website": "https://www.cooley.com/",
    "category": "Baby-Boomer-owned Corporate law in Massachusetts",
    "description": "A go-to firm for startups and innovative clients, particularly in the life science and technology sectors",
    "hours": "Mon-Fri 9AM-6PM",
    "services": [
      "Baby-Boomer-owned Corporate law in Massachusetts consultation",
      "Professional service",
      "Quality guarantee"
    ],
    "social_links": {}
  },
  {
    "name": "Hogan Lovells",
    "address": "885 Third Avenue, New York, NY 10022 (Boston presence through other offices)",
    "phone": "(212) 918-7500",
    "rating": 4.0,
    "reviews": 25,
    "website": "https://www.hoganlovells.com/",
    "category": "Baby-Boomer-owned Corporate law in Massachusetts",
    "description": "A global firm with a focus on corporate and finance, litigation, and regulatory practices, known for its privacy work",
    "hours": "Mon-Fri 9AM-6PM",
    "services": [
      "Baby-Boomer-owned Corporate law in Massachusetts consultation",
      "Professional service",
      "Quality guarantee"
    ],
    "social_links": {}
  },
  {
    "name": "Goulston & Storrs PC",
    "address": "400 Clarendon Street, Boston, MA 02116",
    "phone": "(617) 482-2700",
    "rating": 4.0,
    "reviews": 25,
    "website": "https://www.goulston.com/",
    "category": "Baby-Boomer-owned Corporate law in Massachusetts",
    "description": "An AmLaw 200 firm renowned for its real estate work, with strong corporate, litigation, and private client departments, emphasizing work-life balance",
    "hours": "Mon-Fri 9AM-6PM",
    "services": [
      "Baby-Boomer-owned Corporate law in Massachusetts consultation",
      "Professional service",
      "Quality guarantee"
    ],
    "social_links": {}
  },
  {
    "name": "Barnes & Thornburg LLP",
    "address": "200 Clarendon Street, Boston, MA 02116",
    "phone": "(617) 542-1100",
    "rating": 4.0,
    "reviews": 25,
    "website": "https://www.btlaw.com/",
    "category": "Baby-Boomer-owned Corporate law in Massachusetts",
    "description": "Specializes in corporate legal services, including trademark screening, and is noted for helping clients navigate trademark law complexities",
    "hours": "Mon-Fri 9AM-6PM",
    "services": [
      "Baby-Boomer-owned Corporate law in Massachusetts consultation",
      "Professional service",
      "Quality guarantee"
    ],
    "social_links": {}
  },
  {
    "name": "Ruberto, Israel & Weiner",
    "address": "88 Black Falcon Avenue, Suite 340, Boston, MA 02210",
    "phone": "(617) 570-3500",
    "rating": 4.0,
    "reviews": 25,
    "website": "https://www.riw.com/",
    "category": "Baby-Boomer-owned Corporate law in Massachusetts",
    "description": "Provides strategic counsel for businesses from formation through mergers, acquisitions, and exit strategies, with a focus on client results",
    "hours": "Mon-Fri 9AM-6PM",
    "services": [
      "Baby-Boomer-owned Corporate law in Massachusetts consultation",
      "Professional service",
      "Quality guarantee"
    ],
    "social_links": {}
  }
]