[
  {
    "name": "Franklin Skin and Laser",
    "address": "1075 W Main St, Franklin, TN 37064",
    "phone": "(615) 595-8177",
    "rating": 4.9,
    "reviews": 25,
    "website": "https://www.franklinskinandlaser.com/",
    "category": "Asian-owned Laser treatments in Tennessee",
    "description": "A premier med spa specializing in aesthetics, lasers, and cosmetic dermatology, offering a wide range of treatments including laser hair removal, skin resurfacing, and injectables",
    "hours": "Mon-Fri 9AM-6PM",
    "services": [
      "Asian-owned Laser treatments in Tennessee consultation",
      "Professional service",
      "Quality guarantee"
    ],
    "social_links": {}
  },
  {
    "name": "LaserAway",
    "address": "Multiple locations throughout Tennessee (e.g., 1700 Hayes St #101, Nashville, TN 37203)",
    "phone": "(855) 455-2737",
    "rating": 4.0,
    "reviews": 25,
    "website": "https://www.laseraway.com/",
    "category": "Asian-owned Laser treatments in Tennessee",
    "description": "Offers laser hair removal, tattoo removal, CoolSculpting, and skin rejuvenation with state-of-the-art technology and board-certified dermatologists",
    "hours": "Mon-Fri 9AM-6PM",
    "services": [
      "Asian-owned Laser treatments in Tennessee consultation",
      "Professional service",
      "Quality guarantee"
    ],
    "social_links": {}
  },
  {
    "name": "Milan Laser",
    "address": "Multiple locations throughout Tennessee (e.g., 2380 Lifestyle Way, Chattanooga, TN 37421)",
    "phone": "(855) 977-2207",
    "rating": 4.9,
    "reviews": 25,
    "website": "https://www.milanlaser.com/",
    "category": "Asian-owned Laser treatments in Tennessee",
    "description": "Specializes in permanent laser hair removal for all skin tones, offering a lifetime guarantee on treatments",
    "hours": "Mon-Fri 9AM-6PM",
    "services": [
      "Asian-owned Laser treatments in Tennessee consultation",
      "Professional service",
      "Quality guarantee"
    ],
    "social_links": {}
  },
  {
    "name": "Radiante",
    "address": "219 6th Ave N, Nashville, TN 37219",
    "phone": "(615) 375-1100",
    "rating": 5.0,
    "reviews": 25,
    "website": "https://www.radianenashville.com/",
    "category": "Asian-owned Laser treatments in Tennessee",
    "description": "Offers a variety of laser treatments, including for acne scars, melasma, and skin tightening, with a focus on personalized service and a welcoming environment",
    "hours": "Mon-Fri 9AM-6PM",
    "services": [
      "Asian-owned Laser treatments in Tennessee consultation",
      "Professional service",
      "Quality guarantee"
    ],
    "social_links": {}
  },
  {
    "name": "LaBella Skin Bar LLC",
    "address": "7725 Poplar Pike, Germantown, TN 38138",
    "phone": "(901) 409-2124",
    "rating": 4.6,
    "reviews": 25,
    "website": "https://www.labellaskinbar.com/",
    "category": "Asian-owned Laser treatments in Tennessee",
    "description": "Provides relaxing and effective facials and laser treatments, with a focus on meticulous and thorough service",
    "hours": "Mon-Fri 9AM-6PM",
    "services": [
      "Asian-owned Laser treatments in Tennessee consultation",
      "Professional service",
      "Quality guarantee"
    ],
    "social_links": {}
  },
  {
    "name": "Southern Surgical Arts",
    "address": "1405 Cowart St #201, Chattanooga, TN 37408",
    "phone": "(888) 988-5682",
    "rating": 4.9,
    "reviews": 25,
    "website": "https://www.southernsurgicalarts.com/",
    "category": "Asian-owned Laser treatments in Tennessee",
    "description": "Offers a comprehensive range of laser technologies for treatments like photorejuvenation, laser hair reduction, and blue light therapy for acne",
    "hours": "Mon-Fri 9AM-6PM",
    "services": [
      "Asian-owned Laser treatments in Tennessee consultation",
      "Professional service",
      "Quality guarantee"
    ],
    "social_links": {}
  },
  {
    "name": "The Lett Center",
    "address": "1225 Pleasant Grove Rd, Mt. Juliet, TN 37122",
    "phone": "(615) 449-0002",
    "rating": 4.0,
    "reviews": 25,
    "website": "https://www.thelettcenter.com/",
    "category": "Asian-owned Laser treatments in Tennessee",
    "description": "Provides laser skin resurfacing options, including treatments for pigmentation, redness, and vascular lesions using technologies like Clarity II and V-Beam",
    "hours": "Mon-Fri 9AM-6PM",
    "services": [
      "Asian-owned Laser treatments in Tennessee consultation",
      "Professional service",
      "Quality guarantee"
    ],
    "social_links": {}
  },
  {
    "name": "Kimbell MedSpa",
    "address": "1009 N Charles G Seviers Dr, Kingston, TN 37763",
    "phone": "(865) 376-7000",
    "rating": 4.0,
    "reviews": 25,
    "website": "https://kimbellmedspa.com/",
    "category": "Asian-owned Laser treatments in Tennessee",
    "description": "Offers a range of med spa services including hormone therapy, injectables, and skincare, with a focus on natural and restorative approaches",
    "hours": "Mon-Fri 9AM-6PM",
    "services": [
      "Asian-owned Laser treatments in Tennessee consultation",
      "Professional service",
      "Quality guarantee"
    ],
    "social_links": {}
  },
  {
    "name": "Pure Luxe Spa",
    "address": "126 Lovell Rd, Knoxville, TN 37934",
    "phone": "(865) 313-9796",
    "rating": 4.0,
    "reviews": 25,
    "website": "https://pureluxespa.com/",
    "category": "Asian-owned Laser treatments in Tennessee",
    "description": "A luxury salon, spa, and medspa offering a variety of services including massage therapy, aesthetics, and nail care",
    "hours": "Mon-Fri 9AM-6PM",
    "services": [
      "Asian-owned Laser treatments in Tennessee consultation",
      "Professional service",
      "Quality guarantee"
    ],
    "social_links": {}
  },
  {
    "name": "Advanced Dermatology & Skin Cancer Associates",
    "address": "7725 Poplar Pike, Germantown, TN 38138",
    "phone": "(901) 759-2322",
    "rating": 4.0,
    "reviews": 25,
    "website": "https://www.tnskin.com/",
    "category": "Asian-owned Laser treatments in Tennessee",
    "description": "A dermatology practice offering various skin treatments, including laser resurfacing for skin rejuvenation",
    "hours": "Mon-Fri 9AM-6PM",
    "services": [
      "Asian-owned Laser treatments in Tennessee consultation",
      "Professional service",
      "Quality guarantee"
    ],
    "social_links": {}
  }
]