[
  {
    "name": "North Ohio Lebanese American Association",
    "address": "Information not publicly available, but serves the North Ohio area",
    "phone": "",
    "rating": 4.0,
    "reviews": 25,
    "website": "https://www.nolacleveland.org/hall-rentals",
    "category": "Arabic-speaking Event space rentals in Ohio",
    "description": "Offers a banquet hall that can accommodate up to 80 guests and allows outside catering and decorations",
    "hours": "Mon-Fri 9AM-6PM",
    "services": [
      "Arabic-speaking Event space rentals in Ohio consultation",
      "Professional service",
      "Quality guarantee"
    ],
    "social_links": {}
  },
  {
    "name": "The Ohio Statehouse",
    "address": "1 Capitol Square, Columbus, OH 43215",
    "phone": "(614) 752-9800",
    "rating": 4.0,
    "reviews": 25,
    "website": "https://www.ohiostatehouse.org/",
    "category": "Arabic-speaking Event space rentals in Ohio",
    "description": "This historic venue has hosted lavish Arabic receptions and offers a grand architectural setting suitable for cultural events",
    "hours": "Mon-Fri 9AM-6PM",
    "services": [
      "Arabic-speaking Event space rentals in Ohio consultation",
      "Professional service",
      "Quality guarantee"
    ],
    "social_links": {}
  },
  {
    "name": "Aladdin Event Center",
    "address": "1801 Gateway Circle, Grove City, OH 43123",
    "phone": "(614) 875-6400",
    "rating": 4.0,
    "reviews": 25,
    "website": "https://www.aladdinshrine.org/event-center",
    "category": "Arabic-speaking Event space rentals in Ohio",
    "description": "A 26,000 sq ft facility that hosts weddings, receptions, business, and social events",
    "hours": "Mon-Fri 9AM-6PM",
    "services": [
      "Arabic-speaking Event space rentals in Ohio consultation",
      "Professional service",
      "Quality guarantee"
    ],
    "social_links": {}
  },
  {
    "name": "Mediterranean Event Center",
    "address": "25021 Rockside Road, Bedford Heights, Ohio 44146",
    "phone": "(440) 439-1903",
    "rating": 4.0,
    "reviews": 25,
    "website": "https://www.medpartycenter.com/",
    "category": "Arabic-speaking Event space rentals in Ohio",
    "description": "A family-owned operation offering elegant rooms for celebrations, wedding receptions, and various other occasions, with on-site parking",
    "hours": "Mon-Fri 9AM-6PM",
    "services": [
      "Arabic-speaking Event space rentals in Ohio consultation",
      "Professional service",
      "Quality guarantee"
    ],
    "social_links": {}
  },
  {
    "name": "Islamic Society of Northwest Ohio (ISNWO)",
    "address": "Information not publicly available, serves the greater Toledo area",
    "phone": "",
    "rating": 4.0,
    "reviews": 25,
    "website": "https://www.isnwo.org/hall-rental",
    "category": "Arabic-speaking Event space rentals in Ohio",
    "description": "Provides competitively-priced meeting spaces for banquets, lectures, workshops, and Nikkahs, open to the public for rental with board approval",
    "hours": "Mon-Fri 9AM-6PM",
    "services": [
      "Arabic-speaking Event space rentals in Ohio consultation",
      "Professional service",
      "Quality guarantee"
    ],
    "social_links": {}
  },
  {
    "name": "Masjid Abubakar Asiddiq Islamic Center",
    "address": "591 Industrial Mile Road, Columbus, OH 43228",
    "phone": "(614) 272-9994",
    "rating": 4.0,
    "reviews": 25,
    "website": "https://www.aaicohio.org/host-an-event",
    "category": "Arabic-speaking Event space rentals in Ohio",
    "description": "Offers customizable options for various life events, from intimate ceremonies to grand events, aiming to provide a comfortable and stylish celebration space",
    "hours": "Mon-Fri 9AM-6PM",
    "services": [
      "Arabic-speaking Event space rentals in Ohio consultation",
      "Professional service",
      "Quality guarantee"
    ],
    "social_links": {}
  },
  {
    "name": "Noor Islamic Cultural Center",
    "address": "5001 Wilcox Rd, Dublin, OH 43016 (for Friday Khutbah timings)",
    "phone": "(614) 527-7777",
    "rating": 4.0,
    "reviews": 25,
    "website": "https://www.noomic.org/",
    "category": "Arabic-speaking Event space rentals in Ohio",
    "description": "While primarily a cultural and religious center, it offers services and accommodations for various community and Islamic events",
    "hours": "Mon-Fri 9AM-6PM",
    "services": [
      "Arabic-speaking Event space rentals in Ohio consultation",
      "Professional service",
      "Quality guarantee"
    ],
    "social_links": {}
  },
  {
    "name": "Black American Muslim Community Center (BAMCCC)",
    "address": "Information not publicly available, located in Columbus, Ohio",
    "phone": "(614) 429-4475",
    "rating": 4.0,
    "reviews": 25,
    "website": "https://www.bamccc.org/",
    "category": "Arabic-speaking Event space rentals in Ohio",
    "description": "Founded to provide African American Muslims a welcoming space for Islamic education, social activities, and community growth, potentially suitable for cultural events",
    "hours": "Mon-Fri 9AM-6PM",
    "services": [
      "Arabic-speaking Event space rentals in Ohio consultation",
      "Professional service",
      "Quality guarantee"
    ],
    "social_links": {}
  },
  {
    "name": "Creekside Event Center",
    "address": "126 Mill St, Gahanna, OH 43230",
    "phone": "(614) 418-1414",
    "rating": 4.0,
    "reviews": 25,
    "website": "https://www.creeksideeventcenter.com/",
    "category": "Arabic-speaking Event space rentals in Ohio",
    "description": "Offers elegant, multi-functional space for weddings, social events, and corporate gatherings, with customizable options",
    "hours": "Mon-Fri 9AM-6PM",
    "services": [
      "Arabic-speaking Event space rentals in Ohio consultation",
      "Professional service",
      "Quality guarantee"
    ],
    "social_links": {}
  },
  {
    "name": "The Gahanna Sanctuary",
    "address": "250 Olde Main St, Gahanna, OH 43020",
    "phone": "(614) 418-1414",
    "rating": 4.0,
    "reviews": 25,
    "website": "https://www.gahannasanctuary.com/",
    "category": "Arabic-speaking Event space rentals in Ohio",
    "description": "An affordable, nonprofit event venue on the National Register of Historic Places, offering a charming and historic setting for various gatherings",
    "hours": "Mon-Fri 9AM-6PM",
    "services": [
      "Arabic-speaking Event space rentals in Ohio consultation",
      "Professional service",
      "Quality guarantee"
    ],
    "social_links": {}
  }
]