[
  {
    "name": "Dorcas International Institute of Rhode Island",
    "address": "181\u0d41\u0d2e\u0d4d\u0d2a\u0d4b\u0d7e Street, Providence, RI 02903",
    "phone": "(401) 521-5500",
    "rating": 4.0,
    "reviews": 25,
    "website": "https://www.dorcasri.org/",
    "category": "Asian-owned Technical training in Rhode-Island",
    "description": "Offers various programs including industry-specific job training, English language classes, and more, serving newcomers and long-time residents",
    "hours": "Mon-Fri 9AM-6PM",
    "services": [
      "Asian-owned Technical training in Rhode-Island consultation",
      "Professional service",
      "Quality guarantee"
    ],
    "social_links": {}
  },
  {
    "name": "Center for Southeast Asians (CSEA)",
    "address": "1430 Broad Street, Providence, RI 02905",
    "phone": "(401) 274-8811",
    "rating": 4.0,
    "reviews": 25,
    "website": "https://www.cseari.org/",
    "category": "Asian-owned Technical training in Rhode-Island",
    "description": "Provides workforce development programs, including Servsafe Food Manager Certification and Nail Technician Certification. They also offer small business support and counseling",
    "hours": "Mon-Fri 9AM-6PM",
    "services": [
      "Asian-owned Technical training in Rhode-Island consultation",
      "Professional service",
      "Quality guarantee"
    ],
    "social_links": {}
  },
  {
    "name": "Alliance of Rhode Island Southeast Asians for Education (ARISE)",
    "address": "1090 Westminster St, Providence, RI 02903",
    "phone": "(401) 490-0010",
    "rating": 4.0,
    "reviews": 25,
    "website": "https://www.arise-ri.org/",
    "category": "Asian-owned Technical training in Rhode-Island",
    "description": "Focuses on preparing, supporting, and empowering Southeast Asian students for educational and career success through policy, programs, and advocacy",
    "hours": "Mon-Fri 9AM-6PM",
    "services": [
      "Asian-owned Technical training in Rhode-Island consultation",
      "Professional service",
      "Quality guarantee"
    ],
    "social_links": {}
  },
  {
    "name": "Community College of Rhode Island (CCRI)",
    "address": "Multiple campuses, including 400 East Ave, Warwick, RI 02886",
    "phone": "(401) 825-1000",
    "rating": 4.0,
    "reviews": 25,
    "website": "https://www.ccri.edu/",
    "category": "Asian-owned Technical training in Rhode-Island",
    "description": "Offers various career training programs in areas like Data Science, AI, and Full Stack Software Development",
    "hours": "Mon-Fri 9AM-6PM",
    "services": [
      "Asian-owned Technical training in Rhode-Island consultation",
      "Professional service",
      "Quality guarantee"
    ],
    "social_links": {}
  },
  {
    "name": "Rhode Island College (RIC)",
    "address": "600 Mount Pleasant Ave, Providence, RI 02908",
    "phone": "(401) 456-8000",
    "rating": 4.0,
    "reviews": 25,
    "website": "https://www.ric.edu/",
    "category": "Asian-owned Technical training in Rhode-Island",
    "description": "Offers programs in Cybersecurity and Emerging Technologies, including a Cyber Range for hands-on experience",
    "hours": "Mon-Fri 9AM-6PM",
    "services": [
      "Asian-owned Technical training in Rhode-Island consultation",
      "Professional service",
      "Quality guarantee"
    ],
    "social_links": {}
  },
  {
    "name": "University of Rhode Island (URI)",
    "address": "100 Flagg Rd, Kingston, RI 02881",
    "phone": "(401) 874-4000",
    "rating": 4.0,
    "reviews": 25,
    "website": "https://web.uri.edu/",
    "category": "Asian-owned Technical training in Rhode-Island",
    "description": "Provides comprehensive degree programs in Cybersecurity and offers various certificate programs for working professionals",
    "hours": "Mon-Fri 9AM-6PM",
    "services": [
      "Asian-owned Technical training in Rhode-Island consultation",
      "Professional service",
      "Quality guarantee"
    ],
    "social_links": {}
  },
  {
    "name": "Johnson & Wales University (JWU)",
    "address": "8 Abbott Park Pl, Providence, RI 02903",
    "phone": "(401) 598-1000",
    "rating": 4.0,
    "reviews": 25,
    "website": "https://www.jwu.edu/",
    "category": "Asian-owned Technical training in Rhode-Island",
    "description": "Features a Cybersecurity Center designated as a National Security Agency/Department of Homeland Security Center of Academic Excellence in Cyber Defense Education",
    "hours": "Mon-Fri 9AM-6PM",
    "services": [
      "Asian-owned Technical training in Rhode-Island consultation",
      "Professional service",
      "Quality guarantee"
    ],
    "social_links": {}
  },
  {
    "name": "Coding Dojo",
    "address": "Online (with a presence in Providence)",
    "phone": "(888) 504-0777",
    "rating": 4.0,
    "reviews": 25,
    "website": "https://www.codingdojo.com/",
    "category": "Asian-owned Technical training in Rhode-Island",
    "description": "Offers intensive coding bootcamps with a focus on software development, with alumni success stories in Providence",
    "hours": "Mon-Fri 9AM-6PM",
    "services": [
      "Asian-owned Technical training in Rhode-Island consultation",
      "Professional service",
      "Quality guarantee"
    ],
    "social_links": {}
  },
  {
    "name": "Nucamp Coding Bootcamp",
    "address": "Online (with local meetups)",
    "phone": "(800) 601-2923",
    "rating": 4.0,
    "reviews": 25,
    "website": "https://www.nucamp.co/",
    "category": "Asian-owned Technical training in Rhode-Island",
    "description": "Provides affordable, community-driven coding bootcamps in areas like full-stack web development, data analytics, and cybersecurity",
    "hours": "Mon-Fri 9AM-6PM",
    "services": [
      "Asian-owned Technical training in Rhode-Island consultation",
      "Professional service",
      "Quality guarantee"
    ],
    "social_links": {}
  },
  {
    "name": "United Training Academy",
    "address": "Lincoln, RI (specific address not readily available in search results)",
    "phone": "(401) 723-8324",
    "rating": 4.0,
    "reviews": 25,
    "website": "https://www.unitedtrainingacademy.com/",
    "category": "Asian-owned Technical training in Rhode-Island",
    "description": "Offers training in Network and System Administration, with programs eligible for WIOA funding",
    "hours": "Mon-Fri 9AM-6PM",
    "services": [
      "Asian-owned Technical training in Rhode-Island consultation",
      "Professional service",
      "Quality guarantee"
    ],
    "social_links": {}
  }
]