[
  {
    "name": "InterAsian Market & Deli",
    "address": "2160 Nolensville Pike, Nashville, TN 37211",
    "phone": "(615) 833-0202",
    "rating": 4.0,
    "reviews": 25,
    "website": "https://interasianmarket.com/",
    "category": "Asian-owned Operational efficiency in Tennessee",
    "description": "A family-owned market and deli offering a wide variety of Southeast Asian groceries and authentic deli dishes",
    "hours": "Mon-Fri 9AM-6PM",
    "services": [
      "Asian-owned Operational efficiency in Tennessee consultation",
      "Professional service",
      "Quality guarantee"
    ],
    "social_links": {}
  },
  {
    "name": "KOKITA Asian Cuisine",
    "address": "701 US-27, Sweetwater, TN 37874",
    "phone": "(423) 337-1111",
    "rating": 4.0,
    "reviews": 25,
    "website": "https://kokitaasiancuisine.com/",
    "category": "Asian-owned Operational efficiency in Tennessee",
    "description": "Offers Thai, Malaysian, Japanese, and Chinese cuisine, with a focus on fresh sushi and a friendly atmosphere",
    "hours": "Mon-Fri 9AM-6PM",
    "services": [
      "Asian-owned Operational efficiency in Tennessee consultation",
      "Professional service",
      "Quality guarantee"
    ],
    "social_links": {}
  },
  {
    "name": "Petals of a Peony",
    "address": "Multiple locations including 1250 N Germantown Pkwy #105, Cordova, TN 38018; 149 Madison Ave, Memphis, TN 38103; and 5167 Poplar Ave, Memphis, TN 38117",
    "phone": "(901) 707-8886 (Cordova); (901) 628-0086 (Downtown); (901) 668-9388 (East Memphis)",
    "rating": 4.0,
    "reviews": 25,
    "website": "https://www.petalsofapeony.com/",
    "category": "Asian-owned Operational efficiency in Tennessee",
    "description": "An authentic Sichuan and Chinese cuisine restaurant with multiple locations in Memphis and Cordova",
    "hours": "Mon-Fri 9AM-6PM",
    "services": [
      "Asian-owned Operational efficiency in Tennessee consultation",
      "Professional service",
      "Quality guarantee"
    ],
    "social_links": {}
  },
  {
    "name": "Noko Nashville",
    "address": "1243 Murfreesboro Pike, Nashville, TN 37217 (This address appears to be for a different Noko location, the East Nashville location is not explicitly detailed with an address in the search results.)",
    "phone": "",
    "rating": 4.0,
    "reviews": 25,
    "website": "https://www.nokonashville.com/",
    "category": "Asian-owned Operational efficiency in Tennessee",
    "description": "An Asian-inspired, wood-fired restaurant in East Nashville, recognized by Eater Nashville and OpenTable",
    "hours": "Mon-Fri 9AM-6PM",
    "services": [
      "Asian-owned Operational efficiency in Tennessee consultation",
      "Professional service",
      "Quality guarantee"
    ],
    "social_links": {}
  },
  {
    "name": "Ching Asian Bistro",
    "address": "1000 Meridian Blvd, Franklin, TN 37067",
    "phone": "(615) 591-0077",
    "rating": 4.0,
    "reviews": 25,
    "website": "https://chingasianbistro.com/",
    "category": "Asian-owned Operational efficiency in Tennessee",
    "description": "Offers a variety of Asian, Chinese, and sushi dishes in a family-oriented atmosphere, formerly known as Great Wall of China Restaurant",
    "hours": "Mon-Fri 9AM-6PM",
    "services": [
      "Asian-owned Operational efficiency in Tennessee consultation",
      "Professional service",
      "Quality guarantee"
    ],
    "social_links": {}
  },
  {
    "name": "Keriyaki Asian Cuisine",
    "address": "10000 Nolensville Rd, Nolensville, TN 37135",
    "phone": "(615) 776-7788",
    "rating": 4.0,
    "reviews": 25,
    "website": "https://keriyaki.com/",
    "category": "Asian-owned Operational efficiency in Tennessee",
    "description": "Provides a menu of Asian Fusion dishes, including appetizers, sushi, and various combo meals",
    "hours": "Mon-Fri 9AM-6PM",
    "services": [
      "Asian-owned Operational efficiency in Tennessee consultation",
      "Professional service",
      "Quality guarantee"
    ],
    "social_links": {}
  },
  {
    "name": "Hong's Asian Bistro",
    "address": "1556 Oak Ridge Turnpike, Oak Ridge, TN 37830",
    "phone": "(865) 285-9888",
    "rating": 4.0,
    "reviews": 25,
    "website": "https://hongsasbistro.com/",
    "category": "Asian-owned Operational efficiency in Tennessee",
    "description": "An Asian Fusion restaurant offering a blend of Eastern and Western cuisine in a contemporary setting",
    "hours": "Mon-Fri 9AM-6PM",
    "services": [
      "Asian-owned Operational efficiency in Tennessee consultation",
      "Professional service",
      "Quality guarantee"
    ],
    "social_links": {}
  },
  {
    "name": "Weee! (Online Asian Grocery)",
    "address": "Serves Nashville, TN and Jackson, TN with delivery. Specific physical store addresses are not provided for these service areas",
    "phone": "1-888-528-9333",
    "rating": 4.0,
    "reviews": 25,
    "website": "https://www.sayweee.com/",
    "category": "Asian-owned Operational efficiency in Tennessee",
    "description": "An online supermarket offering a wide selection of Asian groceries, including Chinese, Vietnamese, Japanese, and Thai products, with delivery available",
    "hours": "Mon-Fri 9AM-6PM",
    "services": [
      "Asian-owned Operational efficiency in Tennessee consultation",
      "Professional service",
      "Quality guarantee"
    ],
    "social_links": {}
  },
  {
    "name": "M&W Logistics Group, Inc.",
    "address": "Multiple locations including 4000 B.F. Goodrich Blvd, Memphis, TN 38118; 1000 Distribution Dr, Knoxville, TN 37932; and 1200 Distribution Way, Nashville, TN 37210",
    "phone": "(800) 930-0010",
    "rating": 4.0,
    "reviews": 25,
    "website": "https://mwlogistics.com/",
    "category": "Asian-owned Operational efficiency in Tennessee",
    "description": "A family-owned logistics company providing warehousing, fulfillment, and transportation services nationwide",
    "hours": "Mon-Fri 9AM-6PM",
    "services": [
      "Asian-owned Operational efficiency in Tennessee consultation",
      "Professional service",
      "Quality guarantee"
    ],
    "social_links": {}
  },
  {
    "name": "SEI Healthcare",
    "address": "Multiple locations including 1730 General George Patton Drive, Ste 108, Brentwood, TN 37027; 5959 Shallowford Road, Suite 101, Chattanooga, TN 37421; and 316 Nancy Lynn Lane, Suite 6, Knoxville, TN 37919",
    "phone": "(615) 371-2700 (Brentwood); (423) 265-2670 (Chattanooga); (865) 595-4430 (Knoxville)",
    "rating": 4.0,
    "reviews": 25,
    "website": "https://seihealthcare.com/",
    "category": "Asian-owned Operational efficiency in Tennessee",
    "description": "A non-medical healthcare company offering in-home services for seniors, with multiple locations across Tennessee",
    "hours": "Mon-Fri 9AM-6PM",
    "services": [
      "Asian-owned Operational efficiency in Tennessee consultation",
      "Professional service",
      "Quality guarantee"
    ],
    "social_links": {}
  }
]