[
  {
    "name": "Black Ops Plumbing & Service",
    "address": "Lutz, Florida",
    "phone": "(813) 838-4193",
    "rating": 4.0,
    "reviews": 25,
    "website": "https://www.blackopsplumbingandservice.com/",
    "category": "Black-owned Emergency repair services in Florida",
    "description": "Offers 24/7 emergency plumbing services, specializing in repairs, drain cleaning, and water heater issues",
    "hours": "Mon-Fri 9AM-6PM",
    "services": [
      "Black-owned Emergency repair services in Florida consultation",
      "Professional service",
      "Quality guarantee"
    ],
    "social_links": {}
  },
  {
    "name": "OD Jones Roofing",
    "address": "Tampa, Florida",
    "phone": "",
    "rating": 4.0,
    "reviews": 25,
    "website": "https://odjonesroofing.com/",
    "category": "Black-owned Emergency repair services in Florida",
    "description": "A veteran and Black-owned roofing company with over 45 years of experience, offering emergency roof repairs and storm damage claim coordination",
    "hours": "Mon-Fri 9AM-6PM",
    "services": [
      "Black-owned Emergency repair services in Florida consultation",
      "Professional service",
      "Quality guarantee"
    ],
    "social_links": {}
  },
  {
    "name": "Black Owned Roofing Company Quote of Orlando",
    "address": "Orlando, Florida",
    "phone": "(646) 883-0151",
    "rating": 4.0,
    "reviews": 25,
    "website": "https://blackownedroofingcompany.com/",
    "category": "Black-owned Emergency repair services in Florida",
    "description": "Specializes in roof repair, restoration, and replacement, offering in-house financing",
    "hours": "Mon-Fri 9AM-6PM",
    "services": [
      "Black-owned Emergency repair services in Florida consultation",
      "Professional service",
      "Quality guarantee"
    ],
    "social_links": {}
  },
  {
    "name": "MACcooling HVAC Services",
    "address": "3375 Pinewalk Drive North suite 201, Margate, FL 33063",
    "phone": "(561) 260-2096",
    "rating": 4.0,
    "reviews": 25,
    "website": "https://www.google.com/maps/search/MACcooling+HVAC+Services+in+Florida",
    "category": "Black-owned Emergency repair services in Florida",
    "description": "Provides HVAC services, including air duct cleaning and sanitizing",
    "hours": "Mon-Fri 9AM-6PM",
    "services": [
      "Black-owned Emergency repair services in Florida consultation",
      "Professional service",
      "Quality guarantee"
    ],
    "social_links": {}
  },
  {
    "name": "Black Creek Electrical Services Inc.",
    "address": "Middleburg, FL",
    "phone": "",
    "rating": 4.0,
    "reviews": 25,
    "website": "https://blackcreekelectric.com/",
    "category": "Black-owned Emergency repair services in Florida",
    "description": "Offers 24/7 emergency electrical services, with a focus on fast, same-day repairs and upfront pricing",
    "hours": "Mon-Fri 9AM-6PM",
    "services": [
      "Black-owned Emergency repair services in Florida consultation",
      "Professional service",
      "Quality guarantee"
    ],
    "social_links": {}
  },
  {
    "name": "Waller Construction",
    "address": "Central Florida",
    "phone": "(863) 688-8870",
    "rating": 4.0,
    "reviews": 25,
    "website": "https://www.google.com/maps/search/Waller+Construction+in+Florida",
    "category": "Black-owned Emergency repair services in Florida",
    "description": "A family-owned construction business since 1961, specializing in residential and commercial construction, remodeling, and black water restoration",
    "hours": "Mon-Fri 9AM-6PM",
    "services": [
      "Black-owned Emergency repair services in Florida consultation",
      "Professional service",
      "Quality guarantee"
    ],
    "social_links": {}
  },
  {
    "name": "Black Flag Roofing",
    "address": "Southwest Florida (Lee and Collier Counties)",
    "phone": "",
    "rating": 4.0,
    "reviews": 25,
    "website": "https://blackflagroofing.com/",
    "category": "Black-owned Emergency repair services in Florida",
    "description": "Specializes in storm-ready roofing solutions, offering emergency repairs and temporary tarping",
    "hours": "Mon-Fri 9AM-6PM",
    "services": [
      "Black-owned Emergency repair services in Florida consultation",
      "Professional service",
      "Quality guarantee"
    ],
    "social_links": {}
  },
  {
    "name": "Rushing Heating & AC",
    "address": "1029 Collins Avenue, Orange City, FL 32763",
    "phone": "(321) 279-2411",
    "rating": 4.0,
    "reviews": 25,
    "website": "https://www.google.com/maps/search/Rushing+Heating+&+AC+in+Florida",
    "category": "Black-owned Emergency repair services in Florida",
    "description": "A Black-owned and minority-owned business offering HVAC installation, service, and repairs, with 24-hour emergency service available",
    "hours": "Mon-Fri 9AM-6PM",
    "services": [
      "Black-owned Emergency repair services in Florida consultation",
      "Professional service",
      "Quality guarantee"
    ],
    "social_links": {}
  },
  {
    "name": "Black Garage Doors",
    "address": "St. Cloud, FL",
    "phone": "",
    "rating": 4.0,
    "reviews": 25,
    "website": "https://www.google.com/maps/search/Black+Garage+Doors+in+Florida",
    "category": "Black-owned Emergency repair services in Florida",
    "description": "Provides installation and repair services for black garage doors, with a focus on same-day service",
    "hours": "Mon-Fri 9AM-6PM",
    "services": [
      "Black-owned Emergency repair services in Florida consultation",
      "Professional service",
      "Quality guarantee"
    ],
    "social_links": {}
  },
  {
    "name": "Above Water Cleaning & Restoration",
    "address": "Florida (serves areas including Naples, Fort Myers, Bonita Springs)",
    "phone": "(239) 771-2565",
    "rating": 4.0,
    "reviews": 25,
    "website": "https://www.abovewaterrestoration.com/",
    "category": "Black-owned Emergency repair services in Florida",
    "description": "Offers 24/7 emergency restoration services for water, fire, mold, and hurricane damage, with a crew dispatched on-site within 45 minutes",
    "hours": "Mon-Fri 9AM-6PM",
    "services": [
      "Black-owned Emergency repair services in Florida consultation",
      "Professional service",
      "Quality guarantee"
    ],
    "social_links": {}
  }
]