[
  {
    "name": "Osage Agency",
    "address": "813 Grandview Ave, Pawhuska, OK 74056",
    "phone": "(918) 287-5751 (Probate)",
    "rating": 4.0,
    "reviews": 25,
    "website": "https://www.bia.gov/regional-offices/osage",
    "category": "American-Indian-owned Trust services in Oklahoma",
    "description": "Administers leasing and development of the Osage Mineral Estate and oversees trust and restricted lands",
    "hours": "Mon-Fri 9AM-6PM",
    "services": [
      "American-Indian-owned Trust services in Oklahoma consultation",
      "Professional service",
      "Quality guarantee"
    ],
    "social_links": {}
  },
  {
    "name": "Chickasaw Agency",
    "address": "2015 Lonnie Abbott, Ada, OK 74820",
    "phone": "580-235-0291",
    "rating": 4.0,
    "reviews": 25,
    "website": "https://www.bia.gov/regional-offices/chickasaw",
    "category": "American-Indian-owned Trust services in Oklahoma",
    "description": "Serves the Chickasaw Nation and Choctaw Nation of Oklahoma, with staff handling beneficiary contact and accounting",
    "hours": "Mon-Fri 9AM-6PM",
    "services": [
      "American-Indian-owned Trust services in Oklahoma consultation",
      "Professional service",
      "Quality guarantee"
    ],
    "social_links": {}
  },
  {
    "name": "Comanche Nation Administration",
    "address": "584 NW Bingo Rd, Lawton, OK 73507",
    "phone": "(580) 492-3240",
    "rating": 4.0,
    "reviews": 25,
    "website": "https://comanchenation.com/",
    "category": "American-Indian-owned Trust services in Oklahoma",
    "description": "Manages trust accounts for minors and oversees various governmental and social services",
    "hours": "Mon-Fri 9AM-6PM",
    "services": [
      "American-Indian-owned Trust services in Oklahoma consultation",
      "Professional service",
      "Quality guarantee"
    ],
    "social_links": {}
  },
  {
    "name": "Seminole Nation of Oklahoma",
    "address": "36645 US-270, Wewoka, OK 74884",
    "phone": "",
    "rating": 4.0,
    "reviews": 25,
    "website": "https://www.sno-nsn.gov/",
    "category": "American-Indian-owned Trust services in Oklahoma",
    "description": "Provides various services to its members, including those related to tribal land and resources",
    "hours": "Mon-Fri 9AM-6PM",
    "services": [
      "American-Indian-owned Trust services in Oklahoma consultation",
      "Professional service",
      "Quality guarantee"
    ],
    "social_links": {}
  },
  {
    "name": "Citizen Potawatomi Nation",
    "address": "1601 S Gordon Cooper Dr, Shawnee, OK 74801",
    "phone": "(405) 275-3121",
    "rating": 4.0,
    "reviews": 25,
    "website": "https://www.potawatomi.org/",
    "category": "American-Indian-owned Trust services in Oklahoma",
    "description": "Operates various enterprises and provides services to its citizens, including financial and social services",
    "hours": "Mon-Fri 9AM-6PM",
    "services": [
      "American-Indian-owned Trust services in Oklahoma consultation",
      "Professional service",
      "Quality guarantee"
    ],
    "social_links": {}
  },
  {
    "name": "Cherokee Nation Businesses",
    "address": "10838 East Marshall Street, Tulsa, OK 74116",
    "phone": "918.384.7520",
    "rating": 4.0,
    "reviews": 25,
    "website": "https://cherokeenationbusinesses.com/",
    "category": "American-Indian-owned Trust services in Oklahoma",
    "description": "A holding company for various Cherokee Nation subsidiaries, involved in diverse industries including environmental and construction services, which may involve trust assets",
    "hours": "Mon-Fri 9AM-6PM",
    "services": [
      "American-Indian-owned Trust services in Oklahoma consultation",
      "Professional service",
      "Quality guarantee"
    ],
    "social_links": {}
  },
  {
    "name": "Choctaw Nation of Oklahoma",
    "address": "Durant, OK (de facto capital) / Tuskahoma, OK (de jure capital)",
    "phone": "",
    "rating": 4.0,
    "reviews": 25,
    "website": "https://www.choctawnation.com/",
    "category": "American-Indian-owned Trust services in Oklahoma",
    "description": "Offers a wide range of programs and services to its members, including those related to finance and member services",
    "hours": "Mon-Fri 9AM-6PM",
    "services": [
      "American-Indian-owned Trust services in Oklahoma consultation",
      "Professional service",
      "Quality guarantee"
    ],
    "social_links": {}
  },
  {
    "name": "Muscogee (Creek) Nation",
    "address": "Okmulgee, Oklahoma",
    "phone": "",
    "rating": 4.0,
    "reviews": 25,
    "website": "https://www.muscogeecreek-nsn.gov/",
    "category": "American-Indian-owned Trust services in Oklahoma",
    "description": "Manages various tribal resources including land and natural resource management",
    "hours": "Mon-Fri 9AM-6PM",
    "services": [
      "American-Indian-owned Trust services in Oklahoma consultation",
      "Professional service",
      "Quality guarantee"
    ],
    "social_links": {}
  },
  {
    "name": "Kiowa Tribe",
    "address": "Carnegie, Oklahoma 73015",
    "phone": "(580) 654-6471 (Administration)",
    "rating": 4.0,
    "reviews": 25,
    "website": "https://www.kiowaok.org/",
    "category": "American-Indian-owned Trust services in Oklahoma",
    "description": "Offers various services to tribal members, including social services and land management",
    "hours": "Mon-Fri 9AM-6PM",
    "services": [
      "American-Indian-owned Trust services in Oklahoma consultation",
      "Professional service",
      "Quality guarantee"
    ],
    "social_links": {}
  },
  {
    "name": "Bureau of Trust Funds Administration (BTFA)",
    "address": "P.O. Box 26928, Albuquerque, New Mexico 87125 (Mailing Address for some agencies)",
    "phone": "(888) 678-6836 (BTFA TBCC)",
    "rating": 4.0,
    "reviews": 25,
    "website": "https://www.bia.gov/service/trust-funds-administration",
    "category": "American-Indian-owned Trust services in Oklahoma",
    "description": "Dedicated to managing and protecting the financial assets of American Indians held in trust by the Department of the Interior",
    "hours": "Mon-Fri 9AM-6PM",
    "services": [
      "American-Indian-owned Trust services in Oklahoma consultation",
      "Professional service",
      "Quality guarantee"
    ],
    "social_links": {}
  }
]