[
  {
    "name": "Academy Of The Sacred Heart",
    "address": "4521 Saint Charles Ave, New Orleans, LA 70115",
    "phone": "(504) 247-7000",
    "rating": 4.0,
    "reviews": 25,
    "website": "https://www.ashrosary.org/",
    "category": "Catholic-owned Gymnastics coaching in Louisiana",
    "description": "An all-girls Catholic school that offers gymnastics as an interscholastic sport",
    "hours": "Mon-Fri 9AM-6PM",
    "services": [
      "Catholic-owned Gymnastics coaching in Louisiana consultation",
      "Professional service",
      "Quality guarantee"
    ],
    "social_links": {}
  },
  {
    "name": "Archbishop Chapelle High School",
    "address": "8800 Veterans Memorial Blvd, Metairie, LA 70003",
    "phone": "(504) 467-3105",
    "rating": 4.0,
    "reviews": 25,
    "website": "https://www.archbishopchapelle.org/",
    "category": "Catholic-owned Gymnastics coaching in Louisiana",
    "description": "An all-girls Catholic high school with a gymnastics program",
    "hours": "Mon-Fri 9AM-6PM",
    "services": [
      "Catholic-owned Gymnastics coaching in Louisiana consultation",
      "Professional service",
      "Quality guarantee"
    ],
    "social_links": {}
  },
  {
    "name": "St. Joseph's Academy",
    "address": "3015 Broussard St, Baton Rouge, LA 70808",
    "phone": "(225) 388-7000",
    "rating": 4.0,
    "reviews": 25,
    "website": "https://www.sjabr.org/",
    "category": "Catholic-owned Gymnastics coaching in Louisiana",
    "description": "A Catholic high school that offers gymnastics as a sport",
    "hours": "Mon-Fri 9AM-6PM",
    "services": [
      "Catholic-owned Gymnastics coaching in Louisiana consultation",
      "Professional service",
      "Quality guarantee"
    ],
    "social_links": {}
  },
  {
    "name": "Ursuline Academy",
    "address": "2633 Napoleon Ave, New Orleans, LA 70115",
    "phone": "(504) 861-7000",
    "rating": 4.0,
    "reviews": 25,
    "website": "https://www.ursulineneworleans.org/",
    "category": "Catholic-owned Gymnastics coaching in Louisiana",
    "description": "An all-girls Catholic school that may offer gymnastics",
    "hours": "Mon-Fri 9AM-6PM",
    "services": [
      "Catholic-owned Gymnastics coaching in Louisiana consultation",
      "Professional service",
      "Quality guarantee"
    ],
    "social_links": {}
  },
  {
    "name": "St. Edmund Catholic School",
    "address": "2521 W Pleasant Dr, Eunice, LA 70535",
    "phone": "(337) 457-2254",
    "rating": 4.0,
    "reviews": 25,
    "website": "https://www.stedmund.org/",
    "category": "Catholic-owned Gymnastics coaching in Louisiana",
    "description": "A Catholic school that may offer gymnastics programs",
    "hours": "Mon-Fri 9AM-6PM",
    "services": [
      "Catholic-owned Gymnastics coaching in Louisiana consultation",
      "Professional service",
      "Quality guarantee"
    ],
    "social_links": {}
  },
  {
    "name": "Catholic High School",
    "address": "855 Hearthstone Dr, Baton Rouge, LA 70806",
    "phone": "(225) 383-7131",
    "rating": 4.0,
    "reviews": 25,
    "website": "https://www.chsbuff.org/",
    "category": "Catholic-owned Gymnastics coaching in Louisiana",
    "description": "A Catholic high school that may offer gymnastics programs",
    "hours": "Mon-Fri 9AM-6PM",
    "services": [
      "Catholic-owned Gymnastics coaching in Louisiana consultation",
      "Professional service",
      "Quality guarantee"
    ],
    "social_links": {}
  },
  {
    "name": "Mount Carmel Academy",
    "address": "7027 Freret St, New Orleans, LA 70118",
    "phone": "(504) 274-3500",
    "rating": 4.0,
    "reviews": 25,
    "website": "https://www.mtcarmelacademy.com/",
    "category": "Catholic-owned Gymnastics coaching in Louisiana",
    "description": "An all-girls Catholic high school that may offer gymnastics",
    "hours": "Mon-Fri 9AM-6PM",
    "services": [
      "Catholic-owned Gymnastics coaching in Louisiana consultation",
      "Professional service",
      "Quality guarantee"
    ],
    "social_links": {}
  },
  {
    "name": "St. Catherine of Siena Parish (CYO Sports)",
    "address": "4004 Hesse St, Metairie, LA 70001",
    "phone": "(504) 887-7821",
    "rating": 4.0,
    "reviews": 25,
    "website": "https://www.stcatherineparish.org/cyo-sports",
    "category": "Catholic-owned Gymnastics coaching in Louisiana",
    "description": "Offers CYO sports, which may include gymnastics depending on the parish's offerings and league availability",
    "hours": "Mon-Fri 9AM-6PM",
    "services": [
      "Catholic-owned Gymnastics coaching in Louisiana consultation",
      "Professional service",
      "Quality guarantee"
    ],
    "social_links": {}
  },
  {
    "name": "St. Clement of Rome Parish (CYO)",
    "address": "4317 Richland Ave, Metairie, LA 70002",
    "phone": "(504) 887-7821",
    "rating": 4.0,
    "reviews": 25,
    "website": "https://www.st",
    "category": "Catholic-owned Gymnastics coaching in Louisiana",
    "description": "Provides CYO activities, which can include sports leagues. Gymnastics might be an option through their athletic programs",
    "hours": "Mon-Fri 9AM-6PM",
    "services": [
      "Catholic-owned Gymnastics coaching in Louisiana consultation",
      "Professional service",
      "Quality guarantee"
    ],
    "social_links": {}
  },
  {
    "name": "St. Angela Merici (CYO)",
    "address": "901 Beverly Garden Dr, Metairie, LA 70002",
    "phone": "(504) 837-8116",
    "rating": 4.0,
    "reviews": 25,
    "website": "https://www.stangelamerici.org/cyo",
    "category": "Catholic-owned Gymnastics coaching in Louisiana",
    "description": "Offers CYO programs for teens, which may include sports. Gymnastics could be part of their athletic offerings",
    "hours": "Mon-Fri 9AM-6PM",
    "services": [
      "Catholic-owned Gymnastics coaching in Louisiana consultation",
      "Professional service",
      "Quality guarantee"
    ],
    "social_links": {}
  }
]