[
  {
    "name": "St. Jude, Hopatcong - Gen Lee Ju-Jitsu Self-Defense Club",
    "address": "40 Maxim Drive, Hopatcong, NJ 07843",
    "phone": "973-398-6377 (Parish Office)",
    "rating": 4.0,
    "reviews": 25,
    "website": "https://www.stjudehopatcong.org/self-defense-club",
    "category": "Catholic-owned Kickboxing classes in New-Jersey",
    "description": "This club offers self-defense classes, including elements of Ju-Jitsu, Karate, Judo, Aikido, and Savate. Classes are held on Wednesday nights",
    "hours": "Mon-Fri 9AM-6PM",
    "services": [
      "Catholic-owned Kickboxing classes in New-Jersey consultation",
      "Professional service",
      "Quality guarantee"
    ],
    "social_links": {}
  },
  {
    "name": "CKO Kickboxing - Succasunna",
    "address": "Specific address not readily available, but located in Succasunna, NJ",
    "phone": "",
    "rating": 4.0,
    "reviews": 25,
    "website": "https://www.ckokickboxing.com/locations/succasunna-nj",
    "category": "Catholic-owned Kickboxing classes in New-Jersey",
    "description": "CKO Kickboxing offers instructor-led, high-energy cardio kickboxing classes",
    "hours": "Mon-Fri 9AM-6PM",
    "services": [
      "Catholic-owned Kickboxing classes in New-Jersey consultation",
      "Professional service",
      "Quality guarantee"
    ],
    "social_links": {}
  },
  {
    "name": "CKO Kickboxing - Jersey City",
    "address": "150 Bay St. Building - Provost Street Side, Jersey City, NJ 07302",
    "phone": "201-360-3072",
    "rating": 4.0,
    "reviews": 25,
    "website": "https://www.ckokickboxing.com/locations/jersey-city-nj",
    "category": "Catholic-owned Kickboxing classes in New-Jersey",
    "description": "Offers full-body cardio-kickboxing classes in a community-focused environment",
    "hours": "Mon-Fri 9AM-6PM",
    "services": [
      "Catholic-owned Kickboxing classes in New-Jersey consultation",
      "Professional service",
      "Quality guarantee"
    ],
    "social_links": {}
  },
  {
    "name": "CULTR Fight Club",
    "address": "315 15th St Ste 3A, Jersey City, NJ 07310",
    "phone": "",
    "rating": 4.0,
    "reviews": 25,
    "website": "https://cultrfightclub.com/",
    "category": "Catholic-owned Kickboxing classes in New-Jersey",
    "description": "Offers a variety of martial arts and fitness classes, including kickboxing",
    "hours": "Mon-Fri 9AM-6PM",
    "services": [
      "Catholic-owned Kickboxing classes in New-Jersey consultation",
      "Professional service",
      "Quality guarantee"
    ],
    "social_links": {}
  },
  {
    "name": "Dream Martial Arts - Cedar Grove",
    "address": "Cedar Grove, NJ (Specific address not readily available)",
    "phone": "",
    "rating": 4.0,
    "reviews": 25,
    "website": "https://www.dreammartialarts.com/",
    "category": "Catholic-owned Kickboxing classes in New-Jersey",
    "description": "Offers mixed martial arts for kids and Brazilian Jiu-Jitsu for adults, with a focus on self-defense and mindfulness",
    "hours": "Mon-Fri 9AM-6PM",
    "services": [
      "Catholic-owned Kickboxing classes in New-Jersey consultation",
      "Professional service",
      "Quality guarantee"
    ],
    "social_links": {}
  },
  {
    "name": "NJ Martial Arts Academy",
    "address": "Not specified, but serves areas including Randolph, Roxbury, Mendham, Chester, Landing, Jefferson, Lake Hopatcong, Hopatcong, NJ",
    "phone": "973-770-4555",
    "rating": 4.0,
    "reviews": 25,
    "website": "https://www.njmartialarts.com/",
    "category": "Catholic-owned Kickboxing classes in New-Jersey",
    "description": "Offers programs in karate, martial arts, jiu-jitsu, and MMA",
    "hours": "Mon-Fri 9AM-6PM",
    "services": [
      "Catholic-owned Kickboxing classes in New-Jersey consultation",
      "Professional service",
      "Quality guarantee"
    ],
    "social_links": {}
  },
  {
    "name": "Tiger Schulmann's - Wayne, NJ",
    "address": "1605 Rt 23 South, Wayne, NJ 07470",
    "phone": "973-694-3495",
    "rating": 4.0,
    "reviews": 25,
    "website": "https://www.tsk.com/locations/wayne-nj/",
    "category": "Catholic-owned Kickboxing classes in New-Jersey",
    "description": "Offers adult kickboxing and kids' martial arts classes",
    "hours": "Mon-Fri 9AM-6PM",
    "services": [
      "Catholic-owned Kickboxing classes in New-Jersey consultation",
      "Professional service",
      "Quality guarantee"
    ],
    "social_links": {}
  },
  {
    "name": "Killer B Combat Sports Academy",
    "address": "1604 New Jersey 35, Oakhurst, NJ 07755",
    "phone": "732-996-8146",
    "rating": 5.0,
    "reviews": 25,
    "website": "https://killerb.com/",
    "category": "Catholic-owned Kickboxing classes in New-Jersey",
    "description": "Offers MMA, kickboxing, boxing, and jiu-jitsu for adults and children, with a strong community focus",
    "hours": "Mon-Fri 9AM-6PM",
    "services": [
      "Catholic-owned Kickboxing classes in New-Jersey consultation",
      "Professional service",
      "Quality guarantee"
    ],
    "social_links": {}
  },
  {
    "name": "Primal Kickboxing",
    "address": "201 Egg Harbor Rd, Washington Twp, NJ 08080",
    "phone": "856-505-0300",
    "rating": 4.0,
    "reviews": 25,
    "website": "https://primalkickboxing.com/",
    "category": "Catholic-owned Kickboxing classes in New-Jersey",
    "description": "Offers 30-minute kickboxing and strength training classes",
    "hours": "Mon-Fri 9AM-6PM",
    "services": [
      "Catholic-owned Kickboxing classes in New-Jersey consultation",
      "Professional service",
      "Quality guarantee"
    ],
    "social_links": {}
  },
  {
    "name": "St. Mary's Athletic Association",
    "address": "Information not available for a specific kickboxing class, but they offer various sports programs",
    "phone": "",
    "rating": 4.0,
    "reviews": 25,
    "website": "https://www.stmarys-athletics.org/",
    "category": "Catholic-owned Kickboxing classes in New-Jersey",
    "description": "While not explicitly offering kickboxing, this Catholic organization provides various athletic programs for children, which may include martial arts or self-defense in the future",
    "hours": "Mon-Fri 9AM-6PM",
    "services": [
      "Catholic-owned Kickboxing classes in New-Jersey consultation",
      "Professional service",
      "Quality guarantee"
    ],
    "social_links": {}
  }
]