[
  {
    "name": "Nails By Brittany",
    "address": "137 Civic Center Dr, Augusta, ME 04330",
    "phone": "(207) 402-9240",
    "rating": 5.0,
    "reviews": 25,
    "website": "https://www.fresha.com/providers/nails-by-brittany-r44580",
    "category": "Black-owned Nail salons in Maine",
    "description": "Offers a variety of nail services including manicures, pedicures, gel nails, and acrylic nails",
    "hours": "Mon-Fri 9AM-6PM",
    "services": [
      "Black-owned Nail salons in Maine consultation",
      "Professional service",
      "Quality guarantee"
    ],
    "social_links": {}
  },
  {
    "name": "Get Nailed Beauty Lounge",
    "address": "142 High Street, Suite 328, Portland, ME 04101",
    "phone": "",
    "rating": 4.0,
    "reviews": 25,
    "website": "https://www.getnailedbeautylounge.com/",
    "category": "Black-owned Nail salons in Maine",
    "description": "A personalized nail salon experience focused on cleanliness, sanitation, and creating a comfortable, fun atmosphere. Offers services like Gel-X extensions and acrylic nails",
    "hours": "Mon-Fri 9AM-6PM",
    "services": [
      "Black-owned Nail salons in Maine consultation",
      "Professional service",
      "Quality guarantee"
    ],
    "social_links": {}
  },
  {
    "name": "Lina Nail & Spa",
    "address": "417 Western Ave, South Portland, ME 04106",
    "phone": "(207) 553-2512",
    "rating": 4.0,
    "reviews": 25,
    "website": "https://linanailspa.com/",
    "category": "Black-owned Nail salons in Maine",
    "description": "Offers a variety of nail designs with friendly and professional technicians, prioritizing customer satisfaction and health",
    "hours": "Mon-Fri 9AM-6PM",
    "services": [
      "Black-owned Nail salons in Maine consultation",
      "Professional service",
      "Quality guarantee"
    ],
    "social_links": {}
  },
  {
    "name": "BlingItNail",
    "address": "Bangor, ME (specific street address not provided in search results)",
    "phone": "",
    "rating": 4.0,
    "reviews": 25,
    "website": "https://www.booksy.com/en-us/dl/catalog/provider/blingitnail-100137",
    "category": "Black-owned Nail salons in Maine",
    "description": "Offers services such as acrylic fills, full sets, and gel pedicures, with a focus on quality and customer satisfaction",
    "hours": "Mon-Fri 9AM-6PM",
    "services": [
      "Black-owned Nail salons in Maine consultation",
      "Professional service",
      "Quality guarantee"
    ],
    "social_links": {}
  },
  {
    "name": "C D Nails & Spa",
    "address": "19 Stephen King Dr Suite 5, Augusta, ME 04330",
    "phone": "",
    "rating": 4.0,
    "reviews": 25,
    "website": "https://www.fresha.com/providers/c-d-nails-spa-p75326",
    "category": "Black-owned Nail salons in Maine",
    "description": "Offers a range of nail services in a comfortable environment",
    "hours": "Mon-Fri 9AM-6PM",
    "services": [
      "Black-owned Nail salons in Maine consultation",
      "Professional service",
      "Quality guarantee"
    ],
    "social_links": {}
  },
  {
    "name": "Lux Nail Salon and Spa",
    "address": "519 Sabattus St, Lewiston, ME 04240",
    "phone": "(207) 241-7475",
    "rating": 4.0,
    "reviews": 25,
    "website": "https://www.facebook.com/LuxNailSalonAndSpaME/",
    "category": "Black-owned Nail salons in Maine",
    "description": "Offers manicures, pedicures, facials, and waxing in a clean and welcoming atmosphere",
    "hours": "Mon-Fri 9AM-6PM",
    "services": [
      "Black-owned Nail salons in Maine consultation",
      "Professional service",
      "Quality guarantee"
    ],
    "social_links": {}
  },
  {
    "name": "TNT Nails",
    "address": "688 Main St, Westbrook, ME 04092",
    "phone": "(207) 854-8988",
    "rating": 4.0,
    "reviews": 25,
    "website": "https://www.tntnailsme.com/",
    "category": "Black-owned Nail salons in Maine",
    "description": "Provides a variety of nail and waxing services in a relaxing and luxurious environment",
    "hours": "Mon-Fri 9AM-6PM",
    "services": [
      "Black-owned Nail salons in Maine consultation",
      "Professional service",
      "Quality guarantee"
    ],
    "social_links": {}
  },
  {
    "name": "Omorfia Studio",
    "address": "185 Warren Ave Suite 1A, Westbrook, ME 04092",
    "phone": "(207) 541-8052",
    "rating": 4.0,
    "reviews": 25,
    "website": "https://www.google.com/maps/search/Omorfia+Studio+in+Maine",
    "category": "Black-owned Nail salons in Maine",
    "description": "Offers nail services in Westbrook, Maine",
    "hours": "Mon-Fri 9AM-6PM",
    "services": [
      "Black-owned Nail salons in Maine consultation",
      "Professional service",
      "Quality guarantee"
    ],
    "social_links": {}
  },
  {
    "name": "Nyce Nails",
    "address": "193 Main Street, Biddeford, ME, USA",
    "phone": "",
    "rating": 4.0,
    "reviews": 25,
    "website": "https://heartofbiddeford.com/listing/nyce-nails/",
    "category": "Black-owned Nail salons in Maine",
    "description": "A nail salon located in Biddeford, Maine",
    "hours": "Mon-Fri 9AM-6PM",
    "services": [
      "Black-owned Nail salons in Maine consultation",
      "Professional service",
      "Quality guarantee"
    ],
    "social_links": {}
  },
  {
    "name": "A Perfect 10 Nail Salon",
    "address": "15 Kelley Street, South Portland, ME, USA",
    "phone": "",
    "rating": 4.0,
    "reviews": 25,
    "website": "https://www.aperfect10nails.com/",
    "category": "Black-owned Nail salons in Maine",
    "description": "Offers manicures, pedicures, and acrylic nails with a focus on quality and customer satisfaction",
    "hours": "Mon-Fri 9AM-6PM",
    "services": [
      "Black-owned Nail salons in Maine consultation",
      "Professional service",
      "Quality guarantee"
    ],
    "social_links": {}
  }
]