[
  {
    "name": "Comfort Pro, Inc.",
    "address": "Reading, PA (Specific address not found in search results)",
    "phone": "(610) 929-1001",
    "rating": 4.0,
    "reviews": 25,
    "website": "https://www.google.com/maps/search/Comfort+Pro,+Inc.+in+Pennsylvania",
    "category": "Agnostic-owned HVAC repair in Pennsylvania",
    "description": "Full-service HVAC contractor offering installation, repair, and maintenance for heating and cooling systems, including geothermal. They emphasize customer satisfaction and offer 24/7 emergency repairs",
    "hours": "Mon-Fri 9AM-6PM",
    "services": [
      "Agnostic-owned HVAC repair in Pennsylvania consultation",
      "Professional service",
      "Quality guarantee"
    ],
    "social_links": {}
  },
  {
    "name": "Christian Heating and Air Conditioning",
    "address": "Southampton, Pennsylvania",
    "phone": "(215) 372-8007",
    "rating": 4.0,
    "reviews": 25,
    "website": "https://www.google.com/maps/search/Christian+Heating+and+Air+Conditioning+in+Pennsylvania",
    "category": "Agnostic-owned HVAC repair in Pennsylvania",
    "description": "Family-owned business providing HVAC, plumbing, and electrical services to residential and commercial clients. They focus on indoor comfort and offer installation, repair, and maintenance",
    "hours": "Mon-Fri 9AM-6PM",
    "services": [
      "Agnostic-owned HVAC repair in Pennsylvania consultation",
      "Professional service",
      "Quality guarantee"
    ],
    "social_links": {}
  },
  {
    "name": "Burkholder's Heating & Air Conditioning, Inc.",
    "address": "Emmaus, Pennsylvania",
    "phone": "(610) 434-1111",
    "rating": 4.0,
    "reviews": 25,
    "website": "https://www.google.com/maps/search/Burkholder's+Heating+&+Air+Conditioning,+Inc.+in+Pennsylvania",
    "category": "Agnostic-owned HVAC repair in Pennsylvania",
    "description": "Specializes in HVAC solutions for residential and commercial clients, offering installation, repair, and maintenance of heating and air conditioning systems",
    "hours": "Mon-Fri 9AM-6PM",
    "services": [
      "Agnostic-owned HVAC repair in Pennsylvania consultation",
      "Professional service",
      "Quality guarantee"
    ],
    "social_links": {}
  },
  {
    "name": "Air Comfort Technologies",
    "address": "Manchester Township, PA 17345",
    "phone": "(717) 855-4101",
    "rating": 4.0,
    "reviews": 25,
    "website": "https://www.google.com/maps/search/Air+Comfort+Technologies+in+Pennsylvania",
    "category": "Agnostic-owned HVAC repair in Pennsylvania",
    "description": "Local, family-owned HVAC company serving York, Adams, and Lancaster counties, specializing in indoor air quality, air conditioning, furnace, boiler, heat pump, and ductless HVAC services",
    "hours": "Mon-Fri 9AM-6PM",
    "services": [
      "Agnostic-owned HVAC repair in Pennsylvania consultation",
      "Professional service",
      "Quality guarantee"
    ],
    "social_links": {}
  },
  {
    "name": "Werley Heating & Air Conditioning Co.",
    "address": "Allentown, PA 18104",
    "phone": "(610) 821-8414",
    "rating": 4.0,
    "reviews": 25,
    "website": "https://www.google.com/maps/search/Werley+Heating+&+Air+Conditioning+Co.+in+Pennsylvania",
    "category": "Agnostic-owned HVAC repair in Pennsylvania",
    "description": "Offers furnace and air conditioning services",
    "hours": "Mon-Fri 9AM-6PM",
    "services": [
      "Agnostic-owned HVAC repair in Pennsylvania consultation",
      "Professional service",
      "Quality guarantee"
    ],
    "social_links": {}
  },
  {
    "name": "UGI Heating, Cooling & Plumbing",
    "address": "Harrisburg, Lancaster, Reading, Whitehall, PA (multiple locations)",
    "phone": "833-984-7587",
    "rating": 4.0,
    "reviews": 25,
    "website": "https://www.google.com/maps/search/UGI+Heating,+Cooling+&+Plumbing+in+Pennsylvania",
    "category": "Agnostic-owned HVAC repair in Pennsylvania",
    "description": "Provides quality HVAC and plumbing services, focusing on energy-efficient performance and customer comfort",
    "hours": "Mon-Fri 9AM-6PM",
    "services": [
      "Agnostic-owned HVAC repair in Pennsylvania consultation",
      "Professional service",
      "Quality guarantee"
    ],
    "social_links": {}
  },
  {
    "name": "Quality Degree",
    "address": "Royersford, PA",
    "phone": "(610) 600-1700",
    "rating": 4.0,
    "reviews": 25,
    "website": "https://www.google.com/maps/search/Quality+Degree+in+Pennsylvania",
    "category": "Agnostic-owned HVAC repair in Pennsylvania",
    "description": "Top HVAC contractor offering repairs, installations, and maintenance for heating and cooling systems, as well as indoor air quality solutions. They service all major makes and models",
    "hours": "Mon-Fri 9AM-6PM",
    "services": [
      "Agnostic-owned HVAC repair in Pennsylvania consultation",
      "Professional service",
      "Quality guarantee"
    ],
    "social_links": {}
  },
  {
    "name": "Region Home Services",
    "address": "Bensalem, PA",
    "phone": "(215) 639-0424",
    "rating": 4.0,
    "reviews": 25,
    "website": "https://www.google.com/maps/search/Region+Home+Services+in+Pennsylvania",
    "category": "Agnostic-owned HVAC repair in Pennsylvania",
    "description": "Provides comprehensive HVAC solutions, including repair, AC service, installation, and maintenance for residential and commercial properties in the Greater Philadelphia area",
    "hours": "Mon-Fri 9AM-6PM",
    "services": [
      "Agnostic-owned HVAC repair in Pennsylvania consultation",
      "Professional service",
      "Quality guarantee"
    ],
    "social_links": {}
  },
  {
    "name": "Always On HVAC",
    "address": "Pennsylvania (service area)",
    "phone": "718-866-4325",
    "rating": 4.0,
    "reviews": 25,
    "website": "https://www.google.com/maps/search/Always+On+HVAC+in+Pennsylvania",
    "category": "Agnostic-owned HVAC repair in Pennsylvania",
    "description": "Offers a comprehensive range of HVAC services, including installation, maintenance, and repair for residential and commercial properties in Pennsylvania",
    "hours": "Mon-Fri 9AM-6PM",
    "services": [
      "Agnostic-owned HVAC repair in Pennsylvania consultation",
      "Professional service",
      "Quality guarantee"
    ],
    "social_links": {}
  },
  {
    "name": "Dilling Heating & Cooling",
    "address": "Philadelphia, PA (service area)",
    "phone": "(215) 638-1400",
    "rating": 4.0,
    "reviews": 25,
    "website": "https://www.google.com/maps/search/Dilling+Heating+&+Cooling+in+Pennsylvania",
    "category": "Agnostic-owned HVAC repair in Pennsylvania",
    "description": "A leading HVAC service company offering air conditioning and furnace installations, repairs, and maintenance. They are family-owned and operated",
    "hours": "Mon-Fri 9AM-6PM",
    "services": [
      "Agnostic-owned HVAC repair in Pennsylvania consultation",
      "Professional service",
      "Quality guarantee"
    ],
    "social_links": {}
  }
]