[
  {
    "name": "Moon Valley Nurseries",
    "address": "11320 West Indian School Road, Avondale, AZ 85037",
    "phone": "(602) 490-8184",
    "rating": 4.0,
    "reviews": 25,
    "website": "https://www.moonvalleynurseries.com/",
    "category": "Bengali-speaking Plant selection assistance in Arizona",
    "description": "Moon Valley Nurseries offers a wide variety of trees, plants, and professional landscape design consultations. They also provide delivery and planting services",
    "hours": "Mon-Fri 9AM-6PM",
    "services": [
      "Bengali-speaking Plant selection assistance in Arizona consultation",
      "Professional service",
      "Quality guarantee"
    ],
    "social_links": {}
  },
  {
    "name": "SummerWinds Nursery",
    "address": "Multiple locations, including 1540 W Happy Valley Rd, Phoenix, AZ 85085",
    "phone": "(602) 439-0090 (for the Happy Valley location)",
    "rating": 4.0,
    "reviews": 25,
    "website": "https://www.summerwindsnursery.com/",
    "category": "Bengali-speaking Plant selection assistance in Arizona",
    "description": "SummerWinds Nursery offers a variety of native plants, flowers, trees, and shrubs, with a focus on supporting local ecosystems and pollinators",
    "hours": "Mon-Fri 9AM-6PM",
    "services": [
      "Bengali-speaking Plant selection assistance in Arizona consultation",
      "Professional service",
      "Quality guarantee"
    ],
    "social_links": {}
  },
  {
    "name": "The Green Goddess Nursery",
    "address": "3436 N 7th Ave, Phoenix, AZ 85013",
    "phone": "(602) 279-7585",
    "rating": 4.0,
    "reviews": 25,
    "website": "https://www.thegreengoddess.com/",
    "category": "Bengali-speaking Plant selection assistance in Arizona",
    "description": "The Green Goddess Nursery provides plant design and installation services, offering a wide selection of interior and exterior plants, flowers, and trees",
    "hours": "Mon-Fri 9AM-6PM",
    "services": [
      "Bengali-speaking Plant selection assistance in Arizona consultation",
      "Professional service",
      "Quality guarantee"
    ],
    "social_links": {}
  },
  {
    "name": "Ted's Mercantile & Sunset Nursery",
    "address": "4725 E Speedway Blvd, Tucson, AZ 85712",
    "phone": "(520) 327-5000",
    "rating": 4.0,
    "reviews": 25,
    "website": "https://www.tedsmercantile.com/",
    "category": "Bengali-speaking Plant selection assistance in Arizona",
    "description": "Ted's Mercantile & Sunset Nursery offers a diverse selection of plants, artisan gifts, pottery, honey, and gourmet foods. They have been locally owned and operated since 1973",
    "hours": "Mon-Fri 9AM-6PM",
    "services": [
      "Bengali-speaking Plant selection assistance in Arizona consultation",
      "Professional service",
      "Quality guarantee"
    ],
    "social_links": {}
  },
  {
    "name": "Gila Native Plant Nursery",
    "address": "1000 W. Discovery Park Blvd., Safford, AZ 85546",
    "phone": "(928) 428-7000",
    "rating": 4.0,
    "reviews": 25,
    "website": "https://www.gilawatershed.org/native-plant-nursery",
    "category": "Bengali-speaking Plant selection assistance in Arizona",
    "description": "Gila Native Plant Nursery specializes in locally-adapted native plants for restoration and encourages urban pollinator gardens",
    "hours": "Mon-Fri 9AM-6PM",
    "services": [
      "Bengali-speaking Plant selection assistance in Arizona consultation",
      "Professional service",
      "Quality guarantee"
    ],
    "social_links": {}
  },
  {
    "name": "Arizona Cactus Sales",
    "address": "1619 South Arizona Avenue, Chandler, AZ 85248",
    "phone": "(480) 961-7451",
    "rating": 4.0,
    "reviews": 25,
    "website": "https://www.arizonacactussales.com/",
    "category": "Bengali-speaking Plant selection assistance in Arizona",
    "description": "Arizona Cactus Sales offers a wide variety of cacti and succulents, suitable for desert landscapes",
    "hours": "Mon-Fri 9AM-6PM",
    "services": [
      "Bengali-speaking Plant selection assistance in Arizona consultation",
      "Professional service",
      "Quality guarantee"
    ],
    "social_links": {}
  },
  {
    "name": "Jungle Box",
    "address": "1212 E. Indian School Rd, Phoenix, AZ 85014",
    "phone": "(480) 420-0111",
    "rating": 4.0,
    "reviews": 25,
    "website": "https://www.junglebox.com/",
    "category": "Bengali-speaking Plant selection assistance in Arizona",
    "description": "Jungle Box is a plant store in Phoenix specializing in houseplants, vivariums, terrariums, and rare/exotic plants",
    "hours": "Mon-Fri 9AM-6PM",
    "services": [
      "Bengali-speaking Plant selection assistance in Arizona consultation",
      "Professional service",
      "Quality guarantee"
    ],
    "social_links": {}
  },
  {
    "name": "A&P Nursery",
    "address": "Multiple locations, including 40370 N Gantzel Rd, Queen Creek, AZ 85140",
    "phone": "(480) 655-5789",
    "rating": 4.0,
    "reviews": 25,
    "website": "https://www.apnursery.com/",
    "category": "Bengali-speaking Plant selection assistance in Arizona",
    "description": "A&P Nursery offers a wide selection of plants, trees, and landscaping supplies, serving various areas in Arizona",
    "hours": "Mon-Fri 9AM-6PM",
    "services": [
      "Bengali-speaking Plant selection assistance in Arizona consultation",
      "Professional service",
      "Quality guarantee"
    ],
    "social_links": {}
  },
  {
    "name": "Arid Zone Trees",
    "address": "9750 East Germann Road, Mesa, AZ 85212",
    "phone": "(480) 987-9094",
    "rating": 4.0,
    "reviews": 25,
    "website": "https://www.aridzonetrees.com/",
    "category": "Bengali-speaking Plant selection assistance in Arizona",
    "description": "Arid Zone Trees specializes in growing and supplying trees suitable for Arizona's arid climate",
    "hours": "Mon-Fri 9AM-6PM",
    "services": [
      "Bengali-speaking Plant selection assistance in Arizona consultation",
      "Professional service",
      "Quality guarantee"
    ],
    "social_links": {}
  },
  {
    "name": "The Plant Stand of Arizona",
    "address": "1010 E Northern Ave, Phoenix, AZ 85020",
    "phone": "(602) 944-1575",
    "rating": 4.0,
    "reviews": 25,
    "website": "https://www.theplantstandofaz.com/",
    "category": "Bengali-speaking Plant selection assistance in Arizona",
    "description": "The Plant Stand of Arizona is a destination for palms, plants, and pottery, offering a variety of indoor and outdoor plants, as well as soil and nutrients",
    "hours": "Mon-Fri 9AM-6PM",
    "services": [
      "Bengali-speaking Plant selection assistance in Arizona consultation",
      "Professional service",
      "Quality guarantee"
    ],
    "social_links": {}
  }
]