[
  {
    "name": "Randstad USA",
    "address": "Multiple locations in Delaware, including Wilmington",
    "phone": "(800) 755-5856",
    "rating": 4.0,
    "reviews": 25,
    "website": "https://www.randstad.com/",
    "category": "Chinese-American-owned Recruitment support in Delaware",
    "description": "A global leader in the HR services industry, offering staffing solutions for temporary, temporary-to-hire, and direct-hire positions across various sectors",
    "hours": "Mon-Fri 9AM-6PM",
    "services": [
      "Chinese-American-owned Recruitment support in Delaware consultation",
      "Professional service",
      "Quality guarantee"
    ],
    "social_links": {}
  },
  {
    "name": "Aerotek",
    "address": "1100 N King St, Wilmington, DE 19801",
    "phone": "(302) 478-7000",
    "rating": 4.2,
    "reviews": 25,
    "website": "https://www.aerotek.com/",
    "category": "Chinese-American-owned Recruitment support in Delaware",
    "description": "Provides staffing and recruiting services, connecting job seekers with companies in industries such as aerospace, automotive, banking, and more",
    "hours": "Mon-Fri 9AM-6PM",
    "services": [
      "Chinese-American-owned Recruitment support in Delaware consultation",
      "Professional service",
      "Quality guarantee"
    ],
    "social_links": {}
  },
  {
    "name": "Insight Global",
    "address": "1000 N West St, Wilmington, DE 19801",
    "phone": "(302) 600-1730",
    "rating": 4.1,
    "reviews": 25,
    "website": "https://www.insightglobal.com/",
    "category": "Chinese-American-owned Recruitment support in Delaware",
    "description": "A leading staffing and professional services company specializing in placing short-term, long-term, and permanent hires, as well as providing tech and talent professional services",
    "hours": "Mon-Fri 9AM-6PM",
    "services": [
      "Chinese-American-owned Recruitment support in Delaware consultation",
      "Professional service",
      "Quality guarantee"
    ],
    "social_links": {}
  },
  {
    "name": "Blackwell HR",
    "address": "100 W 10th St #200, Wilmington, DE 19801",
    "phone": "(302) 351-3700",
    "rating": 4.8,
    "reviews": 25,
    "website": "https://www.blackwellhr.com/",
    "category": "Chinese-American-owned Recruitment support in Delaware",
    "description": "Offers strategic HR consulting, expert human resources advisory, and tailored on-site support for businesses",
    "hours": "Mon-Fri 9AM-6PM",
    "services": [
      "Chinese-American-owned Recruitment support in Delaware consultation",
      "Professional service",
      "Quality guarantee"
    ],
    "social_links": {}
  },
  {
    "name": "Elite Human Resource Management Consulting, LLC",
    "address": "1105 N Market St, Wilmington, DE 19801",
    "phone": "(302) 543-7000",
    "rating": 4.9,
    "reviews": 25,
    "website": "https://www.elitehrmconsulting.com/",
    "category": "Chinese-American-owned Recruitment support in Delaware",
    "description": "A trusted HR consulting company that helps businesses enhance workplace culture, employee engagement, and talent management",
    "hours": "Mon-Fri 9AM-6PM",
    "services": [
      "Chinese-American-owned Recruitment support in Delaware consultation",
      "Professional service",
      "Quality guarantee"
    ],
    "social_links": {}
  },
  {
    "name": "XpanseHR",
    "address": "1201 N Orange St, Wilmington, DE 19801",
    "phone": "(302) 600-1330",
    "rating": 4.7,
    "reviews": 25,
    "website": "https://www.xpansehr.com/",
    "category": "Chinese-American-owned Recruitment support in Delaware",
    "description": "An established human resources outsourcing firm providing a wide range of HR services, including compensation consulting and performance management",
    "hours": "Mon-Fri 9AM-6PM",
    "services": [
      "Chinese-American-owned Recruitment support in Delaware consultation",
      "Professional service",
      "Quality guarantee"
    ],
    "social_links": {}
  },
  {
    "name": "unHR",
    "address": "1201 N Orange St, Wilmington, DE 19801",
    "phone": "(610) 357-9862",
    "rating": 4.9,
    "reviews": 25,
    "website": "https://unhr.com/",
    "category": "Chinese-American-owned Recruitment support in Delaware",
    "description": "A full-service HR consulting agency that provides custom HR solutions to streamline HR departments and address complex HR challenges",
    "hours": "Mon-Fri 9AM-6PM",
    "services": [
      "Chinese-American-owned Recruitment support in Delaware consultation",
      "Professional service",
      "Quality guarantee"
    ],
    "social_links": {}
  },
  {
    "name": "AlexandHR",
    "address": "1201 N Orange St, Wilmington, DE 19801",
    "phone": "(866) 852-8864",
    "rating": 5.0,
    "reviews": 25,
    "website": "https://alexandhr.com/",
    "category": "Chinese-American-owned Recruitment support in Delaware",
    "description": "Specializes in HR systems support for platforms like Rippling, BambooHR, Gusto, and JazzHR, serving clients nationwide with setup, automation, and ongoing HR guidance",
    "hours": "Mon-Fri 9AM-6PM",
    "services": [
      "Chinese-American-owned Recruitment support in Delaware consultation",
      "Professional service",
      "Quality guarantee"
    ],
    "social_links": {}
  },
  {
    "name": "Delmarva Temporary Staffing, Inc.",
    "address": "100 W 10th St #1001, Wilmington, DE 19801",
    "phone": "(302) 644-1807",
    "rating": 4.5,
    "reviews": 25,
    "website": "https://www.dtsstaffing.com/",
    "category": "Chinese-American-owned Recruitment support in Delaware",
    "description": "Specializes in temporary staffing solutions throughout the greater Delaware area, catering to diverse sectors including government, pharmaceutical, and manufacturing",
    "hours": "Mon-Fri 9AM-6PM",
    "services": [
      "Chinese-American-owned Recruitment support in Delaware consultation",
      "Professional service",
      "Quality guarantee"
    ],
    "social_links": {}
  },
  {
    "name": "Goodwill Staffing Services",
    "address": "2613 Concord Pike, Wilmington, DE 19803",
    "phone": "(302) 504-5727",
    "rating": 4.3,
    "reviews": 25,
    "website": "https://www.goodwillde.org/staffing-services/",
    "category": "Chinese-American-owned Recruitment support in Delaware",
    "description": "Provides human resource solutions, offering temporary and contract staff for various industries and skill sets, with a focus on recruiting, vetting, and managing workforces",
    "hours": "Mon-Fri 9AM-6PM",
    "services": [
      "Chinese-American-owned Recruitment support in Delaware consultation",
      "Professional service",
      "Quality guarantee"
    ],
    "social_links": {}
  }
]