[
  {
    "name": "GoDetail",
    "address": "Portland, Oregon (Specific address not provided in search results)",
    "phone": "",
    "rating": 4.0,
    "reviews": 25,
    "website": "https://www.google.com/maps/search/GoDetail+in+Oregon",
    "category": "Disabled-owned Ceramic coating in Oregon",
    "description": "Offers ceramic coating services for vehicles, including a 10-year warranty option. They use SunCoat\u00ae Ceramics",
    "hours": "Mon-Fri 9AM-6PM",
    "services": [
      "Disabled-owned Ceramic coating in Oregon consultation",
      "Professional service",
      "Quality guarantee"
    ],
    "social_links": {}
  },
  {
    "name": "AAD Ceramic Coatings",
    "address": "5825 SE 122nd Ave Building A, Portland, OR 97236",
    "phone": "503-206-9544",
    "rating": 4.0,
    "reviews": 25,
    "website": "https://www.google.com/maps/search/AAD+Ceramic+Coatings+in+Oregon",
    "category": "Disabled-owned Ceramic coating in Oregon",
    "description": "A veteran-owned family business specializing in paint correction, ceramic coating, and auto detailing",
    "hours": "Mon-Fri 9AM-6PM",
    "services": [
      "Disabled-owned Ceramic coating in Oregon consultation",
      "Professional service",
      "Quality guarantee"
    ],
    "social_links": {}
  },
  {
    "name": "Andy's Auto Detailing & Ceramic Coating",
    "address": "Albany, Oregon (Specific address not provided in search results)",
    "phone": "541-730-7759",
    "rating": 4.0,
    "reviews": 25,
    "website": "https://www.google.com/maps/search/Andy's+Auto+Detailing+&+Ceramic+Coating+in+Oregon",
    "category": "Disabled-owned Ceramic coating in Oregon",
    "description": "Offers ceramic coating services with a warranty of over 5 years, including paint decontamination and polishing. They also offer mobile services",
    "hours": "Mon-Fri 9AM-6PM",
    "services": [
      "Disabled-owned Ceramic coating in Oregon consultation",
      "Professional service",
      "Quality guarantee"
    ],
    "social_links": {}
  },
  {
    "name": "Ceramic Pro East Portland",
    "address": "Portland, Oregon (Specific address not provided in search results)",
    "phone": "",
    "rating": 4.0,
    "reviews": 25,
    "website": "https://www.google.com/maps/search/Ceramic+Pro+East+Portland+in+Oregon",
    "category": "Disabled-owned Ceramic coating in Oregon",
    "description": "Offers premium car protection including window tint, paint protection film (PPF), and ceramic coating. They are an Elite Dealer for Ceramic Pro",
    "hours": "Mon-Fri 9AM-6PM",
    "services": [
      "Disabled-owned Ceramic coating in Oregon consultation",
      "Professional service",
      "Quality guarantee"
    ],
    "social_links": {}
  },
  {
    "name": "503 Motoring & Sales",
    "address": "Portland, Oregon (Specific address not provided in search results)",
    "phone": "503-469-9821",
    "rating": 4.0,
    "reviews": 25,
    "website": "https://www.google.com/maps/search/503+Motoring+&+Sales+in+Oregon",
    "category": "Disabled-owned Ceramic coating in Oregon",
    "description": "Specializes in ceramic coatings using Ceramic Pro products, offering various tiers of protection",
    "hours": "Mon-Fri 9AM-6PM",
    "services": [
      "Disabled-owned Ceramic coating in Oregon consultation",
      "Professional service",
      "Quality guarantee"
    ],
    "social_links": {}
  },
  {
    "name": "Perfection Plus Auto Salon",
    "address": "Bend, Oregon (Specific address not provided in search results)",
    "phone": "541-598-6193",
    "rating": 4.0,
    "reviews": 25,
    "website": "https://www.google.com/maps/search/Perfection+Plus+Auto+Salon+in+Oregon",
    "category": "Disabled-owned Ceramic coating in Oregon",
    "description": "Offers ceramic coating, paint protection film, paint correction, and detailing services. They have over 30 years of experience",
    "hours": "Mon-Fri 9AM-6PM",
    "services": [
      "Disabled-owned Ceramic coating in Oregon consultation",
      "Professional service",
      "Quality guarantee"
    ],
    "social_links": {}
  },
  {
    "name": "David's Auto Detailing",
    "address": "Bend, Oregon (Specific address not provided in search results)",
    "phone": "541-300-6173",
    "rating": 4.0,
    "reviews": 25,
    "website": "https://www.google.com/maps/search/David's+Auto+Detailing+in+Oregon",
    "category": "Disabled-owned Ceramic coating in Oregon",
    "description": "Specializes in ceramic coatings, paint correction, and detailing services",
    "hours": "Mon-Fri 9AM-6PM",
    "services": [
      "Disabled-owned Ceramic coating in Oregon consultation",
      "Professional service",
      "Quality guarantee"
    ],
    "social_links": {}
  },
  {
    "name": "ELITE DETAILING SERVICES",
    "address": "Josephine County, Oregon (Specific address not provided in search results)",
    "phone": "541-226-9887 (for Grants Pass location)",
    "rating": 4.0,
    "reviews": 25,
    "website": "https://www.google.com/maps/search/ELITE+DETAILING+SERVICES+in+Oregon",
    "category": "Disabled-owned Ceramic coating in Oregon",
    "description": "Offers ceramic coatings, detailing services, and window tinting. They are an R1 Approved Applicator",
    "hours": "Mon-Fri 9AM-6PM",
    "services": [
      "Disabled-owned Ceramic coating in Oregon consultation",
      "Professional service",
      "Quality guarantee"
    ],
    "social_links": {}
  },
  {
    "name": "Ceramic Pro Elite Bend",
    "address": "825 SE Glenwood Drive Suite B1, Bend, OR 97702",
    "phone": "541-815-3100",
    "rating": 4.0,
    "reviews": 25,
    "website": "https://www.google.com/maps/search/Ceramic+Pro+Elite+Bend+in+Oregon",
    "category": "Disabled-owned Ceramic coating in Oregon",
    "description": "An exclusive installer of Ceramic Pro Next Generation coatings, offering protection for various surfaces including paint, glass, and interiors",
    "hours": "Mon-Fri 9AM-6PM",
    "services": [
      "Disabled-owned Ceramic coating in Oregon consultation",
      "Professional service",
      "Quality guarantee"
    ],
    "social_links": {}
  },
  {
    "name": "Autorem",
    "address": "Oregon (Specific location not provided in search results)",
    "phone": "",
    "rating": 4.0,
    "reviews": 25,
    "website": "https://www.google.com/maps/search/Autorem+in+Oregon",
    "category": "Disabled-owned Ceramic coating in Oregon",
    "description": "Offers Ceramic Pro coatings with different package options and warranties",
    "hours": "Mon-Fri 9AM-6PM",
    "services": [
      "Disabled-owned Ceramic coating in Oregon consultation",
      "Professional service",
      "Quality guarantee"
    ],
    "social_links": {}
  }
]