[
  {
    "name": "Dennery Law",
    "address": "7310 Turfway Rd. Suite 550, Florence, KY 41042",
    "phone": "859-445-5495",
    "rating": 4.0,
    "reviews": 25,
    "website": "https://www.dennerylaw.com/",
    "category": "Atheist-owned Bankruptcy law in Kentucky",
    "description": "Offers debt relief for individuals and small businesses, with consultations available via phone, in-person, or remotely",
    "hours": "Mon-Fri 9AM-6PM",
    "services": [
      "Atheist-owned Bankruptcy law in Kentucky consultation",
      "Professional service",
      "Quality guarantee"
    ],
    "social_links": {}
  },
  {
    "name": "O'Bryan Law Offices",
    "address": "1717 Alliant Avenue, Suite 17, Louisville, KY 40299",
    "phone": "502-339-0222",
    "rating": 10.0,
    "reviews": 25,
    "website": "https://obryanlawoffices.com/",
    "category": "Atheist-owned Bankruptcy law in Kentucky",
    "description": "A family-owned firm specializing in bankruptcy, offering free consultations and aiming to help clients regain financial independence",
    "hours": "Mon-Fri 9AM-6PM",
    "services": [
      "Atheist-owned Bankruptcy law in Kentucky consultation",
      "Professional service",
      "Quality guarantee"
    ],
    "social_links": {}
  },
  {
    "name": "Steiden Law Offices",
    "address": "1010 Chamberlin Ave, Covington, KY 41011 (Multiple locations in OH and KY)",
    "phone": "888-877-3328",
    "rating": 4.0,
    "reviews": 25,
    "website": "https://steidenlaw.com/",
    "category": "Atheist-owned Bankruptcy law in Kentucky",
    "description": "Provides bankruptcy legal services with over 30 years of experience, focusing on Chapter 7 and Chapter 13 cases",
    "hours": "Mon-Fri 9AM-6PM",
    "services": [
      "Atheist-owned Bankruptcy law in Kentucky consultation",
      "Professional service",
      "Quality guarantee"
    ],
    "social_links": {}
  },
  {
    "name": "Schwartz Bankruptcy Law Center",
    "address": "101 S 5th St #500, Louisville, KY 40202",
    "phone": "502-589-1000",
    "rating": 4.0,
    "reviews": 25,
    "website": "https://www.schwartzbk.com/",
    "category": "Atheist-owned Bankruptcy law in Kentucky",
    "description": "Offers debt relief and bankruptcy services with over 40 years of combined legal experience, aiming to provide peace of mind",
    "hours": "Mon-Fri 9AM-6PM",
    "services": [
      "Atheist-owned Bankruptcy law in Kentucky consultation",
      "Professional service",
      "Quality guarantee"
    ],
    "social_links": {}
  },
  {
    "name": "John Rogers Law Office",
    "address": "111 West Wayne St., Glasgow, KY 42141",
    "phone": "(270) 651-7777",
    "rating": 4.0,
    "reviews": 25,
    "website": "https://www.johnrogerslaw.com/",
    "category": "Atheist-owned Bankruptcy law in Kentucky",
    "description": "Focuses on consumer bankruptcy, helping individuals and businesses with their financial situations, and has filed numerous cases in the Western District of Kentucky",
    "hours": "Mon-Fri 9AM-6PM",
    "services": [
      "Atheist-owned Bankruptcy law in Kentucky consultation",
      "Professional service",
      "Quality guarantee"
    ],
    "social_links": {}
  },
  {
    "name": "Friend Law Firm, PLLC",
    "address": "2265 Executive Drive, Lexington, KY 40505",
    "phone": "",
    "rating": 4.0,
    "reviews": 25,
    "website": "https://www.friendlawfirm.com/",
    "category": "Atheist-owned Bankruptcy law in Kentucky",
    "description": "Assists Kentucky businesses and individuals with debt relief through bankruptcy filings, with an office in Pikeville by appointment only",
    "hours": "Mon-Fri 9AM-6PM",
    "services": [
      "Atheist-owned Bankruptcy law in Kentucky consultation",
      "Professional service",
      "Quality guarantee"
    ],
    "social_links": {}
  },
  {
    "name": "Wallace Spalding Law Office",
    "address": "10500 Lagrange Road, Suite 100, Louisville, KY 40223",
    "phone": "",
    "rating": 4.0,
    "reviews": 25,
    "website": "https://www.wallacespalding.com/",
    "category": "Atheist-owned Bankruptcy law in Kentucky",
    "description": "Provides experienced bankruptcy legal services and estate planning guidance, with over 25 years of experience",
    "hours": "Mon-Fri 9AM-6PM",
    "services": [
      "Atheist-owned Bankruptcy law in Kentucky consultation",
      "Professional service",
      "Quality guarantee"
    ],
    "social_links": {}
  },
  {
    "name": "DelCotto Law Group PLLC",
    "address": "101 W. Vine Street, Suite 700, Lexington, KY 40507",
    "phone": "859-629-0500",
    "rating": 4.0,
    "reviews": 25,
    "website": "https://delcottolaw.com/",
    "category": "Atheist-owned Bankruptcy law in Kentucky",
    "description": "Offers bankruptcy and debt relief services, with attorneys experienced in business and consumer bankruptcy, handling cases statewide",
    "hours": "Mon-Fri 9AM-6PM",
    "services": [
      "Atheist-owned Bankruptcy law in Kentucky consultation",
      "Professional service",
      "Quality guarantee"
    ],
    "social_links": {}
  },
  {
    "name": "Kirkland, Cain & Horn",
    "address": "301 St. Elizabeth St, Frankfort, KY 40601",
    "phone": "502-223-1616",
    "rating": 4.0,
    "reviews": 25,
    "website": "https://www.kchlaw.com/",
    "category": "Atheist-owned Bankruptcy law in Kentucky",
    "description": "A law firm that includes bankruptcy as one of its practice areas, with Zachary Adam Horn listed as an attorney",
    "hours": "Mon-Fri 9AM-6PM",
    "services": [
      "Atheist-owned Bankruptcy law in Kentucky consultation",
      "Professional service",
      "Quality guarantee"
    ],
    "social_links": {}
  },
  {
    "name": "Musselwhite, Meinhart & Staples, PSC",
    "address": "1000 N. Mulberry St., Ste. 100, Elizabethtown, KY 42701 (Paul Musselwhite is listed as an attorney in Radcliff, KY)",
    "phone": "270-765-7000",
    "rating": 4.0,
    "reviews": 25,
    "website": "https://www.mmslaw.com/",
    "category": "Atheist-owned Bankruptcy law in Kentucky",
    "description": "A law firm that practices bankruptcy law, with Paul Musselwhite listed as an attorney",
    "hours": "Mon-Fri 9AM-6PM",
    "services": [
      "Atheist-owned Bankruptcy law in Kentucky consultation",
      "Professional service",
      "Quality guarantee"
    ],
    "social_links": {}
  }
]