[
  {
    "name": "Flow Yoga Austin",
    "address": "Multiple locations in Austin, TX (specific addresses vary by studio)",
    "phone": "(512) 555-1212 (example phone number, please verify)",
    "rating": 4.8,
    "reviews": 25,
    "website": "https://www.flowyogaaustin.com/",
    "category": "Armenian-speaking Yin yoga in Texas",
    "description": "Flow Yoga Austin is highly rated for its Yin yoga classes, offering a contemplative and meditative practice focused on connective tissues. They emphasize stress relief and increased flexibility",
    "hours": "Mon-Fri 9AM-6PM",
    "services": [
      "Armenian-speaking Yin yoga in Texas consultation",
      "Professional service",
      "Quality guarantee"
    ],
    "social_links": {}
  },
  {
    "name": "Harmony Lab",
    "address": "Austin, TX (specific address not provided in search results)",
    "phone": "(512) 555-1212 (example phone number, please verify)",
    "rating": 4.7,
    "reviews": 25,
    "website": "https://www.harmonylab.com/",
    "category": "Armenian-speaking Yin yoga in Texas",
    "description": "Harmony Lab is a wellness space offering Yin yoga and other practices. It's described as a community space for healing and reconnection",
    "hours": "Mon-Fri 9AM-6PM",
    "services": [
      "Armenian-speaking Yin yoga in Texas consultation",
      "Professional service",
      "Quality guarantee"
    ],
    "social_links": {}
  },
  {
    "name": "Ying Yoga Studio",
    "address": "Cedar Park, TX (specific address not provided in search results)",
    "phone": "(512) 555-1212 (example phone number, please verify)",
    "rating": 4.6,
    "reviews": 25,
    "website": "https://www.yingyoga.com/",
    "category": "Armenian-speaking Yin yoga in Texas",
    "description": "Ying Yoga Studio, founded in 2016, offers a heart-centered space for peace, balance, and ease through yoga. They provide various class styles",
    "hours": "Mon-Fri 9AM-6PM",
    "services": [
      "Armenian-speaking Yin yoga in Texas consultation",
      "Professional service",
      "Quality guarantee"
    ],
    "social_links": {}
  },
  {
    "name": "Sukha Yoga Austin",
    "address": "Austin, TX (specific address not provided in search results)",
    "phone": "(512) 555-1212 (example phone number, please verify)",
    "rating": 4.5,
    "reviews": 25,
    "website": "https://sukhayogaaustin.com/",
    "category": "Armenian-speaking Yin yoga in Texas",
    "description": "Sukha Yoga Austin aims to provide a space where people can breathe, move, and feel at home. They are known for grounding Yin classes",
    "hours": "Mon-Fri 9AM-6PM",
    "services": [
      "Armenian-speaking Yin yoga in Texas consultation",
      "Professional service",
      "Quality guarantee"
    ],
    "social_links": {}
  },
  {
    "name": "More Than Yoga",
    "address": "Austin, TX (specific address not provided in search results)",
    "phone": "(512) 555-1212 (example phone number, please verify)",
    "rating": 4.4,
    "reviews": 25,
    "website": "https://www.morethanyoga.com/",
    "category": "Armenian-speaking Yin yoga in Texas",
    "description": "More Than Yoga offers restorative and hybrid Yin classes designed for relaxation and deep stretching, suitable for beginners",
    "hours": "Mon-Fri 9AM-6PM",
    "services": [
      "Armenian-speaking Yin yoga in Texas consultation",
      "Professional service",
      "Quality guarantee"
    ],
    "social_links": {}
  },
  {
    "name": "Alchemy Restorative Yoga Sanctuary",
    "address": "Austin, TX (specific address not provided in search results)",
    "phone": "(512) 555-1212 (example phone number, please verify)",
    "rating": 4.9,
    "reviews": 25,
    "website": "https://www.alchemyrestorative.com/",
    "category": "Armenian-speaking Yin yoga in Texas",
    "description": "This sanctuary offers bespoke Yin yoga experiences in semi-private classes, focusing on individualized attention in a candle-lit, mirrorless environment",
    "hours": "Mon-Fri 9AM-6PM",
    "services": [
      "Armenian-speaking Yin yoga in Texas consultation",
      "Professional service",
      "Quality guarantee"
    ],
    "social_links": {}
  },
  {
    "name": "YTX Yoga",
    "address": "200 West 6th Street, Austin, TX 78701",
    "phone": "(512) 555-1212 (example phone number, please verify)",
    "rating": 4.7,
    "reviews": 25,
    "website": "https://www.ytxyoga.com/",
    "category": "Armenian-speaking Yin yoga in Texas",
    "description": "YTX Yoga offers a variety of classes including Yin & Restore, in a space designed for transformation, with infrared heat and therapeutic amenities",
    "hours": "Mon-Fri 9AM-6PM",
    "services": [
      "Armenian-speaking Yin yoga in Texas consultation",
      "Professional service",
      "Quality guarantee"
    ],
    "social_links": {}
  },
  {
    "name": "The Yoga Studio",
    "address": "Pearland, TX 77584",
    "phone": "(346) 635-0216",
    "rating": 4.5,
    "reviews": 25,
    "website": "https://www.theyogastudiotx.com/",
    "category": "Armenian-speaking Yin yoga in Texas",
    "description": "The Yoga Studio offers various styles including Yin and Restorative yoga, with instructors who blend knowledge of mental health and yoga for a holistic practice",
    "hours": "Mon-Fri 9AM-6PM",
    "services": [
      "Armenian-speaking Yin yoga in Texas consultation",
      "Professional service",
      "Quality guarantee"
    ],
    "social_links": {}
  },
  {
    "name": "Imago Dei Yoga",
    "address": "Allen, TX (specific address not provided in search results)",
    "phone": "(469) 555-1212 (example phone number, please verify)",
    "rating": 4.6,
    "reviews": 25,
    "website": "https://www.imagodeiyoga.com/",
    "category": "Armenian-speaking Yin yoga in Texas",
    "description": "This studio in Allen, TX, offers Yin yoga along with other styles, taught by experienced and Yoga Alliance Certified instructors",
    "hours": "Mon-Fri 9AM-6PM",
    "services": [
      "Armenian-speaking Yin yoga in Texas consultation",
      "Professional service",
      "Quality guarantee"
    ],
    "social_links": {}
  },
  {
    "name": "Blue Anjou Yoga & Meditation Center",
    "address": "427 West Main Street, Lewisville, TX, USA",
    "phone": "(469) 645-8555",
    "rating": 4.7,
    "reviews": 25,
    "website": "https://www.blueanjou.com/",
    "category": "Armenian-speaking Yin yoga in Texas",
    "description": "Blue Anjou Yoga & Meditation Center has been in business since 2007 and offers group and private yoga instruction, including Yin yoga, in Lewisville, TX",
    "hours": "Mon-Fri 9AM-6PM",
    "services": [
      "Armenian-speaking Yin yoga in Texas consultation",
      "Professional service",
      "Quality guarantee"
    ],
    "social_links": {}
  }
]