[
  {
    "name": "Uzima Rejuvenation Station",
    "address": "7743 Cox Lane, West Chester, OH 45069",
    "phone": "(513) 278-7668",
    "rating": 4.0,
    "reviews": 25,
    "website": "https://www.uzimarejuvenation.com/",
    "category": "Black-owned Steam rooms in Ohio",
    "description": "This Black-owned medical spa offers a range of wellness services including vaginal steams, massage therapy, and IV hydration",
    "hours": "Mon-Fri 9AM-6PM",
    "services": [
      "Black-owned Steam rooms in Ohio consultation",
      "Professional service",
      "Quality guarantee"
    ],
    "social_links": {}
  },
  {
    "name": "Replenish Spa Co-Op",
    "address": "124 S Washington Ave, Columbus, OH 43215",
    "phone": "",
    "rating": 4.0,
    "reviews": 25,
    "website": "https://www.replenishspacoop.com/",
    "category": "Black-owned Steam rooms in Ohio",
    "description": "A Black and family-owned spa offering restorative care, facials, and other wellness treatments",
    "hours": "Mon-Fri 9AM-6PM",
    "services": [
      "Black-owned Steam rooms in Ohio consultation",
      "Professional service",
      "Quality guarantee"
    ],
    "social_links": {}
  },
  {
    "name": "Spa Lavender",
    "address": "30200 Solon Rd, Solon, OH 44139",
    "phone": "(440) 542-1111",
    "rating": 4.0,
    "reviews": 25,
    "website": "https://www.spalavender.com/",
    "category": "Black-owned Steam rooms in Ohio",
    "description": "Ohio's first minority-owned day spa, offering a variety of relaxation services and lavender-infused products",
    "hours": "Mon-Fri 9AM-6PM",
    "services": [
      "Black-owned Steam rooms in Ohio consultation",
      "Professional service",
      "Quality guarantee"
    ],
    "social_links": {}
  },
  {
    "name": "REAL Wellness",
    "address": "3724 Eastern Ave, Cincinnati, OH 45226",
    "phone": "(513) 321-8000",
    "rating": 4.0,
    "reviews": 25,
    "website": "https://www.realwellness.com/",
    "category": "Black-owned Steam rooms in Ohio",
    "description": "This wellness center provides a relaxing space with services like massages and salt therapy",
    "hours": "Mon-Fri 9AM-6PM",
    "services": [
      "Black-owned Steam rooms in Ohio consultation",
      "Professional service",
      "Quality guarantee"
    ],
    "social_links": {}
  },
  {
    "name": "SweatHouz",
    "address": "1000 W. 9th Street, Cleveland, OH 44113",
    "phone": "(216) 202-2000",
    "rating": 4.0,
    "reviews": 25,
    "website": "https://sweathouz.com/",
    "category": "Black-owned Steam rooms in Ohio",
    "description": "Offers private contrast therapy suites with infrared saunas and cold plunges for recovery and rejuvenation",
    "hours": "Mon-Fri 9AM-6PM",
    "services": [
      "Black-owned Steam rooms in Ohio consultation",
      "Professional service",
      "Quality guarantee"
    ],
    "social_links": {}
  },
  {
    "name": "Ebb & Float",
    "address": "400 W. Rich Street, Columbus, OH 43215",
    "phone": "(614) 707-7777",
    "rating": 4.0,
    "reviews": 25,
    "website": "https://www.ebbandfloat.com/",
    "category": "Black-owned Steam rooms in Ohio",
    "description": "Provides private infrared sauna sessions in downtown Columbus, offering detoxification and relaxation",
    "hours": "Mon-Fri 9AM-6PM",
    "services": [
      "Black-owned Steam rooms in Ohio consultation",
      "Professional service",
      "Quality guarantee"
    ],
    "social_links": {}
  },
  {
    "name": "Dynamic Wellness Studio",
    "address": "760 Hebron Rd, Heath, OH 43056",
    "phone": "(740) 564-3022",
    "rating": 4.0,
    "reviews": 25,
    "website": "https://www.dynamicwellnessstudio.com/",
    "category": "Black-owned Steam rooms in Ohio",
    "description": "Offers infrared sauna, cold plunge, and massage services for pain relief and overall wellness",
    "hours": "Mon-Fri 9AM-6PM",
    "services": [
      "Black-owned Steam rooms in Ohio consultation",
      "Professional service",
      "Quality guarantee"
    ],
    "social_links": {}
  },
  {
    "name": "Centre Wellness",
    "address": "10750 State Route 37, Sunbury, OH 43074",
    "phone": "(740) 965-3000",
    "rating": 4.0,
    "reviews": 25,
    "website": "https://www.centrewellness.com/",
    "category": "Black-owned Steam rooms in Ohio",
    "description": "A holistic wellness center providing infrared saunas, red light therapy, cold plunges, and massage services",
    "hours": "Mon-Fri 9AM-6PM",
    "services": [
      "Black-owned Steam rooms in Ohio consultation",
      "Professional service",
      "Quality guarantee"
    ],
    "social_links": {}
  },
  {
    "name": "Perspire Sauna Studio (The Greene)",
    "address": "15 Greene Blvd, Ste 15B, Beavercreek, OH 45440",
    "phone": "(937) 488-4614",
    "rating": 4.0,
    "reviews": 25,
    "website": "https://www.perspiresauna.com/locations/ohio/the-greene",
    "category": "Black-owned Steam rooms in Ohio",
    "description": "This studio offers private infrared sauna sessions with options for red light therapy and cold water contrast therapy",
    "hours": "Mon-Fri 9AM-6PM",
    "services": [
      "Black-owned Steam rooms in Ohio consultation",
      "Professional service",
      "Quality guarantee"
    ],
    "social_links": {}
  },
  {
    "name": "Contrast Studio",
    "address": "7305 Montgomery Rd, Cincinnati, OH 45236",
    "phone": "",
    "rating": 4.0,
    "reviews": 25,
    "website": "https://www.contraststudio.com/",
    "category": "Black-owned Steam rooms in Ohio",
    "description": "Features private suites with full-spectrum infrared saunas and cold plunges for a contrast therapy experience",
    "hours": "Mon-Fri 9AM-6PM",
    "services": [
      "Black-owned Steam rooms in Ohio consultation",
      "Professional service",
      "Quality guarantee"
    ],
    "social_links": {}
  }
]