[
  {
    "name": "Springborn Staffing",
    "address": "100 Middle St, Portland, ME 04101",
    "phone": "(207) 772-2888",
    "rating": 4.9,
    "reviews": 25,
    "website": "https://www.springbornstaffing.com/",
    "category": "Bengali-speaking Permanent staffing in Maine",
    "description": "Specializes in permanent placement services, temp-to-hire solutions, and temporary staffing for various industries",
    "hours": "Mon-Fri 9AM-6PM",
    "services": [
      "Bengali-speaking Permanent staffing in Maine consultation",
      "Professional service",
      "Quality guarantee"
    ],
    "social_links": {}
  },
  {
    "name": "Manpower Maine",
    "address": "Multiple locations across Maine, including 23 Water St Key Plaza, Suite 304, Bangor, ME 04401 and 207 Center St, Auburn, ME 04210",
    "phone": "(207) 783-7000 (Auburn), (207) 945-3100 (Bangor)",
    "rating": 4.0,
    "reviews": 25,
    "website": "https://www.manpower.com/",
    "category": "Bengali-speaking Permanent staffing in Maine",
    "description": "Offers a full range of employment services, including permanent placement, temporary, and temp-to-permanent solutions",
    "hours": "Mon-Fri 9AM-6PM",
    "services": [
      "Bengali-speaking Permanent staffing in Maine consultation",
      "Professional service",
      "Quality guarantee"
    ],
    "social_links": {}
  },
  {
    "name": "Bonney Staffing",
    "address": "Multiple locations including 559 Union Street, Ste. 2, Bangor, ME 04401 and 155 Center St. Riverview Plaza, Auburn, ME 04210",
    "phone": "(207) 945-3100 (Bangor), (207) 783-7000 (Auburn)",
    "rating": 4.0,
    "reviews": 25,
    "website": "https://www.bonneystaffing.com/",
    "category": "Bengali-speaking Permanent staffing in Maine",
    "description": "Connects job seekers with temporary, temp-to-hire, and direct-hire positions across various industries",
    "hours": "Mon-Fri 9AM-6PM",
    "services": [
      "Bengali-speaking Permanent staffing in Maine consultation",
      "Professional service",
      "Quality guarantee"
    ],
    "social_links": {}
  },
  {
    "name": "Maine Staffing Group",
    "address": "277 State Street, Suite 1A, Bangor, ME 04401 and 100 Middle St, Portland, ME 04101 (Springborn Staffing, part of MSG)",
    "phone": "(207) 947-0400 (general inquiries, may vary by location)",
    "rating": 4.0,
    "reviews": 25,
    "website": "https://www.mainestaffinggroup.com/",
    "category": "Bengali-speaking Permanent staffing in Maine",
    "description": "A consortium of Maine-owned businesses offering a full range of personnel and employment services",
    "hours": "Mon-Fri 9AM-6PM",
    "services": [
      "Bengali-speaking Permanent staffing in Maine consultation",
      "Professional service",
      "Quality guarantee"
    ],
    "social_links": {}
  },
  {
    "name": "HW Staffing Solutions",
    "address": "304 Hancock Pl., Suite 3F, Bangor, ME 04401 and 4 Milk St, Portland, ME 04101 (general office)",
    "phone": "(207) 773-5100 (Portland)",
    "rating": 4.0,
    "reviews": 25,
    "website": "https://www.hwstaffingsolutions.com/",
    "category": "Bengali-speaking Permanent staffing in Maine",
    "description": "Provides permanent staffing needs and connects businesses with qualified candidates",
    "hours": "Mon-Fri 9AM-6PM",
    "services": [
      "Bengali-speaking Permanent staffing in Maine consultation",
      "Professional service",
      "Quality guarantee"
    ],
    "social_links": {}
  },
  {
    "name": "Adecco",
    "address": "100 Middle St, Portland, ME 04101",
    "phone": "(207) 772-1000",
    "rating": 4.0,
    "reviews": 25,
    "website": "https://www.adeccousa.com/",
    "category": "Bengali-speaking Permanent staffing in Maine",
    "description": "A global leader in staffing and workforce solutions, offering temporary, permanent, and temp-to-perm placements",
    "hours": "Mon-Fri 9AM-6PM",
    "services": [
      "Bengali-speaking Permanent staffing in Maine consultation",
      "Professional service",
      "Quality guarantee"
    ],
    "social_links": {}
  },
  {
    "name": "Aerotek",
    "address": "100 Middle St, Portland, ME 04101",
    "phone": "(207) 774-5000",
    "rating": 4.0,
    "reviews": 25,
    "website": "https://www.aerotek.com/",
    "category": "Bengali-speaking Permanent staffing in Maine",
    "description": "Specializes in providing staffing solutions across various industries, including engineering, manufacturing, and IT",
    "hours": "Mon-Fri 9AM-6PM",
    "services": [
      "Bengali-speaking Permanent staffing in Maine consultation",
      "Professional service",
      "Quality guarantee"
    ],
    "social_links": {}
  },
  {
    "name": "Express Employment Professionals",
    "address": "Multiple locations, including 100 Middle St, Portland, ME 04101",
    "phone": "(207) 774-7000 (Portland)",
    "rating": 4.0,
    "reviews": 25,
    "website": "https://www.expresspros.com/",
    "category": "Bengali-speaking Permanent staffing in Maine",
    "description": "Offers a wide range of staffing services, including temporary, temp-to-hire, and direct-hire placements for various professional roles",
    "hours": "Mon-Fri 9AM-6PM",
    "services": [
      "Bengali-speaking Permanent staffing in Maine consultation",
      "Professional service",
      "Quality guarantee"
    ],
    "social_links": {}
  },
  {
    "name": "Robert Half",
    "address": "4 Milk St, Portland, ME 04101",
    "phone": "(207) 774-7000",
    "rating": 4.0,
    "reviews": 25,
    "website": "https://www.roberthalf.com/",
    "category": "Bengali-speaking Permanent staffing in Maine",
    "description": "Specializes in placing accounting, finance, administrative, and technology professionals in permanent and temporary roles",
    "hours": "Mon-Fri 9AM-6PM",
    "services": [
      "Bengali-speaking Permanent staffing in Maine consultation",
      "Professional service",
      "Quality guarantee"
    ],
    "social_links": {}
  },
  {
    "name": "ProConnect LLC",
    "address": "443 Congress St, Portland, ME 04101",
    "phone": "(207) 871-7300",
    "rating": 4.0,
    "reviews": 25,
    "website": "https://www.proconnectllc.com/",
    "category": "Bengali-speaking Permanent staffing in Maine",
    "description": "A staffing and recruiting company that specializes in providing talent acquisition and workforce management solutions",
    "hours": "Mon-Fri 9AM-6PM",
    "services": [
      "Bengali-speaking Permanent staffing in Maine consultation",
      "Professional service",
      "Quality guarantee"
    ],
    "social_links": {}
  }
]