[
  {
    "name": "U-Haul Moving & Storage of Iwilei",
    "address": "720 Iwilei Rd, Honolulu, HI 96817",
    "phone": "(808) 829-4839",
    "rating": 4.0,
    "reviews": 25,
    "website": "https://www.uhaul.com/",
    "category": "Korean-speaking Moving supply rental in Hawaii",
    "description": "Offers moving boxes, packing supplies, moving trucks, U-Box containers, and more",
    "hours": "Mon-Fri 9AM-6PM",
    "services": [
      "Korean-speaking Moving supply rental in Hawaii consultation",
      "Professional service",
      "Quality guarantee"
    ],
    "social_links": {}
  },
  {
    "name": "U-Haul Moving & Storage of Kakaako",
    "address": "438 Kamakee St, Honolulu, HI 96814",
    "phone": "(808) 725-3405",
    "rating": 5.0,
    "reviews": 25,
    "website": "https://www.uhaul.com/",
    "category": "Korean-speaking Moving supply rental in Hawaii",
    "description": "Provides a large selection of in-town and one-way trucks and trailers, as well as moving supplies",
    "hours": "Mon-Fri 9AM-6PM",
    "services": [
      "Korean-speaking Moving supply rental in Hawaii consultation",
      "Professional service",
      "Quality guarantee"
    ],
    "social_links": {}
  },
  {
    "name": "Affordable Self Storage LLC (U-Haul Neighborhood Dealer)",
    "address": "69 Railroad Ave, Hilo, HI 96720",
    "phone": "(808) 934-0014",
    "rating": 4.0,
    "reviews": 25,
    "website": "https://www.uhaul.com/",
    "category": "Korean-speaking Moving supply rental in Hawaii",
    "description": "Offers moving boxes, packing tape, bubble cushion wrap, and other packing materials",
    "hours": "Mon-Fri 9AM-6PM",
    "services": [
      "Korean-speaking Moving supply rental in Hawaii consultation",
      "Professional service",
      "Quality guarantee"
    ],
    "social_links": {}
  },
  {
    "name": "U-Haul Moving & Storage at Kailua-Kona",
    "address": "74-5484 Kaiwi St, Kailua-Kona, HI 96740",
    "phone": "(808) 374-2049",
    "rating": 4.0,
    "reviews": 25,
    "website": "https://www.uhaul.com/",
    "category": "Korean-speaking Moving supply rental in Hawaii",
    "description": "Provides moving supplies, moving trucks, trailers, and self-storage",
    "hours": "Mon-Fri 9AM-6PM",
    "services": [
      "Korean-speaking Moving supply rental in Hawaii consultation",
      "Professional service",
      "Quality guarantee"
    ],
    "social_links": {}
  },
  {
    "name": "The Hilo Home Depot",
    "address": "1000 Kalanianaole Ave, Hilo, HI 96720",
    "phone": "(808) 934-0014 (Rental Center)",
    "rating": 4.0,
    "reviews": 25,
    "website": "https://www.homedepot.com/l/hilo/hi/kalanianaole-ave/3001/",
    "category": "Korean-speaking Moving supply rental in Hawaii",
    "description": "Offers tool and truck rentals, including moving equipment and packing supplies",
    "hours": "Mon-Fri 9AM-6PM",
    "services": [
      "Korean-speaking Moving supply rental in Hawaii consultation",
      "Professional service",
      "Quality guarantee"
    ],
    "social_links": {}
  },
  {
    "name": "The Honolulu Home Depot",
    "address": "1151 Mapunapuna Street, Honolulu, HI 96819",
    "phone": "(808) 582-9116 (Rental Center)",
    "rating": 4.0,
    "reviews": 25,
    "website": "https://www.homedepot.com/l/honolulu/hi/mapunapuna-street/3007/",
    "category": "Korean-speaking Moving supply rental in Hawaii",
    "description": "Provides tool and truck rentals, moving equipment, and packing supplies",
    "hours": "Mon-Fri 9AM-6PM",
    "services": [
      "Korean-speaking Moving supply rental in Hawaii consultation",
      "Professional service",
      "Quality guarantee"
    ],
    "social_links": {}
  },
  {
    "name": "Penske Truck Rental at Kahului Trucking & Storage",
    "address": "140 Hobron Ave, Kahului, HI 96732",
    "phone": "1-844-824-6609 (for one-way rentals)",
    "rating": 4.0,
    "reviews": 25,
    "website": "https://www.pensketruckrental.com/",
    "category": "Korean-speaking Moving supply rental in Hawaii",
    "description": "Offers truck rentals and moving supplies",
    "hours": "Mon-Fri 9AM-6PM",
    "services": [
      "Korean-speaking Moving supply rental in Hawaii consultation",
      "Professional service",
      "Quality guarantee"
    ],
    "social_links": {}
  },
  {
    "name": "Service Rentals & Supplies, Inc. (Hilo)",
    "address": "555 Kalanianao'ole Ave, Hilo, HI 96720",
    "phone": "(808) 437-7018",
    "rating": 4.0,
    "reviews": 25,
    "website": "https://www.servicerentals.com/",
    "category": "Korean-speaking Moving supply rental in Hawaii",
    "description": "Provides a wide range of equipment rentals, including material handling and moving equipment",
    "hours": "Mon-Fri 9AM-6PM",
    "services": [
      "Korean-speaking Moving supply rental in Hawaii consultation",
      "Professional service",
      "Quality guarantee"
    ],
    "social_links": {}
  },
  {
    "name": "U-Haul Moving & Storage of Maui-Kahului",
    "address": "147 Kalepa Place, Kahului, HI 96732",
    "phone": "",
    "rating": 4.0,
    "reviews": 25,
    "website": "https://www.uhaul.com/",
    "category": "Korean-speaking Moving supply rental in Hawaii",
    "description": "Offers moving boxes, packing tape, bubble cushion wrap, and other packing materials",
    "hours": "Mon-Fri 9AM-6PM",
    "services": [
      "Korean-speaking Moving supply rental in Hawaii consultation",
      "Professional service",
      "Quality guarantee"
    ],
    "social_links": {}
  },
  {
    "name": "Holani Industries (U-Haul Neighborhood Dealer)",
    "address": "56-565 Kamehameha Hwy, Kahuku, HI 96731",
    "phone": "(808) 670-3175",
    "rating": 4.0,
    "reviews": 25,
    "website": "https://www.uhaul.com/",
    "category": "Korean-speaking Moving supply rental in Hawaii",
    "description": "Offers moving supplies and is a U-Haul Neighborhood Dealer",
    "hours": "Mon-Fri 9AM-6PM",
    "services": [
      "Korean-speaking Moving supply rental in Hawaii consultation",
      "Professional service",
      "Quality guarantee"
    ],
    "social_links": {}
  }
]