[
  {
    "name": "Native American Logistics",
    "address": "Not specified in search results",
    "phone": "+1 877 781 3006 (US)",
    "rating": 4.0,
    "reviews": 25,
    "website": "https://www.google.com/maps/search/Native+American+Logistics+in+Kansas",
    "category": "American-Indian-owned Logistics consulting in Kansas",
    "description": "Offers global 3PL services, including premium transport and cross-border solutions, with a focus on streamlining supply chains",
    "hours": "Mon-Fri 9AM-6PM",
    "services": [
      "American-Indian-owned Logistics consulting in Kansas consultation",
      "Professional service",
      "Quality guarantee"
    ],
    "social_links": {}
  },
  {
    "name": "Native American Enterprises Llc",
    "address": "Not specified in search results",
    "phone": "",
    "rating": 4.0,
    "reviews": 25,
    "website": "https://www.google.com/maps/search/Native+American+Enterprises+Llc+in+Kansas",
    "category": "American-Indian-owned Logistics consulting in Kansas",
    "description": "A trucking company operating in Kansas that transports meat and other goods",
    "hours": "Mon-Fri 9AM-6PM",
    "services": [
      "American-Indian-owned Logistics consulting in Kansas consultation",
      "Professional service",
      "Quality guarantee"
    ],
    "social_links": {}
  },
  {
    "name": "American Indian Council",
    "address": "310 Armour Rd., Suite 205, North Kansas City, MO 64116",
    "phone": "(816) 471-4898",
    "rating": 4.0,
    "reviews": 25,
    "website": "https://www.google.com/maps/search/American+Indian+Council+in+Kansas",
    "category": "American-Indian-owned Logistics consulting in Kansas",
    "description": "An organization that may be able to provide resources or connections to American Indian businesses",
    "hours": "Mon-Fri 9AM-6PM",
    "services": [
      "American-Indian-owned Logistics consulting in Kansas consultation",
      "Professional service",
      "Quality guarantee"
    ],
    "social_links": {}
  },
  {
    "name": "American Indian Enterprise & Business Council",
    "address": "PO Box 1312, Blue Springs, MO 64013-1312",
    "phone": "(816) 392-7611",
    "rating": 4.0,
    "reviews": 25,
    "website": "https://www.google.com/maps/search/American+Indian+Enterprise+&+Business+Council+in+Kansas",
    "category": "American-Indian-owned Logistics consulting in Kansas",
    "description": "An organization that may be able to provide resources or connections to American Indian businesses",
    "hours": "Mon-Fri 9AM-6PM",
    "services": [
      "American-Indian-owned Logistics consulting in Kansas consultation",
      "Professional service",
      "Quality guarantee"
    ],
    "social_links": {}
  }
]