[
  {
    "name": "Oakbrook Dermatology",
    "address": "201 E. 22nd Street, Suite 100, Lombard, IL 60148 (This is a nearby location, as Dr. Rania Agha is associated with Oakbrook Dermatology and has an office in Algonquin as well.)",
    "phone": "(630) 515-0110",
    "rating": 4.0,
    "reviews": 25,
    "website": "https://www.oakbrookdermatology.com/",
    "category": "Arabic-speaking Botox injections in Illinois",
    "description": "Dr. Rania Agha, a board-certified dermatologist and cosmetic surgeon, is fluent in Arabic, English, Spanish, and French. She offers various dermatological and cosmetic procedures",
    "hours": "Mon-Fri 9AM-6PM",
    "services": [
      "Arabic-speaking Botox injections in Illinois consultation",
      "Professional service",
      "Quality guarantee"
    ],
    "social_links": {}
  },
  {
    "name": "Arabella Boutique Med Spa",
    "address": "18W115 22nd St, Oak Brook Terrace, IL 60181",
    "phone": "(331) 277-7221",
    "rating": 4.0,
    "reviews": 25,
    "website": "https://www.arabellaboutique.com/",
    "category": "Arabic-speaking Botox injections in Illinois",
    "description": "This medical spa offers dermal fillers, Sculptra, IV therapy, and other aesthetic treatments. While not explicitly stating Arabic-speaking staff, they are a medical spa offering injectables",
    "hours": "Mon-Fri 9AM-6PM",
    "services": [
      "Arabic-speaking Botox injections in Illinois consultation",
      "Professional service",
      "Quality guarantee"
    ],
    "social_links": {}
  },
  {
    "name": "R.A.M. Plastic Surgery",
    "address": "1000 N. Michigan Ave, Suite 204, Chicago, IL 60611",
    "phone": "(312) 500-4200",
    "rating": 4.0,
    "reviews": 25,
    "website": "https://ramplasticsurgery.com/",
    "category": "Arabic-speaking Botox injections in Illinois",
    "description": "Dr. Ramsen Azizi specializes in various plastic surgery procedures. While Arabic language capability is not explicitly mentioned for all staff, the doctor's name suggests potential Arabic heritage",
    "hours": "Mon-Fri 9AM-6PM",
    "services": [
      "Arabic-speaking Botox injections in Illinois consultation",
      "Professional service",
      "Quality guarantee"
    ],
    "social_links": {}
  },
  {
    "name": "Enhanced Form (Dr. M. Vincent Makhlouf)",
    "address": "1000 N. Michigan Ave, Suite 1030, Chicago, IL 60611",
    "phone": "(312) 724-5700",
    "rating": 4.0,
    "reviews": 25,
    "website": "https://www.enhancedform.com/",
    "category": "Arabic-speaking Botox injections in Illinois",
    "description": "Dr. M. Vincent Makhlouf is a board-certified plastic surgeon specializing in body contouring and other cosmetic procedures. His name suggests potential Arabic heritage",
    "hours": "Mon-Fri 9AM-6PM",
    "services": [
      "Arabic-speaking Botox injections in Illinois consultation",
      "Professional service",
      "Quality guarantee"
    ],
    "social_links": {}
  },
  {
    "name": "CN Medical Aesthetics & Wellness",
    "address": "100 S Northwest Hwy, Suite 202, Park Ridge, IL 60068",
    "phone": "(847) 823-1700",
    "rating": 4.0,
    "reviews": 25,
    "website": "https://www.cnmedicalaesthetics.com/",
    "category": "Arabic-speaking Botox injections in Illinois",
    "description": "This medical spa offers wellness treatments, weight loss, injectables, and skin treatments",
    "hours": "Mon-Fri 9AM-6PM",
    "services": [
      "Arabic-speaking Botox injections in Illinois consultation",
      "Professional service",
      "Quality guarantee"
    ],
    "social_links": {}
  },
  {
    "name": "Bella Sana Med Spa",
    "address": "25 E. Washington St, Suite 1000, Chicago, IL 60602",
    "phone": "(847) 576-0505",
    "rating": 4.0,
    "reviews": 25,
    "website": "https://www.bellasanamedspa.com/",
    "category": "Arabic-speaking Botox injections in Illinois",
    "description": "Bella Sana Med Spa offers a range of cosmetic and anti-aging treatments, including injectable cosmetic treatments",
    "hours": "Mon-Fri 9AM-6PM",
    "services": [
      "Arabic-speaking Botox injections in Illinois consultation",
      "Professional service",
      "Quality guarantee"
    ],
    "social_links": {}
  },
  {
    "name": "Re-Medispa",
    "address": "300 N. Prospect Ave, Suite 101, Northbrook, IL 60062",
    "phone": "(847) 480-0100",
    "rating": 4.0,
    "reviews": 25,
    "website": "https://www.re-medispa.com/",
    "category": "Arabic-speaking Botox injections in Illinois",
    "description": "This medical spa offers customized skincare plans and treatments performed by licensed professionals. Renata Ciszek, APN-BC, has extensive training in Botox and dermal fillers",
    "hours": "Mon-Fri 9AM-6PM",
    "services": [
      "Arabic-speaking Botox injections in Illinois consultation",
      "Professional service",
      "Quality guarantee"
    ],
    "social_links": {}
  },
  {
    "name": "Cara Mia MedSpa",
    "address": "303 North Rand Rd, Lake Zurich, IL 60047",
    "phone": "(847) 726-0777",
    "rating": 4.0,
    "reviews": 25,
    "website": "https://www.caramiamedspa.com/",
    "category": "Arabic-speaking Botox injections in Illinois",
    "description": "Cara Mia MedSpa offers services including Botox and fillers, designed to refresh and rejuvenate the skin",
    "hours": "Mon-Fri 9AM-6PM",
    "services": [
      "Arabic-speaking Botox injections in Illinois consultation",
      "Professional service",
      "Quality guarantee"
    ],
    "social_links": {}
  },
  {
    "name": "Dr. Iliana Sweis (Private Practice)",
    "address": "700 N. Cross St, Suite 101, Northbrook, IL 60062",
    "phone": "(847) 509-0000",
    "rating": 4.0,
    "reviews": 25,
    "website": "https://www.drilianasweis.com/",
    "category": "Arabic-speaking Botox injections in Illinois",
    "description": "Dr. Iliana Sweis offers facial plastic surgery, cosmetic breast surgery, body contouring, and noninvasive aesthetic treatments including injectables",
    "hours": "Mon-Fri 9AM-6PM",
    "services": [
      "Arabic-speaking Botox injections in Illinois consultation",
      "Professional service",
      "Quality guarantee"
    ],
    "social_links": {}
  },
  {
    "name": "Orland Park Plastic Surgery",
    "address": "10430 W 143rd St, Orland Park, IL 60462",
    "phone": "(708) 532-4440",
    "rating": 4.0,
    "reviews": 25,
    "website": "https://www.orlandparkplasticsurgery.com/",
    "category": "Arabic-speaking Botox injections in Illinois",
    "description": "This practice offers surgical and non-surgical cosmetic procedures, including Botox and fillers, performed by a board-certified plastic surgeon. They also mention Spanish-speaking staff",
    "hours": "Mon-Fri 9AM-6PM",
    "services": [
      "Arabic-speaking Botox injections in Illinois consultation",
      "Professional service",
      "Quality guarantee"
    ],
    "social_links": {}
  }
]