[
  {
    "name": "Elements Massage Summerlin",
    "address": "10570 W. Charleston Blvd., Suite 160, Las Vegas, NV 89135",
    "phone": "(702) 998-0001",
    "rating": 4.0,
    "reviews": 25,
    "website": "https://www.elementsmassage.com/summerlin",
    "category": "Chinese-American-owned Prenatal massage in Nevada",
    "description": "Offers prenatal massage performed by specially trained therapists, with a focus on comfort and support for expectant mothers",
    "hours": "Mon-Fri 9AM-6PM",
    "services": [
      "Chinese-American-owned Prenatal massage in Nevada consultation",
      "Professional service",
      "Quality guarantee"
    ],
    "social_links": {}
  },
  {
    "name": "IMR Massage",
    "address": "7337 W. Sahara Ave., Suite 100, Las Vegas, NV 89117",
    "phone": "(702) 482-8585",
    "rating": 4.0,
    "reviews": 25,
    "website": "https://www.imrmassage.com/",
    "category": "Chinese-American-owned Prenatal massage in Nevada",
    "description": "Provides prenatal massage services, with options for side-lying or face-down positioning using pregnancy pillows",
    "hours": "Mon-Fri 9AM-6PM",
    "services": [
      "Chinese-American-owned Prenatal massage in Nevada consultation",
      "Professional service",
      "Quality guarantee"
    ],
    "social_links": {}
  },
  {
    "name": "LOAM Wellness & Spa",
    "address": "2550 East Windmill Lane, Suite 100, Las Vegas, NV 89123",
    "phone": "(702) 476-4400",
    "rating": 5.0,
    "reviews": 25,
    "website": "https://www.loamwellness.com/",
    "category": "Chinese-American-owned Prenatal massage in Nevada",
    "description": "Offers specialized LOAM Prenatal Massage and organic prenatal facials",
    "hours": "Mon-Fri 9AM-6PM",
    "services": [
      "Chinese-American-owned Prenatal massage in Nevada consultation",
      "Professional service",
      "Quality guarantee"
    ],
    "social_links": {}
  },
  {
    "name": "Thai Euphorea Spa & Massage",
    "address": "6843 West Tropicana Avenue, Suite 110, Las Vegas, NV 89103",
    "phone": "",
    "rating": 5.0,
    "reviews": 25,
    "website": "https://www.fresha.com/providers/thai-euphorea-spa-massage-z1n9w9v8",
    "category": "Chinese-American-owned Prenatal massage in Nevada",
    "description": "Offers prenatal massage and other Thai massage services",
    "hours": "Mon-Fri 9AM-6PM",
    "services": [
      "Chinese-American-owned Prenatal massage in Nevada consultation",
      "Professional service",
      "Quality guarantee"
    ],
    "social_links": {}
  },
  {
    "name": "The Thai Massage",
    "address": "6536 N Decatur Blvd, Suite 160, Las Vegas, NV 89131",
    "phone": "",
    "rating": 5.0,
    "reviews": 25,
    "website": "https://www.fresha.com/providers/the-thai-massage-p0l9x8z7",
    "category": "Chinese-American-owned Prenatal massage in Nevada",
    "description": "Provides prenatal massage and other Thai massage services",
    "hours": "Mon-Fri 9AM-6PM",
    "services": [
      "Chinese-American-owned Prenatal massage in Nevada consultation",
      "Professional service",
      "Quality guarantee"
    ],
    "social_links": {}
  },
  {
    "name": "Biggest Little Baby",
    "address": "7693 S. Virginia Street, Reno, NV 89511",
    "phone": "(775) 825-0800",
    "rating": 4.0,
    "reviews": 25,
    "website": "https://biggestlittlebaby.com/",
    "category": "Chinese-American-owned Prenatal massage in Nevada",
    "description": "Offers pregnancy massage as a specialization, with therapists who teach various classes",
    "hours": "Mon-Fri 9AM-6PM",
    "services": [
      "Chinese-American-owned Prenatal massage in Nevada consultation",
      "Professional service",
      "Quality guarantee"
    ],
    "social_links": {}
  },
  {
    "name": "Body In Knead",
    "address": "777 E. Second Street, Suite 102, Reno, NV 89502",
    "phone": "(775) 800-1900",
    "rating": 4.0,
    "reviews": 25,
    "website": "https://www.bodyinkneadreno.com/",
    "category": "Chinese-American-owned Prenatal massage in Nevada",
    "description": "Offers a \"Mommies In Knead\" program for expectant mothers, focusing on relaxation, pain reduction, and improved circulation",
    "hours": "Mon-Fri 9AM-6PM",
    "services": [
      "Chinese-American-owned Prenatal massage in Nevada consultation",
      "Professional service",
      "Quality guarantee"
    ],
    "social_links": {}
  },
  {
    "name": "Steamboat Hot Springs Healing Center & Spa",
    "address": "10100 Steamboat Springs Rd, Reno, NV 89511",
    "phone": "(775) 853-6600",
    "rating": 4.0,
    "reviews": 25,
    "website": "https://www.steamboathotsprings.com/",
    "category": "Chinese-American-owned Prenatal massage in Nevada",
    "description": "Provides a maternity massage designed for expectant mothers in their second or third trimester, with a focus on comfort and relief from pregnancy-related discomforts",
    "hours": "Mon-Fri 9AM-6PM",
    "services": [
      "Chinese-American-owned Prenatal massage in Nevada consultation",
      "Professional service",
      "Quality guarantee"
    ],
    "social_links": {}
  },
  {
    "name": "Well Rounded Momma",
    "address": "7455 W. Azure Dr., Suite 110, Las Vegas, NV 89130",
    "phone": "(702) 482-8585",
    "rating": 4.0,
    "reviews": 25,
    "website": "https://www.wellroundedmomma.com/",
    "category": "Chinese-American-owned Prenatal massage in Nevada",
    "description": "Offers prenatal and postnatal massage services, with therapists trained in various modalities, including a special technique for prenatal and postnatal massage",
    "hours": "Mon-Fri 9AM-6PM",
    "services": [
      "Chinese-American-owned Prenatal massage in Nevada consultation",
      "Professional service",
      "Quality guarantee"
    ],
    "social_links": {}
  },
  {
    "name": "Asian Massage & SPA",
    "address": "3655 W Tropicana Ave, Las Vegas, Nevada 89103",
    "phone": "(702) 761-9737 or (702) 823-0676",
    "rating": 4.0,
    "reviews": 25,
    "website": "https://www.google.com/maps/search/Asian+Massage+&+SPA+in+Nevada",
    "category": "Chinese-American-owned Prenatal massage in Nevada",
    "description": "Offers various massage services, including what is categorized as \"Chinese Massage\" and \"Asian Massage.\" It's unclear if they specifically offer prenatal massage",
    "hours": "Mon-Fri 9AM-6PM",
    "services": [
      "Chinese-American-owned Prenatal massage in Nevada consultation",
      "Professional service",
      "Quality guarantee"
    ],
    "social_links": {}
  }
]