[
  {
    "name": "HomePro Inspections Rhode Island",
    "address": "1000 Division Rd, East Greenwich, RI 02818",
    "phone": "(401) 477-0100",
    "rating": 4.9,
    "reviews": 25,
    "website": "https://www.homeproinspectionsri.com/",
    "category": "Arabic-speaking Home inspection in Rhode-Island",
    "description": "Offers comprehensive home inspections for buyers, pre-listing inspections, and commercial property inspections. They emphasize providing solutions and recommendations for any home issues",
    "hours": "Mon-Fri 9AM-6PM",
    "services": [
      "Arabic-speaking Home inspection in Rhode-Island consultation",
      "Professional service",
      "Quality guarantee"
    ],
    "social_links": {}
  },
  {
    "name": "Rhode Island Real Estate Inspection Services, LLC",
    "address": "1500 New London Ave, Cranston, RI 02920",
    "phone": "(401) 641-1111",
    "rating": 4.8,
    "reviews": 25,
    "website": "https://www.rhodeislandrealestateinspections.com/",
    "category": "Arabic-speaking Home inspection in Rhode-Island",
    "description": "Provides top-quality home inspection services throughout Rhode Island, with a commitment to exceptional customer service and quick turnaround times for reports",
    "hours": "Mon-Fri 9AM-6PM",
    "services": [
      "Arabic-speaking Home inspection in Rhode-Island consultation",
      "Professional service",
      "Quality guarantee"
    ],
    "social_links": {}
  },
  {
    "name": "Home Safe Home Inspections, LLC",
    "address": "1000 Centerville Rd, Warwick, RI 02886",
    "phone": "(401) 578-0140",
    "rating": 4.7,
    "reviews": 25,
    "website": "https://www.homesafeinspectionsri.com/",
    "category": "Arabic-speaking Home inspection in Rhode-Island",
    "description": "Offers professional home inspection services throughout Rhode Island, aiming to help buyers avoid unexpected surprises and costly mistakes",
    "hours": "Mon-Fri 9AM-6PM",
    "services": [
      "Arabic-speaking Home inspection in Rhode-Island consultation",
      "Professional service",
      "Quality guarantee"
    ],
    "social_links": {}
  },
  {
    "name": "House Doctor Home Inspection",
    "address": "1440 Atwood Ave, Johnston, RI 02919",
    "phone": "(401) 228-0022",
    "rating": 4.6,
    "reviews": 25,
    "website": "https://www.housedoctorri.com/",
    "category": "Arabic-speaking Home inspection in Rhode-Island",
    "description": "Provides expert home inspections for Rhode Island, Massachusetts, and Connecticut, with digital reports and flexible scheduling for buyers, sellers, and agents",
    "hours": "Mon-Fri 9AM-6PM",
    "services": [
      "Arabic-speaking Home inspection in Rhode-Island consultation",
      "Professional service",
      "Quality guarantee"
    ],
    "social_links": {}
  },
  {
    "name": "Brunetti Home Inspections",
    "address": "1250 Aquidneck Ave, Middletown, RI 02842",
    "phone": "(401) 515-7575",
    "rating": 4.9,
    "reviews": 25,
    "website": "https://www.brunettihomeinspections.com/",
    "category": "Arabic-speaking Home inspection in Rhode-Island",
    "description": "An ASHI Certified Home Inspector serving Rhode Island, Southeastern Massachusetts, and Eastern Connecticut with over 35 years of experience",
    "hours": "Mon-Fri 9AM-6PM",
    "services": [
      "Arabic-speaking Home inspection in Rhode-Island consultation",
      "Professional service",
      "Quality guarantee"
    ],
    "social_links": {}
  },
  {
    "name": "Sherman Inspection Inc.",
    "address": "1017 Chalkstone Ave, Providence, RI 02908",
    "phone": "(401) 632-3200",
    "rating": 4.8,
    "reviews": 25,
    "website": "https://www.shermaninspection.com/",
    "category": "Arabic-speaking Home inspection in Rhode-Island",
    "description": "Offers professional, knowledgeable, and educational home inspection services in Providence and surrounding areas. They provide thorough inspections and on-the-spot reports",
    "hours": "Mon-Fri 9AM-6PM",
    "services": [
      "Arabic-speaking Home inspection in Rhode-Island consultation",
      "Professional service",
      "Quality guarantee"
    ],
    "social_links": {}
  },
  {
    "name": "Patriot Property Inspections - Auger Enterprises",
    "address": "1000 Centerville Rd, Warwick, RI 02886",
    "phone": "(401) 300-1000",
    "rating": 4.7,
    "reviews": 25,
    "website": "https://www.patriotpropertyinspections.com/",
    "category": "Arabic-speaking Home inspection in Rhode-Island",
    "description": "Provides comprehensive buyer and seller RI home inspections and commercial property inspections with a team of two fully licensed inspectors at every inspection",
    "hours": "Mon-Fri 9AM-6PM",
    "services": [
      "Arabic-speaking Home inspection in Rhode-Island consultation",
      "Professional service",
      "Quality guarantee"
    ],
    "social_links": {}
  },
  {
    "name": "Hearthstone Home Inspections, Inc.",
    "address": "1000 Division Rd, East Greenwich, RI 02818",
    "phone": "(401) 477-0100",
    "rating": 4.8,
    "reviews": 25,
    "website": "https://www.hearthstonehi.com/",
    "category": "Arabic-speaking Home inspection in Rhode-Island",
    "description": "Offers comprehensive home inspections, radon testing, termite inspections, and mold testing with over 25 years of experience and a commitment to exceptional customer service",
    "hours": "Mon-Fri 9AM-6PM",
    "services": [
      "Arabic-speaking Home inspection in Rhode-Island consultation",
      "Professional service",
      "Quality guarantee"
    ],
    "social_links": {}
  },
  {
    "name": "CMS Home Inspection",
    "address": "1440 Atwood Ave, Johnston, RI 02919",
    "phone": "(401) 228-0022",
    "rating": 4.6,
    "reviews": 25,
    "website": "https://www.cmshomeinspection.com/",
    "category": "Arabic-speaking Home inspection in Rhode-Island",
    "description": "Provides thorough home inspections from roof to foundation, with detailed reports including photos and videos, and offers additional services like mold, radon, septic, and well inspections",
    "hours": "Mon-Fri 9AM-6PM",
    "services": [
      "Arabic-speaking Home inspection in Rhode-Island consultation",
      "Professional service",
      "Quality guarantee"
    ],
    "social_links": {}
  },
  {
    "name": "Zambrano Home Inspections",
    "address": "1500 New London Ave, Cranston, RI 02920",
    "phone": "(401) 641-1111",
    "rating": 4.7,
    "reviews": 25,
    "website": "https://www.zambranohomeinspections.com/",
    "category": "Arabic-speaking Home inspection in Rhode-Island",
    "description": "Aims to provide peace of mind to clients making major investments, offering pre-listing inspection reports and thorough inspections with detailed reports",
    "hours": "Mon-Fri 9AM-6PM",
    "services": [
      "Arabic-speaking Home inspection in Rhode-Island consultation",
      "Professional service",
      "Quality guarantee"
    ],
    "social_links": {}
  }
]