[
  {
    "name": "Atlanta Chinese Accounting & Tax Services LLC",
    "address": "10755 Medlock Bridge Rd, Johns Creek, GA 30097",
    "phone": "(770) 674-1111",
    "rating": 4.0,
    "reviews": 25,
    "website": "https://www.google.com/maps/search/Atlanta+Chinese+Accounting+&+Tax+Services+LLC+in+Georgia",
    "category": "Asian-owned Tax filing in Georgia",
    "description": "Provides tax preparation, planning, and accounting support for individuals and small businesses",
    "hours": "Mon-Fri 9AM-6PM",
    "services": [
      "Asian-owned Tax filing in Georgia consultation",
      "Professional service",
      "Quality guarantee"
    ],
    "social_links": {}
  },
  {
    "name": "LOC THAI CPA PC",
    "address": "5885 Peachtree Corners Business Ct NW, Suite 200, Peachtree Corners, GA 30092",
    "phone": "(404) 907-0700",
    "rating": 4.0,
    "reviews": 25,
    "website": "https://www.locthaicpa.com/",
    "category": "Asian-owned Tax filing in Georgia",
    "description": "Offers personalized tax preparation, planning, and accounting support, specializing in tax returns, bookkeeping, and payroll services",
    "hours": "Mon-Fri 9AM-6PM",
    "services": [
      "Asian-owned Tax filing in Georgia consultation",
      "Professional service",
      "Quality guarantee"
    ],
    "social_links": {}
  },
  {
    "name": "RP Accounting Solutions",
    "address": "11555 Medlock Bridge Rd, Alpharetta, GA 30004",
    "phone": "(678) 325-0000",
    "rating": 4.0,
    "reviews": 25,
    "website": "https://rpaccountingsolutions.com/",
    "category": "Asian-owned Tax filing in Georgia",
    "description": "Provides comprehensive financial services including tax filing, bookkeeping, payroll management, and business advisory, with a focus on simplifying complex tax processes",
    "hours": "Mon-Fri 9AM-6PM",
    "services": [
      "Asian-owned Tax filing in Georgia consultation",
      "Professional service",
      "Quality guarantee"
    ],
    "social_links": {}
  },
  {
    "name": "Sai Tax And Accounting Services",
    "address": "5330 Brookstone Dr, Cumming, GA 30040",
    "phone": "(770) 886-1111",
    "rating": 4.0,
    "reviews": 25,
    "website": "https://www.google.com/maps/search/Sai+Tax+And+Accounting+Services+in+Georgia",
    "category": "Asian-owned Tax filing in Georgia",
    "description": "Offers CPA accounting, tax return preparation, bookkeeping, and payroll services, including CFO services and financial statements",
    "hours": "Mon-Fri 9AM-6PM",
    "services": [
      "Asian-owned Tax filing in Georgia consultation",
      "Professional service",
      "Quality guarantee"
    ],
    "social_links": {}
  },
  {
    "name": "K&J Tax and Financial, LLC",
    "address": "5955 State Bridge Rd, Suite 201, Duluth, GA 30097",
    "phone": "(770) 476-5000",
    "rating": 4.0,
    "reviews": 25,
    "website": "https://kjtaxandfinancial.com/",
    "category": "Asian-owned Tax filing in Georgia",
    "description": "Provides tax preparation, audit representation, and teaching tax courses, serving a variety of business clients. The owner is fluent in English and Chinese",
    "hours": "Mon-Fri 9AM-6PM",
    "services": [
      "Asian-owned Tax filing in Georgia consultation",
      "Professional service",
      "Quality guarantee"
    ],
    "social_links": {}
  },
  {
    "name": "JAE BUM YOO, CPA",
    "address": "1815 Satellite Blvd, Suite 102, Duluth, GA 30097",
    "phone": "(770) 367-7032",
    "rating": 4.0,
    "reviews": 25,
    "website": "https://www.google.com/maps/search/JAE+BUM+YOO,+CPA+in+Georgia",
    "category": "Asian-owned Tax filing in Georgia",
    "description": "A Korean CPA offering tax and accounting services",
    "hours": "Mon-Fri 9AM-6PM",
    "services": [
      "Asian-owned Tax filing in Georgia consultation",
      "Professional service",
      "Quality guarantee"
    ],
    "social_links": {}
  },
  {
    "name": "JAE D. BAN & ASSOCIATES",
    "address": "3250 Peachtree Industrial Blvd, Suite 103, Duluth, GA 30096",
    "phone": "(770) 232-9760",
    "rating": 4.0,
    "reviews": 25,
    "website": "https://www.google.com/maps/search/JAE+D.+BAN+&+ASSOCIATES+in+Georgia",
    "category": "Asian-owned Tax filing in Georgia",
    "description": "A Korean accounting firm providing tax services",
    "hours": "Mon-Fri 9AM-6PM",
    "services": [
      "Asian-owned Tax filing in Georgia consultation",
      "Professional service",
      "Quality guarantee"
    ],
    "social_links": {}
  },
  {
    "name": "JI PYOUNG & ASSOCIATES, INC.",
    "address": "1291 Old Peachtree Rd, Suite 224, Suwanee, GA 30024",
    "phone": "(770) 817-1401",
    "rating": 4.0,
    "reviews": 25,
    "website": "https://www.google.com/maps/search/JI+PYOUNG+&+ASSOCIATES,+INC.+in+Georgia",
    "category": "Asian-owned Tax filing in Georgia",
    "description": "A Korean accounting firm offering tax services",
    "hours": "Mon-Fri 9AM-6PM",
    "services": [
      "Asian-owned Tax filing in Georgia consultation",
      "Professional service",
      "Quality guarantee"
    ],
    "social_links": {}
  },
  {
    "name": "JINHUN & ASSOCIATES, P.C.",
    "address": "5949 Buford Hwy, Suite 100, Norcross, GA 30071",
    "phone": "(678) 209-0671",
    "rating": 4.0,
    "reviews": 25,
    "website": "https://www.google.com/maps/search/JINHUN+&+ASSOCIATES,+P.C.+in+Georgia",
    "category": "Asian-owned Tax filing in Georgia",
    "description": "A Korean accounting firm providing tax services",
    "hours": "Mon-Fri 9AM-6PM",
    "services": [
      "Asian-owned Tax filing in Georgia consultation",
      "Professional service",
      "Quality guarantee"
    ],
    "social_links": {}
  },
  {
    "name": "JISE CPA INC.",
    "address": "3296 Summit Ridge Pkwy, Suite 420, Duluth, GA 30096",
    "phone": "(770) 623-4950",
    "rating": 4.0,
    "reviews": 25,
    "website": "https://www.google.com/maps/search/JISE+CPA+INC.+in+Georgia",
    "category": "Asian-owned Tax filing in Georgia",
    "description": "A Korean accounting firm offering tax services",
    "hours": "Mon-Fri 9AM-6PM",
    "services": [
      "Asian-owned Tax filing in Georgia consultation",
      "Professional service",
      "Quality guarantee"
    ],
    "social_links": {}
  }
]