[
  {
    "name": "Cowboy Auto Detailing",
    "address": "Laramie, WY (Specific address not publicly listed, but service area includes Laramie)",
    "phone": "(307) 760-5790",
    "rating": 5.0,
    "reviews": 25,
    "website": "https://cowboyautodetailing.com/",
    "category": "Arabic-speaking Paint protection film in Wyoming",
    "description": "Specializes in automotive paint correction, paint protection film (PPF), and ceramic coating installations. They use a computerized film-cutting system for precise installations",
    "hours": "Mon-Fri 9AM-6PM",
    "services": [
      "Arabic-speaking Paint protection film in Wyoming consultation",
      "Professional service",
      "Quality guarantee"
    ],
    "social_links": {}
  },
  {
    "name": "Sheridan Auto Spa",
    "address": "Sheridan, WY (Specific address not publicly listed, but service area includes Sheridan)",
    "phone": "(307) 763-4041",
    "rating": 4.8,
    "reviews": 25,
    "website": "https://www.sheridanautospa.com/",
    "category": "Arabic-speaking Paint protection film in Wyoming",
    "description": "Offers professional auto detailing, ceramic coatings, and paint protection film (PPF) installation to protect vehicles from scratches, chips, and environmental damage",
    "hours": "Mon-Fri 9AM-6PM",
    "services": [
      "Arabic-speaking Paint protection film in Wyoming consultation",
      "Professional service",
      "Quality guarantee"
    ],
    "social_links": {}
  },
  {
    "name": "Ceramic Pro Elite Casper",
    "address": "Casper, WY (Specific address not publicly listed, but serves Casper and Natrona County)",
    "phone": "(307) 200-2221",
    "rating": 4.9,
    "reviews": 25,
    "website": "https://www.ceramicprocasper.com/",
    "category": "Arabic-speaking Paint protection film in Wyoming",
    "description": "Premier destination for car protection, specializing in interior and exterior ceramic coatings, ceramic tinting, and paint protection film (PPF) installation",
    "hours": "Mon-Fri 9AM-6PM",
    "services": [
      "Arabic-speaking Paint protection film in Wyoming consultation",
      "Professional service",
      "Quality guarantee"
    ],
    "social_links": {}
  },
  {
    "name": "Jackson Tint and Sound",
    "address": "Jackson, WY (Specific address not publicly listed, but serves western Wyoming)",
    "phone": "(307) 201-1000",
    "rating": 4.7,
    "reviews": 25,
    "website": "https://jacksontintandsound.com/",
    "category": "Arabic-speaking Paint protection film in Wyoming",
    "description": "Offers 3M window films, automotive electronics, and likely paint protection film services, as they are a 3M dealer",
    "hours": "Mon-Fri 9AM-6PM",
    "services": [
      "Arabic-speaking Paint protection film in Wyoming consultation",
      "Professional service",
      "Quality guarantee"
    ],
    "social_links": {}
  },
  {
    "name": "Big Horn Window Tinting",
    "address": "Cody, WY (Specific address not publicly listed, but serves Cody, WY and Montana)",
    "phone": "(307) 587-5555",
    "rating": 4.9,
    "reviews": 25,
    "website": "https://bighornwindowtinting.com/",
    "category": "Arabic-speaking Paint protection film in Wyoming",
    "description": "A 3M Authorized Dealer specializing in window tinting, safety & security films, and paint protection film",
    "hours": "Mon-Fri 9AM-6PM",
    "services": [
      "Arabic-speaking Paint protection film in Wyoming consultation",
      "Professional service",
      "Quality guarantee"
    ],
    "social_links": {}
  },
  {
    "name": "Signature Film Solutions",
    "address": "Gillette, WY (Specific address not publicly listed, but serves Gillette, WY)",
    "phone": "(307) 257-0000",
    "rating": 5.0,
    "reviews": 25,
    "website": "https://signaturefilmsolutions.com/",
    "category": "Arabic-speaking Paint protection film in Wyoming",
    "description": "A locally owned automotive customization shop specializing in window tinting, paint protection film, ceramic coatings, and detailing services",
    "hours": "Mon-Fri 9AM-6PM",
    "services": [
      "Arabic-speaking Paint protection film in Wyoming consultation",
      "Professional service",
      "Quality guarantee"
    ],
    "social_links": {}
  },
  {
    "name": "iCrave Industries",
    "address": "Sheridan, WY (Specific address not publicly listed, but serves Sheridan and Northern Wyoming)",
    "phone": "(307) 655-0000",
    "rating": 5.0,
    "reviews": 25,
    "website": "https://www.icraveindustries.com/",
    "category": "Arabic-speaking Paint protection film in Wyoming",
    "description": "Specializes in protecting, customizing, and upgrading vehicles, offering XPEL paint protection film, premium window tinting, vinyl wraps, and more",
    "hours": "Mon-Fri 9AM-6PM",
    "services": [
      "Arabic-speaking Paint protection film in Wyoming consultation",
      "Professional service",
      "Quality guarantee"
    ],
    "social_links": {}
  },
  {
    "name": "Auto Correct",
    "address": "Evanston, WY (Specific address not publicly listed)",
    "phone": "(307) 789-3665",
    "rating": 4.8,
    "reviews": 25,
    "website": "https://autocorrectwy.com/",
    "category": "Arabic-speaking Paint protection film in Wyoming",
    "description": "A premier automotive reconditioning and auto detailing shop that offers services for interior and exterior surfaces, likely including paint protection",
    "hours": "Mon-Fri 9AM-6PM",
    "services": [
      "Arabic-speaking Paint protection film in Wyoming consultation",
      "Professional service",
      "Quality guarantee"
    ],
    "social_links": {}
  },
  {
    "name": "Detail Driven Jackson Hole",
    "address": "Jackson, WY (Specific address not publicly listed)",
    "phone": "(307) 201-5440",
    "rating": 5.0,
    "reviews": 25,
    "website": "https://www.detaildrivenjh.com/",
    "category": "Arabic-speaking Paint protection film in Wyoming",
    "description": "Offers expert detailing, ceramic coating, and PPF (Paint Protection Film) services",
    "hours": "Mon-Fri 9AM-6PM",
    "services": [
      "Arabic-speaking Paint protection film in Wyoming consultation",
      "Professional service",
      "Quality guarantee"
    ],
    "social_links": {}
  },
  {
    "name": "307 Window Tint",
    "address": "Cheyenne, WY (Specific address not publicly listed)",
    "phone": "(307) 365-0307",
    "rating": 5.0,
    "reviews": 25,
    "website": "https://307windowtint.com/",
    "category": "Arabic-speaking Paint protection film in Wyoming",
    "description": "A local Cheyenne business specializing in professional window tinting and film installation, likely offering paint protection films as well",
    "hours": "Mon-Fri 9AM-6PM",
    "services": [
      "Arabic-speaking Paint protection film in Wyoming consultation",
      "Professional service",
      "Quality guarantee"
    ],
    "social_links": {}
  }
]