[
  {
    "name": "New Mexico Black Lawyers Association (NMBLA)",
    "address": "P.O. Box 26431, Albuquerque, NM 87125",
    "phone": "(505) 243-6003",
    "rating": 4.0,
    "reviews": 25,
    "website": "https://newmexicoblacklawyersassociation.org/",
    "category": "African-American-owned Lawyers in New-Mexico",
    "description": "Founded in 1982, the NMBLA is an organization dedicated to supporting African American attorneys in New Mexico and addressing their specific needs. They aim to improve judicial selection, study legislative needs, and protect civil rights",
    "hours": "Mon-Fri 9AM-6PM",
    "services": [
      "African-American-owned Lawyers in New-Mexico consultation",
      "Professional service",
      "Quality guarantee"
    ],
    "social_links": {}
  },
  {
    "name": "Best and Associates",
    "address": "Information not readily available",
    "phone": "",
    "rating": 4.0,
    "reviews": 25,
    "website": "https://www.google.com/maps/search/Best+and+Associates+New+Mexico",
    "category": "African-American-owned Lawyers in New-Mexico",
    "description": "Hannah Best, one of the founding members of the NMBLA, heads this law firm",
    "hours": "Mon-Fri 9AM-6PM",
    "services": [
      "African-American-owned Lawyers in New-Mexico consultation",
      "Professional service",
      "Quality guarantee"
    ],
    "social_links": {}
  },
  {
    "name": "Davis Law New Mexico",
    "address": "1000 Lomas Blvd NW, Albuquerque, NM, USA",
    "phone": "",
    "rating": 4.0,
    "reviews": 25,
    "website": "https://www.davislawnm.com/",
    "category": "African-American-owned Lawyers in New-Mexico",
    "description": "This firm focuses on civil rights, personal injury, and wrongful death cases. It was founded by Philip Davis and later joined by his son, Nicholas",
    "hours": "Mon-Fri 9AM-6PM",
    "services": [
      "African-American-owned Lawyers in New-Mexico consultation",
      "Professional service",
      "Quality guarantee"
    ],
    "social_links": {}
  },
  {
    "name": "Law Offices of Darlene Gomez, LLC",
    "address": "Albuquerque, New Mexico",
    "phone": "505-842-0392",
    "rating": 4.0,
    "reviews": 25,
    "website": "https://www.darlenegomezlaw.com/",
    "category": "African-American-owned Lawyers in New-Mexico",
    "description": "This firm specializes in Tribal Law, Corporate Law, and Family Law. They are also involved in causes related to Missing and Murdered Indigenous Women (MMIW)",
    "hours": "Mon-Fri 9AM-6PM",
    "services": [
      "African-American-owned Lawyers in New-Mexico consultation",
      "Professional service",
      "Quality guarantee"
    ],
    "social_links": {}
  },
  {
    "name": "New Mexico Legal Group",
    "address": "Offices in Albuquerque and Las Cruces, New Mexico. Specific street addresses not provided",
    "phone": "(505) 843-7303",
    "rating": 4.0,
    "reviews": 25,
    "website": "https://www.newmexicolegalgroup.com/",
    "category": "African-American-owned Lawyers in New-Mexico",
    "description": "This firm serves clients statewide in divorce, family law, criminal defense, and estate planning",
    "hours": "Mon-Fri 9AM-6PM",
    "services": [
      "African-American-owned Lawyers in New-Mexico consultation",
      "Professional service",
      "Quality guarantee"
    ],
    "social_links": {}
  },
  {
    "name": "Jones Law Firm, LLC",
    "address": "Albuquerque, New Mexico",
    "phone": "505-358-7228",
    "rating": 4.0,
    "reviews": 25,
    "website": "https://www.joneslawfirmllc.com/",
    "category": "African-American-owned Lawyers in New-Mexico",
    "description": "This firm handles criminal, civil, and personal injury cases in Albuquerque",
    "hours": "Mon-Fri 9AM-6PM",
    "services": [
      "African-American-owned Lawyers in New-Mexico consultation",
      "Professional service",
      "Quality guarantee"
    ],
    "social_links": {}
  }
]