[
  {
    "name": "RCR Technology Corporation",
    "address": "8888 Keystone Crossing, Indianapolis, IN 46240",
    "phone": "(317) 574-0000",
    "rating": 4.0,
    "reviews": 25,
    "website": "https://www.rcrtechnology.com/",
    "category": "Black-owned Database administration in Indiana",
    "description": "A minority-owned IT consulting firm specializing in data warehousing, analytics, and business intelligence",
    "hours": "Mon-Fri 9AM-6PM",
    "services": [
      "Black-owned Database administration in Indiana consultation",
      "Professional service",
      "Quality guarantee"
    ],
    "social_links": {}
  },
  {
    "name": "Code Black Indy, Inc.",
    "address": "2411 E Washington St, Indianapolis, IN 46201",
    "phone": "(317) 985-3500",
    "rating": 4.0,
    "reviews": 25,
    "website": "https://codeblackindy.com/",
    "category": "Black-owned Database administration in Indiana",
    "description": "This organization focuses on bridging the digital divide and providing technology education and consulting services to small businesses and organizations",
    "hours": "Mon-Fri 9AM-6PM",
    "services": [
      "Black-owned Database administration in Indiana consultation",
      "Professional service",
      "Quality guarantee"
    ],
    "social_links": {}
  },
  {
    "name": "Indy Data Partners",
    "address": "5255 Winthrop Ave, Indianapolis, IN 46205",
    "phone": "(317) 454-7200",
    "rating": 4.0,
    "reviews": 25,
    "website": "https://indydatapartners.com/",
    "category": "Black-owned Database administration in Indiana",
    "description": "An IT consulting firm that provides data-centric solutions, including database management, application development, and cloud services",
    "hours": "Mon-Fri 9AM-6PM",
    "services": [
      "Black-owned Database administration in Indiana consultation",
      "Professional service",
      "Quality guarantee"
    ],
    "social_links": {}
  },
  {
    "name": "Black Onyx Management",
    "address": "54 Monument Circle, Suite 500, Indianapolis, IN 46204",
    "phone": "(317) 258-6429",
    "rating": 4.0,
    "reviews": 25,
    "website": "https://www.blackonyxmanagement.com/",
    "category": "Black-owned Database administration in Indiana",
    "description": "A Black-owned research firm and management consultancy that helps organizations leverage their potential and make shifts for equity and opportunity, offering services in research, evaluation, and community engagement",
    "hours": "Mon-Fri 9AM-6PM",
    "services": [
      "Black-owned Database administration in Indiana consultation",
      "Professional service",
      "Quality guarantee"
    ],
    "social_links": {}
  },
  {
    "name": "CSpring",
    "address": "8910 Purdue Rd #300, Indianapolis, IN 46268",
    "phone": "(317) 872-1700",
    "rating": 4.0,
    "reviews": 25,
    "website": "https://www.cspring.com/",
    "category": "Black-owned Database administration in Indiana",
    "description": "A consulting firm specializing in data analytics and IT strategy, helping businesses optimize their technology investments",
    "hours": "Mon-Fri 9AM-6PM",
    "services": [
      "Black-owned Database administration in Indiana consultation",
      "Professional service",
      "Quality guarantee"
    ],
    "social_links": {}
  },
  {
    "name": "Fusion Alliance (Acquired by New Era Technology)",
    "address": "11711 N College Ave, Carmel, IN 46032",
    "phone": "(317) 844-4000",
    "rating": 4.0,
    "reviews": 25,
    "website": "https://www.neweratechnology.com/",
    "category": "Black-owned Database administration in Indiana",
    "description": "A digital transformation consulting firm that offers data management services, data architecture, and business intelligence",
    "hours": "Mon-Fri 9AM-6PM",
    "services": [
      "Black-owned Database administration in Indiana consultation",
      "Professional service",
      "Quality guarantee"
    ],
    "social_links": {}
  },
  {
    "name": "Onebridge (A Marlabs Company)",
    "address": "501(c)(3) 8888 Keystone Crossing, Indianapolis, IN 46240",
    "phone": "(317) 454-7200",
    "rating": 4.0,
    "reviews": 25,
    "website": "https://www.marlabs.com/onebridge/",
    "category": "Black-owned Database administration in Indiana",
    "description": "An AI and data analytics consulting firm that provides data strategy, data integration, and managed data services",
    "hours": "Mon-Fri 9AM-6PM",
    "services": [
      "Black-owned Database administration in Indiana consultation",
      "Professional service",
      "Quality guarantee"
    ],
    "social_links": {}
  },
  {
    "name": "VS Engineering Inc.",
    "address": "4275 N High School Rd, Indianapolis, IN 46254",
    "phone": "(317) 293-3542",
    "rating": 4.0,
    "reviews": 25,
    "website": "https://www.vsengineering.com/",
    "category": "Black-owned Database administration in Indiana",
    "description": "While primarily focused on civil engineering, this minority-owned business may offer IT-related services that could include data management aspects",
    "hours": "Mon-Fri 9AM-6PM",
    "services": [
      "Black-owned Database administration in Indiana consultation",
      "Professional service",
      "Quality guarantee"
    ],
    "social_links": {}
  },
  {
    "name": "Professional Management Enterprises Inc.",
    "address": "9245 N Meridian St Suite 210, Indianapolis, IN 46260",
    "phone": "(317) 541-0200",
    "rating": 4.0,
    "reviews": 25,
    "website": "https://www.pme-indy.com/",
    "category": "Black-owned Database administration in Indiana",
    "description": "A professional staffing and management company that may offer IT staffing solutions, potentially including database administration roles",
    "hours": "Mon-Fri 9AM-6PM",
    "services": [
      "Black-owned Database administration in Indiana consultation",
      "Professional service",
      "Quality guarantee"
    ],
    "social_links": {}
  },
  {
    "name": "Telamon Corp.",
    "address": "1000 E 116th St, Carmel, IN 46032",
    "phone": "(317) 818-6888",
    "rating": 4.0,
    "reviews": 25,
    "website": "https://www.telamon.com/",
    "category": "Black-owned Database administration in Indiana",
    "description": "This company provides various services, including IT solutions and consulting, which could encompass database administration",
    "hours": "Mon-Fri 9AM-6PM",
    "services": [
      "Black-owned Database administration in Indiana consultation",
      "Professional service",
      "Quality guarantee"
    ],
    "social_links": {}
  }
]