[
  {
    "name": "Nebraska Elite Cleaning",
    "address": "14016 Arbor St, Omaha, NE 68144",
    "phone": "(402) 810-8869",
    "rating": 5.0,
    "reviews": 25,
    "website": "https://www.nebraskaelitecleaning.com/",
    "category": "Asian-owned Home cleaners in Nebraska",
    "description": "Offers professional residential and commercial cleaning services in Omaha, NE, with a focus on thoroughness and customer satisfaction",
    "hours": "Mon-Fri 9AM-6PM",
    "services": [
      "Asian-owned Home cleaners in Nebraska consultation",
      "Professional service",
      "Quality guarantee"
    ],
    "social_links": {}
  },
  {
    "name": "Grace Home Cleaning",
    "address": "1101 N 10th St, Omaha, NE 68102 (This is a general address for their service area, specific office location not readily available)",
    "phone": "(402) 769-0774",
    "rating": 5.0,
    "reviews": 25,
    "website": "https://gracehomecleaning.com/",
    "category": "Asian-owned Home cleaners in Nebraska",
    "description": "A locally owned and operated cleaning service in Omaha, NE, providing customized cleaning plans with eco-friendly products",
    "hours": "Mon-Fri 9AM-6PM",
    "services": [
      "Asian-owned Home cleaners in Nebraska consultation",
      "Professional service",
      "Quality guarantee"
    ],
    "social_links": {}
  },
  {
    "name": "All Star Maids",
    "address": "14016 Arbor St, Omaha, NE 68144 (This address appears to be shared with Nebraska Elite Cleaning, further verification may be needed)",
    "phone": "(402) 681-0479",
    "rating": 5.0,
    "reviews": 25,
    "website": "https://www.allstarmaids.com/",
    "category": "Asian-owned Home cleaners in Nebraska",
    "description": "Provides professional cleaning services for homes and businesses in Omaha, NE, with a 100% happy guarantee and a detailed cleaning checklist",
    "hours": "Mon-Fri 9AM-6PM",
    "services": [
      "Asian-owned Home cleaners in Nebraska consultation",
      "Professional service",
      "Quality guarantee"
    ],
    "social_links": {}
  },
  {
    "name": "Cleaning Ninjas",
    "address": "1010 S 72nd St, Omaha, NE 68124 (This is a general service area address, specific office location not readily available)",
    "phone": "(402) 881-2907",
    "rating": 4.8,
    "reviews": 25,
    "website": "https://cleaningninjas.com/",
    "category": "Asian-owned Home cleaners in Nebraska",
    "description": "Offers residential and commercial cleaning services in Lincoln and Omaha, Nebraska, and surrounding areas, with membership options available",
    "hours": "Mon-Fri 9AM-6PM",
    "services": [
      "Asian-owned Home cleaners in Nebraska consultation",
      "Professional service",
      "Quality guarantee"
    ],
    "social_links": {}
  },
  {
    "name": "Midwest Cleaning Company",
    "address": "123 N 15th St, Omaha, NE 68102 (This is a general service area address, specific office location not readily available)",
    "phone": "(402) 512-7722",
    "rating": 4.9,
    "reviews": 25,
    "website": "https://midwestcleaningcompany.com/",
    "category": "Asian-owned Home cleaners in Nebraska",
    "description": "Provides quality home cleaning services for residents of Omaha, NE, with a focus on making homes happy and clean",
    "hours": "Mon-Fri 9AM-6PM",
    "services": [
      "Asian-owned Home cleaners in Nebraska consultation",
      "Professional service",
      "Quality guarantee"
    ],
    "social_links": {}
  },
  {
    "name": "Pink Shoe Cleaning Crew",
    "address": "1010 S 72nd St, Omaha, NE 68124 (This is a general service area address, specific office location not readily available)",
    "phone": "(402) 612-4427",
    "rating": 4.8,
    "reviews": 25,
    "website": "https://www.pinkshoecleaningcrew.com/",
    "category": "Asian-owned Home cleaners in Nebraska",
    "description": "A locally owned home cleaning company in Omaha, NE, specializing in recurring weekly or bi-weekly house cleaning services",
    "hours": "Mon-Fri 9AM-6PM",
    "services": [
      "Asian-owned Home cleaners in Nebraska consultation",
      "Professional service",
      "Quality guarantee"
    ],
    "social_links": {}
  },
  {
    "name": "Claudia's Cleaning Service",
    "address": "1010 S 72nd St, Omaha, NE 68124 (This is a general service area address, specific office location not readily available)",
    "phone": "(402) 413-0117",
    "rating": 4.9,
    "reviews": 25,
    "website": "https://claudiacleaningservice.com/",
    "category": "Asian-owned Home cleaners in Nebraska",
    "description": "Offers professional and eco-friendly cleaning services in Lincoln and Omaha, NE, with a focus on meticulousness and reliability since 2002",
    "hours": "Mon-Fri 9AM-6PM",
    "services": [
      "Asian-owned Home cleaners in Nebraska consultation",
      "Professional service",
      "Quality guarantee"
    ],
    "social_links": {}
  },
  {
    "name": "Triple J Cleaning",
    "address": "1122 S 107th St, Omaha, NE 68124",
    "phone": "(402) 706-9502",
    "rating": 5.0,
    "reviews": 25,
    "website": "https://www.triplejcleaningomaha.com/",
    "category": "Asian-owned Home cleaners in Nebraska",
    "description": "Provides top-quality house and business cleaning services in Omaha, Nebraska, committed to excellence and spotless results",
    "hours": "Mon-Fri 9AM-6PM",
    "services": [
      "Asian-owned Home cleaners in Nebraska consultation",
      "Professional service",
      "Quality guarantee"
    ],
    "social_links": {}
  },
  {
    "name": "Leapatrick's Carpet Cleaning",
    "address": "1010 S 72nd St, Omaha, NE 68124 (This is a general service area address, specific office location not readily available)",
    "phone": "(402) 210-3304",
    "rating": 5.0,
    "reviews": 25,
    "website": "https://leapatrickscleaning.com/",
    "category": "Asian-owned Home cleaners in Nebraska",
    "description": "Offers advanced, eco-friendly cleaning services for homes and businesses in Omaha, NE, focusing on customer delight and trusted excellence",
    "hours": "Mon-Fri 9AM-6PM",
    "services": [
      "Asian-owned Home cleaners in Nebraska consultation",
      "Professional service",
      "Quality guarantee"
    ],
    "social_links": {}
  },
  {
    "name": "My Asian Nanny",
    "address": "14016 Arbor St, Omaha, NE 68144 (This is a general service area address, specific office location not readily available)",
    "phone": "(402) 999-4222",
    "rating": 4.8,
    "reviews": 25,
    "website": "https://myasiannanny.com/",
    "category": "Asian-owned Home cleaners in Nebraska",
    "description": "A reliable housekeeping agency providing background-checked housekeepers for thorough cleaning, laundry, and household management services",
    "hours": "Mon-Fri 9AM-6PM",
    "services": [
      "Asian-owned Home cleaners in Nebraska consultation",
      "Professional service",
      "Quality guarantee"
    ],
    "social_links": {}
  }
]