[
  {
    "name": "VSP Vision Care",
    "address": "Multiple locations throughout Maryland. A specific address is not available as it is a network provider",
    "phone": "1-800-877-7567",
    "rating": 4.0,
    "reviews": 25,
    "website": "https://www.vsp.com/",
    "category": "Arabic-speaking Vision insurance in Maryland",
    "description": "VSP Vision Care is one of the largest vision insurance companies in the country, with a vast network of eye care professionals in Maryland. They offer individual and family plans",
    "hours": "Mon-Fri 9AM-6PM",
    "services": [
      "Arabic-speaking Vision insurance in Maryland consultation",
      "Professional service",
      "Quality guarantee"
    ],
    "social_links": {}
  },
  {
    "name": "Humana Vision Insurance",
    "address": "Serves Maryland, specific office locations may vary",
    "phone": "1-800-445-9141",
    "rating": 4.0,
    "reviews": 25,
    "website": "https://www.humana.com/",
    "category": "Arabic-speaking Vision insurance in Maryland",
    "description": "Humana offers vision insurance plans in Maryland designed to help cover expenses for routine eye exams, prescription glasses, and contact lenses",
    "hours": "Mon-Fri 9AM-6PM",
    "services": [
      "Arabic-speaking Vision insurance in Maryland consultation",
      "Professional service",
      "Quality guarantee"
    ],
    "social_links": {}
  },
  {
    "name": "EyeMed Vision Benefits",
    "address": "Network of providers across Maryland",
    "phone": "1-866-804-0845",
    "rating": 4.0,
    "reviews": 25,
    "website": "https://www.eyemed.com/",
    "category": "Arabic-speaking Vision insurance in Maryland",
    "description": "EyeMed provides affordable vision coverage for eye exams, eyeglasses, and contact lenses, with a large network of independent eye doctors and optical retailers",
    "hours": "Mon-Fri 9AM-6PM",
    "services": [
      "Arabic-speaking Vision insurance in Maryland consultation",
      "Professional service",
      "Quality guarantee"
    ],
    "social_links": {}
  },
  {
    "name": "Davis Vision",
    "address": "Network of providers throughout Maryland",
    "phone": "1-800-999-5431",
    "rating": 4.0,
    "reviews": 25,
    "website": "https://www.davisvision.com/",
    "category": "Arabic-speaking Vision insurance in Maryland",
    "description": "Davis Vision has been providing comprehensive vision care benefits for over 50 years, focusing on choice, value, and care for its members",
    "hours": "Mon-Fri 9AM-6PM",
    "services": [
      "Arabic-speaking Vision insurance in Maryland consultation",
      "Professional service",
      "Quality guarantee"
    ],
    "social_links": {}
  },
  {
    "name": "Superior Vision",
    "address": "Network of providers across Maryland",
    "phone": "1-877-211-7470",
    "rating": 4.0,
    "reviews": 25,
    "website": "https://www.superiorvision.com/",
    "category": "Arabic-speaking Vision insurance in Maryland",
    "description": "Superior Vision offers comprehensive vision care benefits with a focus on providing members with choice and cost-effective care through a network of qualified eye care professionals",
    "hours": "Mon-Fri 9AM-6PM",
    "services": [
      "Arabic-speaking Vision insurance in Maryland consultation",
      "Professional service",
      "Quality guarantee"
    ],
    "social_links": {}
  },
  {
    "name": "Maryland Health Connection (Partnered with VSP)",
    "address": "Online enrollment and information portal",
    "phone": "1-855-642-8572",
    "rating": 4.0,
    "reviews": 25,
    "website": "https://www.marylandhealthconnection.gov/",
    "category": "Arabic-speaking Vision insurance in Maryland",
    "description": "Maryland Health Connection partners with VSP to offer individual vision plans. Children under 19 enrolled in Medicaid or a Maryland Health Connection plan receive vision care",
    "hours": "Mon-Fri 9AM-6PM",
    "services": [
      "Arabic-speaking Vision insurance in Maryland consultation",
      "Professional service",
      "Quality guarantee"
    ],
    "social_links": {}
  },
  {
    "name": "Azman Eye Care Specialists",
    "address": "2105 York Rd, Suite 200, Timonium, MD 21093",
    "phone": "410-593-9818",
    "rating": 4.0,
    "reviews": 25,
    "website": "https://www.azmaneyecare.com/",
    "category": "Arabic-speaking Vision insurance in Maryland",
    "description": "Azman Eye Care Specialists in Baltimore accepts a variety of vision and medical insurance plans, including VSP, Aetna, Cigna, and others, to make eye care affordable",
    "hours": "Mon-Fri 9AM-6PM",
    "services": [
      "Arabic-speaking Vision insurance in Maryland consultation",
      "Professional service",
      "Quality guarantee"
    ],
    "social_links": {}
  },
  {
    "name": "VisionMD Eye Doctors",
    "address": "Multiple locations, including 9135 Piscataway Rd, Suite 440, Clinton, MD 20735 and 12150 Annapolis Rd, Ste 111, Glenn Dale, MD 20769",
    "phone": "301-779-0844",
    "rating": 4.0,
    "reviews": 25,
    "website": "https://www.visionmd.co/",
    "category": "Arabic-speaking Vision insurance in Maryland",
    "description": "VisionMD Eye Doctors accept numerous insurance plans for both medical and routine eye care, including VSP, EyeMed, and Davis Vision",
    "hours": "Mon-Fri 9AM-6PM",
    "services": [
      "Arabic-speaking Vision insurance in Maryland consultation",
      "Professional service",
      "Quality guarantee"
    ],
    "social_links": {}
  },
  {
    "name": "Alianiello Eye Care",
    "address": "1015 York Rd, Suite 201, Lutherville, MD 21093",
    "phone": "410-593-9818",
    "rating": 4.0,
    "reviews": 25,
    "website": "https://alianielloeyecare.com/",
    "category": "Arabic-speaking Vision insurance in Maryland",
    "description": "Alianiello Eye Care participates with many vision plans and medical insurances, including VSP, BlueCross/BlueShield, and EyeMed, and can assist with out-of-network reimbursement",
    "hours": "Mon-Fri 9AM-6PM",
    "services": [
      "Arabic-speaking Vision insurance in Maryland consultation",
      "Professional service",
      "Quality guarantee"
    ],
    "social_links": {}
  },
  {
    "name": "Gilchrist Immigrant Resource Center (Vision Care Programs)",
    "address": "1100 Veirs Mill Rd, Rockville, MD 20850",
    "phone": "240-777-4940",
    "rating": 4.0,
    "reviews": 25,
    "website": "https://www.montgomerycountymd.gov/gilchrist/",
    "category": "Arabic-speaking Vision insurance in Maryland",
    "description": "While not an insurance provider, this center offers resources and programs for vision care, including discounts and referrals for low-income individuals and children, which may be helpful for Arabic-speaking residents",
    "hours": "Mon-Fri 9AM-6PM",
    "services": [
      "Arabic-speaking Vision insurance in Maryland consultation",
      "Professional service",
      "Quality guarantee"
    ],
    "social_links": {}
  }
]