[
  {
    "name": "Panda Express",
    "address": "Multiple locations across Alabama, including:",
    "phone": "Varies by location (e.g., (205) 758-0148 for Tuscaloosa)",
    "rating": 4.0,
    "reviews": 25,
    "website": "https://www.google.com/maps/search/Panda+Express+in+Alabama",
    "category": "Chinese-speaking Fast casual in Alabama",
    "description": "A popular chain offering American-Chinese fast-casual dining with a variety of popular dishes like Orange Chicken and Broccoli Beef",
    "hours": "Mon-Fri 9AM-6PM",
    "services": [
      "Chinese-speaking Fast casual in Alabama consultation",
      "Professional service",
      "Quality guarantee"
    ],
    "social_links": {}
  },
  {
    "name": "New China Restaurant",
    "address": "",
    "phone": "",
    "rating": 4.0,
    "reviews": 25,
    "website": "https://www.google.com/maps/search/New+China+Restaurant+in+Alabama",
    "category": "Chinese-speaking Fast casual in Alabama",
    "description": "",
    "hours": "Mon-Fri 9AM-6PM",
    "services": [
      "Chinese-speaking Fast casual in Alabama consultation",
      "Professional service",
      "Quality guarantee"
    ],
    "social_links": {}
  },
  {
    "name": "Address:",
    "address": "",
    "phone": "(334) 821-9995",
    "rating": 4.0,
    "reviews": 25,
    "website": "https://www.google.com/maps/search/Address:+in+Alabama",
    "category": "Chinese-speaking Fast casual in Alabama",
    "description": "Known for fast, fresh, and flavorful dishes, offering a mix of traditional and American-style Chinese cuisine with generous portions and affordable prices",
    "hours": "Mon-Fri 9AM-6PM",
    "services": [
      "Chinese-speaking Fast casual in Alabama consultation",
      "Professional service",
      "Quality guarantee"
    ],
    "social_links": {}
  },
  {
    "name": "Peking Wok",
    "address": "Hoover, AL 35244",
    "phone": "(205) 987-8788",
    "rating": 4.0,
    "reviews": 25,
    "website": "https://www.google.com/maps/search/Peking+Wok+in+Alabama",
    "category": "Chinese-speaking Fast casual in Alabama",
    "description": "Offers Chinese food for pickup and delivery, known for its tasty products and wide range of flavors",
    "hours": "Mon-Fri 9AM-6PM",
    "services": [
      "Chinese-speaking Fast casual in Alabama consultation",
      "Professional service",
      "Quality guarantee"
    ],
    "social_links": {}
  },
  {
    "name": "Magic Wok",
    "address": "401 19th St S, Birmingham, AL 35233",
    "phone": "(205) 327-5000",
    "rating": 4.0,
    "reviews": 25,
    "website": "https://www.google.com/maps/search/Magic+Wok+in+Alabama",
    "category": "Chinese-speaking Fast casual in Alabama",
    "description": "Serves Chinese cuisine with dishes like Hot & Sour Soup, Chicken Broccoli, and Sweet & Sour Delight, available for carryout or delivery",
    "hours": "Mon-Fri 9AM-6PM",
    "services": [
      "Chinese-speaking Fast casual in Alabama consultation",
      "Professional service",
      "Quality guarantee"
    ],
    "social_links": {}
  },
  {
    "name": "China Master",
    "address": "1801 4th Ave S, Birmingham, AL 35233",
    "phone": "(205) 321-9039",
    "rating": 4.0,
    "reviews": 25,
    "website": "https://www.google.com/maps/search/China+Master+in+Alabama",
    "category": "Chinese-speaking Fast casual in Alabama",
    "description": "Offers delicious Chinese food with fast service and friendly staff, known for crispy General Tso's chicken and large portions",
    "hours": "Mon-Fri 9AM-6PM",
    "services": [
      "Chinese-speaking Fast casual in Alabama consultation",
      "Professional service",
      "Quality guarantee"
    ],
    "social_links": {}
  },
  {
    "name": "Panda Haven",
    "address": "6300 Grelot Rd, Mobile, AL 36608",
    "phone": "(251) 344-7777 (implied from online ordering platforms)",
    "rating": 4.0,
    "reviews": 25,
    "website": "https://www.google.com/maps/search/Panda+Haven+in+Alabama",
    "category": "Chinese-speaking Fast casual in Alabama",
    "description": "Offers authentic and delicious Chinese cuisine with convenient location and affordable prices, known for variety and fresh ingredients",
    "hours": "Mon-Fri 9AM-6PM",
    "services": [
      "Chinese-speaking Fast casual in Alabama consultation",
      "Professional service",
      "Quality guarantee"
    ],
    "social_links": {}
  },
  {
    "name": "Yuan Mei Asian Noodle",
    "address": "Mobile, AL (Specific address not detailed in search result snippet, but listed as a Mobile location)",
    "phone": "(251) 344-7777 (implied from online ordering platforms)",
    "rating": 4.0,
    "reviews": 25,
    "website": "https://www.google.com/maps/search/Yuan+Mei+Asian+Noodle+in+Alabama",
    "category": "Chinese-speaking Fast casual in Alabama",
    "description": "Offers authentic Chinese and Asian cuisine with a focus on noodles, known for variety and fresh ingredients",
    "hours": "Mon-Fri 9AM-6PM",
    "services": [
      "Chinese-speaking Fast casual in Alabama consultation",
      "Professional service",
      "Quality guarantee"
    ],
    "social_links": {}
  },
  {
    "name": "Hot Wok Express",
    "address": "6570 AL-69, Tuscaloosa, AL 35405",
    "phone": "+1 205-758-0148",
    "rating": 4.0,
    "reviews": 25,
    "website": "https://www.google.com/maps/search/Hot+Wok+Express+in+Alabama",
    "category": "Chinese-speaking Fast casual in Alabama",
    "description": "Described as having the \"best Chinese in town,\" with fresh food and excellent customer service",
    "hours": "Mon-Fri 9AM-6PM",
    "services": [
      "Chinese-speaking Fast casual in Alabama consultation",
      "Professional service",
      "Quality guarantee"
    ],
    "social_links": {}
  },
  {
    "name": "China Garden",
    "address": "1888 Ogletree Rd #120, Auburn, AL 36830",
    "phone": "+1 (334) 887-0388",
    "rating": 4.0,
    "reviews": 25,
    "website": "https://www.google.com/maps/search/China+Garden+in+Alabama",
    "category": "Chinese-speaking Fast casual in Alabama",
    "description": "Offers authentic and delicious Chinese food with a focus on freshness and quality ingredients",
    "hours": "Mon-Fri 9AM-6PM",
    "services": [
      "Chinese-speaking Fast casual in Alabama consultation",
      "Professional service",
      "Quality guarantee"
    ],
    "social_links": {}
  }
]