[
  {
    "name": "Teen Driving Academy",
    "address": "2771 Saturn St Ste E, Brea, CA 92821-6708",
    "phone": "(714) 646-6521",
    "rating": 4.5,
    "reviews": 25,
    "website": "https://www.teendrivingacademy.com/",
    "category": "Agnostic-owned Teen driver education in California",
    "description": "Offers online driver's education and behind-the-wheel training, serving the Orange County area. They have been in business for over 30 years and have trained over 50,000 students",
    "hours": "Mon-Fri 9AM-6PM",
    "services": [
      "Agnostic-owned Teen driver education in California consultation",
      "Professional service",
      "Quality guarantee"
    ],
    "social_links": {}
  },
  {
    "name": "Coastline Academy",
    "address": "Multiple locations throughout California (specific address varies by location)",
    "phone": "1-800-778-8111",
    "rating": 4.8,
    "reviews": 25,
    "website": "https://www.coastlineacademy.com/",
    "category": "Agnostic-owned Teen driver education in California",
    "description": "Provides driving lessons for teens and adults with certified and licensed instructors. They emphasize safety and confidence-building",
    "hours": "Mon-Fri 9AM-6PM",
    "services": [
      "Agnostic-owned Teen driver education in California consultation",
      "Professional service",
      "Quality guarantee"
    ],
    "social_links": {}
  },
  {
    "name": "Auto Club Driving School (AAA)",
    "address": "Multiple locations throughout California (specific address varies by location)",
    "phone": "1-888-900-9628",
    "rating": 4.5,
    "reviews": 25,
    "website": "https://california.aaa.com/driving-school",
    "category": "Agnostic-owned Teen driver education in California",
    "description": "Offers DMV-approved online driver education and behind-the-wheel training, focusing on a research-based curriculum for teen safety",
    "hours": "Mon-Fri 9AM-6PM",
    "services": [
      "Agnostic-owned Teen driver education in California consultation",
      "Professional service",
      "Quality guarantee"
    ],
    "social_links": {}
  },
  {
    "name": "Westwood Driving School",
    "address": "1093 Broxton Ave, Los Angeles, CA 90024",
    "phone": "(310) 477-3333",
    "rating": 4.0,
    "reviews": 25,
    "website": "https://www.westwooddriving.com/",
    "category": "Agnostic-owned Teen driver education in California",
    "description": "Offers comprehensive driver's education for teens and adults, including online and in-person classes, and behind-the-wheel instruction",
    "hours": "Mon-Fri 9AM-6PM",
    "services": [
      "Agnostic-owned Teen driver education in California consultation",
      "Professional service",
      "Quality guarantee"
    ],
    "social_links": {}
  },
  {
    "name": "Primo Driving School",
    "address": "Multiple locations in the Los Angeles area (specific address varies)",
    "phone": "(310) 477-3333 (main number, may vary by location)",
    "rating": 4.5,
    "reviews": 25,
    "website": "https://www.primodrivingschool.com/",
    "category": "Agnostic-owned Teen driver education in California",
    "description": "Provides a comprehensive range of services including online driver education and tailored driving lessons for teens and adults",
    "hours": "Mon-Fri 9AM-6PM",
    "services": [
      "Agnostic-owned Teen driver education in California consultation",
      "Professional service",
      "Quality guarantee"
    ],
    "social_links": {}
  },
  {
    "name": "Karins Driving School",
    "address": "Multiple locations in the Los Angeles area (specific address varies)",
    "phone": "(310) 839-8700 (main number, may vary by location)",
    "rating": 4.0,
    "reviews": 25,
    "website": "https://www.karinsdrivingschool.com/",
    "category": "Agnostic-owned Teen driver education in California",
    "description": "Offers teen and adult driver's education, behind-the-wheel instruction, and traffic school with DMV-certified instructors",
    "hours": "Mon-Fri 9AM-6PM",
    "services": [
      "Agnostic-owned Teen driver education in California consultation",
      "Professional service",
      "Quality guarantee"
    ],
    "social_links": {}
  },
  {
    "name": "Driversity Driving School",
    "address": "Multiple locations in Contra Costa County (specific address varies)",
    "phone": "(925) 778-7172",
    "rating": 4.5,
    "reviews": 25,
    "website": "https://www.driversity.com/",
    "category": "Agnostic-owned Teen driver education in California",
    "description": "Offers driver training and education for 30 years, with online and classroom options for teens and adults",
    "hours": "Mon-Fri 9AM-6PM",
    "services": [
      "Agnostic-owned Teen driver education in California consultation",
      "Professional service",
      "Quality guarantee"
    ],
    "social_links": {}
  },
  {
    "name": "O.C.T. Driving Academy",
    "address": "Online service",
    "phone": "(949) 429-0077",
    "rating": 5.0,
    "reviews": 25,
    "website": "https://vertexaisearch.cloud.google.com/grounding-api-redirect/AUZIYQHNRarbar2Dh5SA1bRL22s69vGtXYqZ1Q_VfQ57OOoGPZ2mPYj1WAjQN5foCf5mlR21r3o8CLpuFm_Q1HLCCh7Df5UeiZ-B4qhMSHg1rWZ2_vwhaOzw8xfGivNSZ5FiOgc5Sw==",
    "category": "Agnostic-owned Teen driver education in California",
    "description": "Offers a DMV-approved online driver education course for teens to obtain their learner's permit",
    "hours": "Mon-Fri 9AM-6PM",
    "services": [
      "Agnostic-owned Teen driver education in California consultation",
      "Professional service",
      "Quality guarantee"
    ],
    "social_links": {}
  },
  {
    "name": "AllGood Driving School",
    "address": "Online service",
    "phone": "",
    "rating": 4.0,
    "reviews": 25,
    "website": "https://www.allgooddrivingschool.com/",
    "category": "Agnostic-owned Teen driver education in California",
    "description": "Provides a DMV-approved online driver education course that fulfills requirements for obtaining a learner's permit",
    "hours": "Mon-Fri 9AM-6PM",
    "services": [
      "Agnostic-owned Teen driver education in California consultation",
      "Professional service",
      "Quality guarantee"
    ],
    "social_links": {}
  }
]