[
  {
    "name": "DJ Shaan - Best Indian DJ Of Atlanta",
    "address": "Johns Creek, GA (Serves Atlanta and surrounding areas)",
    "phone": "631-443-3482",
    "rating": 5.0,
    "reviews": 25,
    "website": "https://www.weddingwire.com/biz/dj-shaan-best-indian-dj-of-atlanta-johns-creek/b76670371173160b.html",
    "category": "Bengali-speaking Party DJs in Georgia",
    "description": "DJ Shaan specializes in Indian and Pakistani weddings, offering DJ services, live music, and lighting. He is known for his professionalism and ability to create memorable events",
    "hours": "Mon-Fri 9AM-6PM",
    "services": [
      "Bengali-speaking Party DJs in Georgia consultation",
      "Professional service",
      "Quality guarantee"
    ],
    "social_links": {}
  },
  {
    "name": "Awaaz Entertainment",
    "address": "Serves Georgia (and other states)",
    "phone": "",
    "rating": 4.0,
    "reviews": 25,
    "website": "https://www.awaazentertainment.com/",
    "category": "Bengali-speaking Party DJs in Georgia",
    "description": "Awaaz Entertainment has over 20 years of experience in South Asian wedding entertainment, blending South Asian and Western music. They offer DJs/MCs, Dholi's, lighting, and more",
    "hours": "Mon-Fri 9AM-6PM",
    "services": [
      "Bengali-speaking Party DJs in Georgia consultation",
      "Professional service",
      "Quality guarantee"
    ],
    "social_links": {}
  },
  {
    "name": "DJ Pawan Entertainment And Events",
    "address": "Serves Atlanta, GA (also based in Charlotte, NC)",
    "phone": "408-457-1385",
    "rating": 5.0,
    "reviews": 25,
    "website": "https://www.google.com/maps/search/DJ+Pawan+Entertainment+And+Events+in+Georgia",
    "category": "Bengali-speaking Party DJs in Georgia",
    "description": "This company has over two decades of experience, blending Indian musical heritage with modern DJ techniques. They offer customized entertainment for various events",
    "hours": "Mon-Fri 9AM-6PM",
    "services": [
      "Bengali-speaking Party DJs in Georgia consultation",
      "Professional service",
      "Quality guarantee"
    ],
    "social_links": {}
  },
  {
    "name": "Desi Sound Guys",
    "address": "Alpharetta, GA (also listed in Cumming, GA)",
    "phone": "650-300-4614",
    "rating": 4.0,
    "reviews": 25,
    "website": "https://www.google.com/maps/search/Desi+Sound+Guys+in+Georgia",
    "category": "Bengali-speaking Party DJs in Georgia",
    "description": "Offers DJ services, including Punjabi DJs, and is noted for providing services for various events",
    "hours": "Mon-Fri 9AM-6PM",
    "services": [
      "Bengali-speaking Party DJs in Georgia consultation",
      "Professional service",
      "Quality guarantee"
    ],
    "social_links": {}
  },
  {
    "name": "DJ Raj Entertainment & Event Lighting",
    "address": "Serves Johns Creek, GA (and other locations)",
    "phone": "312-626-4366",
    "rating": 4.0,
    "reviews": 25,
    "website": "https://www.google.com/maps/search/DJ+Raj+Entertainment+&+Event+Lighting+in+Georgia",
    "category": "Bengali-speaking Party DJs in Georgia",
    "description": "Offers over 18 years of experience with talented DJs, MCs, and event lighting, specializing in South Asian weddings",
    "hours": "Mon-Fri 9AM-6PM",
    "services": [
      "Bengali-speaking Party DJs in Georgia consultation",
      "Professional service",
      "Quality guarantee"
    ],
    "social_links": {}
  },
  {
    "name": "Raven Sound",
    "address": "Cumming, GA",
    "phone": "737-377-4784",
    "rating": 4.0,
    "reviews": 25,
    "website": "https://www.google.com/maps/search/Raven+Sound+in+Georgia",
    "category": "Bengali-speaking Party DJs in Georgia",
    "description": "Provides DJ services, including Punjabi DJs, and offers a range of entertainment solutions for events",
    "hours": "Mon-Fri 9AM-6PM",
    "services": [
      "Bengali-speaking Party DJs in Georgia consultation",
      "Professional service",
      "Quality guarantee"
    ],
    "social_links": {}
  },
  {
    "name": "777 Events & Entertainment",
    "address": "Serves Atlanta, GA",
    "phone": "325-208-4010",
    "rating": 4.0,
    "reviews": 25,
    "website": "https://www.google.com/maps/search/777+Events+&+Entertainment+in+Georgia",
    "category": "Bengali-speaking Party DJs in Georgia",
    "description": "Offers Punjabi DJs and over 13 other services for various events",
    "hours": "Mon-Fri 9AM-6PM",
    "services": [
      "Bengali-speaking Party DJs in Georgia consultation",
      "Professional service",
      "Quality guarantee"
    ],
    "social_links": {}
  },
  {
    "name": "DJ Bose Entertainment INC",
    "address": "Serves the Atlanta Area (and North Carolina)",
    "phone": "708-741-2276",
    "rating": 4.0,
    "reviews": 25,
    "website": "https://www.google.com/maps/search/DJ+Bose+Entertainment+INC+in+Georgia",
    "category": "Bengali-speaking Party DJs in Georgia",
    "description": "A premier South Asian DJ and event production company known for blending Desi beats with global hits. They offer a wide range of music genres",
    "hours": "Mon-Fri 9AM-6PM",
    "services": [
      "Bengali-speaking Party DJs in Georgia consultation",
      "Professional service",
      "Quality guarantee"
    ],
    "social_links": {}
  },
  {
    "name": "DJ RONI",
    "address": "Atlanta, GA",
    "phone": "",
    "rating": 4.0,
    "reviews": 25,
    "website": "https://www.google.com/maps/search/DJ+RONI+in+Georgia",
    "category": "Bengali-speaking Party DJs in Georgia",
    "description": "Offers Punjabi DJs and other services for events in Atlanta",
    "hours": "Mon-Fri 9AM-6PM",
    "services": [
      "Bengali-speaking Party DJs in Georgia consultation",
      "Professional service",
      "Quality guarantee"
    ],
    "social_links": {}
  },
  {
    "name": "Dj Jt Productions",
    "address": "Cumming, GA (also listed as serving Atlanta, GA)",
    "phone": "213-444-5613",
    "rating": 4.0,
    "reviews": 25,
    "website": "https://www.google.com/maps/search/Dj+Jt+Productions+in+Georgia",
    "category": "Bengali-speaking Party DJs in Georgia",
    "description": "Offers Punjabi DJs and other services for events",
    "hours": "Mon-Fri 9AM-6PM",
    "services": [
      "Bengali-speaking Party DJs in Georgia consultation",
      "Professional service",
      "Quality guarantee"
    ],
    "social_links": {}
  }
]