[
  {
    "name": "Chicago Title Oregon",
    "address": "Multiple locations across Oregon. For specific office addresses, please visit their website",
    "phone": "(503) 219-2300 (General Inquiries)",
    "rating": 4.0,
    "reviews": 25,
    "website": "https://www.chicagotitle.com/",
    "category": "Atheist-owned Title insurance in Oregon",
    "description": "Offers title insurance, closing, and escrow services for residential and commercial real estate transactions",
    "hours": "Mon-Fri 9AM-6PM",
    "services": [
      "Atheist-owned Title insurance in Oregon consultation",
      "Professional service",
      "Quality guarantee"
    ],
    "social_links": {}
  },
  {
    "name": "WFG National Title Insurance Company",
    "address": "Multiple offices in Oregon, including Portland, Bethany, and Lake Oswego",
    "phone": "(503) 924-2000 (Portland Main Office)",
    "rating": 4.0,
    "reviews": 25,
    "website": "https://www.wfgtitle.com/",
    "category": "Atheist-owned Title insurance in Oregon",
    "description": "Provides title insurance and escrow services, focusing on a smooth and safe real estate transaction experience",
    "hours": "Mon-Fri 9AM-6PM",
    "services": [
      "Atheist-owned Title insurance in Oregon consultation",
      "Professional service",
      "Quality guarantee"
    ],
    "social_links": {}
  },
  {
    "name": "Evergreen Land Title Co.",
    "address": "1015 Country Club Rd, Eugene, OR 97401",
    "phone": "(541) 683-3000",
    "rating": 4.0,
    "reviews": 25,
    "website": "https://www.evergreenlandtitle.com/",
    "category": "Atheist-owned Title insurance in Oregon",
    "description": "A locally owned and operated title and escrow company serving Lane County, known for its commitment to client relationships",
    "hours": "Mon-Fri 9AM-6PM",
    "services": [
      "Atheist-owned Title insurance in Oregon consultation",
      "Professional service",
      "Quality guarantee"
    ],
    "social_links": {}
  },
  {
    "name": "Ticor Title Southern Oregon",
    "address": "Multiple locations in Southern Oregon. Specific addresses can be found on their website",
    "phone": "(541) 779-1400 (Medford Office)",
    "rating": 4.0,
    "reviews": 25,
    "website": "https://www.ticortitle.com/",
    "category": "Atheist-owned Title insurance in Oregon",
    "description": "An industry leader providing title insurance and escrow closing services with a focus on superior client experience",
    "hours": "Mon-Fri 9AM-6PM",
    "services": [
      "Atheist-owned Title insurance in Oregon consultation",
      "Professional service",
      "Quality guarantee"
    ],
    "social_links": {}
  },
  {
    "name": "Old Republic Title Company of Oregon",
    "address": "Offices in Clackamas, Multnomah, and Washington Counties, including Portland",
    "phone": "(503) 219-2300 (Admin Office Oregon)",
    "rating": 4.0,
    "reviews": 25,
    "website": "https://www.oldrepublictitle.com/",
    "category": "Atheist-owned Title insurance in Oregon",
    "description": "Offers comprehensive title insurance and escrow services across Oregon",
    "hours": "Mon-Fri 9AM-6PM",
    "services": [
      "Atheist-owned Title insurance in Oregon consultation",
      "Professional service",
      "Quality guarantee"
    ],
    "social_links": {}
  },
  {
    "name": "Armour Settlement Services, LLC",
    "address": "While a national company, they provide services in Oregon. Specific Oregon office details would be on their website",
    "phone": "1-800-800-1111 (General Inquiries)",
    "rating": 4.0,
    "reviews": 25,
    "website": "https://www.armoursettlement.com/",
    "category": "Atheist-owned Title insurance in Oregon",
    "description": "A national title company offering a wide range of title and escrow services, including online closings and mobile settlements",
    "hours": "Mon-Fri 9AM-6PM",
    "services": [
      "Atheist-owned Title insurance in Oregon consultation",
      "Professional service",
      "Quality guarantee"
    ],
    "social_links": {}
  },
  {
    "name": "First American Title Insurance",
    "address": "Numerous offices throughout Oregon",
    "phone": "1-800-854-3643 (Customer Service)",
    "rating": 4.0,
    "reviews": 25,
    "website": "https://www.firstam.com/",
    "category": "Atheist-owned Title insurance in Oregon",
    "description": "Provides comprehensive title insurance and settlement services for various real estate professionals and transactions",
    "hours": "Mon-Fri 9AM-6PM",
    "services": [
      "Atheist-owned Title insurance in Oregon consultation",
      "Professional service",
      "Quality guarantee"
    ],
    "social_links": {}
  },
  {
    "name": "Stewart Title of Oregon",
    "address": "Multiple locations across Oregon",
    "phone": "(503) 221-1000 (Portland Main Office)",
    "rating": 4.0,
    "reviews": 25,
    "website": "https://www.stewart.com/",
    "category": "Atheist-owned Title insurance in Oregon",
    "description": "Offers title insurance, escrow, and other real estate services, backed by strong financial stability",
    "hours": "Mon-Fri 9AM-6PM",
    "services": [
      "Atheist-owned Title insurance in Oregon consultation",
      "Professional service",
      "Quality guarantee"
    ],
    "social_links": {}
  },
  {
    "name": "Fidelity National Title Group (Parent company of Ticor Title)",
    "address": "Operates through various subsidiaries like Ticor Title across Oregon",
    "phone": "(800) 854-3643 (Customer Service)",
    "rating": 4.0,
    "reviews": 25,
    "website": "https://www.fnf.com/",
    "category": "Atheist-owned Title insurance in Oregon",
    "description": "A leading provider of title insurance and escrow services, offering robust financial backing and a wide network",
    "hours": "Mon-Fri 9AM-6PM",
    "services": [
      "Atheist-owned Title insurance in Oregon consultation",
      "Professional service",
      "Quality guarantee"
    ],
    "social_links": {}
  },
  {
    "name": "Northwest Title Company",
    "address": "Multiple locations in Oregon, including Portland and Salem",
    "phone": "(503) 227-0500 (Portland Office)",
    "rating": 4.0,
    "reviews": 25,
    "website": "https://www.nwtitle.com/",
    "category": "Atheist-owned Title insurance in Oregon",
    "description": "Provides title insurance and escrow services with a focus on local knowledge and customer satisfaction",
    "hours": "Mon-Fri 9AM-6PM",
    "services": [
      "Atheist-owned Title insurance in Oregon consultation",
      "Professional service",
      "Quality guarantee"
    ],
    "social_links": {}
  }
]