[
  {
    "name": "AB Towing Service",
    "address": "2680 Egypt Road, Audubon, PA 19403",
    "phone": "(610) 630-0500",
    "rating": 5.0,
    "reviews": 25,
    "website": "https://www.google.com/maps/search/AB+Towing+Service+in+Pennsylvania",
    "category": "Arabic-speaking Towing services in Pennsylvania",
    "description": "Offers flatbed towing, roadside assistance, and has been praised for professional and punctual service",
    "hours": "Mon-Fri 9AM-6PM",
    "services": [
      "Arabic-speaking Towing services in Pennsylvania consultation",
      "Professional service",
      "Quality guarantee"
    ],
    "social_links": {}
  },
  {
    "name": "Steffy's Garage",
    "address": "(Specific address not provided, but serves Lancaster, PA)",
    "phone": "(717) 392-0500",
    "rating": 4.0,
    "reviews": 25,
    "website": "https://www.google.com/maps/search/Steffy's+Garage+in+Pennsylvania",
    "category": "Arabic-speaking Towing services in Pennsylvania",
    "description": "Provides 24-hour towing services in Lancaster, PA, with over 30 years of experience",
    "hours": "Mon-Fri 9AM-6PM",
    "services": [
      "Arabic-speaking Towing services in Pennsylvania consultation",
      "Professional service",
      "Quality guarantee"
    ],
    "social_links": {}
  },
  {
    "name": "Mike's Towing II",
    "address": "(Multiple locations, including Orthodox Street and Abington, PA)",
    "phone": "(215) 722-2111",
    "rating": 4.0,
    "reviews": 25,
    "website": "https://www.google.com/maps/search/Mike's+Towing+II+in+Pennsylvania",
    "category": "Arabic-speaking Towing services in Pennsylvania",
    "description": "Offers quality and affordable towing services throughout Philadelphia and the surrounding metro area, with over 100 years of combined experience",
    "hours": "Mon-Fri 9AM-6PM",
    "services": [
      "Arabic-speaking Towing services in Pennsylvania consultation",
      "Professional service",
      "Quality guarantee"
    ],
    "social_links": {}
  },
  {
    "name": "Lemek Automotive",
    "address": "(Specific address not provided, but serves Newtown, PA)",
    "phone": "(215) 968-1800",
    "rating": 4.0,
    "reviews": 25,
    "website": "https://www.google.com/maps/search/Lemek+Automotive+in+Pennsylvania",
    "category": "Arabic-speaking Towing services in Pennsylvania",
    "description": "A family-owned business offering light, medium, and heavy-duty towing, long-distance towing, roadside assistance, and junk car removal",
    "hours": "Mon-Fri 9AM-6PM",
    "services": [
      "Arabic-speaking Towing services in Pennsylvania consultation",
      "Professional service",
      "Quality guarantee"
    ],
    "social_links": {}
  },
  {
    "name": "Patriot Towing & Transport Inc.",
    "address": "(Locations in Mountville and Lancaster, PA)",
    "phone": "(717) 285-0100",
    "rating": 4.0,
    "reviews": 25,
    "website": "https://www.google.com/maps/search/Patriot+Towing+&+Transport+Inc.+in+Pennsylvania",
    "category": "Arabic-speaking Towing services in Pennsylvania",
    "description": "Specializes in auto and heavy-duty towing, equipment transport, and roadside assistance, with over 60 years of experience",
    "hours": "Mon-Fri 9AM-6PM",
    "services": [
      "Arabic-speaking Towing services in Pennsylvania consultation",
      "Professional service",
      "Quality guarantee"
    ],
    "social_links": {}
  },
  {
    "name": "Countywide Towing & Hauling",
    "address": "(Located in the Philadelphia, PA area)",
    "phone": "(610) 880-0022",
    "rating": 4.0,
    "reviews": 25,
    "website": "https://www.google.com/maps/search/Countywide+Towing+&+Hauling+in+Pennsylvania",
    "category": "Arabic-speaking Towing services in Pennsylvania",
    "description": "Provides 24-hour towing, accident recovery, and roadside assistance to the entire Philadelphia Tri-State area",
    "hours": "Mon-Fri 9AM-6PM",
    "services": [
      "Arabic-speaking Towing services in Pennsylvania consultation",
      "Professional service",
      "Quality guarantee"
    ],
    "social_links": {}
  },
  {
    "name": "Azar's Towing",
    "address": "(Serves the Lehigh Valley area, including Allentown and Bethlehem)",
    "phone": "(610) 435-1111",
    "rating": 4.0,
    "reviews": 25,
    "website": "https://www.google.com/maps/search/Azar's+Towing+in+Pennsylvania",
    "category": "Arabic-speaking Towing services in Pennsylvania",
    "description": "Offers car transport and towing services, with many customers praising their professionalism and affordability",
    "hours": "Mon-Fri 9AM-6PM",
    "services": [
      "Arabic-speaking Towing services in Pennsylvania consultation",
      "Professional service",
      "Quality guarantee"
    ],
    "social_links": {}
  },
  {
    "name": "A-1 Towing Services",
    "address": "(Serves Carbon County and the greater Lehigh Valley)",
    "phone": "(610) 377-1111",
    "rating": 4.0,
    "reviews": 25,
    "website": "https://www.google.com/maps/search/A-1+Towing+Services+in+Pennsylvania",
    "category": "Arabic-speaking Towing services in Pennsylvania",
    "description": "Provides fast, reliable 24/7/365 towing and roadside assistance for light and heavy-duty vehicles",
    "hours": "Mon-Fri 9AM-6PM",
    "services": [
      "Arabic-speaking Towing services in Pennsylvania consultation",
      "Professional service",
      "Quality guarantee"
    ],
    "social_links": {}
  },
  {
    "name": "Falzone's Towing Services",
    "address": "(Serves Egypt, PA and surrounding areas)",
    "phone": "(610) 754-7000",
    "rating": 4.0,
    "reviews": 25,
    "website": "https://www.google.com/maps/search/Falzone's+Towing+Services+in+Pennsylvania",
    "category": "Arabic-speaking Towing services in Pennsylvania",
    "description": "Offers 24-hour towing, including local, long-distance, and flatbed services, with a reputation for trustworthiness and professionalism",
    "hours": "Mon-Fri 9AM-6PM",
    "services": [
      "Arabic-speaking Towing services in Pennsylvania consultation",
      "Professional service",
      "Quality guarantee"
    ],
    "social_links": {}
  },
  {
    "name": "Abe's Auto Service, Inc.",
    "address": "(Locations in Chambersburg and Shippensburg, PA)",
    "phone": "(717) 375-4524",
    "rating": 4.0,
    "reviews": 25,
    "website": "https://www.google.com/maps/search/Abe's+Auto+Service,+Inc.+in+Pennsylvania",
    "category": "Arabic-speaking Towing services in Pennsylvania",
    "description": "Offers 24/7 towing, roadside assistance, and auto repair services, serving the south-central Pennsylvania region",
    "hours": "Mon-Fri 9AM-6PM",
    "services": [
      "Arabic-speaking Towing services in Pennsylvania consultation",
      "Professional service",
      "Quality guarantee"
    ],
    "social_links": {}
  }
]