[
  {
    "name": "Custom Electrical",
    "address": "123 W 400 N, Orem, UT 84057",
    "phone": "(435) 283-4975",
    "rating": 4.8,
    "reviews": 25,
    "website": "https://www.customelectric.com/",
    "category": "Hindi-speaking Switch installation in Utah",
    "description": "Offers a wide range of residential and commercial electrical services, including new construction, remodels, lighting, and wiring",
    "hours": "Mon-Fri 9AM-6PM",
    "services": [
      "Hindi-speaking Switch installation in Utah consultation",
      "Professional service",
      "Quality guarantee"
    ],
    "social_links": {}
  },
  {
    "name": "Same Day Electric",
    "address": "450 W 800 N, Orem, UT 84057",
    "phone": "(801) 900-4064",
    "rating": 4.7,
    "reviews": 25,
    "website": "https://www.samedayelectricutah.com/",
    "category": "Hindi-speaking Switch installation in Utah",
    "description": "Provides professional electrical services in Utah County, with same-day service and a 100% satisfaction guarantee",
    "hours": "Mon-Fri 9AM-6PM",
    "services": [
      "Hindi-speaking Switch installation in Utah consultation",
      "Professional service",
      "Quality guarantee"
    ],
    "social_links": {}
  },
  {
    "name": "Central Electric Co.",
    "address": "1450 S 400 W, Salt Lake City, UT 84104",
    "phone": "(801) 972-4141",
    "rating": 4.6,
    "reviews": 25,
    "website": "https://www.centralelectric.com/",
    "category": "Hindi-speaking Switch installation in Utah",
    "description": "A long-standing electrical contractor with over 100 years of experience, serving residential, commercial, and industrial clients throughout Northern Utah",
    "hours": "Mon-Fri 9AM-6PM",
    "services": [
      "Hindi-speaking Switch installation in Utah consultation",
      "Professional service",
      "Quality guarantee"
    ],
    "social_links": {}
  },
  {
    "name": "Millcreek Electric",
    "address": "3740 S 700 E, Salt Lake City, UT 84106",
    "phone": "(801) 263-2300",
    "rating": 4.9,
    "reviews": 25,
    "website": "https://www.millcreekelectric.com/",
    "category": "Hindi-speaking Switch installation in Utah",
    "description": "Offers expert residential and commercial electrician services in Salt Lake City, specializing in remodels, rewiring, and lighting",
    "hours": "Mon-Fri 9AM-6PM",
    "services": [
      "Hindi-speaking Switch installation in Utah consultation",
      "Professional service",
      "Quality guarantee"
    ],
    "social_links": {}
  },
  {
    "name": "Winward Electrical Services, Inc.",
    "address": "1275 N 1200 W, Ogden, UT 84404",
    "phone": "(801) 648-7270",
    "rating": 4.5,
    "reviews": 25,
    "website": "https://www.winwardelectric.com/",
    "category": "Hindi-speaking Switch installation in Utah",
    "description": "A leading electrical contractor in Ogden, Utah, providing new construction, industrial, and commercial services since 1956",
    "hours": "Mon-Fri 9AM-6PM",
    "services": [
      "Hindi-speaking Switch installation in Utah consultation",
      "Professional service",
      "Quality guarantee"
    ],
    "social_links": {}
  },
  {
    "name": "Taylor Electric",
    "address": "1035 S 300 W, Salt Lake City, UT 84101",
    "phone": "(801) 486-0100",
    "rating": 4.8,
    "reviews": 25,
    "website": "https://www.taylorelectric.com/",
    "category": "Hindi-speaking Switch installation in Utah",
    "description": "A premier commercial electrical contractor in Utah, experienced in large-scale projects for healthcare, education, retail, and more",
    "hours": "Mon-Fri 9AM-6PM",
    "services": [
      "Hindi-speaking Switch installation in Utah consultation",
      "Professional service",
      "Quality guarantee"
    ],
    "social_links": {}
  },
  {
    "name": "Mr. Electric of Salt Lake City",
    "address": "4515 S 200 W, Salt Lake City, UT 84107",
    "phone": "(801) 845-1110",
    "rating": 4.7,
    "reviews": 25,
    "website": "https://www.mrelectric.com/salt-lake-city",
    "category": "Hindi-speaking Switch installation in Utah",
    "description": "Offers emergency electrician services in Salt Lake City and surrounding areas, prioritizing customer safety with prompt and effective solutions",
    "hours": "Mon-Fri 9AM-6PM",
    "services": [
      "Hindi-speaking Switch installation in Utah consultation",
      "Professional service",
      "Quality guarantee"
    ],
    "social_links": {}
  },
  {
    "name": "Cool Hand Electrical",
    "address": "150 W 700 S, Provo, UT 84601",
    "phone": "(801) 477-0044",
    "rating": 4.9,
    "reviews": 25,
    "website": "https://www.coolhandelectrical.com/",
    "category": "Hindi-speaking Switch installation in Utah",
    "description": "Provides top-tier electrical services in Provo, Utah, including installations, rewiring, panel upgrades, and lighting design",
    "hours": "Mon-Fri 9AM-6PM",
    "services": [
      "Hindi-speaking Switch installation in Utah consultation",
      "Professional service",
      "Quality guarantee"
    ],
    "social_links": {}
  },
  {
    "name": "Legit Electric",
    "address": "1550 W 200 N, Ogden, UT 84404",
    "phone": "(801) 917-1540",
    "rating": 5.0,
    "reviews": 25,
    "website": "https://www.legitelectric.com/",
    "category": "Hindi-speaking Switch installation in Utah",
    "description": "Offers dependable, high-quality electrical services with a focus on safety, precision, and integrity in Ogden and surrounding counties",
    "hours": "Mon-Fri 9AM-6PM",
    "services": [
      "Hindi-speaking Switch installation in Utah consultation",
      "Professional service",
      "Quality guarantee"
    ],
    "social_links": {}
  },
  {
    "name": "All in One Electric",
    "address": "1344 W 750 N, Ogden, UT 84404",
    "phone": "(801) 781-1000",
    "rating": 4.7,
    "reviews": 25,
    "website": "https://www.allinoneelectric.com/",
    "category": "Hindi-speaking Switch installation in Utah",
    "description": "A customer-focused company serving Ogden and North Salt Lake areas since 1991, offering residential and commercial electrical services with a quality guarantee",
    "hours": "Mon-Fri 9AM-6PM",
    "services": [
      "Hindi-speaking Switch installation in Utah consultation",
      "Professional service",
      "Quality guarantee"
    ],
    "social_links": {}
  }
]