[
  {
    "name": "BL Performance, Inc.",
    "address": "153 SE Douglas Ave, Roseburg, OR 97470",
    "phone": "(541) 588-5067",
    "rating": 4.7,
    "reviews": 25,
    "website": "https://blperformance.com/",
    "category": "African-American-owned Suspension upgrades in Oregon",
    "description": "Offers comprehensive auto repair and maintenance, including suspension and steering repair",
    "hours": "Mon-Fri 9AM-6PM",
    "services": [
      "African-American-owned Suspension upgrades in Oregon consultation",
      "Professional service",
      "Quality guarantee"
    ],
    "social_links": {}
  },
  {
    "name": "Ron's Front End & Brake Service",
    "address": "1031 SE 82nd Ave, Portland, OR 97216",
    "phone": "(503) 775-8189",
    "rating": 4.0,
    "reviews": 25,
    "website": "https://www.ronsfrontend.com/",
    "category": "African-American-owned Suspension upgrades in Oregon",
    "description": "Specializes in suspension services, including repairs and lift kit installations",
    "hours": "Mon-Fri 9AM-6PM",
    "services": [
      "African-American-owned Suspension upgrades in Oregon consultation",
      "Professional service",
      "Quality guarantee"
    ],
    "social_links": {}
  },
  {
    "name": "Uncle Al's Automotive Services",
    "address": "16700 SE 11th St, Gladstone, OR 97027",
    "phone": "(503) 655-4000",
    "rating": 4.0,
    "reviews": 25,
    "website": "https://unclealsauto.com/",
    "category": "African-American-owned Suspension upgrades in Oregon",
    "description": "Offers a wide range of auto repair services, including transmission, differential, and suspension work",
    "hours": "Mon-Fri 9AM-6PM",
    "services": [
      "African-American-owned Suspension upgrades in Oregon consultation",
      "Professional service",
      "Quality guarantee"
    ],
    "social_links": {}
  },
  {
    "name": "Dunks Performance",
    "address": "350 S 5th St, Springfield, OR 97477",
    "phone": "(541) 741-7777",
    "rating": 4.9,
    "reviews": 25,
    "website": "https://www.dunksperformance.com/",
    "category": "African-American-owned Suspension upgrades in Oregon",
    "description": "Specializes in off-road modifications, including lift kits and suspension work, as well as diesel repair and performance",
    "hours": "Mon-Fri 9AM-6PM",
    "services": [
      "African-American-owned Suspension upgrades in Oregon consultation",
      "Professional service",
      "Quality guarantee"
    ],
    "social_links": {}
  },
  {
    "name": "Brock Automotive Import Service",
    "address": "14575 SW Millikan Way, Beaverton, OR 97005",
    "phone": "(503) 994-1211",
    "rating": 4.7,
    "reviews": 25,
    "website": "https://brockautomotive.com/",
    "category": "African-American-owned Suspension upgrades in Oregon",
    "description": "Provides suspension and steering repair services for European and Asian import vehicles",
    "hours": "Mon-Fri 9AM-6PM",
    "services": [
      "African-American-owned Suspension upgrades in Oregon consultation",
      "Professional service",
      "Quality guarantee"
    ],
    "social_links": {}
  },
  {
    "name": "Northwest Allpro Auto Clinic",
    "address": "306 SW 9th St, Newport, OR 97365",
    "phone": "(541) 265-5225",
    "rating": 4.6,
    "reviews": 25,
    "website": "https://www.northwestallpro.com/",
    "category": "African-American-owned Suspension upgrades in Oregon",
    "description": "Offers a wide range of auto repair services, including suspension and steering",
    "hours": "Mon-Fri 9AM-6PM",
    "services": [
      "African-American-owned Suspension upgrades in Oregon consultation",
      "Professional service",
      "Quality guarantee"
    ],
    "social_links": {}
  },
  {
    "name": "Suspension Specialties",
    "address": "63032 Lower Meadow Dr. #150, Bend, OR 97701",
    "phone": "(541) 390-4339",
    "rating": 4.0,
    "reviews": 25,
    "website": "https://suspensionspecialties.com/",
    "category": "African-American-owned Suspension upgrades in Oregon",
    "description": "Voted Central Oregon's Best Suspension Shop, offering custom upgrades, lift kits, and everyday maintenance",
    "hours": "Mon-Fri 9AM-6PM",
    "services": [
      "African-American-owned Suspension upgrades in Oregon consultation",
      "Professional service",
      "Quality guarantee"
    ],
    "social_links": {}
  },
  {
    "name": "Z's Car Care",
    "address": "402 SW Walnut Street, Hillsboro, OR 97123",
    "phone": "(971) 265-8877",
    "rating": 4.8,
    "reviews": 25,
    "website": "https://www.zscarcare.com/",
    "category": "African-American-owned Suspension upgrades in Oregon",
    "description": "Provides suspension repair and services, with ASE-certified technicians and 40 years of community trust",
    "hours": "Mon-Fri 9AM-6PM",
    "services": [
      "African-American-owned Suspension upgrades in Oregon consultation",
      "Professional service",
      "Quality guarantee"
    ],
    "social_links": {}
  },
  {
    "name": "NW Wheel & Tire",
    "address": "1030 SE 3rd St, Bend, OR 97702",
    "phone": "(541) 389-7777",
    "rating": 4.6,
    "reviews": 25,
    "website": "https://nwwheelandtire.com/",
    "category": "African-American-owned Suspension upgrades in Oregon",
    "description": "Offers suspension upgrades, lift kits, and tire services, with extensive product knowledge",
    "hours": "Mon-Fri 9AM-6PM",
    "services": [
      "African-American-owned Suspension upgrades in Oregon consultation",
      "Professional service",
      "Quality guarantee"
    ],
    "social_links": {}
  },
  {
    "name": "King's Auto LLC",
    "address": "1717 NW Industrial Park Road, Prineville, OR, 97754",
    "phone": "(541) 903-4990",
    "rating": 4.7,
    "reviews": 25,
    "website": "https://kingsauto.llc/",
    "category": "African-American-owned Suspension upgrades in Oregon",
    "description": "Offers complete automotive care, including brakes, tires, oil changes, and full system repairs, with a focus on customer service and integrity",
    "hours": "Mon-Fri 9AM-6PM",
    "services": [
      "African-American-owned Suspension upgrades in Oregon consultation",
      "Professional service",
      "Quality guarantee"
    ],
    "social_links": {}
  }
]