[
  {
    "name": "Virginia Center for Plastic Surgery",
    "address": "8500 Executive Park Ave, Suite 302, Fairfax, VA 22031",
    "phone": "(703) 570-7111",
    "rating": 4.9,
    "reviews": 25,
    "website": "https://www.virginiacenterforplasticsurgery.com/",
    "category": "Buddhist-owned Botox injections in Virginia",
    "description": "Offers a range of plastic surgery and cosmetic procedures, including Botox injections, with a focus on patient care and natural-looking results",
    "hours": "Mon-Fri 9AM-6PM",
    "services": [
      "Buddhist-owned Botox injections in Virginia consultation",
      "Professional service",
      "Quality guarantee"
    ],
    "social_links": {}
  },
  {
    "name": "Center for Plastic Surgery",
    "address": "44145 Woodglen Dr, Suite 100, Ashburn, VA 20147",
    "phone": "(703) 574-2500",
    "rating": 4.7,
    "reviews": 25,
    "website": "https://www.centerforplasticsurgery.com/",
    "category": "Buddhist-owned Botox injections in Virginia",
    "description": "Provides cosmetic and reconstructive surgery services, including injectables like Botox, with experienced surgeons",
    "hours": "Mon-Fri 9AM-6PM",
    "services": [
      "Buddhist-owned Botox injections in Virginia consultation",
      "Professional service",
      "Quality guarantee"
    ],
    "social_links": {}
  },
  {
    "name": "McKeown Cosmetic & Reconstructive Plastic Surgery",
    "address": "420 N. Ridge Road, Suite 100, Richmond, VA 23229",
    "phone": "(804) 288-0101",
    "rating": 5.0,
    "reviews": 25,
    "website": "https://www.virginiacosmetic.com/",
    "category": "Buddhist-owned Botox injections in Virginia",
    "description": "Offers a variety of cosmetic and reconstructive procedures, emphasizing a supportive and positive patient experience",
    "hours": "Mon-Fri 9AM-6PM",
    "services": [
      "Buddhist-owned Botox injections in Virginia consultation",
      "Professional service",
      "Quality guarantee"
    ],
    "social_links": {}
  },
  {
    "name": "Elle Aesthetic Arts",
    "address": "44031 Pipeline Plaza, Suite 101, Ashburn, VA 20147",
    "phone": "(703) 729-0077",
    "rating": 4.9,
    "reviews": 25,
    "website": "https://elleaestheticarts.com/",
    "category": "Buddhist-owned Botox injections in Virginia",
    "description": "A medical spa offering a comprehensive range of aesthetic treatments, including Botox, fillers, and laser procedures, with a focus on personalized care",
    "hours": "Mon-Fri 9AM-6PM",
    "services": [
      "Buddhist-owned Botox injections in Virginia consultation",
      "Professional service",
      "Quality guarantee"
    ],
    "social_links": {}
  },
  {
    "name": "Concept MedSpa + Wellness",
    "address": "10521 Judicial Dr, Suite 300, Fairfax, VA 22030",
    "phone": "(703) 910-5211",
    "rating": 5.0,
    "reviews": 25,
    "website": "https://conceptmedspa.com/",
    "category": "Buddhist-owned Botox injections in Virginia",
    "description": "A wellness and medical spa providing various treatments, including facials and injectables, in a welcoming and clean environment",
    "hours": "Mon-Fri 9AM-6PM",
    "services": [
      "Buddhist-owned Botox injections in Virginia consultation",
      "Professional service",
      "Quality guarantee"
    ],
    "social_links": {}
  },
  {
    "name": "Body Essence",
    "address": "1203 N. Augusta St, Staunton, VA 24401",
    "phone": "(540) 474-5044",
    "rating": 4.7,
    "reviews": 25,
    "website": "https://bodyessence.com/",
    "category": "Buddhist-owned Botox injections in Virginia",
    "description": "A full-service medical spa specializing in neurotoxin treatments like Botox, dermal fillers, and skincare",
    "hours": "Mon-Fri 9AM-6PM",
    "services": [
      "Buddhist-owned Botox injections in Virginia consultation",
      "Professional service",
      "Quality guarantee"
    ],
    "social_links": {}
  },
  {
    "name": "House of Bloom Medical Aesthetics",
    "address": "1010 Caroline St, Fredericksburg, VA 22401",
    "phone": "(540) 479-1400",
    "rating": 4.9,
    "reviews": 25,
    "website": "https://houseofbloommedspa.com/",
    "category": "Buddhist-owned Botox injections in Virginia",
    "description": "A boutique medical spa offering Botox, dermal fillers, and other aesthetic treatments in a relaxing setting",
    "hours": "Mon-Fri 9AM-6PM",
    "services": [
      "Buddhist-owned Botox injections in Virginia consultation",
      "Professional service",
      "Quality guarantee"
    ],
    "social_links": {}
  },
  {
    "name": "Integrated Dermatology of Reston",
    "address": "1820 Monument Ct, Suite 101, Reston, VA 20190",
    "phone": "(703) 429-7474",
    "rating": 4.5,
    "reviews": 25,
    "website": "https://integrateddermatology.com/locations/reston/",
    "category": "Buddhist-owned Botox injections in Virginia",
    "description": "A dermatology practice offering expert Botox injections and other cosmetic treatments, emphasizing the importance of a qualified injector",
    "hours": "Mon-Fri 9AM-6PM",
    "services": [
      "Buddhist-owned Botox injections in Virginia consultation",
      "Professional service",
      "Quality guarantee"
    ],
    "social_links": {}
  },
  {
    "name": "Med Spa of Middleburg, LLC",
    "address": "5 N. Hamilton St, Middleburg, VA 20117",
    "phone": "(540) 883-3177",
    "rating": 4.8,
    "reviews": 25,
    "website": "https://medspaofmiddleburg.com/",
    "category": "Buddhist-owned Botox injections in Virginia",
    "description": "Offers a range of med spa services, including Botox and lip fillers, with a focus on helping clients achieve their desired aesthetic goals",
    "hours": "Mon-Fri 9AM-6PM",
    "services": [
      "Buddhist-owned Botox injections in Virginia consultation",
      "Professional service",
      "Quality guarantee"
    ],
    "social_links": {}
  },
  {
    "name": "Gentle Injections Aesthetics",
    "address": "4151 William Styron Sq N, Newport News, VA 23606",
    "phone": "(757) 200-7100",
    "rating": 4.9,
    "reviews": 25,
    "website": "https://www.gentleinjections.com/",
    "category": "Buddhist-owned Botox injections in Virginia",
    "description": "A cosmetic nurse injector specializing in natural-looking enhancements with Botox and fillers, prioritizing a gentle approach and client well-being",
    "hours": "Mon-Fri 9AM-6PM",
    "services": [
      "Buddhist-owned Botox injections in Virginia consultation",
      "Professional service",
      "Quality guarantee"
    ],
    "social_links": {}
  }
]