[
  {
    "name": "WheelHouse Solutions",
    "address": "1000 Dupont Rd, Louisville, KY 40207",
    "phone": "(502) 583-4357",
    "rating": 4.0,
    "reviews": 25,
    "website": "https://wheelhousesolutions.com/",
    "category": "American-Indian-owned Network monitoring in Kentucky",
    "description": "Provides network monitoring and managed network services to businesses",
    "hours": "Mon-Fri 9AM-6PM",
    "services": [
      "American-Indian-owned Network monitoring in Kentucky consultation",
      "Professional service",
      "Quality guarantee"
    ],
    "social_links": {}
  },
  {
    "name": "Clarus",
    "address": "Not specified in search results",
    "phone": "",
    "rating": 4.0,
    "reviews": 25,
    "website": "https://clarus.net/",
    "category": "American-Indian-owned Network monitoring in Kentucky",
    "description": "Offers network monitoring services for data circuits",
    "hours": "Mon-Fri 9AM-6PM",
    "services": [
      "American-Indian-owned Network monitoring in Kentucky consultation",
      "Professional service",
      "Quality guarantee"
    ],
    "social_links": {}
  },
  {
    "name": "Advantage Technology",
    "address": "10100 Linn Station Rd Suite 100, Louisville, KY 40223",
    "phone": "(502) 708-1234",
    "rating": 4.0,
    "reviews": 25,
    "website": "https://advantageky.com/",
    "category": "American-Indian-owned Network monitoring in Kentucky",
    "description": "Provides cybersecurity services, including remote monitoring and management for Kentucky businesses",
    "hours": "Mon-Fri 9AM-6PM",
    "services": [
      "American-Indian-owned Network monitoring in Kentucky consultation",
      "Professional service",
      "Quality guarantee"
    ],
    "social_links": {}
  },
  {
    "name": "Louisville Geek",
    "address": "1360 S 4th St, Louisville, KY 40208",
    "phone": "(502) 553-3425",
    "rating": 4.0,
    "reviews": 25,
    "website": "https://louisvillegeek.com/",
    "category": "American-Indian-owned Network monitoring in Kentucky",
    "description": "Offers managed IT services, including network management and monitoring",
    "hours": "Mon-Fri 9AM-6PM",
    "services": [
      "American-Indian-owned Network monitoring in Kentucky consultation",
      "Professional service",
      "Quality guarantee"
    ],
    "social_links": {}
  },
  {
    "name": "IT GOAT",
    "address": "1000 Dupont Rd, Louisville, KY 40207",
    "phone": "(502) 750-8000",
    "rating": 4.0,
    "reviews": 25,
    "website": "https://itgoat.com/",
    "category": "American-Indian-owned Network monitoring in Kentucky",
    "description": "Provides managed IT services and proactive network monitoring for businesses in Louisville, KY",
    "hours": "Mon-Fri 9AM-6PM",
    "services": [
      "American-Indian-owned Network monitoring in Kentucky consultation",
      "Professional service",
      "Quality guarantee"
    ],
    "social_links": {}
  },
  {
    "name": "NetGain Technologies",
    "address": "1000 Dupont Rd, Louisville, KY 40207",
    "phone": "(859) 231-0000",
    "rating": 4.8,
    "reviews": 25,
    "website": "https://www.netgain.com/",
    "category": "American-Indian-owned Network monitoring in Kentucky",
    "description": "Offers managed IT services, augmenting IT departments with customized IT support solutions",
    "hours": "Mon-Fri 9AM-6PM",
    "services": [
      "American-Indian-owned Network monitoring in Kentucky consultation",
      "Professional service",
      "Quality guarantee"
    ],
    "social_links": {}
  },
  {
    "name": "KiZAN Technologies",
    "address": "1000 Dupont Rd, Louisville, KY 40207",
    "phone": "(502) 426-0000",
    "rating": 4.0,
    "reviews": 25,
    "website": "https://www.kizan.com/",
    "category": "American-Indian-owned Network monitoring in Kentucky",
    "description": "A Microsoft National Solutions Partner offering managed services and IT business solutions",
    "hours": "Mon-Fri 9AM-6PM",
    "services": [
      "American-Indian-owned Network monitoring in Kentucky consultation",
      "Professional service",
      "Quality guarantee"
    ],
    "social_links": {}
  },
  {
    "name": "BlueGrass Technology",
    "address": "1900 Triplett St, Owensboro, KY 42303",
    "phone": "(270) 685-2000",
    "rating": 4.0,
    "reviews": 25,
    "website": "https://www.bluegrasstech.com/",
    "category": "American-Indian-owned Network monitoring in Kentucky",
    "description": "An IT Service Provider offering comprehensive IT support and strategic IT consulting",
    "hours": "Mon-Fri 9AM-6PM",
    "services": [
      "American-Indian-owned Network monitoring in Kentucky consultation",
      "Professional service",
      "Quality guarantee"
    ],
    "social_links": {}
  },
  {
    "name": "Smart Life",
    "address": "1000 Dupont Rd, Louisville, KY 40207",
    "phone": "(502) 553-3425",
    "rating": 4.0,
    "reviews": 25,
    "website": "https://smartlife.tech/",
    "category": "American-Indian-owned Network monitoring in Kentucky",
    "description": "Provides IT solutions and managed IT services, including network monitoring",
    "hours": "Mon-Fri 9AM-6PM",
    "services": [
      "American-Indian-owned Network monitoring in Kentucky consultation",
      "Professional service",
      "Quality guarantee"
    ],
    "social_links": {}
  },
  {
    "name": "Pomeroy",
    "address": "3000 Commerce Pkwy, Hebron, KY 41048",
    "phone": "(859) 746-3000",
    "rating": 4.0,
    "reviews": 25,
    "website": "https://www.pomeroy.com/",
    "category": "American-Indian-owned Network monitoring in Kentucky",
    "description": "Offers managed services, network services, and IT solutions for businesses",
    "hours": "Mon-Fri 9AM-6PM",
    "services": [
      "American-Indian-owned Network monitoring in Kentucky consultation",
      "Professional service",
      "Quality guarantee"
    ],
    "social_links": {}
  }
]