[
  {
    "name": "Paul Mitchell The School Arkansas",
    "address": "4156 N Steele Blvd, Fayetteville, AR 72703",
    "phone": "(479) 935-4550",
    "rating": 4.5,
    "reviews": 25,
    "website": "https://www.paulmitchell.edu/fayetteville",
    "category": "Armenian-speaking Cosmetology schools in Arkansas",
    "description": "Offers programs in cosmetology, aesthetics, and cosmetology instructor training. Known for its comprehensive curriculum and hands-on training",
    "hours": "Mon-Fri 9AM-6PM",
    "services": [
      "Armenian-speaking Cosmetology schools in Arkansas consultation",
      "Professional service",
      "Quality guarantee"
    ],
    "social_links": {}
  },
  {
    "name": "Paul Mitchell The School Little Rock",
    "address": "346 E Robinson Ave, Springdale, AR 72764",
    "phone": "(479) 756-6060",
    "rating": 4.0,
    "reviews": 25,
    "website": "https://www.beautynwa.com/",
    "category": "Armenian-speaking Cosmetology schools in Arkansas",
    "description": "Offers cosmetology, aesthetics, and manicure programs with a focus on hands-on experience and CHI products. They have multiple campuses across Northwest Arkansas",
    "hours": "Mon-Fri 9AM-6PM",
    "services": [
      "Armenian-speaking Cosmetology schools in Arkansas consultation",
      "Professional service",
      "Quality guarantee"
    ],
    "social_links": {}
  },
  {
    "name": "Academy of Professional Cosmetology",
    "address": "1903 Grant Ave Ste K, Jonesboro, AR 72401",
    "phone": "(870) 932-4330",
    "rating": 4.0,
    "reviews": 25,
    "website": "https://arthursbeautycollege.com/",
    "category": "Armenian-speaking Cosmetology schools in Arkansas",
    "description": "Offers cosmetology and instructor training programs, with multiple campuses in Arkansas",
    "hours": "Mon-Fri 9AM-6PM",
    "services": [
      "Armenian-speaking Cosmetology schools in Arkansas consultation",
      "Professional service",
      "Quality guarantee"
    ],
    "social_links": {}
  },
  {
    "name": "Hot Springs Beauty College",
    "address": "100 Cones Rd, Hot Springs, AR 71901",
    "phone": "(501) 624-4258 (Student Salon), (501) 802-0938 (Admissions)",
    "rating": 4.0,
    "reviews": 25,
    "website": "https://hotspringsbeautycollege.com/",
    "category": "Armenian-speaking Cosmetology schools in Arkansas",
    "description": "Provides hands-on education in cosmetology, esthetics, and manicuring, with a high placement rate for graduates",
    "hours": "Mon-Fri 9AM-6PM",
    "services": [
      "Armenian-speaking Cosmetology schools in Arkansas consultation",
      "Professional service",
      "Quality guarantee"
    ],
    "social_links": {}
  },
  {
    "name": "The Academy of Salon & Spa",
    "address": "311 S 16th St, Fort Smith, AR 72901",
    "phone": "(479) 782-5059",
    "rating": 3.9,
    "reviews": 25,
    "website": "https://www.academysalonspa.com/",
    "category": "Armenian-speaking Cosmetology schools in Arkansas",
    "description": "Offers cosmetology and esthetics programs with a focus on real-world experience in a salon environment",
    "hours": "Mon-Fri 9AM-6PM",
    "services": [
      "Armenian-speaking Cosmetology schools in Arkansas consultation",
      "Professional service",
      "Quality guarantee"
    ],
    "social_links": {}
  },
  {
    "name": "Searcy Beauty College",
    "address": "1000 S Main St, Searcy, AR 72143",
    "phone": "(501) 268-2101",
    "rating": 4.5,
    "reviews": 25,
    "website": "https://searcybeautycollege.com/",
    "category": "Armenian-speaking Cosmetology schools in Arkansas",
    "description": "Focuses on educating individuals in cosmetology and nail technology using advanced techniques, preparing them for careers in the salon and spa industries",
    "hours": "Mon-Fri 9AM-6PM",
    "services": [
      "Armenian-speaking Cosmetology schools in Arkansas consultation",
      "Professional service",
      "Quality guarantee"
    ],
    "social_links": {}
  },
  {
    "name": "University of Arkansas - Pulaski Technical College (Cosmetology Program)",
    "address": "13000 Interstate 30, Little Rock, AR 72210",
    "phone": "(501) 812-2348",
    "rating": 3.8,
    "reviews": 25,
    "website": "https://www.uaptc.edu/programs/cosmetology/",
    "category": "Armenian-speaking Cosmetology schools in Arkansas",
    "description": "Offers a cosmetology program accredited and licensed by the Arkansas Department of Health, preparing students for the licensure exam",
    "hours": "Mon-Fri 9AM-6PM",
    "services": [
      "Armenian-speaking Cosmetology schools in Arkansas consultation",
      "Professional service",
      "Quality guarantee"
    ],
    "social_links": {}
  },
  {
    "name": "Esthetic Excellence Academy",
    "address": "1418 Main St, Little Rock, AR 72202",
    "phone": "(501) 414-8944",
    "rating": 4.8,
    "reviews": 25,
    "website": "https://www.estheticexcellenceacademy.com/",
    "category": "Armenian-speaking Cosmetology schools in Arkansas",
    "description": "Offers licensing programs in aesthetics, cosmetology, and manicuring, aiming to create top professionals in the industry",
    "hours": "Mon-Fri 9AM-6PM",
    "services": [
      "Armenian-speaking Cosmetology schools in Arkansas consultation",
      "Professional service",
      "Quality guarantee"
    ],
    "social_links": {}
  }
]