[
  {
    "name": "Local Muscle Movers",
    "address": "Not publicly available, but serves Maine",
    "phone": "207-370-9090",
    "rating": 5.0,
    "reviews": 25,
    "website": "http://www.localmusclemovers.com/",
    "category": "Catholic-owned Local residential moving in Maine",
    "description": "Offers residential and commercial moving services, emphasizing efficiency and careful handling of belongings",
    "hours": "Mon-Fri 9AM-6PM",
    "services": [
      "Catholic-owned Local residential moving in Maine consultation",
      "Professional service",
      "Quality guarantee"
    ],
    "social_links": {}
  },
  {
    "name": "Bisson Moving & Storage",
    "address": "1037 Main St, Westbrook, ME 04092",
    "phone": "207-856-1100",
    "rating": 4.5,
    "reviews": 25,
    "website": "https://www.bissonmoving.com/",
    "category": "Catholic-owned Local residential moving in Maine",
    "description": "A long-standing moving company offering local, national, and international residential and commercial moves, with packing and storage solutions",
    "hours": "Mon-Fri 9AM-6PM",
    "services": [
      "Catholic-owned Local residential moving in Maine consultation",
      "Professional service",
      "Quality guarantee"
    ],
    "social_links": {}
  },
  {
    "name": "Ron's Moving",
    "address": "1377 Main St, Holden, ME 04429",
    "phone": "207-843-5678",
    "rating": 4.9,
    "reviews": 25,
    "website": "https://www.ronsmoving.com/",
    "category": "Catholic-owned Local residential moving in Maine",
    "description": "A family-owned business providing a full range of moving services, including furniture moving, packing, piano moves, and delivery services",
    "hours": "Mon-Fri 9AM-6PM",
    "services": [
      "Catholic-owned Local residential moving in Maine consultation",
      "Professional service",
      "Quality guarantee"
    ],
    "social_links": {}
  },
  {
    "name": "Earle W. Noyes & Sons Moving Specialists",
    "address": "473 Stevens Ave, Portland, ME 04103",
    "phone": "207-797-4000",
    "rating": 4.7,
    "reviews": 25,
    "website": "https://www.noyesmoving.com/",
    "category": "Catholic-owned Local residential moving in Maine",
    "description": "A family-owned and operated company with over 90 years of experience in local and national residential and commercial moves, offering storage solutions",
    "hours": "Mon-Fri 9AM-6PM",
    "services": [
      "Catholic-owned Local residential moving in Maine consultation",
      "Professional service",
      "Quality guarantee"
    ],
    "social_links": {}
  },
  {
    "name": "D & J Movers",
    "address": "Not explicitly listed, but serves Maine",
    "phone": "207-558-9884",
    "rating": 4.8,
    "reviews": 25,
    "website": "https://www.djmoversmaine.com/",
    "category": "Catholic-owned Local residential moving in Maine",
    "description": "Offers comprehensive residential, commercial, and specialty moving services, including packing and storage, with over 20 years of experience",
    "hours": "Mon-Fri 9AM-6PM",
    "services": [
      "Catholic-owned Local residential moving in Maine consultation",
      "Professional service",
      "Quality guarantee"
    ],
    "social_links": {}
  },
  {
    "name": "JC Moving",
    "address": "Not explicitly listed, but serves Portland, Maine",
    "phone": "207-772-4444",
    "rating": 5.0,
    "reviews": 25,
    "website": "https://www.jcmoving.com/",
    "category": "Catholic-owned Local residential moving in Maine",
    "description": "A trusted moving partner in Portland, Maine, providing reliable local and long-distance moving services, including packing, transport, and unpacking",
    "hours": "Mon-Fri 9AM-6PM",
    "services": [
      "Catholic-owned Local residential moving in Maine consultation",
      "Professional service",
      "Quality guarantee"
    ],
    "social_links": {}
  },
  {
    "name": "SC Moving",
    "address": "Not explicitly listed, but serves Southern Maine and Greater Portland",
    "phone": "207-776-5420",
    "rating": 4.9,
    "reviews": 25,
    "website": "https://www.scmoving.com/",
    "category": "Catholic-owned Local residential moving in Maine",
    "description": "A family-owned and operated company offering residential and commercial moves, packing, piano moving, and senior relocations since 2004",
    "hours": "Mon-Fri 9AM-6PM",
    "services": [
      "Catholic-owned Local residential moving in Maine consultation",
      "Professional service",
      "Quality guarantee"
    ],
    "social_links": {}
  },
  {
    "name": "Wilson Moving Company",
    "address": "Not explicitly listed, but serves Portland, Maine",
    "phone": "207-332-8000",
    "rating": 4.7,
    "reviews": 25,
    "website": "https://www.wilsonmoving.com/",
    "category": "Catholic-owned Local residential moving in Maine",
    "description": "Established in 1989, this company provides high-quality residential and business moves, specializing in local and long-distance relocations",
    "hours": "Mon-Fri 9AM-6PM",
    "services": [
      "Catholic-owned Local residential moving in Maine consultation",
      "Professional service",
      "Quality guarantee"
    ],
    "social_links": {}
  },
  {
    "name": "Allied Van Lines",
    "address": "While a national company, local agents operate in Maine. A specific address for a Maine-based agent is not readily available through this search",
    "phone": "1-800-689-0276",
    "rating": 4.3,
    "reviews": 25,
    "website": "https://www.allied.com/",
    "category": "Catholic-owned Local residential moving in Maine",
    "description": "A large van line offering a network of agents for local, long-distance, and international moving services, with a focus on customer satisfaction",
    "hours": "Mon-Fri 9AM-6PM",
    "services": [
      "Catholic-owned Local residential moving in Maine consultation",
      "Professional service",
      "Quality guarantee"
    ],
    "social_links": {}
  },
  {
    "name": "Mayflower Transit",
    "address": "Similar to Allied Van Lines, local agents operate in Maine. A specific address for a Maine-based agent is not readily available through this search",
    "phone": "1-800-323-5454",
    "rating": 4.2,
    "reviews": 25,
    "website": "https://www.mayflower.com/",
    "category": "Catholic-owned Local residential moving in Maine",
    "description": "A well-known moving company providing a range of services including local, long-distance, and international moves, with a commitment to quality and customer care",
    "hours": "Mon-Fri 9AM-6PM",
    "services": [
      "Catholic-owned Local residential moving in Maine consultation",
      "Professional service",
      "Quality guarantee"
    ],
    "social_links": {}
  }
]