[
  {
    "name": "Springfield Township Arts Foundation, Inc. (ArtsConnect)",
    "address": "9158 Winton Rd, Building A, Springfield Township, OH 45231",
    "phone": "(513) 851-7444",
    "rating": 4.2,
    "reviews": 25,
    "website": "https://www.springfieldarts.org/",
    "category": "Baby-Boomer-owned Drawing instruction in Ohio",
    "description": "Offers drawing fundamentals classes focusing on basic skills, perspective, color, and shading",
    "hours": "Mon-Fri 9AM-6PM",
    "services": [
      "Baby-Boomer-owned Drawing instruction in Ohio consultation",
      "Professional service",
      "Quality guarantee"
    ],
    "social_links": {}
  },
  {
    "name": "Greg Storer Art Classes",
    "address": "503 W Main Street, Mason, OH 45040",
    "phone": "(513) 237-5067",
    "rating": 5.0,
    "reviews": 25,
    "website": "https://gregstorerart.com/",
    "category": "Baby-Boomer-owned Drawing instruction in Ohio",
    "description": "Provides art classes for all ages and abilities, including basic drawing, with a focus on a relaxed and fun learning environment",
    "hours": "Mon-Fri 9AM-6PM",
    "services": [
      "Baby-Boomer-owned Drawing instruction in Ohio consultation",
      "Professional service",
      "Quality guarantee"
    ],
    "social_links": {}
  },
  {
    "name": "Cultural Arts Center",
    "address": "139 W Main St, Columbus, OH 43215",
    "phone": "(614) 645-2797",
    "rating": 4.0,
    "reviews": 25,
    "website": "https://www.culturalartscenter.org/",
    "category": "Baby-Boomer-owned Drawing instruction in Ohio",
    "description": "Offers a wide array of art classes, including drawing, painting, sculpture, and more, in sessions of 7-8 weeks",
    "hours": "Mon-Fri 9AM-6PM",
    "services": [
      "Baby-Boomer-owned Drawing instruction in Ohio consultation",
      "Professional service",
      "Quality guarantee"
    ],
    "social_links": {}
  },
  {
    "name": "Terra Gallery & Creative Studio",
    "address": "7729 Ditzler Ave NW, North Canton, OH 44720 (Note: Search results also mention Dublin, OH for a location)",
    "phone": "(330) 494-5594",
    "rating": 4.0,
    "reviews": 25,
    "website": "https://www.terragalleryandstudio.com/",
    "category": "Baby-Boomer-owned Drawing instruction in Ohio",
    "description": "Provides studio spaces, custom artwork, framing, and art classes for all ages",
    "hours": "Mon-Fri 9AM-6PM",
    "services": [
      "Baby-Boomer-owned Drawing instruction in Ohio consultation",
      "Professional service",
      "Quality guarantee"
    ],
    "social_links": {}
  },
  {
    "name": "Door 2 Art Studio",
    "address": "126 N Main St, Hudson, OH 44236",
    "phone": "(330) 655-2400",
    "rating": 4.0,
    "reviews": 25,
    "website": "https://www.door2art.com/",
    "category": "Baby-Boomer-owned Drawing instruction in Ohio",
    "description": "A multi-faceted art studio offering community events, open studio times, and art classes in various mediums",
    "hours": "Mon-Fri 9AM-6PM",
    "services": [
      "Baby-Boomer-owned Drawing instruction in Ohio consultation",
      "Professional service",
      "Quality guarantee"
    ],
    "social_links": {}
  },
  {
    "name": "Young Rembrandts (Greater Cleveland)",
    "address": "Various locations in Cleveland, Avon, Avon Lake, Bay Village, Berea, Brunswick, Lakewood, Medina, North Ridgeville, Sagamore Hills, Rocky River, Strongsville, and Westlake, OH. Specific studio address not provided in search results",
    "phone": "(216) 272-0007",
    "rating": 4.0,
    "reviews": 25,
    "website": "https://www.youngrembrandts.com/greatercleveland/",
    "category": "Baby-Boomer-owned Drawing instruction in Ohio",
    "description": "Offers drawing classes for children, including early learner, elementary, and cartoon drawing, providing all materials and curriculum",
    "hours": "Mon-Fri 9AM-6PM",
    "services": [
      "Baby-Boomer-owned Drawing instruction in Ohio consultation",
      "Professional service",
      "Quality guarantee"
    ],
    "social_links": {}
  },
  {
    "name": "Fitton Center for Creative Arts",
    "address": "105 S. Monument St., Hamilton, OH 45011",
    "phone": "(513) 863-8873",
    "rating": 4.0,
    "reviews": 25,
    "website": "https://www.fittoncenter.org/",
    "category": "Baby-Boomer-owned Drawing instruction in Ohio",
    "description": "Provides art classes for all ages, including drawing, painting, and sculpture, with experienced instructors",
    "hours": "Mon-Fri 9AM-6PM",
    "services": [
      "Baby-Boomer-owned Drawing instruction in Ohio consultation",
      "Professional service",
      "Quality guarantee"
    ],
    "social_links": {}
  },
  {
    "name": "Canton Museum of Art",
    "address": "1001 Market Ave N, Canton, OH 44702",
    "phone": "(330) 453-7666",
    "rating": 4.0,
    "reviews": 25,
    "website": "https://www.cantonart.org/",
    "category": "Baby-Boomer-owned Drawing instruction in Ohio",
    "description": "Offers art classes and workshops with various instructors specializing in different mediums, including drawing",
    "hours": "Mon-Fri 9AM-6PM",
    "services": [
      "Baby-Boomer-owned Drawing instruction in Ohio consultation",
      "Professional service",
      "Quality guarantee"
    ],
    "social_links": {}
  },
  {
    "name": "Middletown Arts Center",
    "address": "130 N Verity Pkwy, Middletown, OH 45042",
    "phone": "(513) 424-2448",
    "rating": 4.0,
    "reviews": 25,
    "website": "https://www.middletownartscenter.org/",
    "category": "Baby-Boomer-owned Drawing instruction in Ohio",
    "description": "Offers a variety of art classes, including drawing, painting, and ceramics, with experienced instructors",
    "hours": "Mon-Fri 9AM-6PM",
    "services": [
      "Baby-Boomer-owned Drawing instruction in Ohio consultation",
      "Professional service",
      "Quality guarantee"
    ],
    "social_links": {}
  },
  {
    "name": "McConnell Arts Center",
    "address": "777 Evening St, Worthington, OH 43085",
    "phone": "(614) 431-4074",
    "rating": 4.0,
    "reviews": 25,
    "website": "https://mcconnellarts.org/",
    "category": "Baby-Boomer-owned Drawing instruction in Ohio",
    "description": "Provides art classes for all ages in visual arts, ceramics, writing, and more, including drawing classes",
    "hours": "Mon-Fri 9AM-6PM",
    "services": [
      "Baby-Boomer-owned Drawing instruction in Ohio consultation",
      "Professional service",
      "Quality guarantee"
    ],
    "social_links": {}
  }
]