[
  {
    "name": "Associated Staffing Incorporated",
    "address": "Multiple locations across Nebraska",
    "phone": "(402) 467-4000 (Grand Island)",
    "rating": 4.5,
    "reviews": 25,
    "website": "https://www.associatedstaffing.com/",
    "category": "Agnostic-owned Temporary staffing in Nebraska",
    "description": "Offers temporary, temp-to-hire, and direct-hire services to businesses throughout Nebraska. They focus on understanding client needs and providing quality candidates",
    "hours": "Mon-Fri 9AM-6PM",
    "services": [
      "Agnostic-owned Temporary staffing in Nebraska consultation",
      "Professional service",
      "Quality guarantee"
    ],
    "social_links": {}
  },
  {
    "name": "Insight Global",
    "address": "11235 Davenport St, Omaha, NE 68154",
    "phone": "(402) 397-0200",
    "rating": 4.7,
    "reviews": 25,
    "website": "https://www.insightglobal.com/",
    "category": "Agnostic-owned Temporary staffing in Nebraska",
    "description": "A national staffing and professional services agency with a strong presence in Omaha, serving various industries including healthcare, manufacturing, and IT",
    "hours": "Mon-Fri 9AM-6PM",
    "services": [
      "Agnostic-owned Temporary staffing in Nebraska consultation",
      "Professional service",
      "Quality guarantee"
    ],
    "social_links": {}
  },
  {
    "name": "Express Employment Professionals",
    "address": "4955 O Street, Suite C, Lincoln, NE 68510",
    "phone": "(402) 488-1000",
    "rating": 4.5,
    "reviews": 25,
    "website": "https://www.expresspros.com/lincolnne/",
    "category": "Agnostic-owned Temporary staffing in Nebraska",
    "description": "Provides temporary, temp-to-hire, and direct-hire staffing solutions across various sectors, including industrial, commercial, and administrative",
    "hours": "Mon-Fri 9AM-6PM",
    "services": [
      "Agnostic-owned Temporary staffing in Nebraska consultation",
      "Professional service",
      "Quality guarantee"
    ],
    "social_links": {}
  },
  {
    "name": "Job Source USA",
    "address": "1111 N 102nd St, Omaha, NE 68114",
    "phone": "(402) 393-5627",
    "rating": 4.3,
    "reviews": 25,
    "website": "https://jobsourecusa.com/",
    "category": "Agnostic-owned Temporary staffing in Nebraska",
    "description": "A locally owned and operated full-service staffing company serving the Omaha and Council Bluffs Metro Areas with temporary, temp-to-hire, and direct-hire services",
    "hours": "Mon-Fri 9AM-6PM",
    "services": [
      "Agnostic-owned Temporary staffing in Nebraska consultation",
      "Professional service",
      "Quality guarantee"
    ],
    "social_links": {}
  },
  {
    "name": "A-1 Staffing",
    "address": "3020 S 24th St, Omaha, NE 68108",
    "phone": "(402) 731-4000",
    "rating": 4.6,
    "reviews": 25,
    "website": "https://www.a-1staffing.com/",
    "category": "Agnostic-owned Temporary staffing in Nebraska",
    "description": "A temporary staffing agency in Omaha offering temporary hires, temp-to-permanent, and direct hire services, focused on building strong community connections",
    "hours": "Mon-Fri 9AM-6PM",
    "services": [
      "Agnostic-owned Temporary staffing in Nebraska consultation",
      "Professional service",
      "Quality guarantee"
    ],
    "social_links": {}
  },
  {
    "name": "HireQuest Direct of Omaha",
    "address": "5822 Center St, Omaha, NE 68106",
    "phone": "(402) 341-8258",
    "rating": 4.2,
    "reviews": 25,
    "website": "https://www.hirequest.com/locations/omaha-ne/",
    "category": "Agnostic-owned Temporary staffing in Nebraska",
    "description": "A leading provider of temporary staffing solutions, connecting businesses with qualified and E-Verified talent",
    "hours": "Mon-Fri 9AM-6PM",
    "services": [
      "Agnostic-owned Temporary staffing in Nebraska consultation",
      "Professional service",
      "Quality guarantee"
    ],
    "social_links": {}
  },
  {
    "name": "HireQuest Direct of Bellevue",
    "address": "2212 Avery Rd E, Bellevue, NE 68005",
    "phone": "(402) 913-2397",
    "rating": 4.1,
    "reviews": 25,
    "website": "https://www.hirequest.com/locations/bellevue-ne/",
    "category": "Agnostic-owned Temporary staffing in Nebraska",
    "description": "Part of the HireQuest Inc. network, this location provides temporary staffing solutions to businesses in the Bellevue area",
    "hours": "Mon-Fri 9AM-6PM",
    "services": [
      "Agnostic-owned Temporary staffing in Nebraska consultation",
      "Professional service",
      "Quality guarantee"
    ],
    "social_links": {}
  },
  {
    "name": "Essential Personnel",
    "address": "11430 W Center Rd, Omaha, NE 68144",
    "phone": "(402) 934-3300",
    "rating": 4.8,
    "reviews": 25,
    "website": "https://www.essentialpersonnel.com/",
    "category": "Agnostic-owned Temporary staffing in Nebraska",
    "description": "A staffing and recruiting agency offering temporary, temporary-to-hire, and direct-hire staffing solutions throughout Nebraska and Iowa",
    "hours": "Mon-Fri 9AM-6PM",
    "services": [
      "Agnostic-owned Temporary staffing in Nebraska consultation",
      "Professional service",
      "Quality guarantee"
    ],
    "social_links": {}
  },
  {
    "name": "Aerotek",
    "address": "13321 California St, Omaha, NE 68154",
    "phone": "(402) 330-0777",
    "rating": 4.4,
    "reviews": 25,
    "website": "https://www.aerotek.com/",
    "category": "Agnostic-owned Temporary staffing in Nebraska",
    "description": "An award-winning staffing agency that connects hard-working people with businesses across various industries. They have offices in Lincoln and Omaha",
    "hours": "Mon-Fri 9AM-6PM",
    "services": [
      "Agnostic-owned Temporary staffing in Nebraska consultation",
      "Professional service",
      "Quality guarantee"
    ],
    "social_links": {}
  },
  {
    "name": "Snelling of Omaha",
    "address": "12100 W Center Rd #1201, Omaha, NE 68144",
    "phone": "(402) 330-0100",
    "rating": 4.3,
    "reviews": 25,
    "website": "https://www.snelling.com/locations/omaha-ne",
    "category": "Agnostic-owned Temporary staffing in Nebraska",
    "description": "Known nationwide for exceptional temporary and direct-hire recruiting, Snelling of Omaha serves businesses in the region",
    "hours": "Mon-Fri 9AM-6PM",
    "services": [
      "Agnostic-owned Temporary staffing in Nebraska consultation",
      "Professional service",
      "Quality guarantee"
    ],
    "social_links": {}
  }
]