[
  {
    "name": "Phoenix Oral & Facial Surgery",
    "address": "500 W. Thomas Rd., Suite 300, Phoenix, AZ 85013",
    "phone": "(602) 277-7575",
    "rating": 4.9,
    "reviews": 25,
    "website": "https://www.phoenixoralfacialsurgery.com/",
    "category": "Armenian-speaking Oral surgery in Arizona",
    "description": "Specializes in wisdom tooth removal, dental implants, corrective jaw surgery, and more",
    "hours": "Mon-Fri 9AM-6PM",
    "services": [
      "Armenian-speaking Oral surgery in Arizona consultation",
      "Professional service",
      "Quality guarantee"
    ],
    "social_links": {}
  },
  {
    "name": "Oral & Facial Surgeons of Arizona",
    "address": "Multiple locations, including 1215 W. Rio Salado Parkway, Suite 113, Tempe, AZ 85281",
    "phone": "(480) 820-7400",
    "rating": 4.9,
    "reviews": 25,
    "website": "https://www.oralandfacialsurgeryofaz.com/",
    "category": "Armenian-speaking Oral surgery in Arizona",
    "description": "Offers a comprehensive range of oral and maxillofacial surgery services, including wisdom teeth removal and dental implants",
    "hours": "Mon-Fri 9AM-6PM",
    "services": [
      "Armenian-speaking Oral surgery in Arizona consultation",
      "Professional service",
      "Quality guarantee"
    ],
    "social_links": {}
  },
  {
    "name": "Southwest Oral Surgery",
    "address": "6700 N. Glenoaks Blvd., Suite 100, Glendale, AZ 85307",
    "phone": "(623) 931-0700",
    "rating": 4.8,
    "reviews": 25,
    "website": "https://www.southwestoralsurgery.com/",
    "category": "Armenian-speaking Oral surgery in Arizona",
    "description": "Provides high-level care in a comfortable environment, offering treatments like full-arch restoration and wisdom teeth removal",
    "hours": "Mon-Fri 9AM-6PM",
    "services": [
      "Armenian-speaking Oral surgery in Arizona consultation",
      "Professional service",
      "Quality guarantee"
    ],
    "social_links": {}
  },
  {
    "name": "AZ Oral Facial & Implant Surgery",
    "address": "2450 W. Ray Rd., Suite 1, Chandler, AZ 85224",
    "phone": "(480) 814-9500",
    "rating": 4.8,
    "reviews": 25,
    "website": "https://www.azoralfacial.com/",
    "category": "Armenian-speaking Oral surgery in Arizona",
    "description": "Offers expert oral surgery, dental implants, and jaw surgery with compassionate care",
    "hours": "Mon-Fri 9AM-6PM",
    "services": [
      "Armenian-speaking Oral surgery in Arizona consultation",
      "Professional service",
      "Quality guarantee"
    ],
    "social_links": {}
  },
  {
    "name": "AZ Max Oral & Maxillofacial Surgeons",
    "address": "Multiple locations, including 1730 S. Stapley Dr., Suite 101, Mesa, AZ 85204",
    "phone": "(480) 832-5432",
    "rating": 4.7,
    "reviews": 25,
    "website": "https://azmaxoms.com/",
    "category": "Armenian-speaking Oral surgery in Arizona",
    "description": "Provides a full scope of oral and maxillofacial surgery, including dental implants and wisdom teeth removal",
    "hours": "Mon-Fri 9AM-6PM",
    "services": [
      "Armenian-speaking Oral surgery in Arizona consultation",
      "Professional service",
      "Quality guarantee"
    ],
    "social_links": {}
  },
  {
    "name": "Arizona Center for Oral Surgery",
    "address": "18301 N. 79th Ave., Building G, Suite 185, Glendale, AZ 85308",
    "phone": "(623) 931-9197",
    "rating": 4.8,
    "reviews": 25,
    "website": "https://www.azctr4oralsurgery.com/",
    "category": "Armenian-speaking Oral surgery in Arizona",
    "description": "Offers expert surgical solutions to restore oral health and enhance smiles, utilizing advanced techniques",
    "hours": "Mon-Fri 9AM-6PM",
    "services": [
      "Armenian-speaking Oral surgery in Arizona consultation",
      "Professional service",
      "Quality guarantee"
    ],
    "social_links": {}
  },
  {
    "name": "Fish & Sarhangian Oral & Maxillofacial Surgeons",
    "address": "1200 W. Warner Rd., Building A, Suite 3, Chandler, AZ 85224",
    "phone": "(480) 726-6600",
    "rating": 4.7,
    "reviews": 25,
    "website": "https://www.fishandsarhangian.com/",
    "category": "Armenian-speaking Oral surgery in Arizona",
    "description": "Practice a full scope of oral and maxillofacial surgery, including corrective jaw surgery and dental implants",
    "hours": "Mon-Fri 9AM-6PM",
    "services": [
      "Armenian-speaking Oral surgery in Arizona consultation",
      "Professional service",
      "Quality guarantee"
    ],
    "social_links": {}
  },
  {
    "name": "ProSmile Dental Implant Center",
    "address": "4040 E. Camelback Rd., Suite 100, Phoenix, AZ 85018",
    "phone": "(602) 753-7000",
    "rating": 4.8,
    "reviews": 25,
    "website": "https://prosmiledentalimplants.com/",
    "category": "Armenian-speaking Oral surgery in Arizona",
    "description": "Specializes in dental implants, wisdom teeth removal, and full-arch restorations with advanced oral surgeries",
    "hours": "Mon-Fri 9AM-6PM",
    "services": [
      "Armenian-speaking Oral surgery in Arizona consultation",
      "Professional service",
      "Quality guarantee"
    ],
    "social_links": {}
  },
  {
    "name": "Precision Oral and Maxillofacial Surgery",
    "address": "3131 E. Camelback Rd., Suite 100, Phoenix, AZ 85016",
    "phone": "(602) 955-1111",
    "rating": 4.9,
    "reviews": 25,
    "website": "https://www.precisionoms.com/",
    "category": "Armenian-speaking Oral surgery in Arizona",
    "description": "Focuses on advanced procedures for the oral cavity and head/neck, providing a gentle and personal experience",
    "hours": "Mon-Fri 9AM-6PM",
    "services": [
      "Armenian-speaking Oral surgery in Arizona consultation",
      "Professional service",
      "Quality guarantee"
    ],
    "social_links": {}
  },
  {
    "name": "Valley Endodontics & Oral Surgery",
    "address": "7227 N. 16th St., Suite 100, Phoenix, AZ 85020",
    "phone": "(602) 944-2424",
    "rating": 4.7,
    "reviews": 25,
    "website": "https://valleyendo.com/",
    "category": "Armenian-speaking Oral surgery in Arizona",
    "description": "Offers a range of oral surgery services with a focus on patient comfort and utilizing the latest technology",
    "hours": "Mon-Fri 9AM-6PM",
    "services": [
      "Armenian-speaking Oral surgery in Arizona consultation",
      "Professional service",
      "Quality guarantee"
    ],
    "social_links": {}
  }
]