[
  {
    "name": "Comfortable Inspections LLC",
    "address": "1500 De Greve Pl, Columbus, OH 43213",
    "phone": "(614) 266-1869",
    "rating": 4.0,
    "reviews": 25,
    "website": "https://www.comfortableinspections.com",
    "category": "African-American-owned Home inspection in Ohio",
    "description": "Provides home inspection services in Columbus, OH and surrounding areas. Kiyanna Black is listed as a licensed inspector",
    "hours": "Mon-Fri 9AM-6PM",
    "services": [
      "African-American-owned Home inspection in Ohio consultation",
      "Professional service",
      "Quality guarantee"
    ],
    "social_links": {}
  },
  {
    "name": "ARK Home Inspection",
    "address": "Multiple locations in Northeast Ohio, including Chagrin Falls, Fairlawn/Copley, Green, Parma, Hudson, Canton, Youngstown, Lakewood, Cuyahoga Falls, Mentor, Akron, Lorain, Elyria, Cleveland",
    "phone": "330-696-4032 or 330-304-4340",
    "rating": 4.9,
    "reviews": 25,
    "website": "https://arkhomeinspection.com/",
    "category": "African-American-owned Home inspection in Ohio",
    "description": "Offers fast, tech-driven inspections and same-day reports in Northeast Ohio. They are firefighter-owned",
    "hours": "Mon-Fri 9AM-6PM",
    "services": [
      "African-American-owned Home inspection in Ohio consultation",
      "Professional service",
      "Quality guarantee"
    ],
    "social_links": {}
  },
  {
    "name": "Blackhawk Home Inspection",
    "address": "Service areas include Northeast Ohio. Specific business address not provided",
    "phone": "Charlie Drazetic: 440-226-0699; Jim Penza: 440-487-9846",
    "rating": 4.0,
    "reviews": 25,
    "website": "https://blackhawkhomeinspection.com/",
    "category": "African-American-owned Home inspection in Ohio",
    "description": "Provides unbiased, professional home inspections with expertise in structural, heating and cooling, electrical, plumbing, roofing, and exterior systems. They are also certified wood-destroying insect inspectors and radon testers",
    "hours": "Mon-Fri 9AM-6PM",
    "services": [
      "African-American-owned Home inspection in Ohio consultation",
      "Professional service",
      "Quality guarantee"
    ],
    "social_links": {}
  },
  {
    "name": "Inspection Professionals of Ohio, LLC",
    "address": "Proudly serving all Northeast Ohio counties. Specific business address not provided",
    "phone": "330-324-9854",
    "rating": 4.0,
    "reviews": 25,
    "website": "https://www.proinspectionohio.com/",
    "category": "African-American-owned Home inspection in Ohio",
    "description": "Offers home inspection services with a background in residential engineering, providing peace of mind for buyers, sellers, and new home builders",
    "hours": "Mon-Fri 9AM-6PM",
    "services": [
      "African-American-owned Home inspection in Ohio consultation",
      "Professional service",
      "Quality guarantee"
    ],
    "social_links": {}
  },
  {
    "name": "ASPEC Residential Services, LLC",
    "address": "Defiance, Ohio",
    "phone": "Office: (419) 782-8924; Celena's cell: (574) 360-7650; Josh's cell: (419) 615-5076",
    "rating": 4.0,
    "reviews": 25,
    "website": "https://www.aspecresidential.com/",
    "category": "African-American-owned Home inspection in Ohio",
    "description": "Family-owned and operated since 2007, providing home and property inspection services throughout Northwest Ohio. They emphasize first-class customer service and thoroughness",
    "hours": "Mon-Fri 9AM-6PM",
    "services": [
      "African-American-owned Home inspection in Ohio consultation",
      "Professional service",
      "Quality guarantee"
    ],
    "social_links": {}
  }
]