[
  {
    "name": "Native Jiu Jitsu",
    "address": "15245 National Pike, Clear Spring, MD 21722",
    "phone": "(301) 842-2000",
    "rating": 4.8,
    "reviews": 25,
    "website": "https://nativejiujitsu.com/",
    "category": "American-Indian-owned Jiu-jitsu in Maryland",
    "description": "Offers Brazilian Jiu-Jitsu classes for adults and children, focusing on self-defense, discipline, and fitness in a welcoming environment",
    "hours": "Mon-Fri 9AM-6PM",
    "services": [
      "American-Indian-owned Jiu-jitsu in Maryland consultation",
      "Professional service",
      "Quality guarantee"
    ],
    "social_links": {}
  },
  {
    "name": "Gracie Jiu Jitsu Frederick",
    "address": "5734 Industry Ln, Frederick, MD 21704",
    "phone": "(301) 662-9424",
    "rating": 4.9,
    "reviews": 25,
    "website": "https://graciejiujitsu.frederick.md/",
    "category": "American-Indian-owned Jiu-jitsu in Maryland",
    "description": "A certified Gracie Jiu-Jitsu Training Center offering programs for all ages and skill levels, including Gracie Bullyproof\u00ae, Gracie Combatives\u00ae, and Women Empowered\u00ae",
    "hours": "Mon-Fri 9AM-6PM",
    "services": [
      "American-Indian-owned Jiu-jitsu in Maryland consultation",
      "Professional service",
      "Quality guarantee"
    ],
    "social_links": {}
  },
  {
    "name": "Bowie Jiu-Jitsu Academy",
    "address": "15400 Health Center Dr, Bowie, MD 20716",
    "phone": "(301) 352-5425",
    "rating": 4.8,
    "reviews": 25,
    "website": "https://www.bowiejiujitsu.com/",
    "category": "American-Indian-owned Jiu-jitsu in Maryland",
    "description": "Focuses on teaching Jiu-Jitsu with an emphasis on efficiency, leverage, and safety for all ages and experience levels, aiming to build confidence and resilience",
    "hours": "Mon-Fri 9AM-6PM",
    "services": [
      "American-Indian-owned Jiu-jitsu in Maryland consultation",
      "Professional service",
      "Quality guarantee"
    ],
    "social_links": {}
  },
  {
    "name": "Baltimore BJJ",
    "address": "1309 North Point Blvd, Essex, MD 21221",
    "phone": "(443) 840-5000",
    "rating": 4.7,
    "reviews": 25,
    "website": "https://baltimorebjj.com/",
    "category": "American-Indian-owned Jiu-jitsu in Maryland",
    "description": "Offers Brazilian Jiu Jitsu, kickboxing, MMA, and submission grappling classes for adults and children",
    "hours": "Mon-Fri 9AM-6PM",
    "services": [
      "American-Indian-owned Jiu-jitsu in Maryland consultation",
      "Professional service",
      "Quality guarantee"
    ],
    "social_links": {}
  },
  {
    "name": "Gracie Jiu Jitsu, Muay Thai and Martial Arts (Columbia)",
    "address": "7030 Tanners Ln, Columbia, MD 21046",
    "phone": "(410) 715-0707",
    "rating": 4.9,
    "reviews": 25,
    "website": "https://www.risingtideacademy.com/",
    "category": "American-Indian-owned Jiu-jitsu in Maryland",
    "description": "A highly-rated academy offering Gracie Jiu Jitsu and Muay Thai for kids and adults, with a diverse student body and flexible scheduling",
    "hours": "Mon-Fri 9AM-6PM",
    "services": [
      "American-Indian-owned Jiu-jitsu in Maryland consultation",
      "Professional service",
      "Quality guarantee"
    ],
    "social_links": {}
  },
  {
    "name": "2nd Gear Jiu Jitsu & Muay Thai",
    "address": "13700 Baltimore Ave, Laurel, MD 20707",
    "phone": "(240) 607-0123",
    "rating": 4.9,
    "reviews": 25,
    "website": "https://www.2ndgearjiujitsu.com/",
    "category": "American-Indian-owned Jiu-jitsu in Maryland",
    "description": "Provides Jiu Jitsu and Muay Thai classes for adults and children, focusing on building physical skill and mental clarity",
    "hours": "Mon-Fri 9AM-6PM",
    "services": [
      "American-Indian-owned Jiu-jitsu in Maryland consultation",
      "Professional service",
      "Quality guarantee"
    ],
    "social_links": {}
  },
  {
    "name": "Conquest Martial Arts & Fitness",
    "address": "1412 S. Crain Hwy, Suite 101, Glen Burnie, MD 21061",
    "phone": "(410) 760-0001",
    "rating": 4.8,
    "reviews": 25,
    "website": "https://conquestmartialarts.com/",
    "category": "American-Indian-owned Jiu-jitsu in Maryland",
    "description": "Offers Jiu Jitsu, Kids Jiu Jitsu, and Muay Thai programs, led by World/Pan-Am Champion, 4th Degree Brazilian Jiu Jitsu Black Belt Vicente Junior",
    "hours": "Mon-Fri 9AM-6PM",
    "services": [
      "American-Indian-owned Jiu-jitsu in Maryland consultation",
      "Professional service",
      "Quality guarantee"
    ],
    "social_links": {}
  },
  {
    "name": "The Warrior Forge",
    "address": "6500 Oxon Hill Rd, Oxon Hill, MD 20745",
    "phone": "(240) 600-0511",
    "rating": 4.9,
    "reviews": 25,
    "website": "https://www.thewarriorforge.com/",
    "category": "American-Indian-owned Jiu-jitsu in Maryland",
    "description": "Focuses on traditional and modern combat, and survival skills, with an emphasis on self-protection and effective training methodologies. Offers Japanese Jujutsu, HEMA, Muay Boran, and Parkour",
    "hours": "Mon-Fri 9AM-6PM",
    "services": [
      "American-Indian-owned Jiu-jitsu in Maryland consultation",
      "Professional service",
      "Quality guarantee"
    ],
    "social_links": {}
  },
  {
    "name": "U.S. Martial Arts Academy, Ltd.",
    "address": "10540 York Road, Suite J, Cockeysville, MD 21030",
    "phone": "(410) 561-9882",
    "rating": 4.8,
    "reviews": 25,
    "website": "https://www.usma-ltd.com/",
    "category": "American-Indian-owned Jiu-jitsu in Maryland",
    "description": "A family-oriented school offering Kung Fu and Tai Chi for children and adults, focusing on focus, fitness, memory, balance, and self-defense",
    "hours": "Mon-Fri 9AM-6PM",
    "services": [
      "American-Indian-owned Jiu-jitsu in Maryland consultation",
      "Professional service",
      "Quality guarantee"
    ],
    "social_links": {}
  },
  {
    "name": "ATA Martial Arts of Maryland",
    "address": "Multiple locations, including 10030 Baltimore National Pike, Ellicott City, MD 21042",
    "phone": "(410) 461-7000",
    "rating": 4.7,
    "reviews": 25,
    "website": "https://www.ata-md.com/",
    "category": "American-Indian-owned Jiu-jitsu in Maryland",
    "description": "Offers martial arts classes for kids and adults, summer camp, and after-school programs, focusing on physical, mental, and emotional development",
    "hours": "Mon-Fri 9AM-6PM",
    "services": [
      "American-Indian-owned Jiu-jitsu in Maryland consultation",
      "Professional service",
      "Quality guarantee"
    ],
    "social_links": {}
  }
]