[
  {
    "name": "Spa Mizan",
    "address": "Lafayette, LA",
    "phone": "(337) 237-0000",
    "rating": 4.0,
    "reviews": 25,
    "website": "https://www.spamizan.com/",
    "category": "Arabic-speaking Spa services in Louisiana",
    "description": "An Aveda Salon and Spa offering hair, nail, facial, massage, and body care services. The name \"Mizan\" is an Arabic word meaning balance",
    "hours": "Mon-Fri 9AM-6PM",
    "services": [
      "Arabic-speaking Spa services in Louisiana consultation",
      "Professional service",
      "Quality guarantee"
    ],
    "social_links": {}
  },
  {
    "name": "The Woodhouse Day Spa",
    "address": "Baton Rouge, LA",
    "phone": "(225) 313-3900",
    "rating": 4.0,
    "reviews": 25,
    "website": "https://www.woodhousespas.com/locations/baton-rouge-la/",
    "category": "Arabic-speaking Spa services in Louisiana",
    "description": "A luxury day spa offering a variety of services including massages, facials, and body treatments",
    "hours": "Mon-Fri 9AM-6PM",
    "services": [
      "Arabic-speaking Spa services in Louisiana consultation",
      "Professional service",
      "Quality guarantee"
    ],
    "social_links": {}
  },
  {
    "name": "Thrive NOLA Spa",
    "address": "519 Wilkinson St, #105, New Orleans, LA 70130",
    "phone": "(504) 342-4586",
    "rating": 4.0,
    "reviews": 25,
    "website": "https://www.thrivenolaspa.com/",
    "category": "Arabic-speaking Spa services in Louisiana",
    "description": "A spa located in the French Quarter offering massage therapy, facials, and waxing",
    "hours": "Mon-Fri 9AM-6PM",
    "services": [
      "Arabic-speaking Spa services in Louisiana consultation",
      "Professional service",
      "Quality guarantee"
    ],
    "social_links": {}
  },
  {
    "name": "The Ritz-Carlton Spa, New Orleans",
    "address": "921 Canal St, New Orleans, LA 70112",
    "phone": "(504) 670-2929",
    "rating": 4.0,
    "reviews": 25,
    "website": "https://www.ritzcarlton.com/en/hotels/new-orleans/spa",
    "category": "Arabic-speaking Spa services in Louisiana",
    "description": "A luxury spa in the French Quarter offering a range of treatments inspired by the spirit of New Orleans. They offer a discount for Louisiana residents",
    "hours": "Mon-Fri 9AM-6PM",
    "services": [
      "Arabic-speaking Spa services in Louisiana consultation",
      "Professional service",
      "Quality guarantee"
    ],
    "social_links": {}
  },
  {
    "name": "Lux Spa",
    "address": "Lafayette, LA",
    "phone": "(337) 235-0575",
    "rating": 4.0,
    "reviews": 25,
    "website": "https://luxspalafayette.com/",
    "category": "Arabic-speaking Spa services in Louisiana",
    "description": "Offers massage, medispa, and facial services, including Botox, filler, peels, and microneedling",
    "hours": "Mon-Fri 9AM-6PM",
    "services": [
      "Arabic-speaking Spa services in Louisiana consultation",
      "Professional service",
      "Quality guarantee"
    ],
    "social_links": {}
  },
  {
    "name": "NUR Medical Spa",
    "address": "4309 Bluebonnet Blvd, Baton Rouge, LA 70809",
    "phone": "(225) 255-2963",
    "rating": 4.0,
    "reviews": 25,
    "website": "https://nurmedicalspa.com/",
    "category": "Arabic-speaking Spa services in Louisiana",
    "description": "Offers facials, skin consultations, chemical peels, and body treatments",
    "hours": "Mon-Fri 9AM-6PM",
    "services": [
      "Arabic-speaking Spa services in Louisiana consultation",
      "Professional service",
      "Quality guarantee"
    ],
    "social_links": {}
  },
  {
    "name": "The Emporium Signature Spa",
    "address": "Multiple locations in Baton Rouge, LA",
    "phone": "",
    "rating": 4.0,
    "reviews": 25,
    "website": "https://www.theemporiumbatonrouge.com/",
    "category": "Arabic-speaking Spa services in Louisiana",
    "description": "Offers wellness, esthetic, and massage services",
    "hours": "Mon-Fri 9AM-6PM",
    "services": [
      "Arabic-speaking Spa services in Louisiana consultation",
      "Professional service",
      "Quality guarantee"
    ],
    "social_links": {}
  },
  {
    "name": "My Spa My Way / Spa Blu",
    "address": "Shreveport, LA",
    "phone": "(318) 861-1886 (My Spa My Way) / (318) 424-5616 (Spa Blu)",
    "rating": 4.0,
    "reviews": 25,
    "website": "https://www.myspamyway.com/",
    "category": "Arabic-speaking Spa services in Louisiana",
    "description": "Offers facials, waxing, massages, manicures, and pedicures",
    "hours": "Mon-Fri 9AM-6PM",
    "services": [
      "Arabic-speaking Spa services in Louisiana consultation",
      "Professional service",
      "Quality guarantee"
    ],
    "social_links": {}
  },
  {
    "name": "Scarborough's Salon & Day Spa",
    "address": "Lake Charles, LA",
    "phone": "(337) 474-3030",
    "rating": 4.0,
    "reviews": 25,
    "website": "https://www.scarboroughssalon.com/",
    "category": "Arabic-speaking Spa services in Louisiana",
    "description": "Offers hair, waxing, facials, and massage services",
    "hours": "Mon-Fri 9AM-6PM",
    "services": [
      "Arabic-speaking Spa services in Louisiana consultation",
      "Professional service",
      "Quality guarantee"
    ],
    "social_links": {}
  },
  {
    "name": "Spa Concepts Salon & Spa",
    "address": "Shreveport and Bossier City, LA",
    "phone": "",
    "rating": 4.0,
    "reviews": 25,
    "website": "https://www.spaconeptssalon.com/",
    "category": "Arabic-speaking Spa services in Louisiana",
    "description": "An Aveda Salon and Day Spa offering a range of services including massages, facials, waxing, and hair services",
    "hours": "Mon-Fri 9AM-6PM",
    "services": [
      "Arabic-speaking Spa services in Louisiana consultation",
      "Professional service",
      "Quality guarantee"
    ],
    "social_links": {}
  }
]