[
  {
    "name": "Catholic Charities of Idaho",
    "address": "P.O. Box 190123, Boise, ID 83719",
    "phone": "(208) 345-4942",
    "rating": 4.0,
    "reviews": 25,
    "website": "https://www.ccidaho.org/",
    "category": "Catholic-owned Corporate websites in Idaho",
    "description": "Provides social services, counseling, and immigration legal services to individuals and families in need",
    "hours": "Mon-Fri 9AM-6PM",
    "services": [
      "Catholic-owned Corporate websites in Idaho consultation",
      "Professional service",
      "Quality guarantee"
    ],
    "social_links": {}
  },
  {
    "name": "Saint Alphonsus Health System",
    "address": "1055 N. Curtis Rd., Boise, ID 83704",
    "phone": "(208) 367-2171",
    "rating": 4.0,
    "reviews": 25,
    "website": "https://www.saintalphonsus.org/",
    "category": "Catholic-owned Corporate websites in Idaho",
    "description": "A Catholic, faith-based, not-for-profit health system serving Idaho, eastern Oregon, and northern Nevada with multiple hospitals and clinics",
    "hours": "Mon-Fri 9AM-6PM",
    "services": [
      "Catholic-owned Corporate websites in Idaho consultation",
      "Professional service",
      "Quality guarantee"
    ],
    "social_links": {}
  },
  {
    "name": "Cathedral of St. John the Evangelist",
    "address": "712 N. 8th St., Boise, ID 83702",
    "phone": "(208) 342-5601",
    "rating": 4.0,
    "reviews": 25,
    "website": "https://www.stjohnsboise.org/",
    "category": "Catholic-owned Corporate websites in Idaho",
    "description": "The mother church for the Roman Catholic Diocese of Boise, serving the community since 1876",
    "hours": "Mon-Fri 9AM-6PM",
    "services": [
      "Catholic-owned Corporate websites in Idaho consultation",
      "Professional service",
      "Quality guarantee"
    ],
    "social_links": {}
  },
  {
    "name": "Holy Apostles Catholic Church",
    "address": "6300 N Meridian Rd., Meridian, ID 83646",
    "phone": "(208) 888-1182",
    "rating": 4.0,
    "reviews": 25,
    "website": "https://www.holyapostles.net/",
    "category": "Catholic-owned Corporate websites in Idaho",
    "description": "A large parish in the Catholic Diocese of Boise, focused on spiritual and community outreach",
    "hours": "Mon-Fri 9AM-6PM",
    "services": [
      "Catholic-owned Corporate websites in Idaho consultation",
      "Professional service",
      "Quality guarantee"
    ],
    "social_links": {}
  },
  {
    "name": "St. Joseph's Catholic School",
    "address": "821 W. Fort St., Boise, ID 83702",
    "phone": "(208) 344-4404",
    "rating": 4.0,
    "reviews": 25,
    "website": "https://www.stjosephboise.org/school",
    "category": "Catholic-owned Corporate websites in Idaho",
    "description": "Provides Catholic education for students in kindergarten through eighth grade, affiliated with the Cathedral of St. John the Evangelist",
    "hours": "Mon-Fri 9AM-6PM",
    "services": [
      "Catholic-owned Corporate websites in Idaho consultation",
      "Professional service",
      "Quality guarantee"
    ],
    "social_links": {}
  },
  {
    "name": "Our Lady of the Valley Catholic Church",
    "address": "1120F Caldwell Blvd., Caldwell, ID 83605",
    "phone": "(208) 459-0142",
    "rating": 4.0,
    "reviews": 25,
    "website": "https://www.olv-parish.org/",
    "category": "Catholic-owned Corporate websites in Idaho",
    "description": "Serves the Catholic communities in Caldwell and surrounding areas",
    "hours": "Mon-Fri 9AM-6PM",
    "services": [
      "Catholic-owned Corporate websites in Idaho consultation",
      "Professional service",
      "Quality guarantee"
    ],
    "social_links": {}
  },
  {
    "name": "St. Paul's Catholic Church",
    "address": "510 W. Roosevelt Ave., Nampa, ID 83686",
    "phone": "(208) 466-7081",
    "rating": 4.0,
    "reviews": 25,
    "website": "https://www.stpaulnampa.org/",
    "category": "Catholic-owned Corporate websites in Idaho",
    "description": "A Roman Catholic parish serving the Nampa, ID area for over 100 years",
    "hours": "Mon-Fri 9AM-6PM",
    "services": [
      "Catholic-owned Corporate websites in Idaho consultation",
      "Professional service",
      "Quality guarantee"
    ],
    "social_links": {}
  },
  {
    "name": "Pope Saint John Paul II Parish",
    "address": "840 N. 16th E., Idaho Falls, ID 83401",
    "phone": "(208) 523-1454",
    "rating": 4.0,
    "reviews": 25,
    "website": "https://www.popejpiiparish.org/",
    "category": "Catholic-owned Corporate websites in Idaho",
    "description": "A faith community within the Roman Catholic Diocese of Boise",
    "hours": "Mon-Fri 9AM-6PM",
    "services": [
      "Catholic-owned Corporate websites in Idaho consultation",
      "Professional service",
      "Quality guarantee"
    ],
    "social_links": {}
  },
  {
    "name": "St. Ignatius Catholic School",
    "address": "2220 N. Maple Grove Rd., Meridian, ID 83642",
    "phone": "(208) 888-1182",
    "rating": 4.0,
    "reviews": 25,
    "website": "https://www.stignatius-meridian.org/",
    "category": "Catholic-owned Corporate websites in Idaho",
    "description": "A pre-K-8th grade school in the Ignatian tradition, focused on academic excellence and faith formation",
    "hours": "Mon-Fri 9AM-6PM",
    "services": [
      "Catholic-owned Corporate websites in Idaho consultation",
      "Professional service",
      "Quality guarantee"
    ],
    "social_links": {}
  },
  {
    "name": "Holy Rosary Catholic School",
    "address": "911 S. St. Clair Rd., Idaho Falls, ID 83402",
    "phone": "(208) 523-5600",
    "rating": 4.0,
    "reviews": 25,
    "website": "https://www.holyrosaryidaho.org/school",
    "category": "Catholic-owned Corporate websites in Idaho",
    "description": "Endeavors to use Christian Catholic traditions to empower student achievement",
    "hours": "Mon-Fri 9AM-6PM",
    "services": [
      "Catholic-owned Corporate websites in Idaho consultation",
      "Professional service",
      "Quality guarantee"
    ],
    "social_links": {}
  }
]