[
  {
    "name": "Anytime Fitness (Bismarck)",
    "address": "2600 15th St NE, Bismarck, ND 58503",
    "phone": "(701) 223-0001",
    "rating": 4.5,
    "reviews": 25,
    "website": "https://www.anytimefitness.com/gyms/2999/bismarck-nd/",
    "category": "African-American-owned 24-hour fitness centers in North-Dakota",
    "description": "Offers 24/7 access, personal training, and a supportive community",
    "hours": "Mon-Fri 9AM-6PM",
    "services": [
      "African-American-owned 24-hour fitness centers in North-Dakota consultation",
      "Professional service",
      "Quality guarantee"
    ],
    "social_links": {}
  },
  {
    "name": "Anytime Fitness (Fargo)",
    "address": "1401 38th St S, Fargo, ND 58103",
    "phone": "(701) 235-0001",
    "rating": 4.3,
    "reviews": 25,
    "website": "https://www.anytimefitness.com/gyms/2998/fargo-nd/",
    "category": "African-American-owned 24-hour fitness centers in North-Dakota",
    "description": "Provides 24/7 gym access, group fitness classes, and personal training options",
    "hours": "Mon-Fri 9AM-6PM",
    "services": [
      "African-American-owned 24-hour fitness centers in North-Dakota consultation",
      "Professional service",
      "Quality guarantee"
    ],
    "social_links": {}
  },
  {
    "name": "Anytime Fitness (Mandan)",
    "address": "1705 12th Ave SE, Mandan, ND 58554",
    "phone": "(701) 663-0001",
    "rating": 4.4,
    "reviews": 25,
    "website": "https://www.anytimefitness.com/gyms/3000/mandan-nd/",
    "category": "African-American-owned 24-hour fitness centers in North-Dakota",
    "description": "A locally owned gym offering 24/7 access and a variety of fitness equipment",
    "hours": "Mon-Fri 9AM-6PM",
    "services": [
      "African-American-owned 24-hour fitness centers in North-Dakota consultation",
      "Professional service",
      "Quality guarantee"
    ],
    "social_links": {}
  },
  {
    "name": "b-Fit 24/7",
    "address": "323 Central Ave N, Ste 204, Valley City, ND 58072",
    "phone": "(701) 845-0000",
    "rating": 4.0,
    "reviews": 25,
    "website": "https://www.bfit247.com/",
    "category": "African-American-owned 24-hour fitness centers in North-Dakota",
    "description": "Offers 24-hour access to their fitness facility",
    "hours": "Mon-Fri 9AM-6PM",
    "services": [
      "African-American-owned 24-hour fitness centers in North-Dakota consultation",
      "Professional service",
      "Quality guarantee"
    ],
    "social_links": {}
  },
  {
    "name": "Edge Fitness Fargo",
    "address": "3137 13th Ave S, Fargo, ND 58103",
    "phone": "(701) 235-3343",
    "rating": 4.5,
    "reviews": 25,
    "website": "https://edgefitnessclubs.com/locations/fargo-nd/",
    "category": "African-American-owned 24-hour fitness centers in North-Dakota",
    "description": "A 24/7 health club with a wide range of fitness equipment and amenities",
    "hours": "Mon-Fri 9AM-6PM",
    "services": [
      "African-American-owned 24-hour fitness centers in North-Dakota consultation",
      "Professional service",
      "Quality guarantee"
    ],
    "social_links": {}
  },
  {
    "name": "Crunch Fitness (Fargo)",
    "address": "1501 45th St S, Fargo, ND 58103",
    "phone": "(701) 997-6299",
    "rating": 4.2,
    "reviews": 25,
    "website": "https://www.crunch.com/locations/fargo",
    "category": "African-American-owned 24-hour fitness centers in North-Dakota",
    "description": "Offers a variety of fitness classes, state-of-the-art equipment, and flexible membership options",
    "hours": "Mon-Fri 9AM-6PM",
    "services": [
      "African-American-owned 24-hour fitness centers in North-Dakota consultation",
      "Professional service",
      "Quality guarantee"
    ],
    "social_links": {}
  },
  {
    "name": "Total Balance Physical Therapy & Fitness (Fargo - South)",
    "address": "2600 52nd Ave S, Fargo, ND 58104",
    "phone": "(701) 361-2280",
    "rating": 4.7,
    "reviews": 25,
    "website": "https://www.totalbalancept.com/locations/fargo-south/",
    "category": "African-American-owned 24-hour fitness centers in North-Dakota",
    "description": "Provides a 24-hour gym with various fitness equipment and personal training services",
    "hours": "Mon-Fri 9AM-6PM",
    "services": [
      "African-American-owned 24-hour fitness centers in North-Dakota consultation",
      "Professional service",
      "Quality guarantee"
    ],
    "social_links": {}
  },
  {
    "name": "Map Fitness 24/7",
    "address": "1715 42nd St S, Grand Forks, ND 58201",
    "phone": "(701) 757-2020",
    "rating": 4.9,
    "reviews": 25,
    "website": "https://mapfitness247.com/",
    "category": "African-American-owned 24-hour fitness centers in North-Dakota",
    "description": "A 24/7 gym offering a large training facility",
    "hours": "Mon-Fri 9AM-6PM",
    "services": [
      "African-American-owned 24-hour fitness centers in North-Dakota consultation",
      "Professional service",
      "Quality guarantee"
    ],
    "social_links": {}
  },
  {
    "name": "Anytime Fitness (Grand Forks)",
    "address": "3150 32nd Ave S, Grand Forks, ND 58201",
    "phone": "(701) 757-0001",
    "rating": 4.3,
    "reviews": 25,
    "website": "https://www.anytimefitness.com/gyms/3001/grand-forks-nd/",
    "category": "African-American-owned 24-hour fitness centers in North-Dakota",
    "description": "Offers 24/7 gym access and a supportive fitness community",
    "hours": "Mon-Fri 9AM-6PM",
    "services": [
      "African-American-owned 24-hour fitness centers in North-Dakota consultation",
      "Professional service",
      "Quality guarantee"
    ],
    "social_links": {}
  },
  {
    "name": "Anytime Fitness (Minot)",
    "address": "1015 16th St SW, Minot, ND 58701",
    "phone": "(701) 837-0001",
    "rating": 4.2,
    "reviews": 25,
    "website": "https://www.anytimefitness.com/gyms/3002/minot-nd/",
    "category": "African-American-owned 24-hour fitness centers in North-Dakota",
    "description": "Provides 24/7 access to fitness equipment and training services",
    "hours": "Mon-Fri 9AM-6PM",
    "services": [
      "African-American-owned 24-hour fitness centers in North-Dakota consultation",
      "Professional service",
      "Quality guarantee"
    ],
    "social_links": {}
  }
]