[
  {
    "name": "Moon Lai - State Farm Insurance Agent",
    "address": "612-870-0800 (Phone number provided, specific address not in search results)",
    "phone": "612-870-0800",
    "rating": 4.0,
    "reviews": 25,
    "website": "https://www.statefarm.com/agent/us/mn/minneapolis/moon-lai-3gphl183500",
    "category": "Chinese-speaking Health insurance in Minnesota",
    "description": "State Farm agent who speaks Chinese (Mandarin & Cantonese) and Malay, offering health insurance, Medicare supplement, and individual medical coverage plans",
    "hours": "Mon-Fri 9AM-6PM",
    "services": [
      "Chinese-speaking Health insurance in Minnesota consultation",
      "Professional service",
      "Quality guarantee"
    ],
    "social_links": {}
  },
  {
    "name": "Sunshine Traditional Chinese Acupuncture",
    "address": "116 Chestnut Street East Stillwater, MN, 55082 United States",
    "phone": "715-629-2108",
    "rating": 4.0,
    "reviews": 25,
    "website": "https://www.sunshineacupuncture.com/",
    "category": "Chinese-speaking Health insurance in Minnesota",
    "description": "While primarily an acupuncture clinic, they accept many health insurances and can help patients understand their coverage for Traditional Chinese Medicine therapies",
    "hours": "Mon-Fri 9AM-6PM",
    "services": [
      "Chinese-speaking Health insurance in Minnesota consultation",
      "Professional service",
      "Quality guarantee"
    ],
    "social_links": {}
  },
  {
    "name": "Minnesota Chinese Health Center (MCHC)",
    "address": "4725 South View Ln, Edina, MN 55424 (Inside South View Middle School)",
    "phone": "612-666-1670",
    "rating": 4.0,
    "reviews": 25,
    "website": "http://amcponline.org/mchc.html",
    "category": "Chinese-speaking Health insurance in Minnesota",
    "description": "A volunteer clinic providing free medical services to uninsured and underserved patients, primarily from the Chinese immigrant community. They offer Western and Traditional Chinese Medicine services",
    "hours": "Mon-Fri 9AM-6PM",
    "services": [
      "Chinese-speaking Health insurance in Minnesota consultation",
      "Professional service",
      "Quality guarantee"
    ],
    "social_links": {}
  },
  {
    "name": "Minnesota Health Insurance Network (MNHI)",
    "address": "12280 Nicollet Ave Suite #104 Burnsville, MN 55337",
    "phone": "1-(952) 224-0123 (Metro), 1-(866) MNHINET (Out-State)",
    "rating": 4.0,
    "reviews": 25,
    "website": "https://www.mnhinetwork.com/",
    "category": "Chinese-speaking Health insurance in Minnesota",
    "description": "A health insurance brokerage that helps individuals and small businesses find health insurance. They represent major health care insurance companies in Minnesota",
    "hours": "Mon-Fri 9AM-6PM",
    "services": [
      "Chinese-speaking Health insurance in Minnesota consultation",
      "Professional service",
      "Quality guarantee"
    ],
    "social_links": {}
  },
  {
    "name": "Hmong American Partnership (HAP)",
    "address": "1001 Johnson Pkwy. Suite A15 St. Paul, MN 55106 (Hmong Village location)",
    "phone": "651-495-1557",
    "rating": 4.0,
    "reviews": 25,
    "website": "https://www.hmong.org/programs/health-insurance-enrollment/",
    "category": "Chinese-speaking Health insurance in Minnesota",
    "description": "Offers health insurance enrollment assistance with culturally specific services to help clients find the right insurance plan",
    "hours": "Mon-Fri 9AM-6PM",
    "services": [
      "Chinese-speaking Health insurance in Minnesota consultation",
      "Professional service",
      "Quality guarantee"
    ],
    "social_links": {}
  },
  {
    "name": "Rainbow Home Health Care",
    "address": "(Specific address not in search results, but serves St. Paul and Minneapolis)",
    "phone": "651-778-0562",
    "rating": 4.0,
    "reviews": 25,
    "website": "https://www.rainbowhhc.com/",
    "category": "Chinese-speaking Health insurance in Minnesota",
    "description": "Provides non-medical home health care services with caregivers who speak various languages, including Chinese, and are culturally aware of Asian traditions. They accept several health insurances",
    "hours": "Mon-Fri 9AM-6PM",
    "services": [
      "Chinese-speaking Health insurance in Minnesota consultation",
      "Professional service",
      "Quality guarantee"
    ],
    "social_links": {}
  },
  {
    "name": "United Insurance Agency, LLC (Atlas Insurance Brokers LLC)",
    "address": "12751 County Road 5 #190 \u2013 Burnsville, MN 55337",
    "phone": "952-224-9611",
    "rating": 4.0,
    "reviews": 25,
    "website": "https://www.atlasinsurancebrokers.com/locations/burnsville-mn/united-insurance-agency-llc/",
    "category": "Chinese-speaking Health insurance in Minnesota",
    "description": "An insurance agency where an agent, Tu Pham, speaks fluent Vietnamese and Chinese and offers health insurance",
    "hours": "Mon-Fri 9AM-6PM",
    "services": [
      "Chinese-speaking Health insurance in Minnesota consultation",
      "Professional service",
      "Quality guarantee"
    ],
    "social_links": {}
  },
  {
    "name": "ZHF Group Insurance Agency",
    "address": "(Specific address not in search results, but serves Mandarin-speaking community)",
    "phone": "(407) 519-9528",
    "rating": 4.0,
    "reviews": 25,
    "website": "https://zhfgroup.com/",
    "category": "Chinese-speaking Health insurance in Minnesota",
    "description": "Bilingual agents specializing in serving the Mandarin-speaking community, offering insurance support in Chinese dialects and English",
    "hours": "Mon-Fri 9AM-6PM",
    "services": [
      "Chinese-speaking Health insurance in Minnesota consultation",
      "Professional service",
      "Quality guarantee"
    ],
    "social_links": {}
  },
  {
    "name": "HealthPartners",
    "address": "8170 33rd Ave S, Bloomington, MN 55425 (Main office)",
    "phone": "(Various numbers available on their website, e.g., 952-883-5000 for Member Services)",
    "rating": 4.0,
    "reviews": 25,
    "website": "https://www.healthpartners.com/",
    "category": "Chinese-speaking Health insurance in Minnesota",
    "description": "A major health insurance and healthcare provider in Minnesota and Wisconsin. While not exclusively Chinese-speaking, they are a large provider that likely has multilingual staff or resources",
    "hours": "Mon-Fri 9AM-6PM",
    "services": [
      "Chinese-speaking Health insurance in Minnesota consultation",
      "Professional service",
      "Quality guarantee"
    ],
    "social_links": {}
  },
  {
    "name": "UnitedHealthcare Community Plan",
    "address": "(Various locations and plans available, specific address not provided for a single entity)",
    "phone": "(Various numbers available on their website, e.g., 1-800-638-3005 for general inquiries)",
    "rating": 4.0,
    "reviews": 25,
    "website": "https://www.uhc.com/community-plan",
    "category": "Chinese-speaking Health insurance in Minnesota",
    "description": "Offers low-cost or no-cost Medicaid plans and ACA Marketplace plans. As a large insurer, they often have resources for diverse language speakers",
    "hours": "Mon-Fri 9AM-6PM",
    "services": [
      "Chinese-speaking Health insurance in Minnesota consultation",
      "Professional service",
      "Quality guarantee"
    ],
    "social_links": {}
  }
]