[
  {
    "name": "Island Soul Rum Bar and Soul Shack",
    "address": "4869 Rainier Ave S, Seattle, WA 98118",
    "phone": "(206) 723-1111",
    "rating": 4.0,
    "reviews": 25,
    "website": "https://islandsoulrestaurant.com/",
    "category": "African-American-owned Ghost kitchen delivery in Washington",
    "description": "Offers Caribbean and soul food with options for takeout and delivery",
    "hours": "Mon-Fri 9AM-6PM",
    "services": [
      "African-American-owned Ghost kitchen delivery in Washington consultation",
      "Professional service",
      "Quality guarantee"
    ],
    "social_links": {}
  },
  {
    "name": "Jerk Shack",
    "address": "2822 NW Market St, Seattle, WA 98107 (Note: This address is for their Ballard location, they may have others or operate from a ghost kitchen.)",
    "phone": "(206) 453-4311",
    "rating": 4.0,
    "reviews": 25,
    "website": "https://www.jerksseattle.com/",
    "category": "African-American-owned Ghost kitchen delivery in Washington",
    "description": "Specializes in Jamaican jerk cuisine, offering takeout and delivery",
    "hours": "Mon-Fri 9AM-6PM",
    "services": [
      "African-American-owned Ghost kitchen delivery in Washington consultation",
      "Professional service",
      "Quality guarantee"
    ],
    "social_links": {}
  },
  {
    "name": "Mojito",
    "address": "1412 E. Pine St, Seattle, WA 98122 (Note: This is a listed address, but they may utilize ghost kitchen operations.)",
    "phone": "(206) 525-3162",
    "rating": 4.0,
    "reviews": 25,
    "website": "https://www.mojitoseattle.com/",
    "category": "African-American-owned Ghost kitchen delivery in Washington",
    "description": "A Latin American and Cuban restaurant offering delivery and takeout",
    "hours": "Mon-Fri 9AM-6PM",
    "services": [
      "African-American-owned Ghost kitchen delivery in Washington consultation",
      "Professional service",
      "Quality guarantee"
    ],
    "social_links": {}
  },
  {
    "name": "Pam's Kitchen",
    "address": "1812 N 45th St, Seattle, WA 98103",
    "phone": "(206) 632-0517",
    "rating": 4.0,
    "reviews": 25,
    "website": "https://www.pamskitchen.com/",
    "category": "African-American-owned Ghost kitchen delivery in Washington",
    "description": "Trinidadian cuisine with dishes like goat curry and jerk chicken, available for takeout",
    "hours": "Mon-Fri 9AM-6PM",
    "services": [
      "African-American-owned Ghost kitchen delivery in Washington consultation",
      "Professional service",
      "Quality guarantee"
    ],
    "social_links": {}
  },
  {
    "name": "Simply Soulful Cafe and Espresso",
    "address": "9411 Rainier Ave S, Seattle, WA 98118",
    "phone": "(206) 725-7685",
    "rating": 4.0,
    "reviews": 25,
    "website": "https://simplysoulfulcafe.com/",
    "category": "African-American-owned Ghost kitchen delivery in Washington",
    "description": "Offers breakfast, dinner, and catering packs to go",
    "hours": "Mon-Fri 9AM-6PM",
    "services": [
      "African-American-owned Ghost kitchen delivery in Washington consultation",
      "Professional service",
      "Quality guarantee"
    ],
    "social_links": {}
  },
  {
    "name": "Taste of the Caribbean",
    "address": "2518 E Cherry St, Seattle, WA 98122",
    "phone": "(206) 323-9440",
    "rating": 4.0,
    "reviews": 25,
    "website": "https://www.google.com/maps/search/Taste+of+the+Caribbean+in+Washington",
    "category": "African-American-owned Ghost kitchen delivery in Washington",
    "description": "Serves Caribbean dishes and offers takeout",
    "hours": "Mon-Fri 9AM-6PM",
    "services": [
      "African-American-owned Ghost kitchen delivery in Washington consultation",
      "Professional service",
      "Quality guarantee"
    ],
    "social_links": {}
  },
  {
    "name": "Lil Red Takeout and Catering",
    "address": "5000 Rainier Ave S, Seattle, WA 98118",
    "phone": "(206) 725-0044",
    "rating": 4.0,
    "reviews": 25,
    "website": "https://www.google.com/maps/search/Lil+Red+Takeout+and+Catering+in+Washington",
    "category": "African-American-owned Ghost kitchen delivery in Washington",
    "description": "Offers meal packs, sandwiches, and a la carte meats for takeout",
    "hours": "Mon-Fri 9AM-6PM",
    "services": [
      "African-American-owned Ghost kitchen delivery in Washington consultation",
      "Professional service",
      "Quality guarantee"
    ],
    "social_links": {}
  },
  {
    "name": "Fat's Chicken and Waffles",
    "address": "273 2nd Ave S, Seattle, WA 98104",
    "phone": "(206) 673-3330",
    "rating": 4.0,
    "reviews": 25,
    "website": "https://fatschicken.com/",
    "category": "African-American-owned Ghost kitchen delivery in Washington",
    "description": "Serves a full breakfast, lunch, and dinner menu for takeout",
    "hours": "Mon-Fri 9AM-6PM",
    "services": [
      "African-American-owned Ghost kitchen delivery in Washington consultation",
      "Professional service",
      "Quality guarantee"
    ],
    "social_links": {}
  },
  {
    "name": "The Comfort Zone",
    "address": "5600 Rainier Ave S, Seattle, WA 98118",
    "phone": "(206) 722-3000",
    "rating": 4.0,
    "reviews": 25,
    "website": "https://www.google.com/maps/search/The+Comfort+Zone+in+Washington",
    "category": "African-American-owned Ghost kitchen delivery in Washington",
    "description": "Offers entrees, burgers, and sandwiches for takeout",
    "hours": "Mon-Fri 9AM-6PM",
    "services": [
      "African-American-owned Ghost kitchen delivery in Washington consultation",
      "Professional service",
      "Quality guarantee"
    ],
    "social_links": {}
  },
  {
    "name": "Southern Kitchen",
    "address": "1402 Tacoma Ave S, Tacoma, WA 98402",
    "phone": "(253) 627-4282",
    "rating": 4.0,
    "reviews": 25,
    "website": "https://www.southernkitchentacoma.com/",
    "category": "African-American-owned Ghost kitchen delivery in Washington",
    "description": "A woman-owned Southern restaurant offering takeout and delivery through third-party apps",
    "hours": "Mon-Fri 9AM-6PM",
    "services": [
      "African-American-owned Ghost kitchen delivery in Washington consultation",
      "Professional service",
      "Quality guarantee"
    ],
    "social_links": {}
  }
]