[
  {
    "name": "Overland Park Arboretum & Botanical Gardens",
    "address": "8909 W. 179th Street, Overland Park, KS 66013",
    "phone": "913-685-3604",
    "rating": 4.0,
    "reviews": 25,
    "website": "https://www.opkansas.org/things-to-do/arboretum-botanical-gardens/",
    "category": "Alaska-Native-owned Plant purchasing assistance in Kansas",
    "description": "A 300-acre educational, recreational, and cultural resource featuring themed gardens and natural landscapes",
    "hours": "Mon-Fri 9AM-6PM",
    "services": [
      "Alaska-Native-owned Plant purchasing assistance in Kansas consultation",
      "Professional service",
      "Quality guarantee"
    ],
    "social_links": {}
  },
  {
    "name": "Skinner Garden Store",
    "address": "2130 SW 29th St, Topeka, KS 66611",
    "phone": "785-233-9657",
    "rating": 4.0,
    "reviews": 25,
    "website": "https://www.skinnersgardenstore.com/",
    "category": "Alaska-Native-owned Plant purchasing assistance in Kansas",
    "description": "Offers a wide variety of plants, gardening supplies, gifts, and yard art, with services like customized potting and landscape design",
    "hours": "Mon-Fri 9AM-6PM",
    "services": [
      "Alaska-Native-owned Plant purchasing assistance in Kansas consultation",
      "Professional service",
      "Quality guarantee"
    ],
    "social_links": {}
  },
  {
    "name": "Loma Vista Nursery",
    "address": "12550 W 151st St, Olathe, KS 66061 (Wholesale facility in Ottawa, KS)",
    "phone": "913-782-3555",
    "rating": 4.0,
    "reviews": 25,
    "website": "https://lomavistanursery.com/",
    "category": "Alaska-Native-owned Plant purchasing assistance in Kansas",
    "description": "A wholesale nursery offering a full product line of container and field-grown plant material, including trees, shrubs, and perennials",
    "hours": "Mon-Fri 9AM-6PM",
    "services": [
      "Alaska-Native-owned Plant purchasing assistance in Kansas consultation",
      "Professional service",
      "Quality guarantee"
    ],
    "social_links": {}
  },
  {
    "name": "Blueville Nursery Inc. (Garden Store)",
    "address": "1520 Laramie St, Manhattan, KS 66502",
    "phone": "785-539-1010",
    "rating": 4.0,
    "reviews": 25,
    "website": "https://www.bluevillenursery.com/",
    "category": "Alaska-Native-owned Plant purchasing assistance in Kansas",
    "description": "A garden store offering landscaping and gardening products, with reliable delivery services for plant material and bulk items",
    "hours": "Mon-Fri 9AM-6PM",
    "services": [
      "Alaska-Native-owned Plant purchasing assistance in Kansas consultation",
      "Professional service",
      "Quality guarantee"
    ],
    "social_links": {}
  },
  {
    "name": "Kansas Plant Farm",
    "address": "1140 N 1500 Rd, Lawrence, KS 66049",
    "phone": "785-218-7475 (Text for appointments)",
    "rating": 4.0,
    "reviews": 25,
    "website": "https://www.kansasplantfarm.com/",
    "category": "Alaska-Native-owned Plant purchasing assistance in Kansas",
    "description": "A family-owned nursery and display garden offering over 500 varieties of plants, with a focus on online purchase and curbside pickup",
    "hours": "Mon-Fri 9AM-6PM",
    "services": [
      "Alaska-Native-owned Plant purchasing assistance in Kansas consultation",
      "Professional service",
      "Quality guarantee"
    ],
    "social_links": {}
  },
  {
    "name": "Botanica, The Wichita Gardens",
    "address": "701 N. Amidon, Wichita, KS 67203",
    "phone": "316-264-0448",
    "rating": 4.0,
    "reviews": 25,
    "website": "https://botanica\uff57ichita.org/",
    "category": "Alaska-Native-owned Plant purchasing assistance in Kansas",
    "description": "Features 20 acres of award-winning gardens with over 4,000 unique plant species, offering various themed areas and seasonal beauty",
    "hours": "Mon-Fri 9AM-6PM",
    "services": [
      "Alaska-Native-owned Plant purchasing assistance in Kansas consultation",
      "Professional service",
      "Quality guarantee"
    ],
    "social_links": {}
  },
  {
    "name": "Larrys Nursery",
    "address": "2501 NW Platte Rd, Riverside, MO 64150 (Serves the Kansas City area)",
    "phone": "",
    "rating": 4.0,
    "reviews": 25,
    "website": "https://www.larrysnursery.com/",
    "category": "Alaska-Native-owned Plant purchasing assistance in Kansas",
    "description": "Offers a large selection of plants, including houseplants, succulents, perennials, annuals, and vegetables, at competitive prices",
    "hours": "Mon-Fri 9AM-6PM",
    "services": [
      "Alaska-Native-owned Plant purchasing assistance in Kansas consultation",
      "Professional service",
      "Quality guarantee"
    ],
    "social_links": {}
  },
  {
    "name": "Vinland Valley Nursery",
    "address": "1915 N 1000 Rd, Baldwin City, KS 66006",
    "phone": "785-594-3505",
    "rating": 4.0,
    "reviews": 25,
    "website": "https://www.vinlandvalleynursery.com/",
    "category": "Alaska-Native-owned Plant purchasing assistance in Kansas",
    "description": "An organic plant nursery offering native perennials, trees, shrubs, and annuals, grown without harmful pesticides",
    "hours": "Mon-Fri 9AM-6PM",
    "services": [
      "Alaska-Native-owned Plant purchasing assistance in Kansas consultation",
      "Professional service",
      "Quality guarantee"
    ],
    "social_links": {}
  },
  {
    "name": "Earl May Garden Center (Lawrence)",
    "address": "1401 W 23rd St, Lawrence, KS 66046",
    "phone": "785-843-3240",
    "rating": 4.0,
    "reviews": 25,
    "website": "https://earlmay.com/locations/lawrence-ks/",
    "category": "Alaska-Native-owned Plant purchasing assistance in Kansas",
    "description": "Provides quality plants, tools, and expert advice, with services including landscaping, planting, and garden seeds",
    "hours": "Mon-Fri 9AM-6PM",
    "services": [
      "Alaska-Native-owned Plant purchasing assistance in Kansas consultation",
      "Professional service",
      "Quality guarantee"
    ],
    "social_links": {}
  },
  {
    "name": "Horticultural Services Garden Center",
    "address": "8450 US-24, Manhattan KS 66502",
    "phone": "785-776-5764",
    "rating": 4.0,
    "reviews": 25,
    "website": "https://horticulturalservices.com/",
    "category": "Alaska-Native-owned Plant purchasing assistance in Kansas",
    "description": "A full-service garden center offering a wide variety of plants, gardening supplies, tools, and decorative items, with landscape design services available",
    "hours": "Mon-Fri 9AM-6PM",
    "services": [
      "Alaska-Native-owned Plant purchasing assistance in Kansas consultation",
      "Professional service",
      "Quality guarantee"
    ],
    "social_links": {}
  }
]