[
  {
    "name": "Affordable Appliance Repair LLC",
    "address": "Multiple locations, including Phoenix, AZ",
    "phone": "(602) 277-0220",
    "rating": 4.8,
    "reviews": 25,
    "website": "https://www.affordableappliancerepair.com/",
    "category": "Catholic-owned Minor appliance installation in Arizona",
    "description": "Offers appliance repair and dryer vent cleaning services with 21 years of experience. They provide free estimates and have won the Angie's List Super Service Award multiple times",
    "hours": "Mon-Fri 9AM-6PM",
    "services": [
      "Catholic-owned Minor appliance installation in Arizona consultation",
      "Professional service",
      "Quality guarantee"
    ],
    "social_links": {}
  },
  {
    "name": "Arizona Appliance & Home",
    "address": "Multiple locations, including Phoenix, Scottsdale, and Tucson, AZ",
    "phone": "(800) 340-0074",
    "rating": 4.0,
    "reviews": 25,
    "website": "https://www.arizonaappliance.com/",
    "category": "Catholic-owned Minor appliance installation in Arizona",
    "description": "Provides expert appliance delivery and installation services for all major brands, with factory-certified technicians. They also offer removal of old appliances",
    "hours": "Mon-Fri 9AM-6PM",
    "services": [
      "Catholic-owned Minor appliance installation in Arizona consultation",
      "Professional service",
      "Quality guarantee"
    ],
    "social_links": {}
  },
  {
    "name": "Spencer's TV & Appliance",
    "address": "Multiple locations, including Phoenix and Chandler, AZ. Warehouse address: 17500 S 40th Street, Chandler, AZ 85226",
    "phone": "(480) 505-2360",
    "rating": 4.0,
    "reviews": 25,
    "website": "https://www.spencertv.com/",
    "category": "Catholic-owned Minor appliance installation in Arizona",
    "description": "A locally owned and operated appliance dealer offering delivery and installation services across Arizona, with a focus on fast service for in-stock items",
    "hours": "Mon-Fri 9AM-6PM",
    "services": [
      "Catholic-owned Minor appliance installation in Arizona consultation",
      "Professional service",
      "Quality guarantee"
    ],
    "social_links": {}
  },
  {
    "name": "Arizona Appliance Service Center",
    "address": "642 West Coolidge, Phoenix, AZ 85013",
    "phone": "(602) 279-0400",
    "rating": 4.0,
    "reviews": 25,
    "website": "https://www.arizonaservicecenter.com/",
    "category": "Catholic-owned Minor appliance installation in Arizona",
    "description": "Provides local homeowners with appliance repair services, emphasizing superior quality and experience",
    "hours": "Mon-Fri 9AM-6PM",
    "services": [
      "Catholic-owned Minor appliance installation in Arizona consultation",
      "Professional service",
      "Quality guarantee"
    ],
    "social_links": {}
  },
  {
    "name": "Starfix Appliance Repair",
    "address": "Not explicitly stated, but serves Phoenix, AZ",
    "phone": "(602) 428-1155",
    "rating": 4.7,
    "reviews": 25,
    "website": "https://www.starfixappliancerepair.com/",
    "category": "Catholic-owned Minor appliance installation in Arizona",
    "description": "Offers appliance repair services with a commitment to meeting customer needs, emphasizing trust and quality service. They handle jobs of all sizes",
    "hours": "Mon-Fri 9AM-6PM",
    "services": [
      "Catholic-owned Minor appliance installation in Arizona consultation",
      "Professional service",
      "Quality guarantee"
    ],
    "social_links": {}
  },
  {
    "name": "Arizona Maintenance Service",
    "address": "Serves Phoenix and Scottsdale, AZ areas",
    "phone": "(602) 603-1400",
    "rating": 4.0,
    "reviews": 25,
    "website": "https://www.arizonamaintenanceservice.com/",
    "category": "Catholic-owned Minor appliance installation in Arizona",
    "description": "A one-stop shop for home installation needs, including appliance installation, kitchen and bathroom upgrades, and lighting/electrical installations. They are licensed and insured",
    "hours": "Mon-Fri 9AM-6PM",
    "services": [
      "Catholic-owned Minor appliance installation in Arizona consultation",
      "Professional service",
      "Quality guarantee"
    ],
    "social_links": {}
  },
  {
    "name": "TaskRabbit (Appliance Repair & Installation)",
    "address": "Operates in Phoenix, AZ",
    "phone": "",
    "rating": 4.0,
    "reviews": 25,
    "website": "https://www.taskrabbit.com/ar/phoenix/appliance-repair-installation",
    "category": "Catholic-owned Minor appliance installation in Arizona",
    "description": "Connects users with local \"Taskers\" for appliance repair and installation services, offering same-day service and the ability to compare rates and reviews",
    "hours": "Mon-Fri 9AM-6PM",
    "services": [
      "Catholic-owned Minor appliance installation in Arizona consultation",
      "Professional service",
      "Quality guarantee"
    ],
    "social_links": {}
  },
  {
    "name": "Best Appliance Service AZ",
    "address": "Serves Mesa, AZ and the Phoenix Valley",
    "phone": "(480) 800-0050",
    "rating": 4.0,
    "reviews": 25,
    "website": "https://www.bestapplianceserviceaz.com/",
    "category": "Catholic-owned Minor appliance installation in Arizona",
    "description": "Specializes in fast and efficient repairs for various appliances, emphasizing customer satisfaction and reliable service",
    "hours": "Mon-Fri 9AM-6PM",
    "services": [
      "Catholic-owned Minor appliance installation in Arizona consultation",
      "Professional service",
      "Quality guarantee"
    ],
    "social_links": {}
  },
  {
    "name": "Appliance Works",
    "address": "Serves the Phoenix Valley, AZ",
    "phone": "(602) 800-7468",
    "rating": 5.0,
    "reviews": 25,
    "website": "https://applianceworksaz.com/",
    "category": "Catholic-owned Minor appliance installation in Arizona",
    "description": "Offers appliance repair services with a focus on expertise, professionalism, and quality repairs. They highlight customer reviews and offer convenient scheduling",
    "hours": "Mon-Fri 9AM-6PM",
    "services": [
      "Catholic-owned Minor appliance installation in Arizona consultation",
      "Professional service",
      "Quality guarantee"
    ],
    "social_links": {}
  },
  {
    "name": "Good Tech Appliance Services, LLC",
    "address": "Serves Phoenix, AZ",
    "phone": "(602) 432-1100",
    "rating": 5.0,
    "reviews": 25,
    "website": "https://www.google.com/maps/search/Good+Tech+Appliance+Services,+LLC+in+Arizona",
    "category": "Catholic-owned Minor appliance installation in Arizona",
    "description": "Provides appliance repair and servicing with a focus on customer needs, expertise, and delivering the best service. They specialize in refrigerator, washer, and dryer repairs",
    "hours": "Mon-Fri 9AM-6PM",
    "services": [
      "Catholic-owned Minor appliance installation in Arizona consultation",
      "Professional service",
      "Quality guarantee"
    ],
    "social_links": {}
  }
]