[
  {
    "name": "ABA Tax Accounting",
    "address": "1400 Energy Park Dr, St Paul, MN 55108",
    "phone": "(651) 337-0015",
    "rating": 4.0,
    "reviews": 25,
    "website": "https://www.abatax.com/",
    "category": "Armenian-speaking Expatriate tax services in Minnesota",
    "description": "Offers expatriate tax services, including U.S. tax returns, state tax returns, small business tax returns, and foreign bank account reporting",
    "hours": "Mon-Fri 9AM-6PM",
    "services": [
      "Armenian-speaking Expatriate tax services in Minnesota consultation",
      "Professional service",
      "Quality guarantee"
    ],
    "social_links": {}
  },
  {
    "name": "GW Carter, Ltd.",
    "address": "7300 France Ave S, Edina, MN 55435",
    "phone": "(952) 927-7722",
    "rating": 4.0,
    "reviews": 25,
    "website": "https://www.gwcarter.com/",
    "category": "Armenian-speaking Expatriate tax services in Minnesota",
    "description": "Specializes in U.S. tax services for U.S. expats, immigrants, non-resident alien investors, and short-term visitors. They emphasize efficiency, being paperless, and affordability",
    "hours": "Mon-Fri 9AM-6PM",
    "services": [
      "Armenian-speaking Expatriate tax services in Minnesota consultation",
      "Professional service",
      "Quality guarantee"
    ],
    "social_links": {}
  },
  {
    "name": "Schneider Downs",
    "address": "600 Nicollet Mall, Suite 1700, Minneapolis, MN 55402",
    "phone": "(612) 341-0100",
    "rating": 4.0,
    "reviews": 25,
    "website": "https://www.schneidersdowns.com/",
    "category": "Armenian-speaking Expatriate tax services in Minnesota",
    "description": "A CPA and consulting firm specializing in international accounting and tax needs for businesses, including expatriate/inpatriate tax matters",
    "hours": "Mon-Fri 9AM-6PM",
    "services": [
      "Armenian-speaking Expatriate tax services in Minnesota consultation",
      "Professional service",
      "Quality guarantee"
    ],
    "social_links": {}
  },
  {
    "name": "Boyum Barenscheer, pllp",
    "address": "800 E 78th St, Bloomington, MN 55420",
    "phone": "(952) 854-4244",
    "rating": 4.0,
    "reviews": 25,
    "website": "https://www.bb-cpa.com/",
    "category": "Armenian-speaking Expatriate tax services in Minnesota",
    "description": "Provides international tax services for expatriates and businesses, including tax planning, compliance, FBAR filing, and IRS compliance",
    "hours": "Mon-Fri 9AM-6PM",
    "services": [
      "Armenian-speaking Expatriate tax services in Minnesota consultation",
      "Professional service",
      "Quality guarantee"
    ],
    "social_links": {}
  },
  {
    "name": "MNTaxBiz",
    "address": "100 Sibley St #500, St Paul, MN 55101",
    "phone": "(651) 337-0015",
    "rating": 4.0,
    "reviews": 25,
    "website": "https://mntaxbiz.com/",
    "category": "Armenian-speaking Expatriate tax services in Minnesota",
    "description": "Specializes in cross-border tax planning and compliance for individuals and small to medium-sized businesses, including expat tax preparation and filing",
    "hours": "Mon-Fri 9AM-6PM",
    "services": [
      "Armenian-speaking Expatriate tax services in Minnesota consultation",
      "Professional service",
      "Quality guarantee"
    ],
    "social_links": {}
  },
  {
    "name": "Akif CPA",
    "address": "1600 Utica Ave S, Suite 200, St Louis Park, MN 55416",
    "phone": "(612) 321-6070",
    "rating": 4.0,
    "reviews": 25,
    "website": "https://akifcpa.com/",
    "category": "Armenian-speaking Expatriate tax services in Minnesota",
    "description": "Offers U.S. cross-border tax assistance for individuals and entities worldwide, including U.S. citizens, residents, and non-residents",
    "hours": "Mon-Fri 9AM-6PM",
    "services": [
      "Armenian-speaking Expatriate tax services in Minnesota consultation",
      "Professional service",
      "Quality guarantee"
    ],
    "social_links": {}
  },
  {
    "name": "ProsperLink Tax Group",
    "address": "100 Sibley St #500, St Paul, MN 55101",
    "phone": "(612) 441-2101",
    "rating": 4.0,
    "reviews": 25,
    "website": "https://prosperlinktax.com/",
    "category": "Armenian-speaking Expatriate tax services in Minnesota",
    "description": "Provides tax planning, tax consulting, and IRS audit representation for individuals and businesses, with experience in personal and business tax preparation",
    "hours": "Mon-Fri 9AM-6PM",
    "services": [
      "Armenian-speaking Expatriate tax services in Minnesota consultation",
      "Professional service",
      "Quality guarantee"
    ],
    "social_links": {}
  },
  {
    "name": "Doran Tax Advisory & Preparation",
    "address": "100 Sibley St #500, St Paul, MN 55101",
    "phone": "(612) 321-6070",
    "rating": 4.0,
    "reviews": 25,
    "website": "https://dorantax.com/",
    "category": "Armenian-speaking Expatriate tax services in Minnesota",
    "description": "Offers expert tax preparation and advisory services to clients across the U.S., with a local focus on Minneapolis and St. Paul, specializing in tax and financial solutions",
    "hours": "Mon-Fri 9AM-6PM",
    "services": [
      "Armenian-speaking Expatriate tax services in Minnesota consultation",
      "Professional service",
      "Quality guarantee"
    ],
    "social_links": {}
  },
  {
    "name": "Larson Gross",
    "address": "101 W Superior St, Suite 500, Duluth, MN 55802",
    "phone": "(360) 734-4280",
    "rating": 4.0,
    "reviews": 25,
    "website": "https://larsongross.com/",
    "category": "Armenian-speaking Expatriate tax services in Minnesota",
    "description": "Helps individuals and businesses navigate tax, management, and operational issues across the U.S. and Canada, offering services like streamlined tax filings and entity structuring",
    "hours": "Mon-Fri 9AM-6PM",
    "services": [
      "Armenian-speaking Expatriate tax services in Minnesota consultation",
      "Professional service",
      "Quality guarantee"
    ],
    "social_links": {}
  },
  {
    "name": "The NonResident Tax Help Group (NoRTH)",
    "address": "3001 University Ave SE, Minneapolis, MN 55414",
    "phone": "(612) 626-0000",
    "rating": 4.0,
    "reviews": 25,
    "website": "https://www.north.tax/",
    "category": "Armenian-speaking Expatriate tax services in Minnesota",
    "description": "Provides tax services and education to non-resident aliens, with a focus on international students, scholars, teachers, and researchers. They offer free tax assistance through the IRS VITA program",
    "hours": "Mon-Fri 9AM-6PM",
    "services": [
      "Armenian-speaking Expatriate tax services in Minnesota consultation",
      "Professional service",
      "Quality guarantee"
    ],
    "social_links": {}
  }
]