[
  {
    "name": "Loberg and Sons Gutter Cleaning",
    "address": "Omaha, NE",
    "phone": "(402) 509-4451",
    "rating": 4.0,
    "reviews": 25,
    "website": "https://lobergandsons.com/gutter-cleaning/",
    "category": "Chinese-speaking Minor gutter repairs in Nebraska",
    "description": "Offers comprehensive gutter cleaning services and gutter guard installations in Omaha",
    "hours": "Mon-Fri 9AM-6PM",
    "services": [
      "Chinese-speaking Minor gutter repairs in Nebraska consultation",
      "Professional service",
      "Quality guarantee"
    ],
    "social_links": {}
  },
  {
    "name": "The Brothers That Just Do Gutters",
    "address": "Omaha, NE",
    "phone": "(402) 509-4451",
    "rating": 4.0,
    "reviews": 25,
    "website": "https://www.brothersgutters.com/locations/omaha-ne/",
    "category": "Chinese-speaking Minor gutter repairs in Nebraska",
    "description": "Provides gutter cleaning services to clear debris, restore water flow, and protect homes from damage",
    "hours": "Mon-Fri 9AM-6PM",
    "services": [
      "Chinese-speaking Minor gutter repairs in Nebraska consultation",
      "Professional service",
      "Quality guarantee"
    ],
    "social_links": {}
  },
  {
    "name": "Clean Pro Gutter Cleaning",
    "address": "Omaha, NE",
    "phone": "(402) 509-4451",
    "rating": 4.0,
    "reviews": 25,
    "website": "https://www.cleanproguttercleaning.com/locations/nebraska/omaha/",
    "category": "Chinese-speaking Minor gutter repairs in Nebraska",
    "description": "Offers gutter cleaning services starting at $205, including debris removal and downspout flushing",
    "hours": "Mon-Fri 9AM-6PM",
    "services": [
      "Chinese-speaking Minor gutter repairs in Nebraska consultation",
      "Professional service",
      "Quality guarantee"
    ],
    "social_links": {}
  },
  {
    "name": "Thompson & Thompson 3rd Generation, Inc.",
    "address": "Omaha, NE",
    "phone": "(402) 509-4451",
    "rating": 4.0,
    "reviews": 25,
    "website": "https://thompsonandthompson3g.com/gutter-services/",
    "category": "Chinese-speaking Minor gutter repairs in Nebraska",
    "description": "Provides gutter services for new construction and existing buildings, including cleaning and installation of various gutter cover systems",
    "hours": "Mon-Fri 9AM-6PM",
    "services": [
      "Chinese-speaking Minor gutter repairs in Nebraska consultation",
      "Professional service",
      "Quality guarantee"
    ],
    "social_links": {}
  },
  {
    "name": "Omaha Gutter Cleaning",
    "address": "Omaha, NE",
    "phone": "402-230-5799",
    "rating": 4.0,
    "reviews": 25,
    "website": "https://omahaguttercleaning.com/",
    "category": "Chinese-speaking Minor gutter repairs in Nebraska",
    "description": "A locally owned company offering hand gutter cleaning, leaf removal, replacement, seamless gutters, and gutter covers",
    "hours": "Mon-Fri 9AM-6PM",
    "services": [
      "Chinese-speaking Minor gutter repairs in Nebraska consultation",
      "Professional service",
      "Quality guarantee"
    ],
    "social_links": {}
  },
  {
    "name": "Above & Beyond Roofing",
    "address": "Omaha, NE",
    "phone": "402-661-0294",
    "rating": 4.0,
    "reviews": 25,
    "website": "https://aboveandbeyondroofingomaha.com/gutter-services/",
    "category": "Chinese-speaking Minor gutter repairs in Nebraska",
    "description": "Offers high-quality gutter repairs and installation services, emphasizing the importance of a well-maintained gutter system",
    "hours": "Mon-Fri 9AM-6PM",
    "services": [
      "Chinese-speaking Minor gutter repairs in Nebraska consultation",
      "Professional service",
      "Quality guarantee"
    ],
    "social_links": {}
  },
  {
    "name": "PJ's Gutters",
    "address": "Omaha, NE",
    "phone": "",
    "rating": 4.0,
    "reviews": 25,
    "website": "https://www.google.com/maps/search/PJ's+Gutters+in+Nebraska",
    "category": "Chinese-speaking Minor gutter repairs in Nebraska",
    "description": "Specializes in gutter replacement and also offers gutter repairs, general handyman tasks, and gutter and home cleaning",
    "hours": "Mon-Fri 9AM-6PM",
    "services": [
      "Chinese-speaking Minor gutter repairs in Nebraska consultation",
      "Professional service",
      "Quality guarantee"
    ],
    "social_links": {}
  },
  {
    "name": "Neemann & Sons",
    "address": "Lincoln, NE",
    "phone": "",
    "rating": 4.0,
    "reviews": 25,
    "website": "https://neemannandsons.com/gutter-services/",
    "category": "Chinese-speaking Minor gutter repairs in Nebraska",
    "description": "Provides gutter cleaning and installation services, including seamless gutters and gutter covers, with a focus on prompt, reliable, and expert workmanship",
    "hours": "Mon-Fri 9AM-6PM",
    "services": [
      "Chinese-speaking Minor gutter repairs in Nebraska consultation",
      "Professional service",
      "Quality guarantee"
    ],
    "social_links": {}
  },
  {
    "name": "Gutter Cleaning and Repair",
    "address": "Lincoln, NE",
    "phone": "402-580-5454",
    "rating": 4.0,
    "reviews": 25,
    "website": "https://www.guttercleaningandrepairne.com/",
    "category": "Chinese-speaking Minor gutter repairs in Nebraska",
    "description": "Offers comprehensive gutter cleaning, maintenance, downspout, and gutter guard installation services with a focus on customer satisfaction",
    "hours": "Mon-Fri 9AM-6PM",
    "services": [
      "Chinese-speaking Minor gutter repairs in Nebraska consultation",
      "Professional service",
      "Quality guarantee"
    ],
    "social_links": {}
  },
  {
    "name": "Omaha Gutter Company",
    "address": "Ralston, NE",
    "phone": "",
    "rating": 4.0,
    "reviews": 25,
    "website": "https://omahaguttercompany.com/",
    "category": "Chinese-speaking Minor gutter repairs in Nebraska",
    "description": "Provides professional gutter installation, guards, cleaning, and repairs for homes in Ralston, NE, and surrounding areas",
    "hours": "Mon-Fri 9AM-6PM",
    "services": [
      "Chinese-speaking Minor gutter repairs in Nebraska consultation",
      "Professional service",
      "Quality guarantee"
    ],
    "social_links": {}
  }
]