[
  {
    "name": "Last Chance Auto Repair",
    "address": "2500 S. Route 59, Plainfield, IL 60586",
    "phone": "(815) 436-3100",
    "rating": 4.0,
    "reviews": 25,
    "website": "https://www.lastchanceautorepair.com/",
    "category": "Asian-owned Rotor replacement in Illinois",
    "description": "Specializes in Asian auto repairs and parts, servicing vehicles like Toyota, Honda, Nissan, Subaru, and Mazda",
    "hours": "Mon-Fri 9AM-6PM",
    "services": [
      "Asian-owned Rotor replacement in Illinois consultation",
      "Professional service",
      "Quality guarantee"
    ],
    "social_links": {}
  },
  {
    "name": "Asian Domestic Authority",
    "address": "246 Lake Street, Oak Park, IL 60302",
    "phone": "(708) 386-3004",
    "rating": 4.0,
    "reviews": 25,
    "website": "https://www.google.com/maps/search/Asian+Domestic+Authority+in+Illinois",
    "category": "Asian-owned Rotor replacement in Illinois",
    "description": "An auto repair and service shop",
    "hours": "Mon-Fri 9AM-6PM",
    "services": [
      "Asian-owned Rotor replacement in Illinois consultation",
      "Professional service",
      "Quality guarantee"
    ],
    "social_links": {}
  },
  {
    "name": "Asia Motors Inc.",
    "address": "2300 N Mannheim Road, Melrose Park, IL 60160",
    "phone": "(847) 447-3500 (Sales) / (312) 961-0667 (Text)",
    "rating": 4.0,
    "reviews": 25,
    "website": "https://www.google.com/maps/search/Asia+Motors+Inc.+in+Illinois",
    "category": "Asian-owned Rotor replacement in Illinois",
    "description": "A dealer of used police and government vehicles, with a focus on quality vehicles",
    "hours": "Mon-Fri 9AM-6PM",
    "services": [
      "Asian-owned Rotor replacement in Illinois consultation",
      "Professional service",
      "Quality guarantee"
    ],
    "social_links": {}
  },
  {
    "name": "Clark's Car Care",
    "address": "1510 N Naper Blvd, Naperville, IL 60563",
    "phone": "(630) 961-7000",
    "rating": 4.0,
    "reviews": 25,
    "website": "https://www.clarkscarcare.com/",
    "category": "Asian-owned Rotor replacement in Illinois",
    "description": "Specializes in Asian import auto repair, offering services like brake inspections and rotor replacements",
    "hours": "Mon-Fri 9AM-6PM",
    "services": [
      "Asian-owned Rotor replacement in Illinois consultation",
      "Professional service",
      "Quality guarantee"
    ],
    "social_links": {}
  },
  {
    "name": "Sam's Euro Asian Auto Service",
    "address": "9231 W Ogden Ave, Brookfield, IL 60513",
    "phone": "(708) 485-8200",
    "rating": 4.0,
    "reviews": 25,
    "website": "https://www.samsauto.com/",
    "category": "Asian-owned Rotor replacement in Illinois",
    "description": "A family-owned business servicing European, Asian, and Domestic models, established in 1981",
    "hours": "Mon-Fri 9AM-6PM",
    "services": [
      "Asian-owned Rotor replacement in Illinois consultation",
      "Professional service",
      "Quality guarantee"
    ],
    "social_links": {}
  },
  {
    "name": "Integrity Auto Care",
    "address": "1001 7th St, Beloit, IL 61080",
    "phone": "(815) 957-4159",
    "rating": 4.0,
    "reviews": 25,
    "website": "https://www.integrityautocarebeloit.com/",
    "category": "Asian-owned Rotor replacement in Illinois",
    "description": "Specializes in Asian and European auto repair, with technicians experienced in Japanese and Korean vehicles",
    "hours": "Mon-Fri 9AM-6PM",
    "services": [
      "Asian-owned Rotor replacement in Illinois consultation",
      "Professional service",
      "Quality guarantee"
    ],
    "social_links": {}
  },
  {
    "name": "Moberg's Automotive Repair",
    "address": "717 E Park Ave, Libertyville, IL 60048",
    "phone": "(847) 362-8905",
    "rating": 4.0,
    "reviews": 25,
    "website": "https://mobergsauto.com/",
    "category": "Asian-owned Rotor replacement in Illinois",
    "description": "A full-service auto repair facility specializing in Asian vehicles",
    "hours": "Mon-Fri 9AM-6PM",
    "services": [
      "Asian-owned Rotor replacement in Illinois consultation",
      "Professional service",
      "Quality guarantee"
    ],
    "social_links": {}
  },
  {
    "name": "Eurosport",
    "address": "2160 S 9th St, Springfield, IL 62703",
    "phone": "(217) 523-9804",
    "rating": 4.0,
    "reviews": 25,
    "website": "https://www.eurosportrepair.com/",
    "category": "Asian-owned Rotor replacement in Illinois",
    "description": "Specializes in the service and maintenance of Asian and European vehicles",
    "hours": "Mon-Fri 9AM-6PM",
    "services": [
      "Asian-owned Rotor replacement in Illinois consultation",
      "Professional service",
      "Quality guarantee"
    ],
    "social_links": {}
  },
  {
    "name": "Chicago Motors",
    "address": "2415 N Pulaski Ave, Chicago, IL 60639",
    "phone": "(773) 486-3200",
    "rating": 4.0,
    "reviews": 25,
    "website": "https://www.chicagomotors.net/",
    "category": "Asian-owned Rotor replacement in Illinois",
    "description": "Provides Japanese car repair and maintenance services, including brake and rotor replacement",
    "hours": "Mon-Fri 9AM-6PM",
    "services": [
      "Asian-owned Rotor replacement in Illinois consultation",
      "Professional service",
      "Quality guarantee"
    ],
    "social_links": {}
  },
  {
    "name": "NAPA Auto Parts (Asia Motors Parts)",
    "address": "Specific address not provided in search results, but NAPA online indicates availability of Asia Motors parts",
    "phone": "",
    "rating": 4.0,
    "reviews": 25,
    "website": "https://www.napaonline.com/",
    "category": "Asian-owned Rotor replacement in Illinois",
    "description": "An auto parts supplier that carries parts for Asia Motors vehicles, which may include rotors",
    "hours": "Mon-Fri 9AM-6PM",
    "services": [
      "Asian-owned Rotor replacement in Illinois consultation",
      "Professional service",
      "Quality guarantee"
    ],
    "social_links": {}
  }
]