[
  {
    "name": "St. Ludmila Catholic Parish (Cedar Rapids, IA)",
    "address": "2130 F Ave NW, Cedar Rapids, IA 52405",
    "phone": "(319) 362-7141",
    "rating": 4.0,
    "reviews": 25,
    "website": "https://www.strawberrypoint.org/parish-ministries/cleaning-ministry",
    "category": "Catholic-owned Cleaning staff in Iowa",
    "description": "This parish has a \"Cleaning Ministry\" which is an all-volunteer group dedicated to keeping the church clean. They may accept volunteers or donations",
    "hours": "Mon-Fri 9AM-6PM",
    "services": [
      "Catholic-owned Cleaning staff in Iowa consultation",
      "Professional service",
      "Quality guarantee"
    ],
    "social_links": {}
  },
  {
    "name": "Corpus Christi Catholic Church (Council Bluffs, IA)",
    "address": "3304 4th Ave, Council Bluffs, IA 51501",
    "phone": "(712) 323-2916",
    "rating": 4.0,
    "reviews": 25,
    "website": "https://www.corpuschristicc.org/cleaning-crew",
    "category": "Catholic-owned Cleaning staff in Iowa",
    "description": "This church has a \"Cleaning Crew\" that ensures the church is ready for liturgical celebrations. It's a volunteer group",
    "hours": "Mon-Fri 9AM-6PM",
    "services": [
      "Catholic-owned Cleaning staff in Iowa consultation",
      "Professional service",
      "Quality guarantee"
    ],
    "social_links": {}
  },
  {
    "name": "Notre Dame Parish (Cresco, IA)",
    "address": "1000 1st Ave SE, Cresco, IA 52136",
    "phone": "(563) 567-3141",
    "rating": 4.0,
    "reviews": 25,
    "website": "https://www.notredameparish.org/church-cleaning",
    "category": "Catholic-owned Cleaning staff in Iowa",
    "description": "This parish organizes \"Church Cleaning\" events where volunteers are invited to help clean the church",
    "hours": "Mon-Fri 9AM-6PM",
    "services": [
      "Catholic-owned Cleaning staff in Iowa consultation",
      "Professional service",
      "Quality guarantee"
    ],
    "social_links": {}
  },
  {
    "name": "St. Patrick Catholic Church (Anamosa, IA)",
    "address": "1002 1st St, Anamosa, IA 52205",
    "phone": "(319) 462-2110",
    "rating": 4.0,
    "reviews": 25,
    "website": "https://www.stpatanamosa.org/church-hall-and-kitchen-spring-clean",
    "category": "Catholic-owned Cleaning staff in Iowa",
    "description": "This church held an \"ALL PARISH EVENT\" for cleaning the Church Hall and Kitchen, indicating volunteer efforts for cleaning",
    "hours": "Mon-Fri 9AM-6PM",
    "services": [
      "Catholic-owned Cleaning staff in Iowa consultation",
      "Professional service",
      "Quality guarantee"
    ],
    "social_links": {}
  },
  {
    "name": "Ss. John and Paul Parish (Altoona, IA)",
    "address": "1401 1st Ave S, Altoona, IA 50009",
    "phone": "(515) 967-3031",
    "rating": 4.0,
    "reviews": 25,
    "website": "https://www.ssjohnpaul.org/faith-in-action/cleaning-supplies-personal-care-items-for-catholic-charities",
    "category": "Catholic-owned Cleaning staff in Iowa",
    "description": "This parish collects cleaning supplies for Catholic Charities Refugee Resettlement Program",
    "hours": "Mon-Fri 9AM-6PM",
    "services": [
      "Catholic-owned Cleaning staff in Iowa consultation",
      "Professional service",
      "Quality guarantee"
    ],
    "social_links": {}
  },
  {
    "name": "St. Elizabeth Seton Catholic Church (Carlisle, IA)",
    "address": "2566 Scotch Ridge Rd, Carlisle, IA 50047",
    "phone": "(515) 989-0659",
    "rating": 4.0,
    "reviews": 25,
    "website": "https://www.stelizabethcarlisle.com/news/campus-clean-up",
    "category": "Catholic-owned Cleaning staff in Iowa",
    "description": "This church organizes a \"Campus Clean-up\" event for volunteers to help with cleaning inside and outside the church",
    "hours": "Mon-Fri 9AM-6PM",
    "services": [
      "Catholic-owned Cleaning staff in Iowa consultation",
      "Professional service",
      "Quality guarantee"
    ],
    "social_links": {}
  },
  {
    "name": "Catholic Charities Diocese of Des Moines",
    "address": "601 Grand Ave, Des Moines, IA 50309",
    "phone": "(515) 237-5045",
    "rating": 4.0,
    "reviews": 25,
    "website": "https://www.catholiccharitiesdm.org/",
    "category": "Catholic-owned Cleaning staff in Iowa",
    "description": "Catholic Charities offers various social services and may accept donations of cleaning supplies. They serve individuals and families in need",
    "hours": "Mon-Fri 9AM-6PM",
    "services": [
      "Catholic-owned Cleaning staff in Iowa consultation",
      "Professional service",
      "Quality guarantee"
    ],
    "social_links": {}
  },
  {
    "name": "Iowa City Catholic Worker (Iowa City, IA)",
    "address": "1414 Sycamore St, Iowa City, IA 52240 (House of Hospitality)",
    "phone": "",
    "rating": 4.0,
    "reviews": 25,
    "website": "https://iowacitycatholicworker.org/",
    "category": "Catholic-owned Cleaning staff in Iowa",
    "description": "This organization provides hospitality and services to the poor and homeless, and may utilize or accept donations of cleaning supplies",
    "hours": "Mon-Fri 9AM-6PM",
    "services": [
      "Catholic-owned Cleaning staff in Iowa consultation",
      "Professional service",
      "Quality guarantee"
    ],
    "social_links": {}
  },
  {
    "name": "Catholic Charities Diocese of Davenport",
    "address": "780 West Central Park Ave, Davenport, IA 52804",
    "phone": "(563) 324-3211",
    "rating": 4.0,
    "reviews": 25,
    "website": "https://www.catholiccharitiesdavenport.org/",
    "category": "Catholic-owned Cleaning staff in Iowa",
    "description": "This organization provides various social services and may have programs that involve cleaning or accept donations of cleaning supplies",
    "hours": "Mon-Fri 9AM-6PM",
    "services": [
      "Catholic-owned Cleaning staff in Iowa consultation",
      "Professional service",
      "Quality guarantee"
    ],
    "social_links": {}
  },
  {
    "name": "Catholic Charities of Sioux City",
    "address": "1414 W 20th St, Sioux City, IA 51103",
    "phone": "(712) 252-4547",
    "rating": 4.0,
    "reviews": 25,
    "website": "https://www.cathchar.com/",
    "category": "Catholic-owned Cleaning staff in Iowa",
    "description": "Catholic Charities offers community outreach programs and support services, and may be involved with cleaning needs or accept donations",
    "hours": "Mon-Fri 9AM-6PM",
    "services": [
      "Catholic-owned Cleaning staff in Iowa consultation",
      "Professional service",
      "Quality guarantee"
    ],
    "social_links": {}
  }
]