[
  {
    "name": "AAA Exterminating Inc.",
    "address": "Not specified in search results",
    "phone": "317-773-3797",
    "rating": 4.0,
    "reviews": 25,
    "website": "https://www.google.com/maps/search/AAA+Exterminating+Inc.+in+Indiana",
    "category": "African-American-owned Rodent control in Indiana",
    "description": "Offers rodent control services in Indianapolis, focusing on inspection, identification, elimination, and prevention",
    "hours": "Mon-Fri 9AM-6PM",
    "services": [
      "African-American-owned Rodent control in Indiana consultation",
      "Professional service",
      "Quality guarantee"
    ],
    "social_links": {}
  },
  {
    "name": "Witt Pest Control LLC",
    "address": "Located on the south side of Indianapolis, serving Marion Co. and surrounding areas",
    "phone": "317-787-8106",
    "rating": 4.0,
    "reviews": 25,
    "website": "https://www.google.com/maps/search/Witt+Pest+Control+LLC+in+Indiana",
    "category": "African-American-owned Rodent control in Indiana",
    "description": "Provides pest control services with over 25 years of experience, offering competitive rates and quality service",
    "hours": "Mon-Fri 9AM-6PM",
    "services": [
      "African-American-owned Rodent control in Indiana consultation",
      "Professional service",
      "Quality guarantee"
    ],
    "social_links": {}
  },
  {
    "name": "Greenix Pest Control Indianapolis",
    "address": "Not specified in search results",
    "phone": "",
    "rating": 4.0,
    "reviews": 25,
    "website": "https://www.google.com/maps/search/Greenix+Pest+Control+Indianapolis+in+Indiana",
    "category": "African-American-owned Rodent control in Indiana",
    "description": "Offers sustainable pest control solutions for homes and businesses in Indianapolis, including rodent control",
    "hours": "Mon-Fri 9AM-6PM",
    "services": [
      "African-American-owned Rodent control in Indiana consultation",
      "Professional service",
      "Quality guarantee"
    ],
    "social_links": {}
  },
  {
    "name": "Smithereen Pest Management Services",
    "address": "Not specified in search results",
    "phone": "1-800-336-3500",
    "rating": 4.0,
    "reviews": 25,
    "website": "https://www.google.com/maps/search/Smithereen+Pest+Management+Services+in+Indiana",
    "category": "African-American-owned Rodent control in Indiana",
    "description": "Provides rodent control services in Indianapolis, including inspection, removal, and prevention",
    "hours": "Mon-Fri 9AM-6PM",
    "services": [
      "African-American-owned Rodent control in Indiana consultation",
      "Professional service",
      "Quality guarantee"
    ],
    "social_links": {}
  },
  {
    "name": "Elite Pest Solutions",
    "address": "Located on the Southwest side of Indianapolis",
    "phone": "317-363-7300",
    "rating": 4.0,
    "reviews": 25,
    "website": "https://www.google.com/maps/search/Elite+Pest+Solutions+in+Indiana",
    "category": "African-American-owned Rodent control in Indiana",
    "description": "A locally-owned business offering comprehensive pest control services, including rodent exclusion and extermination, with no contracts and fair pricing",
    "hours": "Mon-Fri 9AM-6PM",
    "services": [
      "African-American-owned Rodent control in Indiana consultation",
      "Professional service",
      "Quality guarantee"
    ],
    "social_links": {}
  },
  {
    "name": "Critter Control of Indianapolis",
    "address": "Not specified in search results",
    "phone": "866-750-3177 (from a general Indiana pest control list)",
    "rating": 4.0,
    "reviews": 25,
    "website": "https://www.google.com/maps/search/Critter+Control+of+Indianapolis+in+Indiana",
    "category": "African-American-owned Rodent control in Indiana",
    "description": "Offers wildlife removal and pest control services, including rat and mice control, with guaranteed results",
    "hours": "Mon-Fri 9AM-6PM",
    "services": [
      "African-American-owned Rodent control in Indiana consultation",
      "Professional service",
      "Quality guarantee"
    ],
    "social_links": {}
  },
  {
    "name": "Action Pest Control",
    "address": "Multiple locations including Indianapolis, IN",
    "phone": "",
    "rating": 4.7,
    "reviews": 25,
    "website": "https://www.google.com/maps/search/Action+Pest+Control+in+Indiana",
    "category": "African-American-owned Rodent control in Indiana",
    "description": "A large Midwest pest management firm offering residential, commercial, and industrial services, including rodent proofing",
    "hours": "Mon-Fri 9AM-6PM",
    "services": [
      "African-American-owned Rodent control in Indiana consultation",
      "Professional service",
      "Quality guarantee"
    ],
    "social_links": {}
  },
  {
    "name": "B&D Holland Pest Control",
    "address": "Indianapolis metropolitan and surrounding area",
    "phone": "317-353-4615 or 317-775-0422",
    "rating": 4.0,
    "reviews": 25,
    "website": "https://www.google.com/maps/search/B&D+Holland+Pest+Control+in+Indiana",
    "category": "African-American-owned Rodent control in Indiana",
    "description": "A family-owned, minority business specializing in pest control, including vermin and rodents, using Integrated Pest Management (IPM)",
    "hours": "Mon-Fri 9AM-6PM",
    "services": [
      "African-American-owned Rodent control in Indiana consultation",
      "Professional service",
      "Quality guarantee"
    ],
    "social_links": {}
  },
  {
    "name": "Black Hawk Pest Control",
    "address": "Not specified in search results",
    "phone": "317-847-9630",
    "rating": 4.0,
    "reviews": 25,
    "website": "https://www.google.com/maps/search/Black+Hawk+Pest+Control+in+Indiana",
    "category": "African-American-owned Rodent control in Indiana",
    "description": "Family-owned and operated with 18 years of experience in pest management and termite control, serving the Indianapolis community",
    "hours": "Mon-Fri 9AM-6PM",
    "services": [
      "African-American-owned Rodent control in Indiana consultation",
      "Professional service",
      "Quality guarantee"
    ],
    "social_links": {}
  },
  {
    "name": "Trio Pest Control",
    "address": "3158 E Thompson Rd, Indianapolis, IN 46227",
    "phone": "317-676-4500",
    "rating": 4.0,
    "reviews": 25,
    "website": "https://www.google.com/maps/search/Trio+Pest+Control+in+Indiana",
    "category": "African-American-owned Rodent control in Indiana",
    "description": "Family-owned and operated with over 20 years of experience in Indianapolis, offering effective rodent treatments and other pest control services",
    "hours": "Mon-Fri 9AM-6PM",
    "services": [
      "African-American-owned Rodent control in Indiana consultation",
      "Professional service",
      "Quality guarantee"
    ],
    "social_links": {}
  }
]