[
  {
    "name": "Metalworks Classic Auto Restoration",
    "address": "30400 OR-126, Eugene, OR 97405",
    "phone": "(541) 746-6020",
    "rating": 4.8,
    "reviews": 25,
    "website": "https://www.metalworkspeedshop.com/",
    "category": "Central-American-owned Classic car restoration in Oregon",
    "description": "Specializes in building and upgrading pro-touring and modern classics, with expertise in Art Morrison chassis and LS engine conversions",
    "hours": "Mon-Fri 9AM-6PM",
    "services": [
      "Central-American-owned Classic car restoration in Oregon consultation",
      "Professional service",
      "Quality guarantee"
    ],
    "social_links": {}
  },
  {
    "name": "Carolina Kustoms",
    "address": "11710 NE 145th Ave, Portland, OR 97250",
    "phone": "(503) 255-7000",
    "rating": 4.8,
    "reviews": 25,
    "website": "https://carolinakustoms.com/",
    "category": "Central-American-owned Classic car restoration in Oregon",
    "description": "Offers custom builds and restoration for classic cars, hot rods, and trucks, with over 120 years of combined experience",
    "hours": "Mon-Fri 9AM-6PM",
    "services": [
      "Central-American-owned Classic car restoration in Oregon consultation",
      "Professional service",
      "Quality guarantee"
    ],
    "social_links": {}
  },
  {
    "name": "Retro Rides of Bend",
    "address": "1030 SE 10th St, Bend, OR 97702",
    "phone": "(541) 389-0270",
    "rating": 4.7,
    "reviews": 25,
    "website": "https://www.retroridesbend.com/",
    "category": "Central-American-owned Classic car restoration in Oregon",
    "description": "Specializes in hot rod and custom classic car and truck restoration, including metal fabrication, motor swaps, and paint and bodywork",
    "hours": "Mon-Fri 9AM-6PM",
    "services": [
      "Central-American-owned Classic car restoration in Oregon consultation",
      "Professional service",
      "Quality guarantee"
    ],
    "social_links": {}
  },
  {
    "name": "Lost in Time Restorations LLC",
    "address": "1350 W 7th Ave, Eugene, OR 97402",
    "phone": "(541) 683-3200",
    "rating": 4.9,
    "reviews": 25,
    "website": "https://www.lostintimerestorations.com/",
    "category": "Central-American-owned Classic car restoration in Oregon",
    "description": "Provides professional classic car restoration, blending vintage charm with modern reliability for a variety of classic vehicles",
    "hours": "Mon-Fri 9AM-6PM",
    "services": [
      "Central-American-owned Classic car restoration in Oregon consultation",
      "Professional service",
      "Quality guarantee"
    ],
    "social_links": {}
  },
  {
    "name": "Holton Secret Lab",
    "address": "10400 SE 82nd Ave, Clackamas, OR 97015",
    "phone": "(503) 659-2277",
    "rating": 4.7,
    "reviews": 25,
    "website": "https://holtonsecretlab.com/",
    "category": "Central-American-owned Classic car restoration in Oregon",
    "description": "A custom car restoration shop with over 90 years of combined experience in custom car painting, design, fabrication, and restoration",
    "hours": "Mon-Fri 9AM-6PM",
    "services": [
      "Central-American-owned Classic car restoration in Oregon consultation",
      "Professional service",
      "Quality guarantee"
    ],
    "social_links": {}
  },
  {
    "name": "Vintage Underground",
    "address": "1255 W 7th Ave, Eugene, OR 97402",
    "phone": "(541) 343-7000",
    "rating": 4.9,
    "reviews": 25,
    "website": "https://www.vintageunderground.com/",
    "category": "Central-American-owned Classic car restoration in Oregon",
    "description": "Specializes in the restoration of British, Italian, and European vintage, classic, and antique autos, blending old-world craftsmanship with modern techniques",
    "hours": "Mon-Fri 9AM-6PM",
    "services": [
      "Central-American-owned Classic car restoration in Oregon consultation",
      "Professional service",
      "Quality guarantee"
    ],
    "social_links": {}
  },
  {
    "name": "503 Auto Repair",
    "address": "1301 Candlewood Dr, Keizer, OR 97303",
    "phone": "(503) 922-0051",
    "rating": 4.7,
    "reviews": 25,
    "website": "https://www.503autorepair.com/",
    "category": "Central-American-owned Classic car restoration in Oregon",
    "description": "Classic car and truck specialists offering a wide range of services including AC repair, brake system upgrades, detailing, body restoration, and engine/transmission work",
    "hours": "Mon-Fri 9AM-6PM",
    "services": [
      "Central-American-owned Classic car restoration in Oregon consultation",
      "Professional service",
      "Quality guarantee"
    ],
    "social_links": {}
  },
  {
    "name": "Town Center Automotive",
    "address": "10700 SW Barbur Blvd, Portland, OR 97223",
    "phone": "(503) 620-3000",
    "rating": 4.6,
    "reviews": 25,
    "website": "https://www.towncenterautomotive.com/",
    "category": "Central-American-owned Classic car restoration in Oregon",
    "description": "Offers expert classic car restoration and service, aiming to restore vehicles to their peak condition with a focus on budget-friendly options",
    "hours": "Mon-Fri 9AM-6PM",
    "services": [
      "Central-American-owned Classic car restoration in Oregon consultation",
      "Professional service",
      "Quality guarantee"
    ],
    "social_links": {}
  },
  {
    "name": "KB Restorations",
    "address": "1010 N 7th St, Central Point, OR 97502",
    "phone": "(541) 664-0700",
    "rating": 4.9,
    "reviews": 25,
    "website": "https://kbrestorations.com/",
    "category": "Central-American-owned Classic car restoration in Oregon",
    "description": "An automotive restoration specialist for Southern Oregon and Northern California, handling everything from small fixes to full restorations for classic automobiles",
    "hours": "Mon-Fri 9AM-6PM",
    "services": [
      "Central-American-owned Classic car restoration in Oregon consultation",
      "Professional service",
      "Quality guarantee"
    ],
    "social_links": {}
  },
  {
    "name": "JCE Classics",
    "address": "20300 OR-126, Bend, OR 97702",
    "phone": "(541) 389-0270",
    "rating": 4.9,
    "reviews": 25,
    "website": "https://www.jceclassics.com/",
    "category": "Central-American-owned Classic car restoration in Oregon",
    "description": "A classic car restoration company focused on restoring cars to factory specifications and ensuring they drive as good or better than new",
    "hours": "Mon-Fri 9AM-6PM",
    "services": [
      "Central-American-owned Classic car restoration in Oregon consultation",
      "Professional service",
      "Quality guarantee"
    ],
    "social_links": {}
  }
]