[
  {
    "name": "Special Touch Catering",
    "address": "6001 4th St NW, Albuquerque, NM 87107",
    "phone": "(505) 344-0445",
    "rating": 5.0,
    "reviews": 25,
    "website": "http://www.specialtouchcatering.com/",
    "category": "Atheist-owned Wedding catering in New-Mexico",
    "description": "A family-owned business with over 25 years of experience, offering customizable menus and full-service catering for weddings and other events",
    "hours": "Mon-Fri 9AM-6PM",
    "services": [
      "Atheist-owned Wedding catering in New-Mexico consultation",
      "Professional service",
      "Quality guarantee"
    ],
    "social_links": {}
  },
  {
    "name": "Walter Burke Catering",
    "address": "112 N Guadalupe St, Santa Fe, NM 87501",
    "phone": "(505) 988-7272",
    "rating": 4.9,
    "reviews": 25,
    "website": "http://www.walterburkecatering.com/",
    "category": "Atheist-owned Wedding catering in New-Mexico",
    "description": "A full-service catering company in Santa Fe that has been operating since 1981, known for its fine dining approach and custom event planning",
    "hours": "Mon-Fri 9AM-6PM",
    "services": [
      "Atheist-owned Wedding catering in New-Mexico consultation",
      "Professional service",
      "Quality guarantee"
    ],
    "social_links": {}
  },
  {
    "name": "Casa Nova Custom Catering",
    "address": "720 St Michaels Dr, Santa Fe, NM 87505",
    "phone": "(505) 983-4040",
    "rating": 4.0,
    "reviews": 25,
    "website": "http://www.casanovacatering.com/",
    "category": "Atheist-owned Wedding catering in New-Mexico",
    "description": "Offers creative, custom catering for weddings and events in Santa Fe, focusing on local ingredients and personalized service",
    "hours": "Mon-Fri 9AM-6PM",
    "services": [
      "Atheist-owned Wedding catering in New-Mexico consultation",
      "Professional service",
      "Quality guarantee"
    ],
    "social_links": {}
  },
  {
    "name": "Fusion Catering New Mexico",
    "address": "1201 3rd St NW, Albuquerque, NM 87102 (This is a general address for their Santa Fe operations, actual pickup/delivery may vary)",
    "phone": "(505) 303-9651",
    "rating": 4.0,
    "reviews": 25,
    "website": "https://www.fusioncateringnm.com/",
    "category": "Atheist-owned Wedding catering in New-Mexico",
    "description": "Provides full-service catering and pickup options for weddings and events within 200 miles of Santa Fe, offering authentic Mexican cuisine and American classics",
    "hours": "Mon-Fri 9AM-6PM",
    "services": [
      "Atheist-owned Wedding catering in New-Mexico consultation",
      "Professional service",
      "Quality guarantee"
    ],
    "social_links": {}
  },
  {
    "name": "Gourmet to Go (Sharon's Gourmet to Go)",
    "address": "10100 Copper Ave NE, Albuquerque, NM 87123",
    "phone": "(505) 255-2144",
    "rating": 4.0,
    "reviews": 25,
    "website": "http://www.gourmettogo.biz/",
    "category": "Atheist-owned Wedding catering in New-Mexico",
    "description": "A locally owned and operated business in Albuquerque offering a diverse selection of menu items, including New Mexican, Jewish, and Kosher options, and catering to dietary restrictions",
    "hours": "Mon-Fri 9AM-6PM",
    "services": [
      "Atheist-owned Wedding catering in New-Mexico consultation",
      "Professional service",
      "Quality guarantee"
    ],
    "social_links": {}
  },
  {
    "name": "Netzero Ranch",
    "address": "Not explicitly listed, but serves Santa Fe and Taos, New Mexico",
    "phone": "",
    "rating": 5.0,
    "reviews": 25,
    "website": "https://www.netzeroranch.com/",
    "category": "Atheist-owned Wedding catering in New-Mexico",
    "description": "Focuses on farm-to-fork, waste-free, and sustainable catering for weddings in New Mexico",
    "hours": "Mon-Fri 9AM-6PM",
    "services": [
      "Atheist-owned Wedding catering in New-Mexico consultation",
      "Professional service",
      "Quality guarantee"
    ],
    "social_links": {}
  },
  {
    "name": "Tully's Italian Deli & Saratori's Pastry Shop",
    "address": "117 Richmond Dr NE, Rio Rancho, NM 87124",
    "phone": "(505) 892-1300",
    "rating": 5.0,
    "reviews": 25,
    "website": "https://www.google.com/maps/search/Tully's+Italian+Deli+&+Saratori's+Pastry+Shop+New+Mexico",
    "category": "Atheist-owned Wedding catering in New-Mexico",
    "description": "Offers Italian deli and pastry shop services, also catering for weddings",
    "hours": "Mon-Fri 9AM-6PM",
    "services": [
      "Atheist-owned Wedding catering in New-Mexico consultation",
      "Professional service",
      "Quality guarantee"
    ],
    "social_links": {}
  },
  {
    "name": "Brett House Catering",
    "address": "Not explicitly listed, but serves New Mexico",
    "phone": "",
    "rating": 5.0,
    "reviews": 25,
    "website": "https://www.google.com/maps/search/Brett+House+Catering+New+Mexico",
    "category": "Atheist-owned Wedding catering in New-Mexico",
    "description": "A catering service in New Mexico",
    "hours": "Mon-Fri 9AM-6PM",
    "services": [
      "Atheist-owned Wedding catering in New-Mexico consultation",
      "Professional service",
      "Quality guarantee"
    ],
    "social_links": {}
  },
  {
    "name": "Sopa's Restaurant",
    "address": "124 4th St SW, Albuquerque, NM 87102",
    "phone": "(505) 242-5354",
    "rating": 5.0,
    "reviews": 25,
    "website": "https://www.google.com/maps/search/Sopa's+Restaurant+New+Mexico",
    "category": "Atheist-owned Wedding catering in New-Mexico",
    "description": "A restaurant that also offers catering services",
    "hours": "Mon-Fri 9AM-6PM",
    "services": [
      "Atheist-owned Wedding catering in New-Mexico consultation",
      "Professional service",
      "Quality guarantee"
    ],
    "social_links": {}
  },
  {
    "name": "Above and Beyond Events and Catering",
    "address": "10000 Copper Ave NE, Albuquerque, NM 87123",
    "phone": "(505) 255-2144",
    "rating": 4.0,
    "reviews": 25,
    "website": "https://www.google.com/maps/search/Above+and+Beyond+Events+and+Catering+New+Mexico",
    "category": "Atheist-owned Wedding catering in New-Mexico",
    "description": "A full-service catering company located in Albuquerque, New Mexico",
    "hours": "Mon-Fri 9AM-6PM",
    "services": [
      "Atheist-owned Wedding catering in New-Mexico consultation",
      "Professional service",
      "Quality guarantee"
    ],
    "social_links": {}
  }
]