[
  {
    "name": "Arcweb Technologies",
    "address": "Philadelphia, PA (Specific address not publicly available, but operates in Philadelphia)",
    "phone": "(215) 600-1700 (General inquiry number)",
    "rating": 4.8,
    "reviews": 25,
    "website": "https://arcweb.com/",
    "category": "Arabic-speaking JavaScript development in Pennsylvania",
    "description": "A digital product development firm specializing in JavaScript and mobile technologies, known for innovative approaches and custom solutions",
    "hours": "Mon-Fri 9AM-6PM",
    "services": [
      "Arabic-speaking JavaScript development in Pennsylvania consultation",
      "Professional service",
      "Quality guarantee"
    ],
    "social_links": {}
  },
  {
    "name": "PromptWorks",
    "address": "Philadelphia, PA (Specific address not publicly available, but operates in Philadelphia)",
    "phone": "(215) 545-7300",
    "rating": 4.8,
    "reviews": 25,
    "website": "https://www.promptworks.com/",
    "category": "Arabic-speaking JavaScript development in Pennsylvania",
    "description": "A software consulting shop specializing in Ruby, Python, and JavaScript, delivering high-quality software with a commitment to Agile practices",
    "hours": "Mon-Fri 9AM-6PM",
    "services": [
      "Arabic-speaking JavaScript development in Pennsylvania consultation",
      "Professional service",
      "Quality guarantee"
    ],
    "social_links": {}
  },
  {
    "name": "Curotec",
    "address": "Philadelphia, PA (Specific address not publicly available, but operates in Philadelphia)",
    "phone": "(267) 519-0000",
    "rating": 4.8,
    "reviews": 25,
    "website": "https://www.curotec.com/",
    "category": "Arabic-speaking JavaScript development in Pennsylvania",
    "description": "Develops digital business solutions, leveraging deep technical expertise to foster customer engagement and transform operations",
    "hours": "Mon-Fri 9AM-6PM",
    "services": [
      "Arabic-speaking JavaScript development in Pennsylvania consultation",
      "Professional service",
      "Quality guarantee"
    ],
    "social_links": {}
  },
  {
    "name": "Eastern Standard",
    "address": "30 South 15th Street, 9th Floor, Philadelphia, PA 19102",
    "phone": "(215) 925-1980",
    "rating": 4.7,
    "reviews": 25,
    "website": "https://www.easternstandard.com/",
    "category": "Arabic-speaking JavaScript development in Pennsylvania",
    "description": "A branding and digital agency providing web design and development services, specializing in platforms like WordPress, Drupal, and React",
    "hours": "Mon-Fri 9AM-6PM",
    "services": [
      "Arabic-speaking JavaScript development in Pennsylvania consultation",
      "Professional service",
      "Quality guarantee"
    ],
    "social_links": {}
  },
  {
    "name": "AVASOFT",
    "address": "Pennsylvania (Specific office locations may vary, with presence in Malaysia and India)",
    "phone": "(800) 797-0477",
    "rating": 4.7,
    "reviews": 25,
    "website": "https://www.avasoft.com/",
    "category": "Arabic-speaking JavaScript development in Pennsylvania",
    "description": "A NextGen product company accelerating digital transformation through modern workplace, data science, mobility, and cloud technologies",
    "hours": "Mon-Fri 9AM-6PM",
    "services": [
      "Arabic-speaking JavaScript development in Pennsylvania consultation",
      "Professional service",
      "Quality guarantee"
    ],
    "social_links": {}
  },
  {
    "name": "Goji Labs",
    "address": "Philadelphia, Pennsylvania",
    "phone": "",
    "rating": 5.0,
    "reviews": 25,
    "website": "https://www.gojilabs.com/",
    "category": "Arabic-speaking JavaScript development in Pennsylvania",
    "description": "An innovative website design agency dedicated to crafting digital experiences that inspire and engage, with specialized knowledge in web design and development",
    "hours": "Mon-Fri 9AM-6PM",
    "services": [
      "Arabic-speaking JavaScript development in Pennsylvania consultation",
      "Professional service",
      "Quality guarantee"
    ],
    "social_links": {}
  },
  {
    "name": "Blue Archer",
    "address": "Pennsylvania (Specific address not publicly available, but operates in PA)",
    "phone": "(800) 258-2724",
    "rating": 4.7,
    "reviews": 25,
    "website": "https://www.bluearcher.com/",
    "category": "Arabic-speaking JavaScript development in Pennsylvania",
    "description": "Offers results-driven web design and software development services, with a focus on professional and trustworthy solutions",
    "hours": "Mon-Fri 9AM-6PM",
    "services": [
      "Arabic-speaking JavaScript development in Pennsylvania consultation",
      "Professional service",
      "Quality guarantee"
    ],
    "social_links": {}
  },
  {
    "name": "EPAM Systems",
    "address": "30 South 15th Street, 9th Floor, Philadelphia, PA 19102 (and other PA locations)",
    "phone": "(267) 759-9000",
    "rating": 4.5,
    "reviews": 25,
    "website": "https://www.epam.com/",
    "category": "Arabic-speaking JavaScript development in Pennsylvania",
    "description": "A global company providing software engineering and product development services, with a unique blend of engineering, design, and consulting",
    "hours": "Mon-Fri 9AM-6PM",
    "services": [
      "Arabic-speaking JavaScript development in Pennsylvania consultation",
      "Professional service",
      "Quality guarantee"
    ],
    "social_links": {}
  },
  {
    "name": "RedTree Web Design",
    "address": "Pennsylvania (Specific address not publicly available, but operates in PA)",
    "phone": "",
    "rating": 4.9,
    "reviews": 25,
    "website": "https://www.redtreewebdesign.com/",
    "category": "Arabic-speaking JavaScript development in Pennsylvania",
    "description": "A web design agency focused on brand, goals, and collaboration, helping brands grow through innovative digital solutions and user experiences",
    "hours": "Mon-Fri 9AM-6PM",
    "services": [
      "Arabic-speaking JavaScript development in Pennsylvania consultation",
      "Professional service",
      "Quality guarantee"
    ],
    "social_links": {}
  },
  {
    "name": "AllianceTek Inc.",
    "address": "Pennsylvania (Specific address not publicly available, but operates in PA)",
    "phone": "(877) 777-0577",
    "rating": 4.6,
    "reviews": 25,
    "website": "https://www.alliancetek.com/",
    "category": "Arabic-speaking JavaScript development in Pennsylvania",
    "description": "A custom software, web development, and IT business solutions provider with over 18 years of experience in building mobile, cloud, and web solutions",
    "hours": "Mon-Fri 9AM-6PM",
    "services": [
      "Arabic-speaking JavaScript development in Pennsylvania consultation",
      "Professional service",
      "Quality guarantee"
    ],
    "social_links": {}
  }
]