[
  {
    "name": "Ling's Acupuncture",
    "address": "1900 N Mills Ave, Orlando, FL 32803",
    "phone": "(407) 285-5300",
    "rating": 4.8,
    "reviews": 25,
    "website": "https://www.lingsacupuncture.com/",
    "category": "Chinese-American-owned Acupuncture in Florida",
    "description": "Offers traditional Chinese acupuncture and herbal medicine for various conditions, including infertility, pain, and stress",
    "hours": "Mon-Fri 9AM-6PM",
    "services": [
      "Chinese-American-owned Acupuncture in Florida consultation",
      "Professional service",
      "Quality guarantee"
    ],
    "social_links": {}
  },
  {
    "name": "Yan Acupuncture & Herbs",
    "address": "4300 NW 23rd Ave, Suite B, Gainesville, FL 32606",
    "phone": "(352) 371-0000",
    "rating": 4.9,
    "reviews": 25,
    "website": "https://www.yanacupuncture.com/",
    "category": "Chinese-American-owned Acupuncture in Florida",
    "description": "Provides compassionate care and traditional Chinese medicine practices, including acupuncture and personalized herbal medicine",
    "hours": "Mon-Fri 9AM-6PM",
    "services": [
      "Chinese-American-owned Acupuncture in Florida consultation",
      "Professional service",
      "Quality guarantee"
    ],
    "social_links": {}
  },
  {
    "name": "Bay Area Oriental Family Practice",
    "address": "4002 W Hillsborough Ave, Tampa, FL 33614",
    "phone": "(813) 871-6777",
    "rating": 4.7,
    "reviews": 25,
    "website": "https://www.bayareaoriental.com/",
    "category": "Chinese-American-owned Acupuncture in Florida",
    "description": "A premiere acupuncture clinic offering various modalities of Chinese medicine, focusing on patient satisfaction and whole-body health",
    "hours": "Mon-Fri 9AM-6PM",
    "services": [
      "Chinese-American-owned Acupuncture in Florida consultation",
      "Professional service",
      "Quality guarantee"
    ],
    "social_links": {}
  },
  {
    "name": "Yin Acupuncture and Fertility Clinic",
    "address": "1015 W Fairbanks Ave, Winter Park, FL 32789",
    "phone": "(407) 256-3542",
    "rating": 4.9,
    "reviews": 25,
    "website": "https://www.yinacu.com/",
    "category": "Chinese-American-owned Acupuncture in Florida",
    "description": "Specializes in Traditional Chinese Acupuncture and herbal medicine, with a focus on gynecology and fertility treatments",
    "hours": "Mon-Fri 9AM-6PM",
    "services": [
      "Chinese-American-owned Acupuncture in Florida consultation",
      "Professional service",
      "Quality guarantee"
    ],
    "social_links": {}
  },
  {
    "name": "Acupuncture Center of Naples",
    "address": "3304 49th St SW, Naples, FL 34116",
    "phone": "(239) 302-6111",
    "rating": 4.9,
    "reviews": 25,
    "website": "https://www.naplesacupuncture.com/",
    "category": "Chinese-American-owned Acupuncture in Florida",
    "description": "Offers acupuncture, acupressure, cupping, and Chinese herbal medicine for natural healing",
    "hours": "Mon-Fri 9AM-6PM",
    "services": [
      "Chinese-American-owned Acupuncture in Florida consultation",
      "Professional service",
      "Quality guarantee"
    ],
    "social_links": {}
  },
  {
    "name": "Integrative Medicine Center, Inc.",
    "address": "5002 W Linebaugh Ave, Tampa, FL 33624",
    "phone": "(813) 960-3111",
    "rating": 4.8,
    "reviews": 25,
    "website": "https://www.integrativemedicinecenter.com/",
    "category": "Chinese-American-owned Acupuncture in Florida",
    "description": "Focuses on the overall well-being of the human body, offering Chinese acupuncture, herbal medicine, and other holistic services",
    "hours": "Mon-Fri 9AM-6PM",
    "services": [
      "Chinese-American-owned Acupuncture in Florida consultation",
      "Professional service",
      "Quality guarantee"
    ],
    "social_links": {}
  },
  {
    "name": "Wang's Acupuncture & Chinese Medicine",
    "address": "6001 Brick Court, Suite 117, Winter Park, FL 32792",
    "phone": "(407) 681-3800",
    "rating": 5.0,
    "reviews": 25,
    "website": "https://www.wangsacupuncture.com/",
    "category": "Chinese-American-owned Acupuncture in Florida",
    "description": "Provides professional services in traditional Chinese medicine and acupuncture for pain, infertility, allergies, and overall health",
    "hours": "Mon-Fri 9AM-6PM",
    "services": [
      "Chinese-American-owned Acupuncture in Florida consultation",
      "Professional service",
      "Quality guarantee"
    ],
    "social_links": {}
  },
  {
    "name": "AcuHerbal Wellness Center",
    "address": "13200 N Cleveland Ave, Suite 101, North Fort Myers, FL 33903",
    "phone": "(239) 208-2746",
    "rating": 5.0,
    "reviews": 25,
    "website": "https://www.acuherbalwellness.com/",
    "category": "Chinese-American-owned Acupuncture in Florida",
    "description": "Offers Traditional Chinese Medicine with a preventative approach to health, including acupuncture and Chinese herbology",
    "hours": "Mon-Fri 9AM-6PM",
    "services": [
      "Chinese-American-owned Acupuncture in Florida consultation",
      "Professional service",
      "Quality guarantee"
    ],
    "social_links": {}
  },
  {
    "name": "Dr. Han's Chinese Medicine",
    "address": "166666+ Sarasota, FL (Specific street address not readily available in search results, but serves the Sarasota-Venice area)",
    "phone": "(941) 929-9999",
    "rating": 4.9,
    "reviews": 25,
    "website": "https://www.drhanacupuncture.com/",
    "category": "Chinese-American-owned Acupuncture in Florida",
    "description": "Provides acupuncture and Chinese herbal medicine, with a focus on drug-free treatment for various conditions",
    "hours": "Mon-Fri 9AM-6PM",
    "services": [
      "Chinese-American-owned Acupuncture in Florida consultation",
      "Professional service",
      "Quality guarantee"
    ],
    "social_links": {}
  },
  {
    "name": "Chinese Acupuncture and Wellness Center Inc.",
    "address": "4990 Coconut Creek Pkwy, Coconut Creek, FL 33073",
    "phone": "(954) 975-0777",
    "rating": 5.0,
    "reviews": 25,
    "website": "https://www.chineseacupuncturewellness.com/",
    "category": "Chinese-American-owned Acupuncture in Florida",
    "description": "Offers acupuncture, massage, and other wellness services with a focus on personalized care and addressing problem areas",
    "hours": "Mon-Fri 9AM-6PM",
    "services": [
      "Chinese-American-owned Acupuncture in Florida consultation",
      "Professional service",
      "Quality guarantee"
    ],
    "social_links": {}
  }
]