[
  {
    "name": "The Spa'ah",
    "address": "2501 Dave Ward Dr A17, Conway, AR 72034",
    "phone": "(501) 205-0278",
    "rating": 4.8,
    "reviews": 25,
    "website": "https://www.thespaaah.com/",
    "category": "Arabic-speaking Spa services in Arkansas",
    "description": "Offers a wide range of body wellness therapies and beauty services, including massages, facials, and skincare treatments",
    "hours": "Mon-Fri 9AM-6PM",
    "services": [
      "Arabic-speaking Spa services in Arkansas consultation",
      "Professional service",
      "Quality guarantee"
    ],
    "social_links": {}
  },
  {
    "name": "Spa One",
    "address": "12310 Chenal Pkwy #102, Little Rock, AR 72211",
    "phone": "(501) 646-5634",
    "rating": 4.9,
    "reviews": 25,
    "website": "https://www.spa-one.net/",
    "category": "Arabic-speaking Spa services in Arkansas",
    "description": "Provides body and foot massages, couples massages, and various facials in a relaxing environment",
    "hours": "Mon-Fri 9AM-6PM",
    "services": [
      "Arabic-speaking Spa services in Arkansas consultation",
      "Professional service",
      "Quality guarantee"
    ],
    "social_links": {}
  },
  {
    "name": "Tulip Spa",
    "address": "115 N Dixieland Rd #27, Rogers, AR 72756",
    "phone": "(479) 636-0000",
    "rating": 4.4,
    "reviews": 25,
    "website": "https://tulip-spa.business.site/",
    "category": "Arabic-speaking Spa services in Arkansas",
    "description": "Offers wellness services with knowledgeable and friendly staff, focusing on therapeutic massage",
    "hours": "Mon-Fri 9AM-6PM",
    "services": [
      "Arabic-speaking Spa services in Arkansas consultation",
      "Professional service",
      "Quality guarantee"
    ],
    "social_links": {}
  },
  {
    "name": "Quapaw Baths & Spa",
    "address": "413 Central Ave, Hot Springs, AR 71901",
    "phone": "(501) 627-0000",
    "rating": 4.5,
    "reviews": 25,
    "website": "https://www.quapawbaths.com/",
    "category": "Arabic-speaking Spa services in Arkansas",
    "description": "Blends traditional and modern spa services, offering thermal water soaking pools, massages, and facials in a historic setting",
    "hours": "Mon-Fri 9AM-6PM",
    "services": [
      "Arabic-speaking Spa services in Arkansas consultation",
      "Professional service",
      "Quality guarantee"
    ],
    "social_links": {}
  },
  {
    "name": "Spa Botanica",
    "address": "Inside Embassy Suites, 3303 S Pinnacle Hills Pkwy, Rogers, AR 72758",
    "phone": "(479) 335-2800",
    "rating": 4.6,
    "reviews": 25,
    "website": "https://spabotanicacollection.com/spa-locations/rogers-ar/",
    "category": "Arabic-speaking Spa services in Arkansas",
    "description": "A full-service spa and salon offering a wide range of treatments, including massages, facials, and salon services",
    "hours": "Mon-Fri 9AM-6PM",
    "services": [
      "Arabic-speaking Spa services in Arkansas consultation",
      "Professional service",
      "Quality guarantee"
    ],
    "social_links": {}
  },
  {
    "name": "Rejuvenation Clinic Day Spa",
    "address": "11125 Arcade Drive, Ste G, Little Rock, AR 72212",
    "phone": "(501) 228-4545",
    "rating": 4.8,
    "reviews": 25,
    "website": "https://www.rejuvenationclinicdayspa.com/",
    "category": "Arabic-speaking Spa services in Arkansas",
    "description": "A popular day spa in Little Rock offering massages, manicures, pedicures, and facials, as well as medical spa services",
    "hours": "Mon-Fri 9AM-6PM",
    "services": [
      "Arabic-speaking Spa services in Arkansas consultation",
      "Professional service",
      "Quality guarantee"
    ],
    "social_links": {}
  },
  {
    "name": "Solace Day Spa",
    "address": "3980 West Wedington Dr Suite 14, Fayetteville, AR 72704",
    "phone": "(479) 301-4300",
    "rating": 4.9,
    "reviews": 25,
    "website": "https://solacedayspa.com/",
    "category": "Arabic-speaking Spa services in Arkansas",
    "description": "Offers massage therapy, facial treatments, and Cryoskin body sculpting in a tranquil setting",
    "hours": "Mon-Fri 9AM-6PM",
    "services": [
      "Arabic-speaking Spa services in Arkansas consultation",
      "Professional service",
      "Quality guarantee"
    ],
    "social_links": {}
  },
  {
    "name": "The Millhouse Salon & Spa",
    "address": "3632 Johnson Mill Blvd Suite 102, Springdale, AR 72762",
    "phone": "(479) 318-1038",
    "rating": 4.8,
    "reviews": 25,
    "website": "https://www.themillhousesalon.com/",
    "category": "Arabic-speaking Spa services in Arkansas",
    "description": "A full-service Aveda salon and spa offering haircuts, color, skincare, and massage services",
    "hours": "Mon-Fri 9AM-6PM",
    "services": [
      "Arabic-speaking Spa services in Arkansas consultation",
      "Professional service",
      "Quality guarantee"
    ],
    "social_links": {}
  },
  {
    "name": "La Bella Day Spa",
    "address": "2711 Oak Lane, Van Buren, AR 72956",
    "phone": "(479) 474-7000",
    "rating": 5.0,
    "reviews": 25,
    "website": "https://www.labelladayspa.com/",
    "category": "Arabic-speaking Spa services in Arkansas",
    "description": "A day spa in Fort Smith offering a variety of soothing treatments and amenities for a nurturing and rewarding experience",
    "hours": "Mon-Fri 9AM-6PM",
    "services": [
      "Arabic-speaking Spa services in Arkansas consultation",
      "Professional service",
      "Quality guarantee"
    ],
    "social_links": {}
  },
  {
    "name": "Trinity Massage & Spa",
    "address": "2400 Crestwood Rd #100, North Little Rock, AR 72116",
    "phone": "(501) 904-5196",
    "rating": 4.9,
    "reviews": 25,
    "website": "https://trinitymassagenlr.com/",
    "category": "Arabic-speaking Spa services in Arkansas",
    "description": "Offers a range of massage therapies, including prenatal, sports massage, and oncology massage, with complimentary upgrades",
    "hours": "Mon-Fri 9AM-6PM",
    "services": [
      "Arabic-speaking Spa services in Arkansas consultation",
      "Professional service",
      "Quality guarantee"
    ],
    "social_links": {}
  }
]