[
  {
    "name": "Yoga Oasis",
    "address": "Tucson, AZ (Specific address not provided in search results)",
    "phone": "(520) 322-8400",
    "rating": 4.8,
    "reviews": 25,
    "website": "https://www.yogaoasis.com/",
    "category": "Chinese-American-owned Hatha yoga in Arizona",
    "description": "Known for its focus on Hatha yoga and affordable classes, offering a variety of options for all levels",
    "hours": "Mon-Fri 9AM-6PM",
    "services": [
      "Chinese-American-owned Hatha yoga in Arizona consultation",
      "Professional service",
      "Quality guarantee"
    ],
    "social_links": {}
  },
  {
    "name": "Metta Yoga",
    "address": "Phoenix, AZ (Specific address not provided in search results)",
    "phone": "(602) 354-7777",
    "rating": 4.7,
    "reviews": 25,
    "website": "https://www.mettayoga.com/",
    "category": "Chinese-American-owned Hatha yoga in Arizona",
    "description": "Offers over 50 weekly classes focused on healing and positivity, with a variety of Hatha classes, workshops, and retreats",
    "hours": "Mon-Fri 9AM-6PM",
    "services": [
      "Chinese-American-owned Hatha yoga in Arizona consultation",
      "Professional service",
      "Quality guarantee"
    ],
    "social_links": {}
  },
  {
    "name": "Hot Yoga University",
    "address": "2501 North Scottsdale Road, Scottsdale, AZ",
    "phone": "(480) 945-9642",
    "rating": 4.9,
    "reviews": 25,
    "website": "https://www.hotyogau.com/",
    "category": "Chinese-American-owned Hatha yoga in Arizona",
    "description": "Blends hot and non-heated yoga, offering a modern studio environment with various class types",
    "hours": "Mon-Fri 9AM-6PM",
    "services": [
      "Chinese-American-owned Hatha yoga in Arizona consultation",
      "Professional service",
      "Quality guarantee"
    ],
    "social_links": {}
  },
  {
    "name": "4th Avenue Yoga",
    "address": "413 East 5th Street, Tucson, AZ",
    "phone": "(520) 622-9642",
    "rating": 4.7,
    "reviews": 25,
    "website": "https://www.4th-avenue-yoga.com/",
    "category": "Chinese-American-owned Hatha yoga in Arizona",
    "description": "Offers Hatha, Vinyasa, Yin, and Hot 26 classes in a tranquil setting, suitable for new and experienced yogis",
    "hours": "Mon-Fri 9AM-6PM",
    "services": [
      "Chinese-American-owned Hatha yoga in Arizona consultation",
      "Professional service",
      "Quality guarantee"
    ],
    "social_links": {}
  },
  {
    "name": "Spirit of Yoga (SOY)",
    "address": "Tempe, AZ (Specific address not provided in search results)",
    "phone": "(480) 730-8437",
    "rating": 4.6,
    "reviews": 25,
    "website": "https://www.spiritofyoga.com/",
    "category": "Chinese-American-owned Hatha yoga in Arizona",
    "description": "Located in Tempe, this studio offers a variety of yoga styles including Hatha, Yin, and Ashtanga, in an inclusive and supportive environment",
    "hours": "Mon-Fri 9AM-6PM",
    "services": [
      "Chinese-American-owned Hatha yoga in Arizona consultation",
      "Professional service",
      "Quality guarantee"
    ],
    "social_links": {}
  },
  {
    "name": "The Yoga Connection",
    "address": "Saint David, AZ (Also offers retreats in Costa Rica)",
    "phone": "(520) 721-7077",
    "rating": 4.8,
    "reviews": 25,
    "website": "https://www.theyogaconnection.org/",
    "category": "Chinese-American-owned Hatha yoga in Arizona",
    "description": "A nonprofit organization serving the Tucson community since 1987, dedicated to teaching Hatha Yoga and meditation",
    "hours": "Mon-Fri 9AM-6PM",
    "services": [
      "Chinese-American-owned Hatha yoga in Arizona consultation",
      "Professional service",
      "Quality guarantee"
    ],
    "social_links": {}
  },
  {
    "name": "Blue Buddha Collective",
    "address": "423 North Scottsdale Road, Scottsdale, AZ",
    "phone": "(480) 650-7722",
    "rating": 4.9,
    "reviews": 25,
    "website": "https://www.bluebuddhacollective.com/",
    "category": "Chinese-American-owned Hatha yoga in Arizona",
    "description": "Scottsdale's only hot yoga and coffee sanctuary, offering infrared hot yoga and a variety of classes in a supportive community space",
    "hours": "Mon-Fri 9AM-6PM",
    "services": [
      "Chinese-American-owned Hatha yoga in Arizona consultation",
      "Professional service",
      "Quality guarantee"
    ],
    "social_links": {}
  },
  {
    "name": "Harumi Yoga+",
    "address": "North Scottsdale, AZ (Specific address not provided in search results)",
    "phone": "(480) 650-7722",
    "rating": 4.9,
    "reviews": 25,
    "website": "https://www.harumiyoga.com/",
    "category": "Chinese-American-owned Hatha yoga in Arizona",
    "description": "Offers traditional yoga classes, meditation, and holistic healing therapies, with a focus on the body-mind connection",
    "hours": "Mon-Fri 9AM-6PM",
    "services": [
      "Chinese-American-owned Hatha yoga in Arizona consultation",
      "Professional service",
      "Quality guarantee"
    ],
    "social_links": {}
  },
  {
    "name": "Inner Vision Yoga",
    "address": "Tempe, AZ and Phoenix, AZ (Specific addresses not provided in search results)",
    "phone": "(480) 730-8437",
    "rating": 4.7,
    "reviews": 25,
    "website": "https://www.innervisionyoga.com/",
    "category": "Chinese-American-owned Hatha yoga in Arizona",
    "description": "Offers yoga classes, yoga therapeutics, and teacher trainings, with an emphasis on experience and personalized practice",
    "hours": "Mon-Fri 9AM-6PM",
    "services": [
      "Chinese-American-owned Hatha yoga in Arizona consultation",
      "Professional service",
      "Quality guarantee"
    ],
    "social_links": {}
  },
  {
    "name": "Urban Yoga Phoenix",
    "address": "3800 N Central Ave Suite C-100, Phoenix, AZ",
    "phone": "(602) 277-9642",
    "rating": 4.9,
    "reviews": 25,
    "website": "https://www.urbanyogaphx.com/",
    "category": "Chinese-American-owned Hatha yoga in Arizona",
    "description": "Phoenix's original home for authentic, non-heated yoga, offering a tranquil space for daily yoga, meditation, and breathwork",
    "hours": "Mon-Fri 9AM-6PM",
    "services": [
      "Chinese-American-owned Hatha yoga in Arizona consultation",
      "Professional service",
      "Quality guarantee"
    ],
    "social_links": {}
  }
]