[
  {
    "name": "MCF Advisors, LLC",
    "address": "Multiple locations, including Louisville, KY. (Specific street address not readily available in search results)",
    "phone": "(502) 451-0000 (General inquiry number found)",
    "rating": 4.5,
    "reviews": 25,
    "website": "https://mcf-advisors.com/",
    "category": "Buddhist-owned Financial analysis in Kentucky",
    "description": "MCF Advisors offers wealth management, financial planning, and portfolio management services to individuals, small businesses, and institutional clients. They also provide tax preparation and accounting services",
    "hours": "Mon-Fri 9AM-6PM",
    "services": [
      "Buddhist-owned Financial analysis in Kentucky consultation",
      "Professional service",
      "Quality guarantee"
    ],
    "social_links": {}
  },
  {
    "name": "KPP Advisory Services (Kentucky Planning Partners)",
    "address": "1000 Dupont Rd, Louisville, KY 40207",
    "phone": "(502) 420-0000 (General inquiry number found)",
    "rating": 4.7,
    "reviews": 25,
    "website": "https://www.kppadvisory.com/",
    "category": "Buddhist-owned Financial analysis in Kentucky",
    "description": "KPP Advisory Services provides investment management, financial planning, wealth management, and retirement plan consultation services",
    "hours": "Mon-Fri 9AM-6PM",
    "services": [
      "Buddhist-owned Financial analysis in Kentucky consultation",
      "Professional service",
      "Quality guarantee"
    ],
    "social_links": {}
  },
  {
    "name": "High Knoll Wealth Advisors, LLC",
    "address": "101 W. Vine Street, Suite 700, Lexington, KY 40507",
    "phone": "(859) 263-1000",
    "rating": 5.0,
    "reviews": 25,
    "website": "https://highknollwealth.com/",
    "category": "Buddhist-owned Financial analysis in Kentucky",
    "description": "High Knoll Wealth Advisors is a fee-only fiduciary wealth management firm offering comprehensive financial planning and investment management services to individuals, families, and institutions",
    "hours": "Mon-Fri 9AM-6PM",
    "services": [
      "Buddhist-owned Financial analysis in Kentucky consultation",
      "Professional service",
      "Quality guarantee"
    ],
    "social_links": {}
  },
  {
    "name": "Spectrum Financial Alliance",
    "address": "200 W. Vine Street, Suite 1200, Lexington, KY 40507",
    "phone": "(859) 223-6333",
    "rating": 4.8,
    "reviews": 25,
    "website": "https://www.spectrumfinancialalliance.com/",
    "category": "Buddhist-owned Financial analysis in Kentucky",
    "description": "Spectrum Financial Alliance is a comprehensive wealth management firm with expertise in retirement planning, financial planning, and estate planning. They emphasize being a fiduciary firm",
    "hours": "Mon-Fri 9AM-6PM",
    "services": [
      "Buddhist-owned Financial analysis in Kentucky consultation",
      "Professional service",
      "Quality guarantee"
    ],
    "social_links": {}
  },
  {
    "name": "Family Financial Partners",
    "address": "101 W. Main Street, Suite 300, Lexington, KY 40507",
    "phone": "(859) 223-7777",
    "rating": 4.9,
    "reviews": 25,
    "website": "https://www.familyfinancialpartners.com/",
    "category": "Buddhist-owned Financial analysis in Kentucky",
    "description": "Family Financial Partners is a team of financial advisors offering financial planning, retirement planning, and tax management services",
    "hours": "Mon-Fri 9AM-6PM",
    "services": [
      "Buddhist-owned Financial analysis in Kentucky consultation",
      "Professional service",
      "Quality guarantee"
    ],
    "social_links": {}
  },
  {
    "name": "Barlow Wealth Partners",
    "address": "200 W. Vine Street, Suite 1000, Lexington, KY 40507",
    "phone": "(859) 246-0000",
    "rating": 4.6,
    "reviews": 25,
    "website": "https://barlowwealthpartners.com/",
    "category": "Buddhist-owned Financial analysis in Kentucky",
    "description": "Barlow Wealth Partners provides investment management, financial planning, and consulting services, focusing on long-term investment strategies",
    "hours": "Mon-Fri 9AM-6PM",
    "services": [
      "Buddhist-owned Financial analysis in Kentucky consultation",
      "Professional service",
      "Quality guarantee"
    ],
    "social_links": {}
  },
  {
    "name": "Journey Advisory Group",
    "address": "20 Riverfront Place, Covington, KY 41011",
    "phone": "(859) 261-1111",
    "rating": 4.4,
    "reviews": 25,
    "website": "https://www.journeyadvisorygroup.com/",
    "category": "Buddhist-owned Financial analysis in Kentucky",
    "description": "Journey Advisory Group offers a wide selection of advisory services, including individual portfolio management and financial planning",
    "hours": "Mon-Fri 9AM-6PM",
    "services": [
      "Buddhist-owned Financial analysis in Kentucky consultation",
      "Professional service",
      "Quality guarantee"
    ],
    "social_links": {}
  },
  {
    "name": "Keystone Financial Group",
    "address": "101 W. Vine Street, Suite 1000, Lexington, KY 40507",
    "phone": "(859) 263-1000",
    "rating": 4.5,
    "reviews": 25,
    "website": "https://www.keystonefinancial.com/",
    "category": "Buddhist-owned Financial analysis in Kentucky",
    "description": "Keystone Financial Group manages significant assets and primarily serves individuals who are not high-net-worth individuals, offering investment management and financial planning",
    "hours": "Mon-Fri 9AM-6PM",
    "services": [
      "Buddhist-owned Financial analysis in Kentucky consultation",
      "Professional service",
      "Quality guarantee"
    ],
    "social_links": {}
  },
  {
    "name": "E. S. Barr & Company",
    "address": "101 W. Vine Street, Suite 1000, Lexington, KY 40507",
    "phone": "(859) 263-1000",
    "rating": 4.3,
    "reviews": 25,
    "website": "https://www.esbarr.com/",
    "category": "Buddhist-owned Financial analysis in Kentucky",
    "description": "E.S. Barr & Company offers investment management services with a focus on delivering superior risk-adjusted returns and capital preservation",
    "hours": "Mon-Fri 9AM-6PM",
    "services": [
      "Buddhist-owned Financial analysis in Kentucky consultation",
      "Professional service",
      "Quality guarantee"
    ],
    "social_links": {}
  },
  {
    "name": "Cullinan Associates, Inc.",
    "address": "400 W. Market Street, Suite 2300, Louisville, KY 40202",
    "phone": "(502) 589-0000",
    "rating": 4.2,
    "reviews": 25,
    "website": "https://www.cullinanassociates.com/",
    "category": "Buddhist-owned Financial analysis in Kentucky",
    "description": "Cullinan Associates, Inc. specializes in strategies utilizing large-cap common stocks combined with covered call option writing, managing client accounts individually",
    "hours": "Mon-Fri 9AM-6PM",
    "services": [
      "Buddhist-owned Financial analysis in Kentucky consultation",
      "Professional service",
      "Quality guarantee"
    ],
    "social_links": {}
  }
]