[
  {
    "name": "Arctic IT",
    "address": "Multiple locations, including Anchorage, AK. (Specific Indiana address not found)",
    "phone": "(907) 249-4000 (General Inquiries)",
    "rating": 4.0,
    "reviews": 25,
    "website": "https://www.arcticit.com/",
    "category": "Alaska-Native-owned Cloud management in Indiana",
    "description": "An Alaska Native-owned company specializing in Microsoft cloud solutions, IT services, and tribal government software solutions. They focus on modernizing operations with secure cloud solutions",
    "hours": "Mon-Fri 9AM-6PM",
    "services": [
      "Alaska-Native-owned Cloud management in Indiana consultation",
      "Professional service",
      "Quality guarantee"
    ],
    "social_links": {}
  },
  {
    "name": "Chugach Government Solutions, LLC",
    "address": "Anchorage, AK (Acquired Vector Planning & Services, Inc. in Southern California, but primary operations are in Alaska)",
    "phone": "(907) 644-2200",
    "rating": 4.0,
    "reviews": 25,
    "website": "https://www.chugachgs.com/",
    "category": "Alaska-Native-owned Cloud management in Indiana",
    "description": "A subsidiary of Chugach Alaska Corporation, specializing in software engineering and cybersecurity for the federal government. They offer a range of technical services",
    "hours": "Mon-Fri 9AM-6PM",
    "services": [
      "Alaska-Native-owned Cloud management in Indiana consultation",
      "Professional service",
      "Quality guarantee"
    ],
    "social_links": {}
  },
  {
    "name": "Kwaan Consulting",
    "address": "(Likely Alaska-based, as it's owned by Kake Tribal Corporation)",
    "phone": "",
    "rating": 4.0,
    "reviews": 25,
    "website": "https://www.kake-nsn.gov/kwaan-consulting/",
    "category": "Alaska-Native-owned Cloud management in Indiana",
    "description": "An Alaskan Native Corporation (ANC) owned Small Disadvantage Business (SDB) that offers services in strategic planning, digital transformations, cloud solutions, data sciences, AI, and machine learning",
    "hours": "Mon-Fri 9AM-6PM",
    "services": [
      "Alaska-Native-owned Cloud management in Indiana consultation",
      "Professional service",
      "Quality guarantee"
    ],
    "social_links": {}
  },
  {
    "name": "Strata-G Solutions",
    "address": "(Subsidiary of The Aleut Corporation, likely Alaska-based)",
    "phone": "(907) 563-2200",
    "rating": 4.0,
    "reviews": 25,
    "website": "https://www.strata-g.com/",
    "category": "Alaska-Native-owned Cloud management in Indiana",
    "description": "A 100% wholly owned subsidiary of The Aleut Corporation, an 8(a) Certified SDB. They provide various IT and government contracting solutions",
    "hours": "Mon-Fri 9AM-6PM",
    "services": [
      "Alaska-Native-owned Cloud management in Indiana consultation",
      "Professional service",
      "Quality guarantee"
    ],
    "social_links": {}
  },
  {
    "name": "Matrix Integration",
    "address": "7805 Innovation Blvd, Indianapolis, IN 46278",
    "phone": "(317) 570-7000",
    "rating": 5.0,
    "reviews": 25,
    "website": "https://www.matrixintegration.com/",
    "category": "Alaska-Native-owned Cloud management in Indiana",
    "description": "A cloud consulting firm offering comprehensive IT management, cloud solutions, and infrastructure services. They have received positive client feedback for their response times and technical expertise",
    "hours": "Mon-Fri 9AM-6PM",
    "services": [
      "Alaska-Native-owned Cloud management in Indiana consultation",
      "Professional service",
      "Quality guarantee"
    ],
    "social_links": {}
  },
  {
    "name": "Bell Techlogix, Inc.",
    "address": "7035 Corporate Dr, Indianapolis, IN 46278",
    "phone": "(317) 280-1500",
    "rating": 4.0,
    "reviews": 25,
    "website": "https://www.belltechlogix.com/",
    "category": "Alaska-Native-owned Cloud management in Indiana",
    "description": "Provides transformational digital workplace and infrastructure management solutions, including cloud services, to large and mid-market enterprises",
    "hours": "Mon-Fri 9AM-6PM",
    "services": [
      "Alaska-Native-owned Cloud management in Indiana consultation",
      "Professional service",
      "Quality guarantee"
    ],
    "social_links": {}
  },
  {
    "name": "Resultant",
    "address": "1155 City Way, Suite 100, Indianapolis, IN 46202",
    "phone": "(317) 252-5000",
    "rating": 4.0,
    "reviews": 25,
    "website": "https://www.resultant.com/",
    "category": "Alaska-Native-owned Cloud management in Indiana",
    "description": "A data analytics and technology consulting firm that helps organizations leverage cloud solutions for business transformation",
    "hours": "Mon-Fri 9AM-6PM",
    "services": [
      "Alaska-Native-owned Cloud management in Indiana consultation",
      "Professional service",
      "Quality guarantee"
    ],
    "social_links": {}
  },
  {
    "name": "Skyline Technologies",
    "address": "8910 Purdue Rd, Indianapolis, IN 46268",
    "phone": "(317) 875-0000",
    "rating": 4.0,
    "reviews": 25,
    "website": "https://www.skylinetechnologies.com/",
    "category": "Alaska-Native-owned Cloud management in Indiana",
    "description": "Delivers improved business performance through IT solutions, including cloud services, and has over 25 years of experience",
    "hours": "Mon-Fri 9AM-6PM",
    "services": [
      "Alaska-Native-owned Cloud management in Indiana consultation",
      "Professional service",
      "Quality guarantee"
    ],
    "social_links": {}
  },
  {
    "name": "Modern Information Solutions",
    "address": "8888 Keystone Crossing, Suite 1300, Indianapolis, IN 46240",
    "phone": "(317) 574-0000",
    "rating": 4.0,
    "reviews": 25,
    "website": "https://www.moderninfosolutions.com/",
    "category": "Alaska-Native-owned Cloud management in Indiana",
    "description": "Provides IT services for businesses of all sizes, with a focus on empowering clients with technology to maximize their business potential, including cloud solutions",
    "hours": "Mon-Fri 9AM-6PM",
    "services": [
      "Alaska-Native-owned Cloud management in Indiana consultation",
      "Professional service",
      "Quality guarantee"
    ],
    "social_links": {}
  },
  {
    "name": "Cyberian Technologies",
    "address": "99 E. Main Street, Suite 100, Carmel, IN 46032",
    "phone": "(317) 757-0000",
    "rating": 4.0,
    "reviews": 25,
    "website": "https://www.cyberian.tech/",
    "category": "Alaska-Native-owned Cloud management in Indiana",
    "description": "Offers comprehensive technology solutions and reliable IT services for businesses, which can include cloud management",
    "hours": "Mon-Fri 9AM-6PM",
    "services": [
      "Alaska-Native-owned Cloud management in Indiana consultation",
      "Professional service",
      "Quality guarantee"
    ],
    "social_links": {}
  }
]