[
  {
    "name": "Hands On Healing: Therapeutic Massage & Bodywork",
    "address": "1020 S Perry St, Montgomery, AL 36104",
    "phone": "(334) 265-2225",
    "rating": 4.8,
    "reviews": 25,
    "website": "https://www.handsonhealingmontgomery.com/",
    "category": "Agnostic-owned Deep tissue massage in Alabama",
    "description": "Offers a variety of therapeutic massage and bodywork services, including deep tissue massage, sports massage, and lymphatic drainage",
    "hours": "Mon-Fri 9AM-6PM",
    "services": [
      "Agnostic-owned Deep tissue massage in Alabama consultation",
      "Professional service",
      "Quality guarantee"
    ],
    "social_links": {}
  },
  {
    "name": "Healing Haven LLC",
    "address": "200 Cahaba Park Cir, Birmingham, AL 35243",
    "phone": "(205) 980-4200",
    "rating": 4.7,
    "reviews": 25,
    "website": "https://healinghavenllc.com/",
    "category": "Agnostic-owned Deep tissue massage in Alabama",
    "description": "Provides therapeutic, sports, and deep tissue massage, along with aroma touch technique and essential oils for stress and pain management",
    "hours": "Mon-Fri 9AM-6PM",
    "services": [
      "Agnostic-owned Deep tissue massage in Alabama consultation",
      "Professional service",
      "Quality guarantee"
    ],
    "social_links": {}
  },
  {
    "name": "Ambiance Salon and Spa",
    "address": "1214 E University Dr, Auburn, AL 36830",
    "phone": "(334) 826-3060",
    "rating": 4.6,
    "reviews": 25,
    "website": "https://ambiancesalonandauburn.com/",
    "category": "Agnostic-owned Deep tissue massage in Alabama",
    "description": "Specializes in professional deep tissue massage to relieve chronic muscle pain and tension, serving Auburn University faculty, athletes, and professionals",
    "hours": "Mon-Fri 9AM-6PM",
    "services": [
      "Agnostic-owned Deep tissue massage in Alabama consultation",
      "Professional service",
      "Quality guarantee"
    ],
    "social_links": {}
  },
  {
    "name": "Evolve Massage and Alternative Healing",
    "address": "2824 18th St S, Homewood, AL 35209",
    "phone": "(205) 870-1174",
    "rating": 4.9,
    "reviews": 25,
    "website": "https://evolvemassageandhealing.com/",
    "category": "Agnostic-owned Deep tissue massage in Alabama",
    "description": "Offers therapeutic massages, including deep tissue and pain therapy, with a focus on helping people with their pain and promoting lasting relaxation",
    "hours": "Mon-Fri 9AM-6PM",
    "services": [
      "Agnostic-owned Deep tissue massage in Alabama consultation",
      "Professional service",
      "Quality guarantee"
    ],
    "social_links": {}
  },
  {
    "name": "Alabama's Healing Hands",
    "address": "3100 Zelda Rd Ste 115, Montgomery, AL 36106",
    "phone": "(334) 277-1177",
    "rating": 4.5,
    "reviews": 25,
    "website": "https://alabamashealinghands.com/",
    "category": "Agnostic-owned Deep tissue massage in Alabama",
    "description": "A massage therapy and personal spa offering various services, including sports massage which is a type of deep tissue massage",
    "hours": "Mon-Fri 9AM-6PM",
    "services": [
      "Agnostic-owned Deep tissue massage in Alabama consultation",
      "Professional service",
      "Quality guarantee"
    ],
    "social_links": {}
  },
  {
    "name": "Connie Sherrod Massage Therapy & Yoga",
    "address": "2824 18th St S, Homewood, AL 35209 (Note: This address appears to be shared with Evolve Massage and Alternative Healing, further verification may be needed)",
    "phone": "(205) 566-0660",
    "rating": 4.9,
    "reviews": 25,
    "website": "https://connie-sherrod-massage-therapy-yoga.business.site/",
    "category": "Agnostic-owned Deep tissue massage in Alabama",
    "description": "Provides deep tissue, neuromuscular, and relaxation massage, as well as trauma-informed bodywork, with a focus on building and nurturing physical and mental well-being",
    "hours": "Mon-Fri 9AM-6PM",
    "services": [
      "Agnostic-owned Deep tissue massage in Alabama consultation",
      "Professional service",
      "Quality guarantee"
    ],
    "social_links": {}
  },
  {
    "name": "Peaceful Kneads Massage",
    "address": "1020 S Perry St, Montgomery, AL 36104 (Note: This address appears to be shared with Hands On Healing, further verification may be needed)",
    "phone": "(334) 324-7499",
    "rating": 4.7,
    "reviews": 25,
    "website": "https://peacefulkneads.massagetherapy.com/",
    "category": "Agnostic-owned Deep tissue massage in Alabama",
    "description": "Offers deep tissue massage and other bodywork therapies to help clients with painful conditions, muscle tension, and chronic pain",
    "hours": "Mon-Fri 9AM-6PM",
    "services": [
      "Agnostic-owned Deep tissue massage in Alabama consultation",
      "Professional service",
      "Quality guarantee"
    ],
    "social_links": {}
  },
  {
    "name": "The Spa at Traditions",
    "address": "1000 S Donahue Dr, Auburn, AL 36832",
    "phone": "(334) 501-7721",
    "rating": 4.5,
    "reviews": 25,
    "website": "https://www.traditionsclub.com/spa",
    "category": "Agnostic-owned Deep tissue massage in Alabama",
    "description": "Offers a range of spa services, including deep tissue massage, in a luxurious setting",
    "hours": "Mon-Fri 9AM-6PM",
    "services": [
      "Agnostic-owned Deep tissue massage in Alabama consultation",
      "Professional service",
      "Quality guarantee"
    ],
    "social_links": {}
  },
  {
    "name": "Serenity Spa & Wellness",
    "address": "2000 Airport Rd, Ste 101, Huntsville, AL 35801",
    "phone": "(256) 715-7722",
    "rating": 4.8,
    "reviews": 25,
    "website": "https://www.serenityspahsv.com/",
    "category": "Agnostic-owned Deep tissue massage in Alabama",
    "description": "Provides a variety of massage services, including deep tissue, designed to promote relaxation and relieve muscle tension",
    "hours": "Mon-Fri 9AM-6PM",
    "services": [
      "Agnostic-owned Deep tissue massage in Alabama consultation",
      "Professional service",
      "Quality guarantee"
    ],
    "social_links": {}
  },
  {
    "name": "Body & Soul Massage Therapy",
    "address": "1000 Gables Way, Ste 100, Birmingham, AL 35244",
    "phone": "(205) 980-7770",
    "rating": 4.7,
    "reviews": 25,
    "website": "https://bodyandsoulbham.com/",
    "category": "Agnostic-owned Deep tissue massage in Alabama",
    "description": "Offers therapeutic massage services, including deep tissue, to help clients achieve physical and emotional well-being",
    "hours": "Mon-Fri 9AM-6PM",
    "services": [
      "Agnostic-owned Deep tissue massage in Alabama consultation",
      "Professional service",
      "Quality guarantee"
    ],
    "social_links": {}
  }
]