[
  {
    "name": "Boston Barber & Tattoo Co.",
    "address": "1377 Boylston St, Boston, MA 02215, United States",
    "phone": "+1 617-262-0000",
    "rating": 4.7,
    "reviews": 25,
    "website": "http://www.bostonbarber.com/",
    "category": "Armenian-speaking Hot towel shaves in Massachusetts",
    "description": "Offers a traditional hot towel, straight-edge razor shave experience with expert techniques",
    "hours": "Mon-Fri 9AM-6PM",
    "services": [
      "Armenian-speaking Hot towel shaves in Massachusetts consultation",
      "Professional service",
      "Quality guarantee"
    ],
    "social_links": {}
  },
  {
    "name": "Charlie's Barbershop Cambridge",
    "address": "1363 Cambridge St, Cambridge, MA 02139, United States",
    "phone": "+1 617-547-0500",
    "rating": 4.6,
    "reviews": 25,
    "website": "http://charliesbarbershop.us/",
    "category": "Armenian-speaking Hot towel shaves in Massachusetts",
    "description": "Provides a variety of men's grooming services, including haircuts finished with warm lather and shaves around the ears and back of the neck, as well as head shaves with hot towels",
    "hours": "Mon-Fri 9AM-6PM",
    "services": [
      "Armenian-speaking Hot towel shaves in Massachusetts consultation",
      "Professional service",
      "Quality guarantee"
    ],
    "social_links": {}
  },
  {
    "name": "3L Barber Co.",
    "address": "518 Tremont St, Boston, MA 02116, United States",
    "phone": "+1 508-612-5853",
    "rating": 4.8,
    "reviews": 25,
    "website": "http://www.3lbarberco.com/",
    "category": "Armenian-speaking Hot towel shaves in Massachusetts",
    "description": "Offers straight razor hot towel shaves, beard shaping, and other grooming services with experienced master barbers",
    "hours": "Mon-Fri 9AM-6PM",
    "services": [
      "Armenian-speaking Hot towel shaves in Massachusetts consultation",
      "Professional service",
      "Quality guarantee"
    ],
    "social_links": {}
  },
  {
    "name": "ATLAS Barber Shop",
    "address": "Multiple locations including 14A Eliot St, Cambridge, MA 02138, United States; 824 Huntington Ave, Boston, MA 02115, United States; and 1663 Beacon St, Brookline, MA 02446, United States",
    "phone": "+1 (617) 945-1876",
    "rating": 4.7,
    "reviews": 25,
    "website": "http://www.atlasbarbershop.com/",
    "category": "Armenian-speaking Hot towel shaves in Massachusetts",
    "description": "Specializes in precision fades, beard trims, hot towel shaves, and classic cuts in modern, welcoming spaces",
    "hours": "Mon-Fri 9AM-6PM",
    "services": [
      "Armenian-speaking Hot towel shaves in Massachusetts consultation",
      "Professional service",
      "Quality guarantee"
    ],
    "social_links": {}
  },
  {
    "name": "Barbershop Lounge",
    "address": "245 Newbury St, Boston, MA 02116, United States",
    "phone": "+1 617-266-3333",
    "rating": 4.7,
    "reviews": 25,
    "website": "http://www.barbershoplounge.com/",
    "category": "Armenian-speaking Hot towel shaves in Massachusetts",
    "description": "Offers a signature shave with hot towel, pre-shave oil massage, and hot lather shave, as well as head shaves with hot towels",
    "hours": "Mon-Fri 9AM-6PM",
    "services": [
      "Armenian-speaking Hot towel shaves in Massachusetts consultation",
      "Professional service",
      "Quality guarantee"
    ],
    "social_links": {}
  },
  {
    "name": "Lawson's Barber Shop & Salon",
    "address": "103 Brighton Ave, Boston, MA 02134, United States",
    "phone": "+1 617-779-1800",
    "rating": 4.6,
    "reviews": 25,
    "website": "http://www.lawsonsbarbershop.com/",
    "category": "Armenian-speaking Hot towel shaves in Massachusetts",
    "description": "Provides a luxurious hot towel head shave experience, starting with a scalp cleanse and steaming hot towels, followed by a smooth, close shave",
    "hours": "Mon-Fri 9AM-6PM",
    "services": [
      "Armenian-speaking Hot towel shaves in Massachusetts consultation",
      "Professional service",
      "Quality guarantee"
    ],
    "social_links": {}
  },
  {
    "name": "Recalde's BarberShop",
    "address": "177 Belmont St, Worcester, MA 01602, United States",
    "phone": "+1 774-420-2610",
    "rating": 4.9,
    "reviews": 25,
    "website": "http://recaldesbarbershop.com/",
    "category": "Armenian-speaking Hot towel shaves in Massachusetts",
    "description": "Specializes in hot towel shaves, straight razor shape-ups/line-ups, and other grooming services in a relaxed environment",
    "hours": "Mon-Fri 9AM-6PM",
    "services": [
      "Armenian-speaking Hot towel shaves in Massachusetts consultation",
      "Professional service",
      "Quality guarantee"
    ],
    "social_links": {}
  },
  {
    "name": "Temple of Groom Barber Lounge",
    "address": "1313 Washington St, Boston, MA 02118, United States",
    "phone": "+1 617-903-2222",
    "rating": 4.8,
    "reviews": 25,
    "website": "http://www.templeofgroom.com/",
    "category": "Armenian-speaking Hot towel shaves in Massachusetts",
    "description": "Offers a luxury signature hot towel shave designed to leave the face soft, rejuvenated, and relaxed, beginning with a facial massage and hot towels",
    "hours": "Mon-Fri 9AM-6PM",
    "services": [
      "Armenian-speaking Hot towel shaves in Massachusetts consultation",
      "Professional service",
      "Quality guarantee"
    ],
    "social_links": {}
  },
  {
    "name": "Rocco & Sons BarberShop",
    "address": "110 Franklin St, Quincy, MA 02169, United States",
    "phone": "+1 617-472-9346",
    "rating": 4.8,
    "reviews": 25,
    "website": "http://www.roccoandsonsbarbershop.com/",
    "category": "Armenian-speaking Hot towel shaves in Massachusetts",
    "description": "Provides a hot towel face shave with a straight-edge razor, blending old-school charm with modern experience",
    "hours": "Mon-Fri 9AM-6PM",
    "services": [
      "Armenian-speaking Hot towel shaves in Massachusetts consultation",
      "Professional service",
      "Quality guarantee"
    ],
    "social_links": {}
  },
  {
    "name": "Bilbao Barber Shop",
    "address": "405 Lawrence St, Suite 1, Lowell, MA 01852, United States",
    "phone": "+1 978-394-8723",
    "rating": 4.7,
    "reviews": 25,
    "website": "http://www.bilbaobarbershop.com/",
    "category": "Armenian-speaking Hot towel shaves in Massachusetts",
    "description": "Offers a traditional hot towel shave, leaving skin smooth and refreshed, blending traditional techniques with modern flair",
    "hours": "Mon-Fri 9AM-6PM",
    "services": [
      "Armenian-speaking Hot towel shaves in Massachusetts consultation",
      "Professional service",
      "Quality guarantee"
    ],
    "social_links": {}
  }
]