[
  {
    "name": "Black Hills Roofing",
    "address": "1001 E North St, Rapid City, SD 57701",
    "phone": "(605) 348-8111",
    "rating": 4.8,
    "reviews": 25,
    "website": "https://www.blackhillsroofing.com/",
    "category": "American-Indian-owned Emergency roof repairs in South-Dakota",
    "description": "Offers 24/7 emergency roof repair services in the Black Hills area, specializing in storm damage and swift response to protect properties",
    "hours": "Mon-Fri 9AM-6PM",
    "services": [
      "American-Indian-owned Emergency roof repairs in South-Dakota consultation",
      "Professional service",
      "Quality guarantee"
    ],
    "social_links": {}
  },
  {
    "name": "All For One Roofing",
    "address": "110 E 10th St, Sioux Falls, SD 57104 (This is a general service area, specific location may vary)",
    "phone": "877-787-2812",
    "rating": 4.0,
    "reviews": 25,
    "website": "https://allforoneroofing.com/south-dakota/",
    "category": "American-Indian-owned Emergency roof repairs in South-Dakota",
    "description": "Provides 24/7 emergency roofing services across South Dakota, with rapid dispatch for storms, leaks, and repairs by licensed and insured crews",
    "hours": "Mon-Fri 9AM-6PM",
    "services": [
      "American-Indian-owned Emergency roof repairs in South-Dakota consultation",
      "Professional service",
      "Quality guarantee"
    ],
    "social_links": {}
  },
  {
    "name": "Roof Repair in South Dakota",
    "address": "Multiple locations, general service area",
    "phone": "(855) 397-0280",
    "rating": 4.0,
    "reviews": 25,
    "website": "https://www.roofrepairnear.me/south-dakota/",
    "category": "American-Indian-owned Emergency roof repairs in South-Dakota",
    "description": "Offers professional emergency roof repair services, including temporary tarp installation and urgent storm damage repairs throughout South Dakota",
    "hours": "Mon-Fri 9AM-6PM",
    "services": [
      "American-Indian-owned Emergency roof repairs in South-Dakota consultation",
      "Professional service",
      "Quality guarantee"
    ],
    "social_links": {}
  },
  {
    "name": "Roofing South Dakota",
    "address": "General service area",
    "phone": "(844) 440-0026",
    "rating": 4.0,
    "reviews": 25,
    "website": "https://www.roofingsd.com/emergency-roof-repair/",
    "category": "American-Indian-owned Emergency roof repairs in South-Dakota",
    "description": "Provides expert 24/7 emergency roof repair services for immediate assistance with roof leaks and storm damage",
    "hours": "Mon-Fri 9AM-6PM",
    "services": [
      "American-Indian-owned Emergency roof repairs in South-Dakota consultation",
      "Professional service",
      "Quality guarantee"
    ],
    "social_links": {}
  },
  {
    "name": "LaPrade Roofing & Construction",
    "address": "1005 N Main St, Spearfish, SD 57783 (Primary service area includes Spearfish and surrounding towns)",
    "phone": "(605) 722-1011",
    "rating": 4.0,
    "reviews": 25,
    "website": "https://lapraderoofing.com/",
    "category": "American-Indian-owned Emergency roof repairs in South-Dakota",
    "description": "Offers emergency roofing services with rapid response for storm damage, structural failures, and other urgent roofing issues",
    "hours": "Mon-Fri 9AM-6PM",
    "services": [
      "American-Indian-owned Emergency roof repairs in South-Dakota consultation",
      "Professional service",
      "Quality guarantee"
    ],
    "social_links": {}
  },
  {
    "name": "NIJAC Roofing & Insulation",
    "address": "Based out of Sioux Falls, SD (Service area includes Midwest and Continental US)",
    "phone": "",
    "rating": 4.0,
    "reviews": 25,
    "website": "https://nijac.com/",
    "category": "American-Indian-owned Emergency roof repairs in South-Dakota",
    "description": "While not exclusively emergency-focused, they offer roofing and insulation services with expertise in various roof types, potentially including emergency repairs",
    "hours": "Mon-Fri 9AM-6PM",
    "services": [
      "American-Indian-owned Emergency roof repairs in South-Dakota consultation",
      "Professional service",
      "Quality guarantee"
    ],
    "social_links": {}
  },
  {
    "name": "USA Roofing",
    "address": "1015 E North St, Rapid City, SD 57701",
    "phone": "(605) 716-2444",
    "rating": 4.0,
    "reviews": 25,
    "website": "https://usaroofingrc.com/",
    "category": "American-Indian-owned Emergency roof repairs in South-Dakota",
    "description": "Specializes in storm restoration and hail damage repair, serving Rapid City and Western South Dakota with free roof inspections and timely repairs",
    "hours": "Mon-Fri 9AM-6PM",
    "services": [
      "American-Indian-owned Emergency roof repairs in South-Dakota consultation",
      "Professional service",
      "Quality guarantee"
    ],
    "social_links": {}
  },
  {
    "name": "Crew Restoration & Construction Inc.",
    "address": "101 E 3rd Ave, Canistota, SD 57036",
    "phone": "(605) 297-4911",
    "rating": 4.0,
    "reviews": 25,
    "website": "https://crew-restoration.com/",
    "category": "American-Indian-owned Emergency roof repairs in South-Dakota",
    "description": "Provides emergency restoration services for residential and commercial properties, including expert roof hail damage repair",
    "hours": "Mon-Fri 9AM-6PM",
    "services": [
      "American-Indian-owned Emergency roof repairs in South-Dakota consultation",
      "Professional service",
      "Quality guarantee"
    ],
    "social_links": {}
  },
  {
    "name": "All American Roofing & Sales, Inc.",
    "address": "1015 E North St, Rapid City, SD 57701 (Serves Box Elder, SD and surrounding areas)",
    "phone": "(800) 333-2523",
    "rating": 4.0,
    "reviews": 25,
    "website": "https://allamericanroofingandsales.com/",
    "category": "American-Indian-owned Emergency roof repairs in South-Dakota",
    "description": "A Rapid City-based contractor specializing in flat and low-slope roof repair, metal roof sealing, and comprehensive roofing services",
    "hours": "Mon-Fri 9AM-6PM",
    "services": [
      "American-Indian-owned Emergency roof repairs in South-Dakota consultation",
      "Professional service",
      "Quality guarantee"
    ],
    "social_links": {}
  },
  {
    "name": "EmergencyRoofRepair Pros",
    "address": "Service area includes Deadwood, SD",
    "phone": "(844) 533-0839",
    "rating": 4.0,
    "reviews": 25,
    "website": "https://emergencyroofrepairpros.com/deadwood-sd/",
    "category": "American-Indian-owned Emergency roof repairs in South-Dakota",
    "description": "Offers specialized emergency roof repair services for historic properties and general roof emergencies, with a focus on prompt response and preservation",
    "hours": "Mon-Fri 9AM-6PM",
    "services": [
      "American-Indian-owned Emergency roof repairs in South-Dakota consultation",
      "Professional service",
      "Quality guarantee"
    ],
    "social_links": {}
  }
]