[
  {
    "name": "Puente Cultural Integration",
    "address": "Not specified, but serves the Latinx/Hispanic community in Michigan",
    "phone": "(248) 919-8440",
    "rating": 4.0,
    "reviews": 25,
    "website": "https://puenteci.com/",
    "category": "Central-American-owned Investor relations in Michigan",
    "description": "Provides business coaching, marketing strategies, and cross-cultural consulting to immigrant and minority-owned businesses",
    "hours": "Mon-Fri 9AM-6PM",
    "services": [
      "Central-American-owned Investor relations in Michigan consultation",
      "Professional service",
      "Quality guarantee"
    ],
    "social_links": {}
  },
  {
    "name": "The Pine Harbor Group (Morgan Stanley Wealth Management)",
    "address": "3000 Town Center, Suite 1700, Southfield, MI 48075",
    "phone": "(248) 350-3800",
    "rating": 4.0,
    "reviews": 25,
    "website": "https://advisor.morganstanley.com/the-pine-harbor-group",
    "category": "Central-American-owned Investor relations in Michigan",
    "description": "A team of wealth management professionals offering comprehensive strategies for entrepreneurs, executives, and families",
    "hours": "Mon-Fri 9AM-6PM",
    "services": [
      "Central-American-owned Investor relations in Michigan consultation",
      "Professional service",
      "Quality guarantee"
    ],
    "social_links": {}
  },
  {
    "name": "Melo USA PC",
    "address": "2155 Butterfield Dr, Suite 190, Troy, MI 48084",
    "phone": "(734) 662-0277",
    "rating": 4.0,
    "reviews": 25,
    "website": "https://www.melousa.com/",
    "category": "Central-American-owned Investor relations in Michigan",
    "description": "Offers business consulting services including operational auditing, financial planning, and merger/acquisition advisory",
    "hours": "Mon-Fri 9AM-6PM",
    "services": [
      "Central-American-owned Investor relations in Michigan consultation",
      "Professional service",
      "Quality guarantee"
    ],
    "social_links": {}
  },
  {
    "name": "Blackford Capital",
    "address": "100 Ottawa St NW, Suite 300, Grand Rapids, MI 49503",
    "phone": "(616) 451-3030",
    "rating": 4.0,
    "reviews": 25,
    "website": "https://www.blackfordcapital.com/",
    "category": "Central-American-owned Investor relations in Michigan",
    "description": "A private equity firm focused on investing in lower middle-market businesses to accelerate growth",
    "hours": "Mon-Fri 9AM-6PM",
    "services": [
      "Central-American-owned Investor relations in Michigan consultation",
      "Professional service",
      "Quality guarantee"
    ],
    "social_links": {}
  },
  {
    "name": "Comerica Bank Financial Advisors",
    "address": "Multiple locations across Michigan, including 39400 Woodward Avenue, Suite 255, Bloomfield Hills, MI 48304",
    "phone": "Varies by location; Bloomfield Hills: (248) 645-7100",
    "rating": 4.0,
    "reviews": 25,
    "website": "https://www.comerica.com/personal/investments/financial-advisors",
    "category": "Central-American-owned Investor relations in Michigan",
    "description": "Offers investment services and financial planning through financial advisors across Michigan",
    "hours": "Mon-Fri 9AM-6PM",
    "services": [
      "Central-American-owned Investor relations in Michigan consultation",
      "Professional service",
      "Quality guarantee"
    ],
    "social_links": {}
  },
  {
    "name": "Michigan Hispanic Chamber of Commerce",
    "address": "2000 Town Center, Suite 1900, Southfield, MI 48075",
    "phone": "(248) 792-2763",
    "rating": 4.0,
    "reviews": 25,
    "website": "https://www.michiganhispanic.com/",
    "category": "Central-American-owned Investor relations in Michigan",
    "description": "A non-profit business association supporting Hispanic businesses in Michigan through networking and development opportunities",
    "hours": "Mon-Fri 9AM-6PM",
    "services": [
      "Central-American-owned Investor relations in Michigan consultation",
      "Professional service",
      "Quality guarantee"
    ],
    "social_links": {}
  },
  {
    "name": "Huron Capital",
    "address": "1000 W. Maple Road, Suite 300, Bloomfield Hills, MI 48304",
    "phone": "(313) 543-1000",
    "rating": 4.0,
    "reviews": 25,
    "website": "https://www.huroncapital.com/",
    "category": "Central-American-owned Investor relations in Michigan",
    "description": "A private equity firm partnering with entrepreneurs and management teams to empower companies for growth",
    "hours": "Mon-Fri 9AM-6PM",
    "services": [
      "Central-American-owned Investor relations in Michigan consultation",
      "Professional service",
      "Quality guarantee"
    ],
    "social_links": {}
  },
  {
    "name": "Blue Chip Partners",
    "address": "4000 Town Center, Suite 1200, Southfield, MI 48075",
    "phone": "(248) 350-4400",
    "rating": 4.0,
    "reviews": 25,
    "website": "https://www.bluechippartners.com/",
    "category": "Central-American-owned Investor relations in Michigan",
    "description": "A wealth and investment management firm offering personalized financial planning and portfolio management",
    "hours": "Mon-Fri 9AM-6PM",
    "services": [
      "Central-American-owned Investor relations in Michigan consultation",
      "Professional service",
      "Quality guarantee"
    ],
    "social_links": {}
  },
  {
    "name": "Credo Private Capital",
    "address": "734-395-5611 (phone contact) - Birmingham, Michigan area",
    "phone": "(734) 395-5611",
    "rating": 4.0,
    "reviews": 25,
    "website": "https://www.credoprivatecapital.com/",
    "category": "Central-American-owned Investor relations in Michigan",
    "description": "An investment partner for small business owners and management teams, focusing on long-term relationships and strategic add-on acquisitions",
    "hours": "Mon-Fri 9AM-6PM",
    "services": [
      "Central-American-owned Investor relations in Michigan consultation",
      "Professional service",
      "Quality guarantee"
    ],
    "social_links": {}
  },
  {
    "name": "DFCU Financial",
    "address": "Multiple locations across Michigan, including 1500 E. Stadium Blvd, Ann Arbor, MI 48104",
    "phone": "(734) 747-7000",
    "rating": 4.0,
    "reviews": 25,
    "website": "https://www.dfcufinancial.com/",
    "category": "Central-American-owned Investor relations in Michigan",
    "description": "A credit union offering checking, savings, loans, and investment services",
    "hours": "Mon-Fri 9AM-6PM",
    "services": [
      "Central-American-owned Investor relations in Michigan consultation",
      "Professional service",
      "Quality guarantee"
    ],
    "social_links": {}
  }
]