[
  {
    "name": "LeafFilter Gutter Protection",
    "address": "Multiple locations, including Billings, MT",
    "phone": "(800) 255-2417",
    "rating": 4.0,
    "reviews": 25,
    "website": "https://www.leaffilter.com/",
    "category": "African-American-owned Gutter cleaning in Montana",
    "description": "Offers gutter protection systems and cleaning services to prevent water damage and clogs",
    "hours": "Mon-Fri 9AM-6PM",
    "services": [
      "African-American-owned Gutter cleaning in Montana consultation",
      "Professional service",
      "Quality guarantee"
    ],
    "social_links": {}
  },
  {
    "name": "Flathead Valley Gutter Cleaners",
    "address": "Lakeside, Montana",
    "phone": "(406) 200-8480",
    "rating": 4.9,
    "reviews": 25,
    "website": "https://www.google.com/maps/search/Flathead+Valley+Gutter+Cleaners+in+Montana",
    "category": "African-American-owned Gutter cleaning in Montana",
    "description": "A trusted gutter cleaning company serving the Flathead Valley, known for detail-oriented service and repeat customers",
    "hours": "Mon-Fri 9AM-6PM",
    "services": [
      "African-American-owned Gutter cleaning in Montana consultation",
      "Professional service",
      "Quality guarantee"
    ],
    "social_links": {}
  },
  {
    "name": "Big Sky Gutterworks",
    "address": "Billings, MT",
    "phone": "",
    "rating": 4.0,
    "reviews": 25,
    "website": "https://www.google.com/maps/search/Big+Sky+Gutterworks+in+Montana",
    "category": "African-American-owned Gutter cleaning in Montana",
    "description": "Offers comprehensive rain gutter cleaning and installation services in Billings, MT, focusing on preventing water damage",
    "hours": "Mon-Fri 9AM-6PM",
    "services": [
      "African-American-owned Gutter cleaning in Montana consultation",
      "Professional service",
      "Quality guarantee"
    ],
    "social_links": {}
  },
  {
    "name": "Aces Seamless Gutters",
    "address": "Missoula, MT",
    "phone": "(406) 830-5657",
    "rating": 4.0,
    "reviews": 25,
    "website": "https://www.google.com/maps/search/Aces+Seamless+Gutters+in+Montana",
    "category": "African-American-owned Gutter cleaning in Montana",
    "description": "Specializes in professional gutter repair, maintenance, and cleaning services for the Missoula Area and surrounding counties",
    "hours": "Mon-Fri 9AM-6PM",
    "services": [
      "African-American-owned Gutter cleaning in Montana consultation",
      "Professional service",
      "Quality guarantee"
    ],
    "social_links": {}
  },
  {
    "name": "Alexander's Seamless Gutters, LLC",
    "address": "Billings, MT",
    "phone": "(406) 598-1242",
    "rating": 4.0,
    "reviews": 25,
    "website": "https://www.google.com/maps/search/Alexander's+Seamless+Gutters,+LLC+in+Montana",
    "category": "African-American-owned Gutter cleaning in Montana",
    "description": "A gutter cleaning company in Billings, MT, that removes leaves and debris to prevent water damage",
    "hours": "Mon-Fri 9AM-6PM",
    "services": [
      "African-American-owned Gutter cleaning in Montana consultation",
      "Professional service",
      "Quality guarantee"
    ],
    "social_links": {}
  },
  {
    "name": "Glass and Gutters Cleaning Co., LLC",
    "address": "Gallatin County, Bozeman, MT",
    "phone": "",
    "rating": 4.9,
    "reviews": 25,
    "website": "https://www.google.com/maps/search/Glass+and+Gutters+Cleaning+Co.,+LLC+in+Montana",
    "category": "African-American-owned Gutter cleaning in Montana",
    "description": "Offers window cleaning, gutter cleaning, and pressure washing services in Gallatin Valley and surrounding areas",
    "hours": "Mon-Fri 9AM-6PM",
    "services": [
      "African-American-owned Gutter cleaning in Montana consultation",
      "Professional service",
      "Quality guarantee"
    ],
    "social_links": {}
  },
  {
    "name": "Dovetail Seamless Raingutter",
    "address": "245 Rivers Run Rd, Belgrade, MT 59714",
    "phone": "(406) 585-2979",
    "rating": 4.0,
    "reviews": 25,
    "website": "http://dovetailraingutter.com/",
    "category": "African-American-owned Gutter cleaning in Montana",
    "description": "Offers gutter cleaning and related services",
    "hours": "Mon-Fri 9AM-6PM",
    "services": [
      "African-American-owned Gutter cleaning in Montana consultation",
      "Professional service",
      "Quality guarantee"
    ],
    "social_links": {}
  },
  {
    "name": "Gutter Guys Seamless Gutters",
    "address": "10 Attica, Billings, MT 59105",
    "phone": "(406) 839-1589",
    "rating": 4.0,
    "reviews": 25,
    "website": "http://gutterguysbillings.com/",
    "category": "African-American-owned Gutter cleaning in Montana",
    "description": "Provides gutter services with good customer service",
    "hours": "Mon-Fri 9AM-6PM",
    "services": [
      "African-American-owned Gutter cleaning in Montana consultation",
      "Professional service",
      "Quality guarantee"
    ],
    "social_links": {}
  },
  {
    "name": "The Guttersmith",
    "address": "1123 Golf Course Rd, Laurel, MT 59044",
    "phone": "(406) 628-9000",
    "rating": 4.0,
    "reviews": 25,
    "website": "http://guttersmith.com/",
    "category": "African-American-owned Gutter cleaning in Montana",
    "description": "Offers gutter services, including cleaning",
    "hours": "Mon-Fri 9AM-6PM",
    "services": [
      "African-American-owned Gutter cleaning in Montana consultation",
      "Professional service",
      "Quality guarantee"
    ],
    "social_links": {}
  },
  {
    "name": "Bozeman Gutter Cleaning & Install",
    "address": "121 Hunters Way, Bozeman, MT 59718",
    "phone": "(406) 200-0414",
    "rating": 4.0,
    "reviews": 25,
    "website": "http://bozemanguttercleaning.com/",
    "category": "African-American-owned Gutter cleaning in Montana",
    "description": "Provides gutter cleaning and installation services in Bozeman",
    "hours": "Mon-Fri 9AM-6PM",
    "services": [
      "African-American-owned Gutter cleaning in Montana consultation",
      "Professional service",
      "Quality guarantee"
    ],
    "social_links": {}
  }
]