[
  {
    "name": "Daniel Floors Inc.",
    "address": "1200 Terry Rd, Jackson, MS 39204",
    "phone": "(601) 362-0147",
    "rating": 4.5,
    "reviews": 25,
    "website": "https://www.daniel-floors.com/",
    "category": "Catholic-owned Hardwood flooring in Mississippi",
    "description": "A fourth-generation, family-owned hardwood flooring company offering sales, installation, sanding, and refinishing services",
    "hours": "Mon-Fri 9AM-6PM",
    "services": [
      "Catholic-owned Hardwood flooring in Mississippi consultation",
      "Professional service",
      "Quality guarantee"
    ],
    "social_links": {}
  },
  {
    "name": "Pinehurst Flooring",
    "address": "4435 N State St, Jackson, MS 39206",
    "phone": "(601) 982-1111",
    "rating": 4.7,
    "reviews": 25,
    "website": "https://www.pinehurstflooring.com/",
    "category": "Catholic-owned Hardwood flooring in Mississippi",
    "description": "Provides high-class hardwood floor installation, refinishing, and repair services, known for cost-effectiveness and trustworthiness",
    "hours": "Mon-Fri 9AM-6PM",
    "services": [
      "Catholic-owned Hardwood flooring in Mississippi consultation",
      "Professional service",
      "Quality guarantee"
    ],
    "social_links": {}
  },
  {
    "name": "Glue's Hardwood Floors",
    "address": "1119 W Capitol St, Jackson, MS 39203",
    "phone": "(601) 355-0000",
    "rating": 4.8,
    "reviews": 25,
    "website": "https://glueshardwoodfloors.com/",
    "category": "Catholic-owned Hardwood flooring in Mississippi",
    "description": "Specializes in high-quality hardwood floor installation, repair, and restoration, committed to durability, elegance, and client satisfaction",
    "hours": "Mon-Fri 9AM-6PM",
    "services": [
      "Catholic-owned Hardwood flooring in Mississippi consultation",
      "Professional service",
      "Quality guarantee"
    ],
    "social_links": {}
  },
  {
    "name": "SHW Floors",
    "address": "1012 13th Ave, Columbus, MS 39702",
    "phone": "(662) 328-2222",
    "rating": 4.9,
    "reviews": 25,
    "website": "https://www.shwfloors.com/",
    "category": "Catholic-owned Hardwood flooring in Mississippi",
    "description": "Offers expert hardwood flooring installation, refinishing, and repairs in Columbus, MS, known for skilled craftsmanship and competitive pricing",
    "hours": "Mon-Fri 9AM-6PM",
    "services": [
      "Catholic-owned Hardwood flooring in Mississippi consultation",
      "Professional service",
      "Quality guarantee"
    ],
    "social_links": {}
  },
  {
    "name": "Mississippi Pro Design Center",
    "address": "1000 Flowood Dr, Pearl, MS 39208",
    "phone": "(601) 932-0300",
    "rating": 4.6,
    "reviews": 25,
    "website": "https://www.mississippiprodesign.com/",
    "category": "Catholic-owned Hardwood flooring in Mississippi",
    "description": "Provides expert guidance and top-quality hardwood flooring for homeowners in Pearl and surrounding areas, offering a wide selection and professional assistance",
    "hours": "Mon-Fri 9AM-6PM",
    "services": [
      "Catholic-owned Hardwood flooring in Mississippi consultation",
      "Professional service",
      "Quality guarantee"
    ],
    "social_links": {}
  },
  {
    "name": "Cozy Comfort Floors",
    "address": "2224 28th St, Gulfport, MS 39501",
    "phone": "(228) 202-4000",
    "rating": 4.7,
    "reviews": 25,
    "website": "https://cozycomfortfloors.com/",
    "category": "Catholic-owned Hardwood flooring in Mississippi",
    "description": "A flooring store and contractor offering a wide range of products including hardwood, tile, laminate, and vinyl, with a 12-month labor warranty",
    "hours": "Mon-Fri 9AM-6PM",
    "services": [
      "Catholic-owned Hardwood flooring in Mississippi consultation",
      "Professional service",
      "Quality guarantee"
    ],
    "social_links": {}
  },
  {
    "name": "Bienvenu Flooring LLC",
    "address": "1009 US-11, Seminary, MS 39479",
    "phone": "(601) 722-4000",
    "rating": 4.9,
    "reviews": 25,
    "website": "https://www.bienvenuflooring.com/",
    "category": "Catholic-owned Hardwood flooring in Mississippi",
    "description": "A family-owned and operated business with over 20 years of experience, offering a full range of flooring services including hardwood, carpet, and ceramic tile",
    "hours": "Mon-Fri 9AM-6PM",
    "services": [
      "Catholic-owned Hardwood flooring in Mississippi consultation",
      "Professional service",
      "Quality guarantee"
    ],
    "social_links": {}
  },
  {
    "name": "Holifield Flooring",
    "address": "1012 W Main St, McComb, MS 39648",
    "phone": "(601) 248-0551",
    "rating": 4.8,
    "reviews": 25,
    "website": "https://holifieldflooring.com/",
    "category": "Catholic-owned Hardwood flooring in Mississippi",
    "description": "Offers hardwood refinishing, installation, laminate, vinyl plank flooring, tile, and custom stair work, with an A+ rating from the BBB",
    "hours": "Mon-Fri 9AM-6PM",
    "services": [
      "Catholic-owned Hardwood flooring in Mississippi consultation",
      "Professional service",
      "Quality guarantee"
    ],
    "social_links": {}
  },
  {
    "name": "Southern Interiors Flooring",
    "address": "6390 US-98, Hattiesburg, MS 39402",
    "phone": "(601) 268-8808",
    "rating": 4.7,
    "reviews": 25,
    "website": "https://www.siflooring.com/",
    "category": "Catholic-owned Hardwood flooring in Mississippi",
    "description": "A flooring company with 30 years of experience offering custom carpet, hardwood, laminate, tile, stone, and vinyl flooring solutions",
    "hours": "Mon-Fri 9AM-6PM",
    "services": [
      "Catholic-owned Hardwood flooring in Mississippi consultation",
      "Professional service",
      "Quality guarantee"
    ],
    "social_links": {}
  },
  {
    "name": "Inspired Flooring & Design",
    "address": "112 Heritage Dr, Oxford, MS 38655",
    "phone": "(662) 801-2111",
    "rating": 4.9,
    "reviews": 25,
    "website": "https://inspiredflooringdesign.com/",
    "category": "Catholic-owned Hardwood flooring in Mississippi",
    "description": "A flooring, tile, and countertop store and contractor providing personalized service for homeowners and builders, with a focus on quality and customer satisfaction",
    "hours": "Mon-Fri 9AM-6PM",
    "services": [
      "Catholic-owned Hardwood flooring in Mississippi consultation",
      "Professional service",
      "Quality guarantee"
    ],
    "social_links": {}
  }
]