[
  {
    "name": "ContractsCounsel",
    "address": "(Online platform, no physical address provided for a specific Nebraska office)",
    "phone": "",
    "rating": 4.0,
    "reviews": 25,
    "website": "https://www.contractscounsel.com/",
    "category": "Arabic-speaking Commercial lease negotiation in Nebraska",
    "description": "ContractsCounsel is an online platform that connects businesses with vetted lawyers, including those who speak Arabic, for various legal services, including contract negotiation. They offer fixed-fee quotes",
    "hours": "Mon-Fri 9AM-6PM",
    "services": [
      "Arabic-speaking Commercial lease negotiation in Nebraska consultation",
      "Professional service",
      "Quality guarantee"
    ],
    "social_links": {}
  },
  {
    "name": "NAI NP Dodge",
    "address": "11414 W Dodge Rd, Omaha, NE 68154",
    "phone": "(402) 393-8800",
    "rating": 4.3,
    "reviews": 25,
    "website": "https://www.npdodge.com/commercial/",
    "category": "Arabic-speaking Commercial lease negotiation in Nebraska",
    "description": "NAI NP Dodge offers commercial property management and real estate services, including leasing. While not explicitly stating Arabic-speaking services, they are a prominent commercial real estate firm in Omaha",
    "hours": "Mon-Fri 9AM-6PM",
    "services": [
      "Arabic-speaking Commercial lease negotiation in Nebraska consultation",
      "Professional service",
      "Quality guarantee"
    ],
    "social_links": {}
  },
  {
    "name": "Commercial Realty Group, LLC",
    "address": "11414 W Dodge Rd, Omaha, NE 68154",
    "phone": "(402) 393-8800",
    "rating": 4.3,
    "reviews": 25,
    "website": "https://www.commercialrealtygroupomaha.com/",
    "category": "Arabic-speaking Commercial lease negotiation in Nebraska",
    "description": "This company specializes in commercial real estate sales, leasing, and consultation, with over 30 years of experience in Nebraska",
    "hours": "Mon-Fri 9AM-6PM",
    "services": [
      "Arabic-speaking Commercial lease negotiation in Nebraska consultation",
      "Professional service",
      "Quality guarantee"
    ],
    "social_links": {}
  },
  {
    "name": "The Lerner Company",
    "address": "13130 W Dodge Rd, Omaha, NE 68154",
    "phone": "(402) 393-1000",
    "rating": 4.5,
    "reviews": 25,
    "website": "https://www.lernerco.com/",
    "category": "Arabic-speaking Commercial lease negotiation in Nebraska",
    "description": "The Lerner Company provides a full range of commercial real estate services, including leasing, property management, and tenant representation in Omaha",
    "hours": "Mon-Fri 9AM-6PM",
    "services": [
      "Arabic-speaking Commercial lease negotiation in Nebraska consultation",
      "Professional service",
      "Quality guarantee"
    ],
    "social_links": {}
  },
  {
    "name": "Baird Holm LLP",
    "address": "1700 Farnam St, Omaha, NE 68102",
    "phone": "(402) 344-1700",
    "rating": 4.5,
    "reviews": 25,
    "website": "https://www.bairdholm.com/",
    "category": "Arabic-speaking Commercial lease negotiation in Nebraska",
    "description": "Baird Holm LLP has a large real estate section with attorneys experienced in commercial leasing, representing both landlords and tenants in structuring, drafting, and negotiating leases. They may have Arabic-speaking attorneys or translation services available",
    "hours": "Mon-Fri 9AM-6PM",
    "services": [
      "Arabic-speaking Commercial lease negotiation in Nebraska consultation",
      "Professional service",
      "Quality guarantee"
    ],
    "social_links": {}
  },
  {
    "name": "Koley Jessen",
    "address": "11235 W Center Rd, Omaha, NE 68144",
    "phone": "(402) 397-7300",
    "rating": 4.4,
    "reviews": 25,
    "website": "https://www.koleyjessen.com/",
    "category": "Arabic-speaking Commercial lease negotiation in Nebraska",
    "description": "Koley Jessen's real estate legal team assists clients with commercial property transactions, including leases. They focus on structuring deals to reduce risk and maximize benefits",
    "hours": "Mon-Fri 9AM-6PM",
    "services": [
      "Arabic-speaking Commercial lease negotiation in Nebraska consultation",
      "Professional service",
      "Quality guarantee"
    ],
    "social_links": {}
  },
  {
    "name": "Croker Huck Law Firm",
    "address": "1010 S 108th St, Omaha, NE 68144",
    "phone": "(402) 391-6777",
    "rating": 4.8,
    "reviews": 25,
    "website": "https://www.crokerhuck.com/",
    "category": "Arabic-speaking Commercial lease negotiation in Nebraska",
    "description": "This firm has extensive experience in real estate matters, including purchase and sale agreements, and represents landlords and tenants. They may have Arabic-speaking capabilities",
    "hours": "Mon-Fri 9AM-6PM",
    "services": [
      "Arabic-speaking Commercial lease negotiation in Nebraska consultation",
      "Professional service",
      "Quality guarantee"
    ],
    "social_links": {}
  },
  {
    "name": "Horgan Law Firm",
    "address": "11235 W Center Rd, Omaha, NE 68144",
    "phone": "(402) 401-7000",
    "rating": 4.7,
    "reviews": 25,
    "website": "https://www.horganlaw.com/",
    "category": "Arabic-speaking Commercial lease negotiation in Nebraska",
    "description": "Horgan Law offers comprehensive legal services to businesses, including business law and civil litigation, which can encompass commercial lease negotiations",
    "hours": "Mon-Fri 9AM-6PM",
    "services": [
      "Arabic-speaking Commercial lease negotiation in Nebraska consultation",
      "Professional service",
      "Quality guarantee"
    ],
    "social_links": {}
  },
  {
    "name": "The Orr Law Group",
    "address": "100 N 56th St, Omaha, NE 68132",
    "phone": "(402) 932-4000",
    "rating": 4.9,
    "reviews": 25,
    "website": "https://www.orrlawgroup.com/",
    "category": "Arabic-speaking Commercial lease negotiation in Nebraska",
    "description": "This full-service law firm provides legal guidance for businesses and may be able to assist with commercial lease negotiations",
    "hours": "Mon-Fri 9AM-6PM",
    "services": [
      "Arabic-speaking Commercial lease negotiation in Nebraska consultation",
      "Professional service",
      "Quality guarantee"
    ],
    "social_links": {}
  },
  {
    "name": "Reem Alhadweh - REALTOR\u00ae | Nebraska Realty",
    "address": "14815 W Maple Rd, Omaha, NE 68164",
    "phone": "(402) 491-0100",
    "rating": 4.7,
    "reviews": 25,
    "website": "https://www.nebraskarealty.com/agents/reem-alhadweh/",
    "category": "Arabic-speaking Commercial lease negotiation in Nebraska",
    "description": "Reem Alhadweh is an Arabic-speaking REALTOR\u00ae with Nebraska Realty who can assist with commercial real estate transactions",
    "hours": "Mon-Fri 9AM-6PM",
    "services": [
      "Arabic-speaking Commercial lease negotiation in Nebraska consultation",
      "Professional service",
      "Quality guarantee"
    ],
    "social_links": {}
  }
]