[
  {
    "name": "Home Health Medical Equipment",
    "address": "2614 W Norfolk Ave, Suite 100, Norfolk, NE 68701",
    "phone": "(402) 371-6550",
    "rating": 4.0,
    "reviews": 25,
    "website": "https://www.homehealthmedical.com/",
    "category": "Chinese-American-owned Medical equipment delivery in Nebraska",
    "description": "Provides a wide range of home health care needs and medical equipment",
    "hours": "Mon-Fri 9AM-6PM",
    "services": [
      "Chinese-American-owned Medical equipment delivery in Nebraska consultation",
      "Professional service",
      "Quality guarantee"
    ],
    "social_links": {}
  },
  {
    "name": "Frontier Home Medical",
    "address": "Multiple locations across Nebraska, including Cozad, NE (original location). Specific addresses for all seven locations are not listed in the search results",
    "phone": "",
    "rating": 4.0,
    "reviews": 25,
    "website": "https://www.frontierhomemedical.com/",
    "category": "Chinese-American-owned Medical equipment delivery in Nebraska",
    "description": "Offers a diverse selection of home medical solutions, including mobility equipment, sleep therapy supplies, and oxygen therapy",
    "hours": "Mon-Fri 9AM-6PM",
    "services": [
      "Chinese-American-owned Medical equipment delivery in Nebraska consultation",
      "Professional service",
      "Quality guarantee"
    ],
    "social_links": {}
  },
  {
    "name": "Nebraska Medical Mart",
    "address": "1451 N. Bell St., Fremont, NE 68025",
    "phone": "(402) 727-4270",
    "rating": 4.0,
    "reviews": 25,
    "website": "https://www.nebraskamedicalmart.com/",
    "category": "Chinese-American-owned Medical equipment delivery in Nebraska",
    "description": "A respected supplier of medical products and equipment, aiming to help customers maintain a healthy lifestyle",
    "hours": "Mon-Fri 9AM-6PM",
    "services": [
      "Chinese-American-owned Medical equipment delivery in Nebraska consultation",
      "Professional service",
      "Quality guarantee"
    ],
    "social_links": {}
  },
  {
    "name": "Energize Home Medical",
    "address": "1400 North 48th Street, Lincoln, NE 68504",
    "phone": "",
    "rating": 4.0,
    "reviews": 25,
    "website": "https://www.energizehomemedical.com/",
    "category": "Chinese-American-owned Medical equipment delivery in Nebraska",
    "description": "Lincoln, Nebraska's choice for home medical products and supplies, including lift chairs, scooters, and CPAP supplies",
    "hours": "Mon-Fri 9AM-6PM",
    "services": [
      "Chinese-American-owned Medical equipment delivery in Nebraska consultation",
      "Professional service",
      "Quality guarantee"
    ],
    "social_links": {}
  },
  {
    "name": "Helget Home Care",
    "address": "4211 S 102nd St, Omaha, NE 68127",
    "phone": "(402) 339-1056",
    "rating": 4.0,
    "reviews": 25,
    "website": "https://www.helgethomecare.com/",
    "category": "Chinese-American-owned Medical equipment delivery in Nebraska",
    "description": "A regional, Nebraska-based durable medical equipment company specializing in respiratory and rehabilitation services",
    "hours": "Mon-Fri 9AM-6PM",
    "services": [
      "Chinese-American-owned Medical equipment delivery in Nebraska consultation",
      "Professional service",
      "Quality guarantee"
    ],
    "social_links": {}
  },
  {
    "name": "Craters & Freighters Eastern Nebraska",
    "address": "Information not available in search results. (Serves Omaha, NE)",
    "phone": "402-334-5454",
    "rating": 4.0,
    "reviews": 25,
    "website": "https://www.cratersandfreighters.com/locations/omaha-ne/",
    "category": "Chinese-American-owned Medical equipment delivery in Nebraska",
    "description": "Specializes in the packaging, crating, and shipping of all kinds of medical equipment",
    "hours": "Mon-Fri 9AM-6PM",
    "services": [
      "Chinese-American-owned Medical equipment delivery in Nebraska consultation",
      "Professional service",
      "Quality guarantee"
    ],
    "social_links": {}
  },
  {
    "name": "Navis Pack & Ship",
    "address": "Serves Omaha, NE (Specific address for the Omaha location not detailed in search results, but a national contact is provided)",
    "phone": "(800) 344-3528",
    "rating": 4.0,
    "reviews": 25,
    "website": "https://www.gonavis.com/",
    "category": "Chinese-American-owned Medical equipment delivery in Nebraska",
    "description": "Provides tailored solutions for the safe and secure transportation of medical equipment, including custom packing and crating",
    "hours": "Mon-Fri 9AM-6PM",
    "services": [
      "Chinese-American-owned Medical equipment delivery in Nebraska consultation",
      "Professional service",
      "Quality guarantee"
    ],
    "social_links": {}
  },
  {
    "name": "Maxx Moving Hauling & Delivery LLC",
    "address": "Omaha, NE 68111",
    "phone": "(402) 612-9488",
    "rating": 4.0,
    "reviews": 25,
    "website": "https://www.maxxmovinghd.com/",
    "category": "Chinese-American-owned Medical equipment delivery in Nebraska",
    "description": "A moving company specializing in the transportation of medical equipment",
    "hours": "Mon-Fri 9AM-6PM",
    "services": [
      "Chinese-American-owned Medical equipment delivery in Nebraska consultation",
      "Professional service",
      "Quality guarantee"
    ],
    "social_links": {}
  },
  {
    "name": "Apria Healthcare",
    "address": "10156 L Street, Omaha, NE 68127",
    "phone": "402-731-0346",
    "rating": 4.0,
    "reviews": 25,
    "website": "https://www.apria.com/",
    "category": "Chinese-American-owned Medical equipment delivery in Nebraska",
    "description": "Provides home respiratory care and other home medical equipment and supplies",
    "hours": "Mon-Fri 9AM-6PM",
    "services": [
      "Chinese-American-owned Medical equipment delivery in Nebraska consultation",
      "Professional service",
      "Quality guarantee"
    ],
    "social_links": {}
  },
  {
    "name": "CHI Health at Home \u2013 Home Respiratory Care",
    "address": "5428 F St, Omaha, NE 68117",
    "phone": "402-898-8400",
    "rating": 4.0,
    "reviews": 25,
    "website": "https://www.chihealthathome.com/",
    "category": "Chinese-American-owned Medical equipment delivery in Nebraska",
    "description": "Offers home respiratory care services and equipment",
    "hours": "Mon-Fri 9AM-6PM",
    "services": [
      "Chinese-American-owned Medical equipment delivery in Nebraska consultation",
      "Professional service",
      "Quality guarantee"
    ],
    "social_links": {}
  }
]