[
  {
    "name": "Parr Brown",
    "address": "175 N. Rio Grande Street, Suite 1000, Salt Lake City, UT 84101",
    "phone": "(801) 532-7840",
    "rating": 4.0,
    "reviews": 25,
    "website": "https://www.parrbrown.com/",
    "category": "Asian-owned Tax law in Utah",
    "description": "This firm has attorneys who speak various Asian languages and has expertise in international business law and tax",
    "hours": "Mon-Fri 9AM-6PM",
    "services": [
      "Asian-owned Tax law in Utah consultation",
      "Professional service",
      "Quality guarantee"
    ],
    "social_links": {}
  },
  {
    "name": "The Tax Law Offices of David W. Klasing",
    "address": "50 W. Broadway, Suite 300, Salt Lake City, UT 84101",
    "phone": "(801) 618-0400",
    "rating": 4.0,
    "reviews": 25,
    "website": "https://www.klasingassociates.com/",
    "category": "Asian-owned Tax law in Utah",
    "description": "Specializes in federal tax issues, including international tax disputes and offshore account compliance",
    "hours": "Mon-Fri 9AM-6PM",
    "services": [
      "Asian-owned Tax law in Utah consultation",
      "Professional service",
      "Quality guarantee"
    ],
    "social_links": {}
  },
  {
    "name": "Common Law PC",
    "address": "15 W. South Temple, Suite 700, Salt Lake City, UT 84101",
    "phone": "(801) 532-7220",
    "rating": 4.0,
    "reviews": 25,
    "website": "https://www.commonlawpc.com/",
    "category": "Asian-owned Tax law in Utah",
    "description": "Offers comprehensive tax law services, including audits, penalty resolution, and litigation",
    "hours": "Mon-Fri 9AM-6PM",
    "services": [
      "Asian-owned Tax law in Utah consultation",
      "Professional service",
      "Quality guarantee"
    ],
    "social_links": {}
  },
  {
    "name": "Tax Solutions Attorneys (R Todd Jensen P.C.)",
    "address": "Multiple locations including Draper and Bountiful, UT. (Specific street addresses not provided in search results)",
    "phone": "(801) 643-5467",
    "rating": 4.0,
    "reviews": 25,
    "website": "https://www.taxsolutionsattorneys.com/",
    "category": "Asian-owned Tax law in Utah",
    "description": "Provides assistance with various tax law matters, including IRS audits, penalties, and state tax problems",
    "hours": "Mon-Fri 9AM-6PM",
    "services": [
      "Asian-owned Tax law in Utah consultation",
      "Professional service",
      "Quality guarantee"
    ],
    "social_links": {}
  },
  {
    "name": "Michelle Turpin, P.C.",
    "address": "10 Exchange Pl, Suite 1100, Salt Lake City, UT 84111",
    "phone": "(801) 214-0040",
    "rating": 4.0,
    "reviews": 25,
    "website": "https://www.michelleturpin.com/",
    "category": "Asian-owned Tax law in Utah",
    "description": "Experienced tax attorneys providing representation for IRS and state tax issues, including audits and tax relief",
    "hours": "Mon-Fri 9AM-6PM",
    "services": [
      "Asian-owned Tax law in Utah consultation",
      "Professional service",
      "Quality guarantee"
    ],
    "social_links": {}
  },
  {
    "name": "McClure & Stewart Tax Resolutions",
    "address": "5250 S. Commerce Drive, Suite 100, Murray, UT 84107",
    "phone": "(801) 806-0400",
    "rating": 4.0,
    "reviews": 25,
    "website": "https://www.mcclureandstewart.com/",
    "category": "Asian-owned Tax law in Utah",
    "description": "Focuses on IRS tax resolution and defense for individuals and businesses",
    "hours": "Mon-Fri 9AM-6PM",
    "services": [
      "Asian-owned Tax law in Utah consultation",
      "Professional service",
      "Quality guarantee"
    ],
    "social_links": {}
  },
  {
    "name": "Expert Tax Law (S. Mark Barnes)",
    "address": "1077 N. 800 E., Lehi, UT 84043",
    "phone": "(801) 628-6623",
    "rating": 4.0,
    "reviews": 25,
    "website": "https://experttaxlaw.com/",
    "category": "Asian-owned Tax law in Utah",
    "description": "Specializes in tax litigation and controversy for both business and personal tax issues, including IRS audits and state tax commission conflicts",
    "hours": "Mon-Fri 9AM-6PM",
    "services": [
      "Asian-owned Tax law in Utah consultation",
      "Professional service",
      "Quality guarantee"
    ],
    "social_links": {}
  },
  {
    "name": "Pearson Butler",
    "address": "Multiple locations, including Salt Lake City. (Specific street addresses not provided in search results)",
    "phone": "(800) 265-2314",
    "rating": 4.0,
    "reviews": 25,
    "website": "https://www.pearsonbutler.com/",
    "category": "Asian-owned Tax law in Utah",
    "description": "Offers a full range of legal services related to taxation for businesses, including planning, compliance, and controversy representation",
    "hours": "Mon-Fri 9AM-6PM",
    "services": [
      "Asian-owned Tax law in Utah consultation",
      "Professional service",
      "Quality guarantee"
    ],
    "social_links": {}
  },
  {
    "name": "Golding & Golding",
    "address": "While based in San Diego, CA, they specialize in international tax law and serve clients in Salt Lake City, UT. (Specific Utah address not provided)",
    "phone": "(858) 400-0000",
    "rating": 4.0,
    "reviews": 25,
    "website": "https://www.goldinggolding.com/",
    "category": "Asian-owned Tax law in Utah",
    "description": "Specializes exclusively in international tax and IRS offshore disclosure, with attorneys who are Board-Certified Tax Law Specialists",
    "hours": "Mon-Fri 9AM-6PM",
    "services": [
      "Asian-owned Tax law in Utah consultation",
      "Professional service",
      "Quality guarantee"
    ],
    "social_links": {}
  },
  {
    "name": "ContractsCounsel (for Chinese Speaking Lawyers)",
    "address": "",
    "phone": "",
    "rating": 4.0,
    "reviews": 25,
    "website": "https://www.contractscounsel.com/utah/chinese-speaking-lawyers",
    "category": "Asian-owned Tax law in Utah",
    "description": "This platform helps businesses find Chinese-speaking lawyers in Utah, including in Salt Lake City. While not a law firm itself, it connects users with legal professionals",
    "hours": "Mon-Fri 9AM-6PM",
    "services": [
      "Asian-owned Tax law in Utah consultation",
      "Professional service",
      "Quality guarantee"
    ],
    "social_links": {}
  }
]