[
  {
    "name": "Quick Trim Weight Loss Clinic",
    "address": "Multiple locations in New Orleans and Metairie, LA. (Specific addresses vary by location)",
    "phone": "504-887-0730",
    "rating": 4.0,
    "reviews": 25,
    "website": "https://www.quicktrimweightloss.com/",
    "category": "Atheist-owned Weight management programs in Louisiana",
    "description": "Offers diet plans and medications to help with weight loss and maintenance, with a focus on quick in-and-out appointments",
    "hours": "Mon-Fri 9AM-6PM",
    "services": [
      "Atheist-owned Weight management programs in Louisiana consultation",
      "Professional service",
      "Quality guarantee"
    ],
    "social_links": {}
  },
  {
    "name": "LCMC Health Center for Weight Loss and Bariatric Surgery",
    "address": "2000 Canal St. Hospital Tower 1, Fifth Floor, New Orleans, LA 70112",
    "phone": "504-962-6262",
    "rating": 4.0,
    "reviews": 25,
    "website": "https://www.lcmchealth.org/services/weight-loss-bariatric-surgery",
    "category": "Atheist-owned Weight management programs in Louisiana",
    "description": "Provides comprehensive weight loss services including bariatric surgery, with a multidisciplinary team of specialists",
    "hours": "Mon-Fri 9AM-6PM",
    "services": [
      "Atheist-owned Weight management programs in Louisiana consultation",
      "Professional service",
      "Quality guarantee"
    ],
    "social_links": {}
  },
  {
    "name": "LCMC Health Tulane Weight Loss Center",
    "address": "4720 S. I-10 Service Rd. W, Suite 501, Metairie, LA 70001",
    "phone": "504-988-2274",
    "rating": 4.0,
    "reviews": 25,
    "website": "https://www.lcmchealth.org/services/weight-loss-bariatric-surgery",
    "category": "Atheist-owned Weight management programs in Louisiana",
    "description": "Part of LCMC Health, offering customized weight loss plans, counseling, and support",
    "hours": "Mon-Fri 9AM-6PM",
    "services": [
      "Atheist-owned Weight management programs in Louisiana consultation",
      "Professional service",
      "Quality guarantee"
    ],
    "social_links": {}
  },
  {
    "name": "Ochsner Health - Comprehensive Weight Loss",
    "address": "Multiple locations including New Orleans, Baton Rouge, and Northshore. (Specific addresses vary by location)",
    "phone": "New Orleans: 504-842-2701; Baton Rouge: 225-761-5459; Slidell: 985-661-3542",
    "rating": 4.0,
    "reviews": 25,
    "website": "https://www.ochsner.org/services/weight-management",
    "category": "Atheist-owned Weight management programs in Louisiana",
    "description": "Offers a holistic approach to weight loss with a multidisciplinary team, including non-surgical and medical options",
    "hours": "Mon-Fri 9AM-6PM",
    "services": [
      "Atheist-owned Weight management programs in Louisiana consultation",
      "Professional service",
      "Quality guarantee"
    ],
    "social_links": {}
  },
  {
    "name": "Louisiana Center for Bariatrics at Baton Rouge General",
    "address": "Multiple locations, including Baton Rouge. (Specific addresses may vary)",
    "phone": "225-763-4903 (for Medical Weight Loss program)",
    "rating": 4.0,
    "reviews": 25,
    "website": "https://www.brgeneral.org/services/bariatric-surgery/",
    "category": "Atheist-owned Weight management programs in Louisiana",
    "description": "Provides both surgical and non-surgical weight loss options, with a focus on expertise and advanced technology",
    "hours": "Mon-Fri 9AM-6PM",
    "services": [
      "Atheist-owned Weight management programs in Louisiana consultation",
      "Professional service",
      "Quality guarantee"
    ],
    "social_links": {}
  },
  {
    "name": "Professional Weight Loss Clinic",
    "address": "Hammond: 1109 CM Fagan Drive, Suite U, Hammond, LA 70403; Baton Rouge: 9244 Florida Blvd., Suite H, Baton Rouge, LA 70815",
    "phone": "Hammond: 985-542-2544; Baton Rouge: 225-928-2296",
    "rating": 4.0,
    "reviews": 25,
    "website": "https://www.professionalweightlossclinic.com/",
    "category": "Atheist-owned Weight management programs in Louisiana",
    "description": "Offers personal nutritional counseling and guidance from physicians and staff to achieve permanent weight loss success",
    "hours": "Mon-Fri 9AM-6PM",
    "services": [
      "Atheist-owned Weight management programs in Louisiana consultation",
      "Professional service",
      "Quality guarantee"
    ],
    "social_links": {}
  },
  {
    "name": "Soza Weight Loss",
    "address": "Multiple locations including Harvey, Metairie, and Covington. (Specific addresses vary by location)",
    "phone": "504-475-9817",
    "rating": 4.0,
    "reviews": 25,
    "website": "https://sozaweightloss.com/",
    "category": "Atheist-owned Weight management programs in Louisiana",
    "description": "Provides a variety of tailor-fit programs for weight loss, emphasizing safe, natural, and effective methods",
    "hours": "Mon-Fri 9AM-6PM",
    "services": [
      "Atheist-owned Weight management programs in Louisiana consultation",
      "Professional service",
      "Quality guarantee"
    ],
    "social_links": {}
  },
  {
    "name": "Baton Rouge General - Living Lean Weight Management",
    "address": "Health & Wellness Center, 8490 Picardy Avenue, Suite 600D, Baton Rouge, LA 70809",
    "phone": "225-819-1175",
    "rating": 4.0,
    "reviews": 25,
    "website": "https://www.brgeneral.org/services/weight-management/",
    "category": "Atheist-owned Weight management programs in Louisiana",
    "description": "Addresses physical, emotional, and mental barriers to weight loss, including consultations with nurse practitioners and dietitians",
    "hours": "Mon-Fri 9AM-6PM",
    "services": [
      "Atheist-owned Weight management programs in Louisiana consultation",
      "Professional service",
      "Quality guarantee"
    ],
    "social_links": {}
  },
  {
    "name": "Baton Rouge Weight Control Clinic",
    "address": "(Specific address not provided in search snippet, but phone number indicates Baton Rouge location)",
    "phone": "225-929-9898",
    "rating": 4.0,
    "reviews": 25,
    "website": "https://www.google.com/maps/search/Baton+Rouge+Weight+Control+Clinic+in+Louisiana",
    "category": "Atheist-owned Weight management programs in Louisiana",
    "description": "Offers a physician-supervised program combining appetite suppressants with a restricted calorie and fat intake diet",
    "hours": "Mon-Fri 9AM-6PM",
    "services": [
      "Atheist-owned Weight management programs in Louisiana consultation",
      "Professional service",
      "Quality guarantee"
    ],
    "social_links": {}
  },
  {
    "name": "Louisiana Center for Bariatrics at Baton Rouge General - Medical Weight Loss",
    "address": "(Likely associated with Baton Rouge General, specific address may vary)",
    "phone": "225-763-4903",
    "rating": 4.0,
    "reviews": 25,
    "website": "https://www.brgeneral.org/services/weight-management/medical-weight-loss/",
    "category": "Atheist-owned Weight management programs in Louisiana",
    "description": "Focuses on medication therapy, nutrition counseling, and lifestyle changes, led by a physician board-certified in obesity medicine",
    "hours": "Mon-Fri 9AM-6PM",
    "services": [
      "Atheist-owned Weight management programs in Louisiana consultation",
      "Professional service",
      "Quality guarantee"
    ],
    "social_links": {}
  }
]