[
  {
    "name": "RKL LLP",
    "address": "Multiple locations in PA (specific addresses vary, check their website)",
    "phone": "(717) 735-3450",
    "rating": 4.0,
    "reviews": 25,
    "website": "https://www.rklcpa.com/",
    "category": "Buddhist-owned Invoice processing in Pennsylvania",
    "description": "Offers comprehensive accounting, tax, and consulting services for small and medium-sized businesses",
    "hours": "Mon-Fri 9AM-6PM",
    "services": [
      "Buddhist-owned Invoice processing in Pennsylvania consultation",
      "Professional service",
      "Quality guarantee"
    ],
    "social_links": {}
  },
  {
    "name": "Gift CPAs",
    "address": "Five locations in Southcentral PA (specific addresses vary, check their website)",
    "phone": "(717) 761-4844",
    "rating": 4.0,
    "reviews": 25,
    "website": "https://www.giftcpas.com/",
    "category": "Buddhist-owned Invoice processing in Pennsylvania",
    "description": "Provides a wide range of accounting services for small businesses, including bookkeeping, tax preparation, and financial planning",
    "hours": "Mon-Fri 9AM-6PM",
    "services": [
      "Buddhist-owned Invoice processing in Pennsylvania consultation",
      "Professional service",
      "Quality guarantee"
    ],
    "social_links": {}
  },
  {
    "name": "Davis, Davis & Associates",
    "address": "301 Grant St, Pittsburgh, PA 15219",
    "phone": "(412) 391-2226",
    "rating": 4.0,
    "reviews": 25,
    "website": "https://www.davisdavisassociates.com/",
    "category": "Buddhist-owned Invoice processing in Pennsylvania",
    "description": "Offers accounting and bookkeeping services for small to mid-sized businesses, including financial statements, tax planning, and business consulting",
    "hours": "Mon-Fri 9AM-6PM",
    "services": [
      "Buddhist-owned Invoice processing in Pennsylvania consultation",
      "Professional service",
      "Quality guarantee"
    ],
    "social_links": {}
  },
  {
    "name": "Vyde",
    "address": "Online service with Pennsylvania focus (no physical address listed for general services)",
    "phone": "(800) 701-8820",
    "rating": 4.0,
    "reviews": 25,
    "website": "https://vyde.com/",
    "category": "Buddhist-owned Invoice processing in Pennsylvania",
    "description": "Specializes in Pennsylvania business taxes and accounting, offering bookkeeping, tax preparation, and financial insights",
    "hours": "Mon-Fri 9AM-6PM",
    "services": [
      "Buddhist-owned Invoice processing in Pennsylvania consultation",
      "Professional service",
      "Quality guarantee"
    ],
    "social_links": {}
  },
  {
    "name": "Jon's Tax Service",
    "address": "1219 Oregon Pike, Lancaster, PA 17601",
    "phone": "(717) 689-5960",
    "rating": 4.0,
    "reviews": 25,
    "website": "https://www.jonstaxservice.com/",
    "category": "Buddhist-owned Invoice processing in Pennsylvania",
    "description": "Provides business accounting and bookkeeping services to small businesses in Lancaster County, PA",
    "hours": "Mon-Fri 9AM-6PM",
    "services": [
      "Buddhist-owned Invoice processing in Pennsylvania consultation",
      "Professional service",
      "Quality guarantee"
    ],
    "social_links": {}
  },
  {
    "name": "Riviera Finance",
    "address": "1 International Plaza Suite 550, Philadelphia, PA 19113",
    "phone": "(800) 322-8488 ext 232",
    "rating": 4.0,
    "reviews": 25,
    "website": "https://rivierafinance.com/",
    "category": "Buddhist-owned Invoice processing in Pennsylvania",
    "description": "Provides financing solutions and invoice factoring services to companies in Pennsylvania",
    "hours": "Mon-Fri 9AM-6PM",
    "services": [
      "Buddhist-owned Invoice processing in Pennsylvania consultation",
      "Professional service",
      "Quality guarantee"
    ],
    "social_links": {}
  },
  {
    "name": "Orange Commercial Credit",
    "address": "No specific Pennsylvania address listed, but serves companies nationwide",
    "phone": "(877) 653-9265",
    "rating": 4.0,
    "reviews": 25,
    "website": "https://www.orangecommercialcredit.com/",
    "category": "Buddhist-owned Invoice processing in Pennsylvania",
    "description": "Offers invoice factoring services for Pennsylvania companies, with free back-office support and collection management",
    "hours": "Mon-Fri 9AM-6PM",
    "services": [
      "Buddhist-owned Invoice processing in Pennsylvania consultation",
      "Professional service",
      "Quality guarantee"
    ],
    "social_links": {}
  },
  {
    "name": "ARDEM Incorporated",
    "address": "No specific Pennsylvania address listed, but offers services nationwide",
    "phone": "(888) 296-1011",
    "rating": 4.0,
    "reviews": 25,
    "website": "https://www.ardemincorporated.com/",
    "category": "Buddhist-owned Invoice processing in Pennsylvania",
    "description": "Provides automated invoice processing services, leveraging AI and business process automation for efficient invoice management",
    "hours": "Mon-Fri 9AM-6PM",
    "services": [
      "Buddhist-owned Invoice processing in Pennsylvania consultation",
      "Professional service",
      "Quality guarantee"
    ],
    "social_links": {}
  },
  {
    "name": "UMPA Merchant Services",
    "address": "Palmyra, PA 17078",
    "phone": "(717) 832-0730",
    "rating": 4.0,
    "reviews": 25,
    "website": "https://www.umpa-us.com/",
    "category": "Buddhist-owned Invoice processing in Pennsylvania",
    "description": "Offers credit card processing, billing, and invoicing solutions for businesses, including contractors and home services",
    "hours": "Mon-Fri 9AM-6PM",
    "services": [
      "Buddhist-owned Invoice processing in Pennsylvania consultation",
      "Professional service",
      "Quality guarantee"
    ],
    "social_links": {}
  },
  {
    "name": "Accu-Image Inc.",
    "address": "Various locations, check website for PA presence",
    "phone": "(800) 242-2873",
    "rating": 4.0,
    "reviews": 25,
    "website": "https://www.accu-image.com/",
    "category": "Buddhist-owned Invoice processing in Pennsylvania",
    "description": "Offers automated invoice processing services, including matching invoices against POs, electronic processes, and workflows",
    "hours": "Mon-Fri 9AM-6PM",
    "services": [
      "Buddhist-owned Invoice processing in Pennsylvania consultation",
      "Professional service",
      "Quality guarantee"
    ],
    "social_links": {}
  }
]