[
  {
    "name": "Orient Auto Service",
    "address": "1900 SE 3rd St, Gresham, OR 97030",
    "phone": "(503) 667-3400",
    "rating": 4.0,
    "reviews": 25,
    "website": "http://www.orientservice.com/",
    "category": "Asian-owned Clutch repair in Oregon",
    "description": "Specializes in Japanese and Korean auto repair, offering clutch inspections, repairs, and replacements",
    "hours": "Mon-Fri 9AM-6PM",
    "services": [
      "Asian-owned Clutch repair in Oregon consultation",
      "Professional service",
      "Quality guarantee"
    ],
    "social_links": {}
  },
  {
    "name": "Steve's Imports",
    "address": "720 SE 39th Ave, Portland, OR 97214",
    "phone": "(503) 771-6701",
    "rating": 4.0,
    "reviews": 25,
    "website": "http://www.stevesimports.com/",
    "category": "Asian-owned Clutch repair in Oregon",
    "description": "A full-service import auto repair shop specializing in European and Asian vehicles, including clutch repair",
    "hours": "Mon-Fri 9AM-6PM",
    "services": [
      "Asian-owned Clutch repair in Oregon consultation",
      "Professional service",
      "Quality guarantee"
    ],
    "social_links": {}
  },
  {
    "name": "Asian Auto Repair & Foreign Engines",
    "address": "10500 SW Beaverton-Hillsdale Hwy, Beaverton, OR 97005",
    "phone": "(503) 646-7040",
    "rating": 4.0,
    "reviews": 25,
    "website": "https://asianautorepair.com/",
    "category": "Asian-owned Clutch repair in Oregon",
    "description": "An auto repair shop serving Beaverton since 1994, offering a variety of services including engine and transmission repair",
    "hours": "Mon-Fri 9AM-6PM",
    "services": [
      "Asian-owned Clutch repair in Oregon consultation",
      "Professional service",
      "Quality guarantee"
    ],
    "social_links": {}
  },
  {
    "name": "PNW Automotive",
    "address": "1050 Olney Ave, Astoria, OR 97103",
    "phone": "(971) 704-5077",
    "rating": 4.0,
    "reviews": 25,
    "website": "https://pnwautomotive.com/",
    "category": "Asian-owned Clutch repair in Oregon",
    "description": "Specializes in Asian auto repair with ASE Certified Master Technicians, serving the Oregon Coast",
    "hours": "Mon-Fri 9AM-6PM",
    "services": [
      "Asian-owned Clutch repair in Oregon consultation",
      "Professional service",
      "Quality guarantee"
    ],
    "social_links": {}
  },
  {
    "name": "Uncle Al's Automotive",
    "address": "19000 McLoughlin Blvd, Gladstone, OR 97027",
    "phone": "(503) 655-0000",
    "rating": 4.0,
    "reviews": 25,
    "website": "https://unclealsautomotive.com/",
    "category": "Asian-owned Clutch repair in Oregon",
    "description": "Offers clutch replacement, repair, and adjustment services, with ASE Master Certified Technicians",
    "hours": "Mon-Fri 9AM-6PM",
    "services": [
      "Asian-owned Clutch repair in Oregon consultation",
      "Professional service",
      "Quality guarantee"
    ],
    "social_links": {}
  },
  {
    "name": "River City Transmissions",
    "address": "1600 SE 82nd Dr, Clackamas, OR 97015",
    "phone": "(503) 771-6701",
    "rating": 4.0,
    "reviews": 25,
    "website": "https://rivercitytrans.com/",
    "category": "Asian-owned Clutch repair in Oregon",
    "description": "A transmission shop specializing in clutch repair, replacement, and installation for all makes and models",
    "hours": "Mon-Fri 9AM-6PM",
    "services": [
      "Asian-owned Clutch repair in Oregon consultation",
      "Professional service",
      "Quality guarantee"
    ],
    "social_links": {}
  },
  {
    "name": "MotorCar Doctors Auto Repair",
    "address": "14875 SW 72nd Ave, Beaverton, OR 97007",
    "phone": "(503) 626-4810",
    "rating": 4.0,
    "reviews": 25,
    "website": "https://motorcardoctors.com/",
    "category": "Asian-owned Clutch repair in Oregon",
    "description": "Expert clutch mechanics offering clutch service and repair for Portland and surrounding areas",
    "hours": "Mon-Fri 9AM-6PM",
    "services": [
      "Asian-owned Clutch repair in Oregon consultation",
      "Professional service",
      "Quality guarantee"
    ],
    "social_links": {}
  },
  {
    "name": "Euro-Asian Automotive",
    "address": "1275 W 7th Ave, Eugene, OR 97402",
    "phone": "(541) 342-4455",
    "rating": 4.0,
    "reviews": 25,
    "website": "https://euroasianautomotive.com/",
    "category": "Asian-owned Clutch repair in Oregon",
    "description": "An auto repair shop with a long-standing reputation for integrity and high-quality service, specializing in European and Asian vehicles",
    "hours": "Mon-Fri 9AM-6PM",
    "services": [
      "Asian-owned Clutch repair in Oregon consultation",
      "Professional service",
      "Quality guarantee"
    ],
    "social_links": {}
  },
  {
    "name": "Tom's Bulldog Automotive",
    "address": "1025 S Front St, Coos Bay, OR 97420",
    "phone": "(541) 267-2227",
    "rating": 4.0,
    "reviews": 25,
    "website": "https://www.tomsbulldogauto.com/",
    "category": "Asian-owned Clutch repair in Oregon",
    "description": "Offers clutch repair and other automotive services in Coos Bay, Oregon",
    "hours": "Mon-Fri 9AM-6PM",
    "services": [
      "Asian-owned Clutch repair in Oregon consultation",
      "Professional service",
      "Quality guarantee"
    ],
    "social_links": {}
  },
  {
    "name": "Clutch Masters of Oregon",
    "address": "1001 SE 3rd Ave, Portland, OR 97214",
    "phone": "(503) 234-0848",
    "rating": 4.0,
    "reviews": 25,
    "website": "https://www.clutchmastersoregon.com/",
    "category": "Asian-owned Clutch repair in Oregon",
    "description": "Specializes in clutch repair and replacement services",
    "hours": "Mon-Fri 9AM-6PM",
    "services": [
      "Asian-owned Clutch repair in Oregon consultation",
      "Professional service",
      "Quality guarantee"
    ],
    "social_links": {}
  }
]