[
  {
    "name": "Naf Naf Middle Eastern Grill Catering",
    "address": "921 Indiana Ave, Indianapolis, IN 46202",
    "phone": "(317) 602-3400",
    "rating": 4.7,
    "reviews": 25,
    "website": "https://www.nafnafgrill.com/",
    "category": "Arabic-speaking Full-service catering in Indiana",
    "description": "Offers a variety of Middle Eastern dishes, including shawarma, falafel, and hummus, with family-style packages and individual boxed lunches available",
    "hours": "Mon-Fri 9AM-6PM",
    "services": [
      "Arabic-speaking Full-service catering in Indiana consultation",
      "Professional service",
      "Quality guarantee"
    ],
    "social_links": {}
  },
  {
    "name": "ZZTanoor Kabab Catering",
    "address": "5308 N Keystone Ave, Indianapolis, IN 46220",
    "phone": "(317) 255-7200",
    "rating": 5.0,
    "reviews": 25,
    "website": "https://www.zztanoorkabab.com/",
    "category": "Arabic-speaking Full-service catering in Indiana",
    "description": "Provides authentic Middle Eastern food with a focus on kebabs, shawarma, and falafel. They offer boxed lunches and catering packages",
    "hours": "Mon-Fri 9AM-6PM",
    "services": [
      "Arabic-speaking Full-service catering in Indiana consultation",
      "Professional service",
      "Quality guarantee"
    ],
    "social_links": {}
  },
  {
    "name": "Sunnin Lebanese Cafe",
    "address": "(No specific address found for catering, but the restaurant is located in Los Angeles, CA. It's possible they cater to Indiana, but this would require direct confirmation.)",
    "phone": "(310) 475-3358",
    "rating": 4.0,
    "reviews": 25,
    "website": "https://www.sunnincafe.com/",
    "category": "Arabic-speaking Full-service catering in Indiana",
    "description": "Offers Lebanese cuisine with various catering packages, including wrap combos and chef's favorites",
    "hours": "Mon-Fri 9AM-6PM",
    "services": [
      "Arabic-speaking Full-service catering in Indiana consultation",
      "Professional service",
      "Quality guarantee"
    ],
    "social_links": {}
  },
  {
    "name": "Pita Way",
    "address": "(Multiple locations, check their website for the nearest one)",
    "phone": "",
    "rating": 4.0,
    "reviews": 25,
    "website": "https://pitaway.com/",
    "category": "Arabic-speaking Full-service catering in Indiana",
    "description": "Mediterranean grill offering catering services for various events, with a focus on fresh ingredients",
    "hours": "Mon-Fri 9AM-6PM",
    "services": [
      "Arabic-speaking Full-service catering in Indiana consultation",
      "Professional service",
      "Quality guarantee"
    ],
    "social_links": {}
  },
  {
    "name": "Marco Polo Eurasian Food LLC",
    "address": "209 South Grant Street, Bloomington, IN 47408",
    "phone": "(812) 333-7300",
    "rating": 4.0,
    "reviews": 25,
    "website": "https://www.marcopoloindianapolis.com/",
    "category": "Arabic-speaking Full-service catering in Indiana",
    "description": "Offers Middle Eastern cuisine with customizable catering options for events",
    "hours": "Mon-Fri 9AM-6PM",
    "services": [
      "Arabic-speaking Full-service catering in Indiana consultation",
      "Professional service",
      "Quality guarantee"
    ],
    "social_links": {}
  },
  {
    "name": "Gibli Middle Eastern Fare",
    "address": "Union Street Market on the Electric Works campus, Fort Wayne, IN",
    "phone": "(260) 255-6861",
    "rating": 4.0,
    "reviews": 25,
    "website": "https://www.giblirestaurant.com/",
    "category": "Arabic-speaking Full-service catering in Indiana",
    "description": "Serves a fusion of Middle Eastern cuisines from Libya and Lebanon, offering catering services for events",
    "hours": "Mon-Fri 9AM-6PM",
    "services": [
      "Arabic-speaking Full-service catering in Indiana consultation",
      "Professional service",
      "Quality guarantee"
    ],
    "social_links": {}
  },
  {
    "name": "Pita Land",
    "address": "11769 Commercial Drive, Fishers, IN 46038",
    "phone": "(317) 849-6666",
    "rating": 4.0,
    "reviews": 25,
    "website": "https://pitalandfishers.com/",
    "category": "Arabic-speaking Full-service catering in Indiana",
    "description": "Offers extensive Halal catering with a focus on Middle Eastern cuisine, serving community gatherings in Indianapolis",
    "hours": "Mon-Fri 9AM-6PM",
    "services": [
      "Arabic-speaking Full-service catering in Indiana consultation",
      "Professional service",
      "Quality guarantee"
    ],
    "social_links": {}
  },
  {
    "name": "Al Basha Int'l Grocery & Restaurant",
    "address": "(Specific catering address not listed, but the restaurant is in Fishers, IN)",
    "phone": "(317) 570-0000",
    "rating": 4.0,
    "reviews": 25,
    "website": "https://albasha-fishers.com/",
    "category": "Arabic-speaking Full-service catering in Indiana",
    "description": "Authentic Mediterranean cuisine, including buffet, snacks, and halal food. They also have a cake shop and butcher shop",
    "hours": "Mon-Fri 9AM-6PM",
    "services": [
      "Arabic-speaking Full-service catering in Indiana consultation",
      "Professional service",
      "Quality guarantee"
    ],
    "social_links": {}
  },
  {
    "name": "Kabab Grill",
    "address": "4825 East 96th Street, Indianapolis, IN 46240",
    "phone": "(317) 669-2012",
    "rating": 4.0,
    "reviews": 25,
    "website": "https://kababgrillindy.com/",
    "category": "Arabic-speaking Full-service catering in Indiana",
    "description": "Serves Mediterranean dishes like lamb kabab, chicken shawarma, and gyro wraps. They offer online ordering for carryout",
    "hours": "Mon-Fri 9AM-6PM",
    "services": [
      "Arabic-speaking Full-service catering in Indiana consultation",
      "Professional service",
      "Quality guarantee"
    ],
    "social_links": {}
  },
  {
    "name": "Batman Grill",
    "address": "(No specific catering address found, but the restaurant is in Indianapolis, IN)",
    "phone": "(317) 405-1000",
    "rating": 4.0,
    "reviews": 25,
    "website": "https://www.batmangrill.com/",
    "category": "Arabic-speaking Full-service catering in Indiana",
    "description": "Offers Syrian cuisine with a variety of grilled dishes, sandwiches, and platters. They have an online ordering system",
    "hours": "Mon-Fri 9AM-6PM",
    "services": [
      "Arabic-speaking Full-service catering in Indiana consultation",
      "Professional service",
      "Quality guarantee"
    ],
    "social_links": {}
  }
]