[
  {
    "name": "Affordable Deck Solutions",
    "address": "17331 E Mansfield Ave, Aurora, CO 80013",
    "phone": "(303) 872-7920",
    "rating": 4.0,
    "reviews": 25,
    "website": "https://www.google.com/maps/search/Affordable+Deck+Solutions+in+Colorado",
    "category": "African-American-owned Decks in Colorado",
    "description": "Offers deck building, repair, refinishing, staining, and waterproofing services, as well as pergola construction and railing installation",
    "hours": "Mon-Fri 9AM-6PM",
    "services": [
      "African-American-owned Decks in Colorado consultation",
      "Professional service",
      "Quality guarantee"
    ],
    "social_links": {}
  },
  {
    "name": "Black Gold Construction & Design",
    "address": "PO Box 342, Greeley, CO",
    "phone": "",
    "rating": 5.0,
    "reviews": 25,
    "website": "https://www.google.com/maps/search/Black+Gold+Construction+&+Design+in+Colorado",
    "category": "African-American-owned Decks in Colorado",
    "description": "Provides remodeling services for kitchens and bathrooms, and likely other construction needs",
    "hours": "Mon-Fri 9AM-6PM",
    "services": [
      "African-American-owned Decks in Colorado consultation",
      "Professional service",
      "Quality guarantee"
    ],
    "social_links": {}
  },
  {
    "name": "Boulder Decks",
    "address": "Not available in search results",
    "phone": "720-298-9094",
    "rating": 4.0,
    "reviews": 25,
    "website": "https://www.google.com/maps/search/Boulder+Decks+in+Colorado",
    "category": "African-American-owned Decks in Colorado",
    "description": "Specializes in handcrafted custom decks, outdoor spaces, and landscaping",
    "hours": "Mon-Fri 9AM-6PM",
    "services": [
      "African-American-owned Decks in Colorado consultation",
      "Professional service",
      "Quality guarantee"
    ],
    "social_links": {}
  },
  {
    "name": "Colorado Dream Decks",
    "address": "Not available in search results",
    "phone": "720-320-6069",
    "rating": 4.0,
    "reviews": 25,
    "website": "https://www.google.com/maps/search/Colorado+Dream+Decks+in+Colorado",
    "category": "African-American-owned Decks in Colorado",
    "description": "Offers professional deck installation services for residential and commercial properties in Longmont and Lakewood",
    "hours": "Mon-Fri 9AM-6PM",
    "services": [
      "African-American-owned Decks in Colorado consultation",
      "Professional service",
      "Quality guarantee"
    ],
    "social_links": {}
  },
  {
    "name": "Colorado Lumber Crafts",
    "address": "Aurora, CO",
    "phone": "(303) 434-0448",
    "rating": 4.0,
    "reviews": 25,
    "website": "https://www.google.com/maps/search/Colorado+Lumber+Crafts+in+Colorado",
    "category": "African-American-owned Decks in Colorado",
    "description": "Specializes in custom deck building and repair, as well as other backyard structures like pergolas, sheds, and patio covers",
    "hours": "Mon-Fri 9AM-6PM",
    "services": [
      "African-American-owned Decks in Colorado consultation",
      "Professional service",
      "Quality guarantee"
    ],
    "social_links": {}
  },
  {
    "name": "Deck Builders Colorado Springs",
    "address": "Colorado Springs, CO",
    "phone": "(719) 360-1852",
    "rating": 4.0,
    "reviews": 25,
    "website": "https://www.google.com/maps/search/Deck+Builders+Colorado+Springs+in+Colorado",
    "category": "African-American-owned Decks in Colorado",
    "description": "Offers quality, low-maintenance custom decks at affordable prices, using composite and steel framing",
    "hours": "Mon-Fri 9AM-6PM",
    "services": [
      "African-American-owned Decks in Colorado consultation",
      "Professional service",
      "Quality guarantee"
    ],
    "social_links": {}
  },
  {
    "name": "Decktopia, LLC",
    "address": "Aurora, Arvada & Parker, CO",
    "phone": "720-229-5065",
    "rating": 4.0,
    "reviews": 25,
    "website": "https://www.google.com/maps/search/Decktopia,+LLC+in+Colorado",
    "category": "African-American-owned Decks in Colorado",
    "description": "Provides deck repair, refinishing, remodeling, and building services",
    "hours": "Mon-Fri 9AM-6PM",
    "services": [
      "African-American-owned Decks in Colorado consultation",
      "Professional service",
      "Quality guarantee"
    ],
    "social_links": {}
  },
  {
    "name": "Deckworks",
    "address": "Colorado Springs, CO",
    "phone": "",
    "rating": 4.0,
    "reviews": 25,
    "website": "https://www.google.com/maps/search/Deckworks+in+Colorado",
    "category": "African-American-owned Decks in Colorado",
    "description": "A custom deck builder specializing in decks, pergolas, and outdoor living spaces",
    "hours": "Mon-Fri 9AM-6PM",
    "services": [
      "African-American-owned Decks in Colorado consultation",
      "Professional service",
      "Quality guarantee"
    ],
    "social_links": {}
  },
  {
    "name": "Footprint Decks & Design",
    "address": "Colorado Springs, CO",
    "phone": "",
    "rating": 4.0,
    "reviews": 25,
    "website": "https://www.google.com/maps/search/Footprint+Decks+&+Design+in+Colorado",
    "category": "African-American-owned Decks in Colorado",
    "description": "A family-owned and operated custom deck builder in Colorado Springs, also constructing outdoor kitchens and pergolas",
    "hours": "Mon-Fri 9AM-6PM",
    "services": [
      "African-American-owned Decks in Colorado consultation",
      "Professional service",
      "Quality guarantee"
    ],
    "social_links": {}
  },
  {
    "name": "K&A Construction",
    "address": "6145 Broadway Ave, Denver, CO 80216",
    "phone": "303-390-1241",
    "rating": 4.0,
    "reviews": 25,
    "website": "https://www.google.com/maps/search/K&A+Construction+in+Colorado",
    "category": "African-American-owned Decks in Colorado",
    "description": "Specializes in decks, pergolas, patios, and outdoor spaces, with a focus on craftsmanship and customer service",
    "hours": "Mon-Fri 9AM-6PM",
    "services": [
      "African-American-owned Decks in Colorado consultation",
      "Professional service",
      "Quality guarantee"
    ],
    "social_links": {}
  }
]