[
  {
    "name": "Japanese Auto Masters",
    "address": "1325 N Witchduck Rd, Virginia Beach, VA 23455",
    "phone": "(757) 460-1221",
    "rating": 4.7,
    "reviews": 25,
    "website": "https://www.japaneseautomasters.com/",
    "category": "Jewish-owned Timing belt replacement in Virginia",
    "description": "Offers comprehensive timing belt inspection and replacement services with ASE-certified technicians and a 36-month/36K mile warranty",
    "hours": "Mon-Fri 9AM-6PM",
    "services": [
      "Jewish-owned Timing belt replacement in Virginia consultation",
      "Professional service",
      "Quality guarantee"
    ],
    "social_links": {}
  },
  {
    "name": "Potomac Creek Automotive",
    "address": "10115 Jefferson Davis Hwy, Fredericksburg, VA 22407",
    "phone": "(540) 657-1010",
    "rating": 4.7,
    "reviews": 25,
    "website": "https://potomaccreekauto.com/",
    "category": "Jewish-owned Timing belt replacement in Virginia",
    "description": "Provides timing belt replacement and maintenance services for various vehicle makes and models, with experienced technicians",
    "hours": "Mon-Fri 9AM-6PM",
    "services": [
      "Jewish-owned Timing belt replacement in Virginia consultation",
      "Professional service",
      "Quality guarantee"
    ],
    "social_links": {}
  },
  {
    "name": "B & L Automotive",
    "address": "12535 Warwick Blvd, Newport News, VA 23606",
    "phone": "(757) 874-7280",
    "rating": 4.7,
    "reviews": 25,
    "website": "https://www.blandlauto.com/",
    "category": "Jewish-owned Timing belt replacement in Virginia",
    "description": "Offers timing belt replacement using high-quality OEM and OEM-approved belts, with experienced and friendly technicians",
    "hours": "Mon-Fri 9AM-6PM",
    "services": [
      "Jewish-owned Timing belt replacement in Virginia consultation",
      "Professional service",
      "Quality guarantee"
    ],
    "social_links": {}
  },
  {
    "name": "Stuart Rolfe Muffler & Auto Service",
    "address": "1401\u0c1a\u0c3e\u0c30\u0c02 Midlothian Turnpike, Midlothian, VA 23113",
    "phone": "(804) 744-2000",
    "rating": 4.6,
    "reviews": 25,
    "website": "https://www.stuartrolfe.com/",
    "category": "Jewish-owned Timing belt replacement in Virginia",
    "description": "Specializes in timing belt replacement, emphasizing its importance for preventing major engine damage and recommending replacement of related components like the water pump",
    "hours": "Mon-Fri 9AM-6PM",
    "services": [
      "Jewish-owned Timing belt replacement in Virginia consultation",
      "Professional service",
      "Quality guarantee"
    ],
    "social_links": {}
  },
  {
    "name": "Courthouse Imports",
    "address": "1301 Kempsville Rd, Virginia Beach, VA 23464",
    "phone": "(757) 600-0650",
    "rating": 4.5,
    "reviews": 25,
    "website": "https://www.courthouseimports.com/",
    "category": "Jewish-owned Timing belt replacement in Virginia",
    "description": "Provides expert timing belt replacement services, using high-quality parts and ensuring proper installation for optimal engine performance",
    "hours": "Mon-Fri 9AM-6PM",
    "services": [
      "Jewish-owned Timing belt replacement in Virginia consultation",
      "Professional service",
      "Quality guarantee"
    ],
    "social_links": {}
  },
  {
    "name": "Chahel Automotive",
    "address": "545 Maple Ave W, Vienna, VA 22180",
    "phone": "(703) 810-3321",
    "rating": 4.8,
    "reviews": 25,
    "website": "https://chahelauto.com/",
    "category": "Jewish-owned Timing belt replacement in Virginia",
    "description": "A family-owned and operated auto repair business since 1988, offering professional and honest services",
    "hours": "Mon-Fri 9AM-6PM",
    "services": [
      "Jewish-owned Timing belt replacement in Virginia consultation",
      "Professional service",
      "Quality guarantee"
    ],
    "social_links": {}
  },
  {
    "name": "Bobby's Auto Service Center",
    "address": "2862 George Washington Memorial Hwy, Hayes, VA 23072",
    "phone": "(804) 642-4950",
    "rating": 4.7,
    "reviews": 25,
    "website": "https://bobbysautoservicectr.com/",
    "category": "Jewish-owned Timing belt replacement in Virginia",
    "description": "A family-owned auto repair shop delivering honest and professional services, known for computer diagnostics",
    "hours": "Mon-Fri 9AM-6PM",
    "services": [
      "Jewish-owned Timing belt replacement in Virginia consultation",
      "Professional service",
      "Quality guarantee"
    ],
    "social_links": {}
  },
  {
    "name": "Mike's Tire & Automotive",
    "address": "4009 George Washington Memorial Hwy, Hayes, VA 23072",
    "phone": "(804) 642-2980",
    "rating": 4.7,
    "reviews": 25,
    "website": "https://mikestireandauto.com/",
    "category": "Jewish-owned Timing belt replacement in Virginia",
    "description": "A family-owned auto repair shop specializing in transmission repairs and diesel engine work, with ASE-certified technicians",
    "hours": "Mon-Fri 9AM-6PM",
    "services": [
      "Jewish-owned Timing belt replacement in Virginia consultation",
      "Professional service",
      "Quality guarantee"
    ],
    "social_links": {}
  },
  {
    "name": "Auto Stop",
    "address": "5635 Leesburg Pike, Falls Church, VA 22041",
    "phone": "(703) 997-8253",
    "rating": 4.8,
    "reviews": 25,
    "website": "https://www.autostopva.com/",
    "category": "Jewish-owned Timing belt replacement in Virginia",
    "description": "Offers professional and ASE-Certified timing belt replacement services, with a 36-month/36,000-mile warranty and free loaner cars",
    "hours": "Mon-Fri 9AM-6PM",
    "services": [
      "Jewish-owned Timing belt replacement in Virginia consultation",
      "Professional service",
      "Quality guarantee"
    ],
    "social_links": {}
  },
  {
    "name": "George's Foreign Car Service",
    "address": "540 S Pickett St, Alexandria, VA 22304",
    "phone": "(703) 370-7400",
    "rating": 4.7,
    "reviews": 25,
    "website": "https://www.georgesforeigncars.com/",
    "category": "Jewish-owned Timing belt replacement in Virginia",
    "description": "Specializes in timing belt replacements for European and foreign cars, using high-quality OEM parts and experienced technicians",
    "hours": "Mon-Fri 9AM-6PM",
    "services": [
      "Jewish-owned Timing belt replacement in Virginia consultation",
      "Professional service",
      "Quality guarantee"
    ],
    "social_links": {}
  }
]