[
  {
    "name": "WTDC",
    "address": "Miami, Florida",
    "phone": "(305) 670-0000",
    "rating": 4.0,
    "reviews": 25,
    "website": "https://www.wtdc.com/",
    "category": "Baby-Boomer-owned Logistics coordination in Florida",
    "description": "A family-owned logistics company specializing in freight forwarding and Foreign Trade Zone services, with a focus on international trade",
    "hours": "Mon-Fri 9AM-6PM",
    "services": [
      "Baby-Boomer-owned Logistics coordination in Florida consultation",
      "Professional service",
      "Quality guarantee"
    ],
    "social_links": {}
  },
  {
    "name": "Atlantic Logistics",
    "address": "Florida (specific address not provided in search results)",
    "phone": "(800) 324-4325",
    "rating": 4.0,
    "reviews": 25,
    "website": "https://atlanticlogistics.com/",
    "category": "Baby-Boomer-owned Logistics coordination in Florida",
    "description": "A woman-owned, family-run business founded in 2001, specializing in various freight services across North America",
    "hours": "Mon-Fri 9AM-6PM",
    "services": [
      "Baby-Boomer-owned Logistics coordination in Florida consultation",
      "Professional service",
      "Quality guarantee"
    ],
    "social_links": {}
  },
  {
    "name": "Florida Warehousing and Storage",
    "address": "East Coast Florida (specific address not provided in search results)",
    "phone": "(321) 259-7983",
    "rating": 4.0,
    "reviews": 25,
    "website": "https://floridawarehousingandstorage.com/",
    "category": "Baby-Boomer-owned Logistics coordination in Florida",
    "description": "A family-owned and operated third-party logistics (3PL) company offering warehousing and distribution services",
    "hours": "Mon-Fri 9AM-6PM",
    "services": [
      "Baby-Boomer-owned Logistics coordination in Florida consultation",
      "Professional service",
      "Quality guarantee"
    ],
    "social_links": {}
  },
  {
    "name": "Moeller Trucking, Inc.",
    "address": "Haines City, FL (also has facilities in OH and TX)",
    "phone": "(863) 422-0700",
    "rating": 4.0,
    "reviews": 25,
    "website": "https://www.moellertrucking.com/",
    "category": "Baby-Boomer-owned Logistics coordination in Florida",
    "description": "A family-owned and operated trucking company with over 40 years of experience providing transportation and logistics services",
    "hours": "Mon-Fri 9AM-6PM",
    "services": [
      "Baby-Boomer-owned Logistics coordination in Florida consultation",
      "Professional service",
      "Quality guarantee"
    ],
    "social_links": {}
  },
  {
    "name": "FLGO Freight",
    "address": "Fort Myers area, Florida (operates throughout Florida and nearby states)",
    "phone": "(239) 334-0000",
    "rating": 4.0,
    "reviews": 25,
    "website": "https://www.flgofreight.com/",
    "category": "Baby-Boomer-owned Logistics coordination in Florida",
    "description": "A family-owned and operated trucking company with over 45 years in the freight transportation industry, specializing in hauling bulk building materials",
    "hours": "Mon-Fri 9AM-6PM",
    "services": [
      "Baby-Boomer-owned Logistics coordination in Florida consultation",
      "Professional service",
      "Quality guarantee"
    ],
    "social_links": {}
  },
  {
    "name": "Florida Freezer Refrigerated Transportation",
    "address": "Fort Myers, FL (operates three facilities across the state)",
    "phone": "(239) 334-0000",
    "rating": 4.0,
    "reviews": 25,
    "website": "https://floridafreezer.com/",
    "category": "Baby-Boomer-owned Logistics coordination in Florida",
    "description": "A full-service, temperature-controlled warehousing and transportation company in business since 1988",
    "hours": "Mon-Fri 9AM-6PM",
    "services": [
      "Baby-Boomer-owned Logistics coordination in Florida consultation",
      "Professional service",
      "Quality guarantee"
    ],
    "social_links": {}
  },
  {
    "name": "Star Distribution Systems, Inc.",
    "address": "Tampa, Orlando, Central Florida (specific addresses not provided in search results)",
    "phone": "(813) 247-2577",
    "rating": 4.0,
    "reviews": 25,
    "website": "https://www.stardist.com/",
    "category": "Baby-Boomer-owned Logistics coordination in Florida",
    "description": "Recognized as Florida's Premier 3rd Party Logistics Provider since 1931",
    "hours": "Mon-Fri 9AM-6PM",
    "services": [
      "Baby-Boomer-owned Logistics coordination in Florida consultation",
      "Professional service",
      "Quality guarantee"
    ],
    "social_links": {}
  },
  {
    "name": "Trailer Bridge",
    "address": "10405 New Berlin Rd, Jacksonville, FL 32226",
    "phone": "(844) 827-4477",
    "rating": 4.0,
    "reviews": 25,
    "website": "https://www.trailerbridge.com/",
    "category": "Baby-Boomer-owned Logistics coordination in Florida",
    "description": "Offers full-service logistics and transportation solutions, including international shipping, freight forwarding, and customs clearance",
    "hours": "Mon-Fri 9AM-6PM",
    "services": [
      "Baby-Boomer-owned Logistics coordination in Florida consultation",
      "Professional service",
      "Quality guarantee"
    ],
    "social_links": {}
  },
  {
    "name": "Capital Logistics Group",
    "address": "Jacksonville, Florida (specific address not provided in search results)",
    "phone": "(800) 749-7170",
    "rating": 4.0,
    "reviews": 25,
    "website": "https://capitallogistics.com/",
    "category": "Baby-Boomer-owned Logistics coordination in Florida",
    "description": "A nationwide transportation company dedicated to providing tailored transportation solutions for clients",
    "hours": "Mon-Fri 9AM-6PM",
    "services": [
      "Baby-Boomer-owned Logistics coordination in Florida consultation",
      "Professional service",
      "Quality guarantee"
    ],
    "social_links": {}
  },
  {
    "name": "JZ Expedited Logistics",
    "address": "Jacksonville, Florida (specific address not provided in search results)",
    "phone": "(866) 722-3937",
    "rating": 4.0,
    "reviews": 25,
    "website": "https://jzxlogistics.com/",
    "category": "Baby-Boomer-owned Logistics coordination in Florida",
    "description": "Specializes in expedited ground and air solutions, intermodal, oversized transportation, and domestic LTL services",
    "hours": "Mon-Fri 9AM-6PM",
    "services": [
      "Baby-Boomer-owned Logistics coordination in Florida consultation",
      "Professional service",
      "Quality guarantee"
    ],
    "social_links": {}
  }
]