[
  {
    "name": "NYAH Med Spa",
    "address": "Multiple locations including Alpharetta, Atlanta, and Suwanee, GA. (Specific addresses vary by location)",
    "phone": "(678) 735-0701 (Alpharetta)",
    "rating": 4.0,
    "reviews": 25,
    "website": "https://www.nyahmedspa.com/",
    "category": "Arabic-speaking Microdermabrasion in Georgia",
    "description": "Offers microdermabrasion treatments aimed at improving skin texture, radiance, and addressing concerns like fine lines, acne scars, and sun damage",
    "hours": "Mon-Fri 9AM-6PM",
    "services": [
      "Arabic-speaking Microdermabrasion in Georgia consultation",
      "Professional service",
      "Quality guarantee"
    ],
    "social_links": {}
  },
  {
    "name": "Peachtree Dermatology Associates",
    "address": "3200 Downwood Ridge NW, Suite 150, Atlanta, GA 30327",
    "phone": "(404) 303-4000",
    "rating": 4.0,
    "reviews": 25,
    "website": "https://www.peachtreederm.com/",
    "category": "Arabic-speaking Microdermabrasion in Georgia",
    "description": "Provides microdermabrasion treatments in Atlanta, emphasizing that it's a non-invasive, in-office treatment safe for all skin types, performed by medical professionals",
    "hours": "Mon-Fri 9AM-6PM",
    "services": [
      "Arabic-speaking Microdermabrasion in Georgia consultation",
      "Professional service",
      "Quality guarantee"
    ],
    "social_links": {}
  },
  {
    "name": "Medical Spa (Atlanta and Alpharetta, GA)",
    "address": "Multiple locations in Atlanta and Alpharetta, GA. (Specific addresses vary by location)",
    "phone": "(770) 929-0634",
    "rating": 4.0,
    "reviews": 25,
    "website": "https://www.atlantamedicalspa.com/",
    "category": "Arabic-speaking Microdermabrasion in Georgia",
    "description": "Offers microdermabrasion as a medical spa service to reveal radiant, glowing, and more youthful skin, with a board-certified plastic surgeon on site",
    "hours": "Mon-Fri 9AM-6PM",
    "services": [
      "Arabic-speaking Microdermabrasion in Georgia consultation",
      "Professional service",
      "Quality guarantee"
    ],
    "social_links": {}
  },
  {
    "name": "Panacea Plastic Surgery",
    "address": "1050 N Highland Ave NE, Atlanta, GA 30306",
    "phone": "(770) 929-0634",
    "rating": 4.0,
    "reviews": 25,
    "website": "https://www.panaceaplasticsurgery.com/",
    "category": "Arabic-speaking Microdermabrasion in Georgia",
    "description": "An exclusive med spa offering microdermabrasion for radiant, rejuvenated skin, with a focus on personalized care and advanced skincare technology",
    "hours": "Mon-Fri 9AM-6PM",
    "services": [
      "Arabic-speaking Microdermabrasion in Georgia consultation",
      "Professional service",
      "Quality guarantee"
    ],
    "social_links": {}
  },
  {
    "name": "The K Spa",
    "address": "385 W. Paces Ferry Rd. NW, Suite 100, Atlanta, GA 30305",
    "phone": "(404) 205-1100",
    "rating": 4.0,
    "reviews": 25,
    "website": "https://www.thekspa.com/",
    "category": "Arabic-speaking Microdermabrasion in Georgia",
    "description": "A physician-led medical spa offering microdermabrasion for skin rejuvenation, located in Buckhead and serving the greater metro area",
    "hours": "Mon-Fri 9AM-6PM",
    "services": [
      "Arabic-speaking Microdermabrasion in Georgia consultation",
      "Professional service",
      "Quality guarantee"
    ],
    "social_links": {}
  },
  {
    "name": "dermani MEDSPA\u00ae",
    "address": "Multiple locations including Vinings, GA. (Specific addresses vary by location)",
    "phone": "(770) 884-8102",
    "rating": 4.0,
    "reviews": 25,
    "website": "https://www.dermanimedspa.com/",
    "category": "Arabic-speaking Microdermabrasion in Georgia",
    "description": "Offers microdermabrasion as part of their skin rejuvenation services, with affordable pricing and a focus on personalized approaches",
    "hours": "Mon-Fri 9AM-6PM",
    "services": [
      "Arabic-speaking Microdermabrasion in Georgia consultation",
      "Professional service",
      "Quality guarantee"
    ],
    "social_links": {}
  },
  {
    "name": "Southern Dermatology",
    "address": "1500 Riverside Pkwy, Suite 120, Lawrenceville, GA 30043",
    "phone": "(770) 884-8102",
    "rating": 4.0,
    "reviews": 25,
    "website": "https://www.southerndermatology.com/",
    "category": "Arabic-speaking Microdermabrasion in Georgia",
    "description": "Offers professional microdermabrasion treatments for immediate skin improvement with no downtime, combining traditional methods with advanced technology",
    "hours": "Mon-Fri 9AM-6PM",
    "services": [
      "Arabic-speaking Microdermabrasion in Georgia consultation",
      "Professional service",
      "Quality guarantee"
    ],
    "social_links": {}
  },
  {
    "name": "Georgia Skin Specialists",
    "address": "2995 Chastain Meadows Pkwy SE, Suite 150, Atlanta, GA 30342",
    "phone": "(404) 296-8000",
    "rating": 4.0,
    "reviews": 25,
    "website": "https://www.georgiaskinspecialists.com/",
    "category": "Arabic-speaking Microdermabrasion in Georgia",
    "description": "Provides a range of cosmetic dermatology services, including microdermabrasions, with a focus on compassionate and innovative care",
    "hours": "Mon-Fri 9AM-6PM",
    "services": [
      "Arabic-speaking Microdermabrasion in Georgia consultation",
      "Professional service",
      "Quality guarantee"
    ],
    "social_links": {}
  },
  {
    "name": "Harley Institute",
    "address": "3480 Preston Ridge Rd, Suite 200, Alpharetta, GA 30005",
    "phone": "(770) 552-6550",
    "rating": 4.8,
    "reviews": 25,
    "website": "https://www.harleyinstitute.com/",
    "category": "Arabic-speaking Microdermabrasion in Georgia",
    "description": "Offers microdermabrasion treatments for radiant, youthful skin, described as a non-invasive and safe procedure for all skin colors and types",
    "hours": "Mon-Fri 9AM-6PM",
    "services": [
      "Arabic-speaking Microdermabrasion in Georgia consultation",
      "Professional service",
      "Quality guarantee"
    ],
    "social_links": {}
  },
  {
    "name": "Plastic Surgery Center of the South",
    "address": "1200 Traditions Way, Marietta, GA 30068",
    "phone": "(770) 421-1242",
    "rating": 4.0,
    "reviews": 25,
    "website": "https://www.plasticsurgerycentersouth.com/",
    "category": "Arabic-speaking Microdermabrasion in Georgia",
    "description": "Offers microdermabrasion as a safe, non-surgical procedure to improve skin's appearance and reverse signs of aging, performed at their medical spa",
    "hours": "Mon-Fri 9AM-6PM",
    "services": [
      "Arabic-speaking Microdermabrasion in Georgia consultation",
      "Professional service",
      "Quality guarantee"
    ],
    "social_links": {}
  }
]