[
  {
    "name": "The Centers for Advanced Orthopaedics",
    "address": "Multiple locations including Germantown, Rockville, and Chevy Chase, MD. (Specific addresses vary by division.)",
    "phone": "(410) 644-1880 (General Inquiries)",
    "rating": 4.0,
    "reviews": 25,
    "website": "https://www.cadvortho.com/",
    "category": "Armenian-speaking Orthopedic surgery in Maryland",
    "description": "A large group of orthopedic specialists offering a wide range of services including sports medicine, joint replacement, and spine surgery",
    "hours": "Mon-Fri 9AM-6PM",
    "services": [
      "Armenian-speaking Orthopedic surgery in Maryland consultation",
      "Professional service",
      "Quality guarantee"
    ],
    "social_links": {}
  },
  {
    "name": "Luminis Health Orthopedics Lanham",
    "address": "7301smaller Dr, Lanham, MD 20706",
    "phone": "(301) 599-9500",
    "rating": 4.0,
    "reviews": 25,
    "website": "https://www.luminishealth.org/services/orthopedics",
    "category": "Armenian-speaking Orthopedic surgery in Maryland",
    "description": "Offers comprehensive orthopedic care, including arthroscopic surgery, sports medicine, and joint replacement",
    "hours": "Mon-Fri 9AM-6PM",
    "services": [
      "Armenian-speaking Orthopedic surgery in Maryland consultation",
      "Professional service",
      "Quality guarantee"
    ],
    "social_links": {}
  },
  {
    "name": "Mid-Maryland Musculoskeletal Institute (MMI)",
    "address": "Multiple locations including Frederick and Urbana, MD. (Specific addresses vary by division.)",
    "phone": "(301) 662-1070 (Frederick)",
    "rating": 4.0,
    "reviews": 25,
    "website": "https://www.mmidocs.com/",
    "category": "Armenian-speaking Orthopedic surgery in Maryland",
    "description": "Provides a full spectrum of orthopedic treatments and physical therapy rehabilitation services",
    "hours": "Mon-Fri 9AM-6PM",
    "services": [
      "Armenian-speaking Orthopedic surgery in Maryland consultation",
      "Professional service",
      "Quality guarantee"
    ],
    "social_links": {}
  },
  {
    "name": "Elite Ortho DMV",
    "address": "Multiple locations in Maryland, including Montgomery County and Prince George's County. (Specific addresses vary.)",
    "phone": "(301) 570-0000",
    "rating": 4.0,
    "reviews": 25,
    "website": "https://www.eliteorthodmv.com/",
    "category": "Armenian-speaking Orthopedic surgery in Maryland",
    "description": "Offers a team of surgical and sports medicine specialists treating a wide range of musculoskeletal conditions",
    "hours": "Mon-Fri 9AM-6PM",
    "services": [
      "Armenian-speaking Orthopedic surgery in Maryland consultation",
      "Professional service",
      "Quality guarantee"
    ],
    "social_links": {}
  },
  {
    "name": "Orthopaedic Associates of Central Maryland (OACM)",
    "address": "Multiple locations across Central Maryland. (Specific addresses vary.)",
    "phone": "(410) 644-1880",
    "rating": 4.0,
    "reviews": 25,
    "website": "https://www.cadvortho.com/oacm/",
    "category": "Armenian-speaking Orthopedic surgery in Maryland",
    "description": "A division of The Centers for Advanced Orthopaedics, offering advanced orthopedic treatments and rehabilitation",
    "hours": "Mon-Fri 9AM-6PM",
    "services": [
      "Armenian-speaking Orthopedic surgery in Maryland consultation",
      "Professional service",
      "Quality guarantee"
    ],
    "social_links": {}
  },
  {
    "name": "McBride Orthopedic Hospital",
    "address": "9715 Key West Ave, Rockville, MD 20850",
    "phone": "(301) 840-9100",
    "rating": 4.0,
    "reviews": 25,
    "website": "https://www.mcbrideortho.com/",
    "category": "Armenian-speaking Orthopedic surgery in Maryland",
    "description": "Provides orthopedic treatments, physical therapy, and has an outpatient surgery center",
    "hours": "Mon-Fri 9AM-6PM",
    "services": [
      "Armenian-speaking Orthopedic surgery in Maryland consultation",
      "Professional service",
      "Quality guarantee"
    ],
    "social_links": {}
  },
  {
    "name": "Maryland Orthopedic Specialists",
    "address": "19735 Germantown Rd, Suite 101, Germantown, MD 20874",
    "phone": "(301) 528-1111",
    "rating": 4.0,
    "reviews": 25,
    "website": "https://www.cadvortho.com/maryland-orthopedic-specialists/",
    "category": "Armenian-speaking Orthopedic surgery in Maryland",
    "description": "Specializes in joint replacement, sports medicine, and offers physical therapy",
    "hours": "Mon-Fri 9AM-6PM",
    "services": [
      "Armenian-speaking Orthopedic surgery in Maryland consultation",
      "Professional service",
      "Quality guarantee"
    ],
    "social_links": {}
  },
  {
    "name": "The Orthopaedic Center",
    "address": "Multiple locations including Germantown, Rockville, and Washington, D.C. (Specific addresses vary.)",
    "phone": "(301) 972-4400",
    "rating": 4.0,
    "reviews": 25,
    "website": "https://www.theorthoca.com/",
    "category": "Armenian-speaking Orthopedic surgery in Maryland",
    "description": "Provides comprehensive orthopedic care with a team of specialists",
    "hours": "Mon-Fri 9AM-6PM",
    "services": [
      "Armenian-speaking Orthopedic surgery in Maryland consultation",
      "Professional service",
      "Quality guarantee"
    ],
    "social_links": {}
  },
  {
    "name": "Dr. Emeka Nwodim, MD, FAAOS",
    "address": "The Centers for Advanced Orthopaedics, 1015 18th St NW, Washington, DC 20036 (Serves the Maryland area)",
    "phone": "(202) 785-4000",
    "rating": 4.0,
    "reviews": 25,
    "website": "https://www.cadvortho.com/doctors/emeka-nwodim-md-faaos/",
    "category": "Armenian-speaking Orthopedic surgery in Maryland",
    "description": "Specializes in spine surgery and general orthopaedic surgery",
    "hours": "Mon-Fri 9AM-6PM",
    "services": [
      "Armenian-speaking Orthopedic surgery in Maryland consultation",
      "Professional service",
      "Quality guarantee"
    ],
    "social_links": {}
  },
  {
    "name": "Dr. Korboi Evans, MD, MS",
    "address": "Serves Silver Spring, Rockville, and Germantown, Maryland. (Specific clinic addresses may vary.)",
    "phone": "(301) 972-4400 (Likely through The Orthopaedic Center network)",
    "rating": 4.0,
    "reviews": 25,
    "website": "https://www.theorthoca.com/doctors/korboi-evans-md-ms/",
    "category": "Armenian-speaking Orthopedic surgery in Maryland",
    "description": "Specializes in joint replacement and joint preservation surgery of the hip, knee, and shoulder",
    "hours": "Mon-Fri 9AM-6PM",
    "services": [
      "Armenian-speaking Orthopedic surgery in Maryland consultation",
      "Professional service",
      "Quality guarantee"
    ],
    "social_links": {}
  }
]