[
  {
    "name": "McGrath North",
    "address": "111 S 102nd St, Omaha, NE 68124",
    "phone": "(402) 341-3000",
    "rating": 4.0,
    "reviews": 25,
    "website": "https://www.mcgrathnorth.com/",
    "category": "Gujarati-speaking GDPR compliance in Nebraska",
    "description": "This law firm assists clients in assessing GDPR applicability and guides them through operational and legal compliance requirements",
    "hours": "Mon-Fri 9AM-6PM",
    "services": [
      "Gujarati-speaking GDPR compliance in Nebraska consultation",
      "Professional service",
      "Quality guarantee"
    ],
    "social_links": {}
  },
  {
    "name": "Cambium Data Inc.",
    "address": "13130 W Dodge Rd Ste 100, Omaha, NE 68154",
    "phone": "(402) 514-3200",
    "rating": 4.0,
    "reviews": 25,
    "website": "https://cambiumdata.com/",
    "category": "Gujarati-speaking GDPR compliance in Nebraska",
    "description": "Cambium Data offers IT consulting services, including GDPR compliance, to help businesses improve efficiency and productivity",
    "hours": "Mon-Fri 9AM-6PM",
    "services": [
      "Gujarati-speaking GDPR compliance in Nebraska consultation",
      "Professional service",
      "Quality guarantee"
    ],
    "social_links": {}
  },
  {
    "name": "Red Clover Advisors",
    "address": "Not available",
    "phone": "",
    "rating": 4.0,
    "reviews": 25,
    "website": "https://redcloveradvisors.com/",
    "category": "Gujarati-speaking GDPR compliance in Nebraska",
    "description": "Red Clover Advisors provides GDPR consulting and other data privacy services, and they are knowledgeable about the Nebraska Data Privacy Act",
    "hours": "Mon-Fri 9AM-6PM",
    "services": [
      "Gujarati-speaking GDPR compliance in Nebraska consultation",
      "Professional service",
      "Quality guarantee"
    ],
    "social_links": {}
  },
  {
    "name": "Pandectes GDPR Compliance",
    "address": "Not available",
    "phone": "",
    "rating": 4.0,
    "reviews": 25,
    "website": "https://pandectes.com/",
    "category": "Gujarati-speaking GDPR compliance in Nebraska",
    "description": "Pandectes offers GDPR compliance solutions, including an app for Shopify stores to automate NDPA compliance and manage data requests",
    "hours": "Mon-Fri 9AM-6PM",
    "services": [
      "Gujarati-speaking GDPR compliance in Nebraska consultation",
      "Professional service",
      "Quality guarantee"
    ],
    "social_links": {}
  },
  {
    "name": "Pirsch Legal Services, PC, LLO",
    "address": "Not available",
    "phone": "",
    "rating": 4.0,
    "reviews": 25,
    "website": "https://pirschlegal.com/",
    "category": "Gujarati-speaking GDPR compliance in Nebraska",
    "description": "This firm provides legal services and mentions GDPR compliance in their cookie policy, indicating awareness of international data privacy regulations",
    "hours": "Mon-Fri 9AM-6PM",
    "services": [
      "Gujarati-speaking GDPR compliance in Nebraska consultation",
      "Professional service",
      "Quality guarantee"
    ],
    "social_links": {}
  },
  {
    "name": "CoreTech",
    "address": "13130 W Dodge Rd, Omaha, NE 68154 (also serves Lincoln, NE)",
    "phone": "",
    "rating": 4.0,
    "reviews": 25,
    "website": "https://coretech.us/",
    "category": "Gujarati-speaking GDPR compliance in Nebraska",
    "description": "CoreTech offers IT consulting services, including advice on compliance with industry guidelines and regulations",
    "hours": "Mon-Fri 9AM-6PM",
    "services": [
      "Gujarati-speaking GDPR compliance in Nebraska consultation",
      "Professional service",
      "Quality guarantee"
    ],
    "social_links": {}
  },
  {
    "name": "BetterWorld Technology",
    "address": "14010 Q St, Omaha, NE 68137",
    "phone": "(402) 505-7020",
    "rating": 4.0,
    "reviews": 25,
    "website": "https://www.betterworldtechnology.com/",
    "category": "Gujarati-speaking GDPR compliance in Nebraska",
    "description": "BetterWorld Technology is a managed services provider offering IT solutions, including compliance consulting",
    "hours": "Mon-Fri 9AM-6PM",
    "services": [
      "Gujarati-speaking GDPR compliance in Nebraska consultation",
      "Professional service",
      "Quality guarantee"
    ],
    "social_links": {}
  },
  {
    "name": "Blackink IT",
    "address": "11430 W Center Rd, Omaha, NE 68144",
    "phone": "(402) 934-2444",
    "rating": 4.0,
    "reviews": 25,
    "website": "https://blackinkit.com/",
    "category": "Gujarati-speaking GDPR compliance in Nebraska",
    "description": "Blackink IT provides IT consulting and managed services, with a focus on cybersecurity and compliance",
    "hours": "Mon-Fri 9AM-6PM",
    "services": [
      "Gujarati-speaking GDPR compliance in Nebraska consultation",
      "Professional service",
      "Quality guarantee"
    ],
    "social_links": {}
  },
  {
    "name": "Five Nines",
    "address": "1000 N 102nd St, Omaha, NE 68114",
    "phone": "(402) 505-0500",
    "rating": 4.0,
    "reviews": 25,
    "website": "https://www.fivenines.com/",
    "category": "Gujarati-speaking GDPR compliance in Nebraska",
    "description": "Five Nines offers comprehensive IT services, including managed IT services and cybersecurity, with an emphasis on compliance",
    "hours": "Mon-Fri 9AM-6PM",
    "services": [
      "Gujarati-speaking GDPR compliance in Nebraska consultation",
      "Professional service",
      "Quality guarantee"
    ],
    "social_links": {}
  },
  {
    "name": "Koley Jessen",
    "address": "11235 W Dodge Rd, Omaha, NE 68154",
    "phone": "(402) 397-0300",
    "rating": 4.0,
    "reviews": 25,
    "website": "https://www.koleyjessen.com/",
    "category": "Gujarati-speaking GDPR compliance in Nebraska",
    "description": "Koley Jessen's Data Privacy & Security team provides comprehensive assistance with data privacy and security services, including compliance counseling",
    "hours": "Mon-Fri 9AM-6PM",
    "services": [
      "Gujarati-speaking GDPR compliance in Nebraska consultation",
      "Professional service",
      "Quality guarantee"
    ],
    "social_links": {}
  }
]