[
  {
    "name": "Anytime Fitness - Salt Lake City",
    "address": "1060 E 2100 S, Salt Lake City, UT 84106",
    "phone": "(801) 891-8388",
    "rating": 4.5,
    "reviews": 25,
    "website": "https://www.anytimefitness.com/gyms/2776/salt-lake-city-ut-84106/",
    "category": "African-American-owned 24-hour fitness centers in Utah",
    "description": "A locally owned and operated 24/7 gym offering a supportive community, expert coaches, and global access to over 5,500 locations",
    "hours": "Mon-Fri 9AM-6PM",
    "services": [
      "African-American-owned 24-hour fitness centers in Utah consultation",
      "Professional service",
      "Quality guarantee"
    ],
    "social_links": {}
  },
  {
    "name": "EoS Fitness - West Jordan",
    "address": "7135 S Plaza Center Dr, West Jordan, UT 84084",
    "phone": "(385) 349-5842",
    "rating": 4.3,
    "reviews": 25,
    "website": "https://www.eosfitness.com/gyms/west-jordan-plaza-center/",
    "category": "African-American-owned 24-hour fitness centers in Utah",
    "description": "Offers high-value, low-price memberships with a wide range of amenities including group fitness classes, a swimming pool, hot tub, and cutting-edge strength training equipment. Open 24/7",
    "hours": "Mon-Fri 9AM-6PM",
    "services": [
      "African-American-owned 24-hour fitness centers in Utah consultation",
      "Professional service",
      "Quality guarantee"
    ],
    "social_links": {}
  },
  {
    "name": "EoS Fitness - Orem",
    "address": "52 E University Pkwy, Orem, UT 84058",
    "phone": "(385) 349-5842",
    "rating": 4.4,
    "reviews": 25,
    "website": "https://www.eosfitness.com/gyms/orem-university-pkwy/",
    "category": "African-American-owned 24-hour fitness centers in Utah",
    "description": "A 24/7 fitness center with a variety of signature amenities like group fitness classes, a swimming pool, and recovery rooms, alongside extensive strength and cardio equipment",
    "hours": "Mon-Fri 9AM-6PM",
    "services": [
      "African-American-owned 24-hour fitness centers in Utah consultation",
      "Professional service",
      "Quality guarantee"
    ],
    "social_links": {}
  },
  {
    "name": "VASA Fitness - West Jordan",
    "address": "7836 S Redwood Rd, West Jordan, UT 84084",
    "phone": "(801) 528-1351",
    "rating": 4.2,
    "reviews": 25,
    "website": "https://vasafitness.com/gym/west-jordan/",
    "category": "African-American-owned 24-hour fitness centers in Utah",
    "description": "Offers flexible membership options with access to state-of-the-art equipment, group fitness classes, personal training, and amenities like a sauna and steam room",
    "hours": "Mon-Fri 9AM-6PM",
    "services": [
      "African-American-owned 24-hour fitness centers in Utah consultation",
      "Professional service",
      "Quality guarantee"
    ],
    "social_links": {}
  },
  {
    "name": "VASA Fitness - Ogden",
    "address": "1150 Washington Blvd, Ogden, UT 84404",
    "phone": "(801) 621-8272",
    "rating": 4.1,
    "reviews": 25,
    "website": "https://vasafitness.com/gym/ogden/",
    "category": "African-American-owned 24-hour fitness centers in Utah",
    "description": "Provides a range of membership tiers with access to modern equipment, group fitness classes, and recovery amenities such as a sauna and steam room",
    "hours": "Mon-Fri 9AM-6PM",
    "services": [
      "African-American-owned 24-hour fitness centers in Utah consultation",
      "Professional service",
      "Quality guarantee"
    ],
    "social_links": {}
  },
  {
    "name": "VASA Fitness - Provo",
    "address": "1007 S University Ave, Provo, UT 84601",
    "phone": "(801) 377-2666",
    "rating": 4.3,
    "reviews": 25,
    "website": "https://vasafitness.com/gym/provo/",
    "category": "African-American-owned 24-hour fitness centers in Utah",
    "description": "A fitness center offering various membership plans, state-of-the-art equipment, group fitness classes, and premium amenities like a fitness cinema and recovery areas",
    "hours": "Mon-Fri 9AM-6PM",
    "services": [
      "African-American-owned 24-hour fitness centers in Utah consultation",
      "Professional service",
      "Quality guarantee"
    ],
    "social_links": {}
  },
  {
    "name": "Planet Fitness - West Valley City",
    "address": "3749 S Constitution Blvd, West Valley City, UT 84119",
    "phone": "(801) 964-0000",
    "rating": 4.0,
    "reviews": 25,
    "website": "https://www.planetfitness.com/gyms/west-valley-city-ut",
    "category": "African-American-owned 24-hour fitness centers in Utah",
    "description": "Known for its \"Judgement Free Zone,\" Planet Fitness offers affordable memberships with access to cardio and strength equipment, tanning, and hydromassage",
    "hours": "Mon-Fri 9AM-6PM",
    "services": [
      "African-American-owned 24-hour fitness centers in Utah consultation",
      "Professional service",
      "Quality guarantee"
    ],
    "social_links": {}
  },
  {
    "name": "Planet Fitness - West Jordan",
    "address": "7453 S Plaza Center Dr, West Jordan, UT 84084",
    "phone": "(801) 400-2440",
    "rating": 4.1,
    "reviews": 25,
    "website": "https://www.planetfitness.com/gyms/west-jordan-ut",
    "category": "African-American-owned 24-hour fitness centers in Utah",
    "description": "This Planet Fitness location provides a welcoming environment with a variety of exercise equipment, tanning beds, and massage chairs",
    "hours": "Mon-Fri 9AM-6PM",
    "services": [
      "African-American-owned 24-hour fitness centers in Utah consultation",
      "Professional service",
      "Quality guarantee"
    ],
    "social_links": {}
  },
  {
    "name": "Snap Fitness - West Jordan",
    "address": "7759 S 4800 W, West Jordan, UT 84084",
    "phone": "(801) 282-2766",
    "rating": 4.0,
    "reviews": 25,
    "website": "https://www.snapfitness.com/us/gyms/west-jordan-ut/",
    "category": "African-American-owned 24-hour fitness centers in Utah",
    "description": "Offers 24/7 gym access with cardio and strength equipment, functional training, and a supportive community atmosphere",
    "hours": "Mon-Fri 9AM-6PM",
    "services": [
      "African-American-owned 24-hour fitness centers in Utah consultation",
      "Professional service",
      "Quality guarantee"
    ],
    "social_links": {}
  },
  {
    "name": "The Forge Gym",
    "address": "495 North State St, Orem, UT 84057",
    "phone": "(801) 805-5077",
    "rating": 4.9,
    "reviews": 25,
    "website": "https://www.theforgegym.com/",
    "category": "African-American-owned 24-hour fitness centers in Utah",
    "description": "A community-based gym in Orem with competition-grade equipment, offering 24-hour memberships with no contracts or hidden fees. It emphasizes a fun and inviting atmosphere",
    "hours": "Mon-Fri 9AM-6PM",
    "services": [
      "African-American-owned 24-hour fitness centers in Utah consultation",
      "Professional service",
      "Quality guarantee"
    ],
    "social_links": {}
  }
]