[
  {
    "name": "Nirvana Naturopathics",
    "address": "Deerfield, IL",
    "phone": "847-243-6447",
    "rating": 4.0,
    "reviews": 25,
    "website": "https://www.nirvananaturopathics.com/",
    "category": "Bengali-speaking Herbal medicine in Illinois",
    "description": "Offers herbal medicine consultations with a focus on Traditional Chinese Medicine",
    "hours": "Mon-Fri 9AM-6PM",
    "services": [
      "Bengali-speaking Herbal medicine in Illinois consultation",
      "Professional service",
      "Quality guarantee"
    ],
    "social_links": {}
  },
  {
    "name": "Balanced Ayurveda",
    "address": "Hoffman Estates, IL",
    "phone": "",
    "rating": 5.0,
    "reviews": 25,
    "website": "https://balancedayurveda.com/",
    "category": "Bengali-speaking Herbal medicine in Illinois",
    "description": "Provides Ayurvedic consultations, detoxification, and relaxation therapies",
    "hours": "Mon-Fri 9AM-6PM",
    "services": [
      "Bengali-speaking Herbal medicine in Illinois consultation",
      "Professional service",
      "Quality guarantee"
    ],
    "social_links": {}
  },
  {
    "name": "Eastern Healing",
    "address": "Wheaton, IL",
    "phone": "630-653-4358",
    "rating": 4.0,
    "reviews": 25,
    "website": "https://www.easternhealing.org/",
    "category": "Bengali-speaking Herbal medicine in Illinois",
    "description": "Offers acupuncture and Chinese herbal training, specializing in infertility and OB/GYN disorders",
    "hours": "Mon-Fri 9AM-6PM",
    "services": [
      "Bengali-speaking Herbal medicine in Illinois consultation",
      "Professional service",
      "Quality guarantee"
    ],
    "social_links": {}
  },
  {
    "name": "Heartwood Center",
    "address": "Evanston, IL",
    "phone": "",
    "rating": 4.0,
    "reviews": 25,
    "website": "https://www.google.com/maps/search/Heartwood+Center+in+Illinois",
    "category": "Bengali-speaking Herbal medicine in Illinois",
    "description": "A center offering various practitioners including acupuncture, herbs, and fertility specialists",
    "hours": "Mon-Fri 9AM-6PM",
    "services": [
      "Bengali-speaking Herbal medicine in Illinois consultation",
      "Professional service",
      "Quality guarantee"
    ],
    "social_links": {}
  },
  {
    "name": "First Curve Apothecary",
    "address": "Chicago, IL",
    "phone": "",
    "rating": 4.0,
    "reviews": 25,
    "website": "https://www.firstcurveapothecary.com/",
    "category": "Bengali-speaking Herbal medicine in Illinois",
    "description": "Community herbalist offering herbal products and classes",
    "hours": "Mon-Fri 9AM-6PM",
    "services": [
      "Bengali-speaking Herbal medicine in Illinois consultation",
      "Professional service",
      "Quality guarantee"
    ],
    "social_links": {}
  },
  {
    "name": "Soderworld Wellness Center",
    "address": "Chicagoland area (Karla is based in Phoenix, AZ but visits Chicagoland)",
    "phone": "",
    "rating": 4.0,
    "reviews": 25,
    "website": "https://www.soderworld.com/",
    "category": "Bengali-speaking Herbal medicine in Illinois",
    "description": "Offers Ayurvedic consultations and treatments, with practitioners visiting the Chicagoland area",
    "hours": "Mon-Fri 9AM-6PM",
    "services": [
      "Bengali-speaking Herbal medicine in Illinois consultation",
      "Professional service",
      "Quality guarantee"
    ],
    "social_links": {}
  },
  {
    "name": "HemaVeda Ayurveda",
    "address": "Crystal Lake, IL",
    "phone": "",
    "rating": 4.0,
    "reviews": 25,
    "website": "https://hemaveda.com/",
    "category": "Bengali-speaking Herbal medicine in Illinois",
    "description": "Provides Ayurvedic healing, consultations, and Panchakarma therapies",
    "hours": "Mon-Fri 9AM-6PM",
    "services": [
      "Bengali-speaking Herbal medicine in Illinois consultation",
      "Professional service",
      "Quality guarantee"
    ],
    "social_links": {}
  },
  {
    "name": "Loving Hands Ayurveda",
    "address": "LaGrange, IL",
    "phone": "708-280-3519",
    "rating": 4.0,
    "reviews": 25,
    "website": "https://lovinghandsayurveda.com/",
    "category": "Bengali-speaking Herbal medicine in Illinois",
    "description": "Offers Ayurvedic treatments, consultations, and Panchakarma therapies",
    "hours": "Mon-Fri 9AM-6PM",
    "services": [
      "Bengali-speaking Herbal medicine in Illinois consultation",
      "Professional service",
      "Quality guarantee"
    ],
    "social_links": {}
  },
  {
    "name": "Healing Home Ayurveda",
    "address": "Rockford, IL",
    "phone": "815-505-0638",
    "rating": 4.0,
    "reviews": 25,
    "website": "https://www.healinghomeayurveda.com/",
    "category": "Bengali-speaking Herbal medicine in Illinois",
    "description": "Focuses on women and children's health through Ayurvedic principles",
    "hours": "Mon-Fri 9AM-6PM",
    "services": [
      "Bengali-speaking Herbal medicine in Illinois consultation",
      "Professional service",
      "Quality guarantee"
    ],
    "social_links": {}
  },
  {
    "name": "The Herbalist Cottage Apothecary",
    "address": "Orion, IL",
    "phone": "309-236-8142",
    "rating": 4.0,
    "reviews": 25,
    "website": "https://www.theherbalistcottage.com/",
    "category": "Bengali-speaking Herbal medicine in Illinois",
    "description": "An online herbal shop offering a wide variety of herbs and personalized blends",
    "hours": "Mon-Fri 9AM-6PM",
    "services": [
      "Bengali-speaking Herbal medicine in Illinois consultation",
      "Professional service",
      "Quality guarantee"
    ],
    "social_links": {}
  }
]