[
  {
    "name": "Arlington Dental Care",
    "address": "1776 Massachusetts Ave, Arlington, MA 02476",
    "phone": "(781) 646-0101",
    "rating": 4.0,
    "reviews": 25,
    "website": "http://www.arlingtondentalcare.com/",
    "category": "Indian-American-owned Dentists in Massachusetts",
    "description": "Dr. Kalpana Kaveti practices general and implant dentistry",
    "hours": "Mon-Fri 9AM-6PM",
    "services": [
      "Indian-American-owned Dentists in Massachusetts consultation",
      "Professional service",
      "Quality guarantee"
    ],
    "social_links": {}
  },
  {
    "name": "Dental Smiles Center",
    "address": "1000 Pleasant St, Bridgewater, MA 02324",
    "phone": "(508) 697-9000",
    "rating": 4.0,
    "reviews": 25,
    "website": "http://www.dentalsmilescenter.com/",
    "category": "Indian-American-owned Dentists in Massachusetts",
    "description": "Dr. Bhavana Agadi and her staff are committed to providing high-quality dental care in a friendly environment",
    "hours": "Mon-Fri 9AM-6PM",
    "services": [
      "Indian-American-owned Dentists in Massachusetts consultation",
      "Professional service",
      "Quality guarantee"
    ],
    "social_links": {}
  },
  {
    "name": "Dr. Rashmi Shah, DMD",
    "address": "1000 Pleasant St, Bridgewater, MA 02324",
    "phone": "(508) 697-9000",
    "rating": 4.0,
    "reviews": 25,
    "website": "http://www.drrashmishah.com/",
    "category": "Indian-American-owned Dentists in Massachusetts",
    "description": "Dr. Rashmi Shah specializes in pediatric dentistry, focusing on compassionate care for children",
    "hours": "Mon-Fri 9AM-6PM",
    "services": [
      "Indian-American-owned Dentists in Massachusetts consultation",
      "Professional service",
      "Quality guarantee"
    ],
    "social_links": {}
  },
  {
    "name": "Great Hill Dental (Newton Location)",
    "address": "1218 Walnut St, Newton, MA 02461",
    "phone": "(617) 244-1300",
    "rating": 4.0,
    "reviews": 25,
    "website": "https://greathilldental.com/locations/newton/",
    "category": "Indian-American-owned Dentists in Massachusetts",
    "description": "Dr. Arjun Chawdhry is the Dental Director, with extensive experience in general dentistry and a patient-centric approach",
    "hours": "Mon-Fri 9AM-6PM",
    "services": [
      "Indian-American-owned Dentists in Massachusetts consultation",
      "Professional service",
      "Quality guarantee"
    ],
    "social_links": {}
  },
  {
    "name": "Century Family Dental",
    "address": "370 Turnpike St, Suite 202, North Andover, MA 01845",
    "phone": "(978) 688-2525",
    "rating": 4.0,
    "reviews": 25,
    "website": "https://www.centuryfamilydental.com/",
    "category": "Indian-American-owned Dentists in Massachusetts",
    "description": "Features dentists like Dr. Bhuvan Shome Venigalla and Dr. Pradeep Bholla, with extensive experience and international backgrounds",
    "hours": "Mon-Fri 9AM-6PM",
    "services": [
      "Indian-American-owned Dentists in Massachusetts consultation",
      "Professional service",
      "Quality guarantee"
    ],
    "social_links": {}
  },
  {
    "name": "South Shore Dental Care",
    "address": "169 N Franklin St, Holbrook, MA 02343",
    "phone": "(781) 767-1400",
    "rating": 4.0,
    "reviews": 25,
    "website": "https://www.southshoredentalcare.com/",
    "category": "Indian-American-owned Dentists in Massachusetts",
    "description": "Dr. Aaronpaul Singh provides ethical and comprehensive dental treatment with a gentle and caring approach",
    "hours": "Mon-Fri 9AM-6PM",
    "services": [
      "Indian-American-owned Dentists in Massachusetts consultation",
      "Professional service",
      "Quality guarantee"
    ],
    "social_links": {}
  },
  {
    "name": "Aarohi Dental",
    "address": "1000 Pleasant St, New Bedford, MA 02740",
    "phone": "(508) 990-3333",
    "rating": 4.0,
    "reviews": 25,
    "website": "https://www.aarohidental.com/",
    "category": "Indian-American-owned Dentists in Massachusetts",
    "description": "Dr. Sathish Palayam is a restorative and cosmetic dentist with advanced training in laser procedures",
    "hours": "Mon-Fri 9AM-6PM",
    "services": [
      "Indian-American-owned Dentists in Massachusetts consultation",
      "Professional service",
      "Quality guarantee"
    ],
    "social_links": {}
  },
  {
    "name": "Indian Orchard Dental",
    "address": "1730 Boston Rd, Springfield, MA 01129",
    "phone": "(413) 783-1500",
    "rating": 5.0,
    "reviews": 25,
    "website": "https://www.google.com/maps/search/Indian+Orchard+Dental+in+Massachusetts",
    "category": "Indian-American-owned Dentists in Massachusetts",
    "description": "Dr. Yogita Kanorwalla practices general dentistry",
    "hours": "Mon-Fri 9AM-6PM",
    "services": [
      "Indian-American-owned Dentists in Massachusetts consultation",
      "Professional service",
      "Quality guarantee"
    ],
    "social_links": {}
  },
  {
    "name": "Palmer Smiles",
    "address": "1275 Thorndike St, Palmer, MA 01069",
    "phone": "(413) 283-7355",
    "rating": 4.0,
    "reviews": 25,
    "website": "https://palmersmiles.com/",
    "category": "Indian-American-owned Dentists in Massachusetts",
    "description": "Dr. Divya Mudumba owns and manages this practice, specializing in pediatric and family dentistry",
    "hours": "Mon-Fri 9AM-6PM",
    "services": [
      "Indian-American-owned Dentists in Massachusetts consultation",
      "Professional service",
      "Quality guarantee"
    ],
    "social_links": {}
  },
  {
    "name": "Khanani Family Dental",
    "address": "170 Holden St, Holden, MA 01520",
    "phone": "(508) 829-4575",
    "rating": 4.0,
    "reviews": 25,
    "website": "https://www.khananifamilydental.com/",
    "category": "Indian-American-owned Dentists in Massachusetts",
    "description": "Dr. Khanani provides a full range of dental services with a personable approach",
    "hours": "Mon-Fri 9AM-6PM",
    "services": [
      "Indian-American-owned Dentists in Massachusetts consultation",
      "Professional service",
      "Quality guarantee"
    ],
    "social_links": {}
  }
]