[
  {
    "name": "Meticulous Paintless Dent Removal Inc.",
    "address": "1000 Centerville Rd, Warwick, RI 02886",
    "phone": "(401) 237-0616",
    "rating": 5.0,
    "reviews": 25,
    "website": "https://www.meticulouspdr.com/",
    "category": "Middle-Eastern-owned Dent repair in Rhode-Island",
    "description": "Specializes in paintless dent removal for minor dings and dents, offering both in-shop and mobile services. They guarantee customer satisfaction and have extensive experience",
    "hours": "Mon-Fri 9AM-6PM",
    "services": [
      "Middle-Eastern-owned Dent repair in Rhode-Island consultation",
      "Professional service",
      "Quality guarantee"
    ],
    "social_links": {}
  },
  {
    "name": "Northeast Autobody",
    "address": "775 Hartford Ave, Johnston, RI 02919",
    "phone": "(401) 231-1111",
    "rating": 4.0,
    "reviews": 25,
    "website": "https://www.northeastautobody.com/",
    "category": "Middle-Eastern-owned Dent repair in Rhode-Island",
    "description": "A large, family-owned auto body shop offering comprehensive auto repair services, including collision repair, with a lifetime warranty on body repairs",
    "hours": "Mon-Fri 9AM-6PM",
    "services": [
      "Middle-Eastern-owned Dent repair in Rhode-Island consultation",
      "Professional service",
      "Quality guarantee"
    ],
    "social_links": {}
  },
  {
    "name": "Providence Auto Body",
    "address": "1000 Broad St, Providence, RI 02905",
    "phone": "(401) 461-2500",
    "rating": 4.0,
    "reviews": 25,
    "website": "https://www.providenceautobody.com/",
    "category": "Middle-Eastern-owned Dent repair in Rhode-Island",
    "description": "Rhode Island's largest volume auto body shop, offering full-service repairs with a lifetime warranty and a commitment to safety. They handle insurance claims from start to finish",
    "hours": "Mon-Fri 9AM-6PM",
    "services": [
      "Middle-Eastern-owned Dent repair in Rhode-Island consultation",
      "Professional service",
      "Quality guarantee"
    ],
    "social_links": {}
  },
  {
    "name": "New England Dent Removal",
    "address": "1070 Reservoir Ave, Cranston, RI 02920",
    "phone": "(401) 941-3368",
    "rating": 4.0,
    "reviews": 25,
    "website": "https://www.newenglanddentremoval.com/",
    "category": "Middle-Eastern-owned Dent repair in Rhode-Island",
    "description": "Specializes in expert paintless dent removal services, with a mission to provide excellent customer service and high-quality work. They service many reputable body shops and dealerships",
    "hours": "Mon-Fri 9AM-6PM",
    "services": [
      "Middle-Eastern-owned Dent repair in Rhode-Island consultation",
      "Professional service",
      "Quality guarantee"
    ],
    "social_links": {}
  },
  {
    "name": "State Auto Body",
    "address": "380 Valley St, Providence, RI 02908",
    "phone": "(401) 421-7000",
    "rating": 4.0,
    "reviews": 25,
    "website": "https://www.stateautobodyri.com/",
    "category": "Middle-Eastern-owned Dent repair in Rhode-Island",
    "description": "Providing quality repairs since 1939, this shop offers high-quality collision repair, paint services, and vehicle restoration using state-of-the-art technology",
    "hours": "Mon-Fri 9AM-6PM",
    "services": [
      "Middle-Eastern-owned Dent repair in Rhode-Island consultation",
      "Professional service",
      "Quality guarantee"
    ],
    "social_links": {}
  },
  {
    "name": "Maaco Auto Body Shop & Painting",
    "address": "1000 Reservoir Ave, Cranston, RI 02920",
    "phone": "(401) 941-5000",
    "rating": 4.0,
    "reviews": 25,
    "website": "https://www.maaco.com/",
    "category": "Middle-Eastern-owned Dent repair in Rhode-Island",
    "description": "A locally owned facility specializing in repairing routine dents, dings, and structural damages, offering various packages and warranties",
    "hours": "Mon-Fri 9AM-6PM",
    "services": [
      "Middle-Eastern-owned Dent repair in Rhode-Island consultation",
      "Professional service",
      "Quality guarantee"
    ],
    "social_links": {}
  },
  {
    "name": "Fast Dent Paintless Dent Repair",
    "address": "7715 Post Road #932, North Kingstown, RI 02852 (Mailing Address)",
    "phone": "(401) 500-DENT (3368)",
    "rating": 4.0,
    "reviews": 25,
    "website": "https://www.fastdentri.com/",
    "category": "Middle-Eastern-owned Dent repair in Rhode-Island",
    "description": "Offers mobile paintless dent repair services for dents, dings, creases, and hail damage, serving Rhode Island, Massachusetts, and Connecticut. They guarantee satisfaction",
    "hours": "Mon-Fri 9AM-6PM",
    "services": [
      "Middle-Eastern-owned Dent repair in Rhode-Island consultation",
      "Professional service",
      "Quality guarantee"
    ],
    "social_links": {}
  },
  {
    "name": "Dent Fixx",
    "address": "482 Waterman Avenue, East Providence, RI 02914",
    "phone": "(401) 424-5300",
    "rating": 4.0,
    "reviews": 25,
    "website": "https://www.dentfixxri.com/",
    "category": "Middle-Eastern-owned Dent repair in Rhode-Island",
    "description": "Provides professional collision repairs, dent removal, and custom auto paint. They work with leading insurance companies and offer services like lease inspection and towing",
    "hours": "Mon-Fri 9AM-6PM",
    "services": [
      "Middle-Eastern-owned Dent repair in Rhode-Island consultation",
      "Professional service",
      "Quality guarantee"
    ],
    "social_links": {}
  },
  {
    "name": "Mike's Auto Body",
    "address": "1415 Ten Rod Rd, North Kingstown, RI 02852 (North Kingstown location)",
    "phone": "(401) 294-4379",
    "rating": 4.0,
    "reviews": 25,
    "website": "https://www.mikesautobodyri.com/",
    "category": "Middle-Eastern-owned Dent repair in Rhode-Island",
    "description": "A family-owned collision repair center offering full-service collision repair and specializing in insurance claims processing. They use environmentally friendly PPG waterborne paints",
    "hours": "Mon-Fri 9AM-6PM",
    "services": [
      "Middle-Eastern-owned Dent repair in Rhode-Island consultation",
      "Professional service",
      "Quality guarantee"
    ],
    "social_links": {}
  },
  {
    "name": "A1 Dent Repair",
    "address": "1215 East Main Rd, Middletown, RI 02842",
    "phone": "(401) 619-5658",
    "rating": 4.0,
    "reviews": 25,
    "website": "https://a1dentrepair.com/",
    "category": "Middle-Eastern-owned Dent repair in Rhode-Island",
    "description": "Offers cost-effective and convenient paintless dent removal (PDR) services for minor dents and dings, preserving the vehicle's original paint finish",
    "hours": "Mon-Fri 9AM-6PM",
    "services": [
      "Middle-Eastern-owned Dent repair in Rhode-Island consultation",
      "Professional service",
      "Quality guarantee"
    ],
    "social_links": {}
  }
]