[
  {
    "name": "WCK Foundation Repair",
    "address": "10108 Florida Blvd, Denham Springs, LA 70726",
    "phone": "(225) 372-7711",
    "rating": 4.8,
    "reviews": 25,
    "website": "https://www.wckfoundationrepair.com/",
    "category": "Atheist-owned Foundation repair in Louisiana",
    "description": "Offers foundation repair services for slab and raised foundations, as well as drainage repair. They have been in business since 1983 and provide free estimates",
    "hours": "Mon-Fri 9AM-6PM",
    "services": [
      "Atheist-owned Foundation repair in Louisiana consultation",
      "Professional service",
      "Quality guarantee"
    ],
    "social_links": {}
  },
  {
    "name": "Olshan Foundation Repair",
    "address": "While Olshan operates in Louisiana, their primary office is in Longview, TX. They service areas including Shreveport, Baton Rouge, and New Orleans",
    "phone": "(504) 618-1208",
    "rating": 4.5,
    "reviews": 25,
    "website": "https://www.olshan.com/locations/louisiana/",
    "category": "Atheist-owned Foundation repair in Louisiana",
    "description": "Provides foundation repair, basement waterproofing, and exterior drainage solutions. They have been fixing foundations since 1933",
    "hours": "Mon-Fri 9AM-6PM",
    "services": [
      "Atheist-owned Foundation repair in Louisiana consultation",
      "Professional service",
      "Quality guarantee"
    ],
    "social_links": {}
  },
  {
    "name": "Affordable Foundation Repair, LLC",
    "address": "1002 N Main St, Abbeville, LA 70510 (This is one of their service areas, they cover multiple locations)",
    "phone": "(337) 898-1365",
    "rating": 4.7,
    "reviews": 25,
    "website": "https://www.afffoundationrepair.com/",
    "category": "Atheist-owned Foundation repair in Louisiana",
    "description": "Offers house leveling, foundation repair, and mudjacking services in areas like Abbeville, Baton Rouge, and Lafayette. They have over two decades of experience",
    "hours": "Mon-Fri 9AM-6PM",
    "services": [
      "Atheist-owned Foundation repair in Louisiana consultation",
      "Professional service",
      "Quality guarantee"
    ],
    "social_links": {}
  },
  {
    "name": "Ram Jack South Louisiana",
    "address": "1015 W Pinhook Rd, Lafayette, LA 70503 (This is a service area, they cover a wide region)",
    "phone": "(337) 382-0321",
    "rating": 4.6,
    "reviews": 25,
    "website": "https://www.ramjack.com/locations/south-louisiana/",
    "category": "Atheist-owned Foundation repair in Louisiana",
    "description": "Specializes in foundation repair using driven piles and helical piles, serving areas like Lafayette, Baton Rouge, and New Orleans",
    "hours": "Mon-Fri 9AM-6PM",
    "services": [
      "Atheist-owned Foundation repair in Louisiana consultation",
      "Professional service",
      "Quality guarantee"
    ],
    "social_links": {}
  },
  {
    "name": "Ace House Leveling",
    "address": "1201 Veterans Memorial Blvd, Metairie, LA 70005 (Service area includes New Orleans)",
    "phone": "(504) 858-1974",
    "rating": 4.7,
    "reviews": 25,
    "website": "https://acehouseleveling.com/",
    "category": "Atheist-owned Foundation repair in Louisiana",
    "description": "A leading house leveling contractor in the New Orleans area, offering foundation repair and slab/pier leveling. They have over 40 years of experience",
    "hours": "Mon-Fri 9AM-6PM",
    "services": [
      "Atheist-owned Foundation repair in Louisiana consultation",
      "Professional service",
      "Quality guarantee"
    ],
    "social_links": {}
  },
  {
    "name": "Al Sanchez Construction LLC",
    "address": "1000 Veterans Memorial Blvd, Metairie, LA 70005 (Serves New Orleans and surrounding areas)",
    "phone": "(504) 250-1000",
    "rating": 4.9,
    "reviews": 25,
    "website": "https://alsancheconstruction.com/",
    "category": "Atheist-owned Foundation repair in Louisiana",
    "description": "Specializes in house leveling and foundation repairs in the New Orleans area. They are a licensed and insured contractor",
    "hours": "Mon-Fri 9AM-6PM",
    "services": [
      "Atheist-owned Foundation repair in Louisiana consultation",
      "Professional service",
      "Quality guarantee"
    ],
    "social_links": {}
  },
  {
    "name": "Frontline Concrete Solutions",
    "address": "While they serve many areas, a specific address isn't readily available for a physical office in Louisiana. They service Metairie, New Orleans, Lafayette, Kenner, and Baton Rouge",
    "phone": "(504) 250-1000",
    "rating": 4.9,
    "reviews": 25,
    "website": "https://frontlineconcretesolutions.com/",
    "category": "Atheist-owned Foundation repair in Louisiana",
    "description": "Offers concrete and foundation repair, including solutions for foundation settlement, bowing walls, and sinking slabs. They are a veteran-owned business",
    "hours": "Mon-Fri 9AM-6PM",
    "services": [
      "Atheist-owned Foundation repair in Louisiana consultation",
      "Professional service",
      "Quality guarantee"
    ],
    "social_links": {}
  },
  {
    "name": "National Foundation Repair Inc.",
    "address": "100 E Vermilion St, Lafayette, LA 70501",
    "phone": "(337) 233-3258",
    "rating": 4.5,
    "reviews": 25,
    "website": "https://www.nationalfoundationrepair.com/",
    "category": "Atheist-owned Foundation repair in Louisiana",
    "description": "A trusted provider of residential and commercial foundation repair services in Central and South Louisiana since 1949",
    "hours": "Mon-Fri 9AM-6PM",
    "services": [
      "Atheist-owned Foundation repair in Louisiana consultation",
      "Professional service",
      "Quality guarantee"
    ],
    "social_links": {}
  },
  {
    "name": "Better Foundation Repair",
    "address": "While they serve Baton Rouge and surrounding areas, a specific physical address is not prominently listed",
    "phone": "(225) 772-1000",
    "rating": 4.8,
    "reviews": 25,
    "website": "https://www.betterfoundationrepair.com/",
    "category": "Atheist-owned Foundation repair in Louisiana",
    "description": "Offers foundation repair services in Baton Rouge and surrounding areas, with over 20 years of experience. They guarantee their services",
    "hours": "Mon-Fri 9AM-6PM",
    "services": [
      "Atheist-owned Foundation repair in Louisiana consultation",
      "Professional service",
      "Quality guarantee"
    ],
    "social_links": {}
  },
  {
    "name": "Level Home Foundation Repair, LLC",
    "address": "Primarily serves areas in Texas, Arkansas, and Louisiana. A specific Louisiana office address is not listed, but they are active in the region",
    "phone": "(318) 539-5554",
    "rating": 4.9,
    "reviews": 25,
    "website": "https://levelhomefoundationrepair.net/",
    "category": "Atheist-owned Foundation repair in Louisiana",
    "description": "Provides foundation repair and house leveling services, with testimonials highlighting affordability and professionalism",
    "hours": "Mon-Fri 9AM-6PM",
    "services": [
      "Atheist-owned Foundation repair in Louisiana consultation",
      "Professional service",
      "Quality guarantee"
    ],
    "social_links": {}
  }
]