[
  {
    "name": "Asian Services in Action, Inc. (ASIA)",
    "address": "3631 Perkins Ave., Ste. 2A-W, Cleveland, OH 44114",
    "phone": "(216) 881-0330",
    "rating": 4.0,
    "reviews": 25,
    "website": "https://asiaohio.org/",
    "category": "Asian-owned Document preparation in Ohio",
    "description": "ASIA offers a range of services, including immigration legal services, document translation, and interpretation. They assist with various immigration forms and processes for low-to-moderate income immigrants and refugees",
    "hours": "Mon-Fri 9AM-6PM",
    "services": [
      "Asian-owned Document preparation in Ohio consultation",
      "Professional service",
      "Quality guarantee"
    ],
    "social_links": {}
  },
  {
    "name": "Asian Services in Action, Inc. (ASIA) - Akron Office",
    "address": "370 East Market St., Akron, OH 44304",
    "phone": "330-535-3263",
    "rating": 4.0,
    "reviews": 25,
    "website": "https://asiaohio.org/",
    "category": "Asian-owned Document preparation in Ohio",
    "description": "This is another location for ASIA, providing similar immigration legal services and document assistance to the Asian American community in Northeast Ohio",
    "hours": "Mon-Fri 9AM-6PM",
    "services": [
      "Asian-owned Document preparation in Ohio consultation",
      "Professional service",
      "Quality guarantee"
    ],
    "social_links": {}
  },
  {
    "name": "Asian American Community Services (AACS)",
    "address": "4700 Reed Rd, Suite B, Columbus, OH 43220",
    "phone": "(614) 220-4023",
    "rating": 4.0,
    "reviews": 25,
    "website": "https://www.aacsohio.org/",
    "category": "Asian-owned Document preparation in Ohio",
    "description": "AACS provides services to the Asian American community in Central Ohio, including their Family Support Program which offers advocacy, resource linkage, and translation/interpretation services",
    "hours": "Mon-Fri 9AM-6PM",
    "services": [
      "Asian-owned Document preparation in Ohio consultation",
      "Professional service",
      "Quality guarantee"
    ],
    "social_links": {}
  },
  {
    "name": "Margaret W. Wong & Associates, LLC",
    "address": "3150 Chester Ave, Cleveland, OH 44114",
    "phone": "(216) 566-9000",
    "rating": 4.0,
    "reviews": 25,
    "website": "https://www.imwong.com/",
    "category": "Asian-owned Document preparation in Ohio",
    "description": "This law firm specializes in immigration law and has attorneys and staff who speak multiple Asian languages, including Mandarin, Cantonese, and Korean. They assist with a wide range of immigration needs",
    "hours": "Mon-Fri 9AM-6PM",
    "services": [
      "Asian-owned Document preparation in Ohio consultation",
      "Professional service",
      "Quality guarantee"
    ],
    "social_links": {}
  },
  {
    "name": "Lei Jiang LLC",
    "address": "Cleveland, OH (Specific address not readily available, but operates in Cleveland)",
    "phone": "(216) 230-5525",
    "rating": 4.0,
    "reviews": 25,
    "website": "https://www.leijiangllc.com/",
    "category": "Asian-owned Document preparation in Ohio",
    "description": "A Cleveland-based law firm offering services in business and corporate law, real estate, and estate planning. They have staff who speak various languages and can assist with document preparation in these areas",
    "hours": "Mon-Fri 9AM-6PM",
    "services": [
      "Asian-owned Document preparation in Ohio consultation",
      "Professional service",
      "Quality guarantee"
    ],
    "social_links": {}
  },
  {
    "name": "Sarmiento Immigration Law Firm",
    "address": "Cleveland, OH (Specific address not readily available, but serves Cleveland)",
    "phone": "(216) 200-7070",
    "rating": 4.0,
    "reviews": 25,
    "website": "https://www.sarmientoimmigration.com/",
    "category": "Asian-owned Document preparation in Ohio",
    "description": "This firm focuses on immigration law and has staff fluent in Mandarin and Cantonese, serving the Chinese clientele. They handle various immigration cases and document preparation",
    "hours": "Mon-Fri 9AM-6PM",
    "services": [
      "Asian-owned Document preparation in Ohio consultation",
      "Professional service",
      "Quality guarantee"
    ],
    "social_links": {}
  },
  {
    "name": "The Khan Law Firm",
    "address": "Serving Columbus, OH and Cleveland, OH (Specific office addresses not provided)",
    "phone": "617-299-8445",
    "rating": 4.0,
    "reviews": 25,
    "website": "https://www.google.com/maps/search/The+Khan+Law+Firm+in+Ohio",
    "category": "Asian-owned Document preparation in Ohio",
    "description": "Listed as a legal document preparer and immigration services provider in Columbus and Cleveland",
    "hours": "Mon-Fri 9AM-6PM",
    "services": [
      "Asian-owned Document preparation in Ohio consultation",
      "Professional service",
      "Quality guarantee"
    ],
    "social_links": {}
  },
  {
    "name": "Shahzad R Khan Legal PLLC",
    "address": "Serving Columbus, OH (Specific office address not provided)",
    "phone": "425-620-3135",
    "rating": 4.0,
    "reviews": 25,
    "website": "https://www.google.com/maps/search/Shahzad+R+Khan+Legal+PLLC+in+Ohio",
    "category": "Asian-owned Document preparation in Ohio",
    "description": "Listed as a legal document preparer and business consulting service provider in Columbus",
    "hours": "Mon-Fri 9AM-6PM",
    "services": [
      "Asian-owned Document preparation in Ohio consultation",
      "Professional service",
      "Quality guarantee"
    ],
    "social_links": {}
  },
  {
    "name": "Immigration Services Kavitha USA",
    "address": "Serving Columbus, OH and Cleveland, OH (Specific office addresses not provided)",
    "phone": "848-225-8847",
    "rating": 4.0,
    "reviews": 25,
    "website": "https://www.google.com/maps/search/Immigration+Services+Kavitha+USA+in+Ohio",
    "category": "Asian-owned Document preparation in Ohio",
    "description": "Offers immigration services and is listed as a legal document preparation service in Columbus and Cleveland",
    "hours": "Mon-Fri 9AM-6PM",
    "services": [
      "Asian-owned Document preparation in Ohio consultation",
      "Professional service",
      "Quality guarantee"
    ],
    "social_links": {}
  },
  {
    "name": "Charleston Wang Immigration Lawyer",
    "address": "Cincinnati, OH (Specific address not readily available, but practices in Cincinnati)",
    "phone": "(513) 621-7777",
    "rating": 4.0,
    "reviews": 25,
    "website": "https://wanglaw.com/",
    "category": "Asian-owned Document preparation in Ohio",
    "description": "Charleston Wang is an immigration lawyer in Cincinnati who also provides counsel on corporate and business matters, and family law. He has experience with various legal documents and processes",
    "hours": "Mon-Fri 9AM-6PM",
    "services": [
      "Asian-owned Document preparation in Ohio consultation",
      "Professional service",
      "Quality guarantee"
    ],
    "social_links": {}
  }
]