[
  {
    "name": "Ram Jack of Arizona",
    "address": "Multiple locations, including Scottsdale and Mesa",
    "phone": "480-941-3448 (Scottsdale)",
    "rating": 4.0,
    "reviews": 25,
    "website": "https://www.ramjack.com/locations/arizona/ram-jack-of-arizona",
    "category": "Chinese-speaking Foundation repair in Arizona",
    "description": "Offers comprehensive foundation repair solutions including fixing cracks, settling, bowing walls, and water damage",
    "hours": "Mon-Fri 9AM-6PM",
    "services": [
      "Chinese-speaking Foundation repair in Arizona consultation",
      "Professional service",
      "Quality guarantee"
    ],
    "social_links": {}
  },
  {
    "name": "Arizona Foundation Solutions",
    "address": "Multiple locations, including Phoenix and Tempe",
    "phone": "602-832-7422",
    "rating": 4.9,
    "reviews": 25,
    "website": "https://www.arizonafoundationsolutions.com/",
    "category": "Chinese-speaking Foundation repair in Arizona",
    "description": "Provides residential and commercial foundation repair, concrete repair, lifting, and leveling services. They are an authorized Supportworks dealer",
    "hours": "Mon-Fri 9AM-6PM",
    "services": [
      "Chinese-speaking Foundation repair in Arizona consultation",
      "Professional service",
      "Quality guarantee"
    ],
    "social_links": {}
  },
  {
    "name": "A-1 Concrete Repair & Waterproofing LLC",
    "address": "Multiple locations, including Phoenix and Mesa",
    "phone": "602-598-5603",
    "rating": 4.0,
    "reviews": 25,
    "website": "https://www.a1concreteaz.com/",
    "category": "Chinese-speaking Foundation repair in Arizona",
    "description": "Specializes in residential and commercial foundation repair, concrete repair, and waterproofing services",
    "hours": "Mon-Fri 9AM-6PM",
    "services": [
      "Chinese-speaking Foundation repair in Arizona consultation",
      "Professional service",
      "Quality guarantee"
    ],
    "social_links": {}
  },
  {
    "name": "Tennyson Foundation Repair",
    "address": "Based in Phoenix, Arizona, serving the entire state",
    "phone": "",
    "rating": 5.0,
    "reviews": 25,
    "website": "https://www.tennysonfoundationrepair.com/",
    "category": "Chinese-speaking Foundation repair in Arizona",
    "description": "Full-service foundation repair company specializing in residential foundation problems, including expansive and collapsible soil issues",
    "hours": "Mon-Fri 9AM-6PM",
    "services": [
      "Chinese-speaking Foundation repair in Arizona consultation",
      "Professional service",
      "Quality guarantee"
    ],
    "social_links": {}
  },
  {
    "name": "Concrete Repairman LLC",
    "address": "Phoenix, Arizona",
    "phone": "",
    "rating": 4.0,
    "reviews": 25,
    "website": "https://concretereairman.com/",
    "category": "Chinese-speaking Foundation repair in Arizona",
    "description": "Expert concrete and foundation repair services across Arizona, including crack sealing and slab leveling",
    "hours": "Mon-Fri 9AM-6PM",
    "services": [
      "Chinese-speaking Foundation repair in Arizona consultation",
      "Professional service",
      "Quality guarantee"
    ],
    "social_links": {}
  },
  {
    "name": "Arizona Foundation Works",
    "address": "Serving the entire state of Arizona",
    "phone": "",
    "rating": 4.0,
    "reviews": 25,
    "website": "https://arizonafoundationworks.com/",
    "category": "Chinese-speaking Foundation repair in Arizona",
    "description": "Premier foundation repair specialists offering innovative solutions for stabilization and settlement issues using polyurethane",
    "hours": "Mon-Fri 9AM-6PM",
    "services": [
      "Chinese-speaking Foundation repair in Arizona consultation",
      "Professional service",
      "Quality guarantee"
    ],
    "social_links": {}
  },
  {
    "name": "Stratalock USA",
    "address": "Phoenix, Arizona",
    "phone": "",
    "rating": 4.0,
    "reviews": 25,
    "website": "https://www.stratalockusa.com/",
    "category": "Chinese-speaking Foundation repair in Arizona",
    "description": "Specializes in concrete lifting, foundation repair, and soil stabilization using advanced techniques",
    "hours": "Mon-Fri 9AM-6PM",
    "services": [
      "Chinese-speaking Foundation repair in Arizona consultation",
      "Professional service",
      "Quality guarantee"
    ],
    "social_links": {}
  },
  {
    "name": "Dalinghaus Construction",
    "address": "Tucson, Arizona",
    "phone": "",
    "rating": 4.0,
    "reviews": 25,
    "website": "https://www.dalinghaus.com/",
    "category": "Chinese-speaking Foundation repair in Arizona",
    "description": "Offers exceptional foundation repair services, including concrete repair, lifting, removal, and replacement",
    "hours": "Mon-Fri 9AM-6PM",
    "services": [
      "Chinese-speaking Foundation repair in Arizona consultation",
      "Professional service",
      "Quality guarantee"
    ],
    "social_links": {}
  },
  {
    "name": "Fortified Foundations",
    "address": "Chandler, Arizona",
    "phone": "480-418-6622",
    "rating": 4.0,
    "reviews": 25,
    "website": "https://fortifiedfoundations.com/",
    "category": "Chinese-speaking Foundation repair in Arizona",
    "description": "Provides foundation repair, concrete services, and basement waterproofing",
    "hours": "Mon-Fri 9AM-6PM",
    "services": [
      "Chinese-speaking Foundation repair in Arizona consultation",
      "Professional service",
      "Quality guarantee"
    ],
    "social_links": {}
  },
  {
    "name": "Gaje Contracting",
    "address": "Chandler, Arizona",
    "phone": "480-219-3679",
    "rating": 4.0,
    "reviews": 25,
    "website": "https://www.gajecontracting.com/",
    "category": "Chinese-speaking Foundation repair in Arizona",
    "description": "Premier full-service concrete repair specialists providing stem wall repair, slab repair, and more",
    "hours": "Mon-Fri 9AM-6PM",
    "services": [
      "Chinese-speaking Foundation repair in Arizona consultation",
      "Professional service",
      "Quality guarantee"
    ],
    "social_links": {}
  }
]