[
  {
    "name": "European Wax Center - Kansas City - Zona Rosa",
    "address": "8526 NW Prairie View Road, Kansas City, MO 64153",
    "phone": "(816) 216-1950",
    "rating": 4.5,
    "reviews": 25,
    "website": "https://www.waxcenter.com/ks-kansas-city-zona-rosa",
    "category": "Arabic-speaking Waxing in Kansas",
    "description": "Offers a full range of waxing services for men and women, including Brazilian, bikini, full body, eyebrow, and facial waxing. They emphasize a comfortable and inclusive experience",
    "hours": "Mon-Fri 9AM-6PM",
    "services": [
      "Arabic-speaking Waxing in Kansas consultation",
      "Professional service",
      "Quality guarantee"
    ],
    "social_links": {}
  },
  {
    "name": "European Wax Center - Kansas City - Liberty",
    "address": "10432 NE Cookingham Road, Kansas City, MO 64157",
    "phone": "(816) 648-0006",
    "rating": 4.5,
    "reviews": 25,
    "website": "https://www.waxcenter.com/ks-kansas-city-liberty",
    "category": "Arabic-speaking Waxing in Kansas",
    "description": "Similar to the Zona Rosa location, this center provides professional waxing services for all genders, focusing on smooth skin and a positive client experience",
    "hours": "Mon-Fri 9AM-6PM",
    "services": [
      "Arabic-speaking Waxing in Kansas consultation",
      "Professional service",
      "Quality guarantee"
    ],
    "social_links": {}
  },
  {
    "name": "European Wax Center - Prairie Village",
    "address": "7604 State Line Road, Prairie Village, KS 66208",
    "phone": "(913) 322-0000",
    "rating": 4.5,
    "reviews": 25,
    "website": "https://www.waxcenter.com/ks-prairie-village",
    "category": "Arabic-speaking Waxing in Kansas",
    "description": "This location offers a comprehensive menu of waxing treatments, from brows to full body, with a commitment to hygiene and client satisfaction",
    "hours": "Mon-Fri 9AM-6PM",
    "services": [
      "Arabic-speaking Waxing in Kansas consultation",
      "Professional service",
      "Quality guarantee"
    ],
    "social_links": {}
  },
  {
    "name": "European Wax Center - Leawood",
    "address": "11831 Roe Ave, Leawood, KS 66211",
    "phone": "(913) 948-5552",
    "rating": 4.5,
    "reviews": 25,
    "website": "https://www.waxcenter.com/ks-leawood",
    "category": "Arabic-speaking Waxing in Kansas",
    "description": "Known for its professional estheticians and a wide array of waxing services, this center aims to provide a comfortable and effective hair removal experience",
    "hours": "Mon-Fri 9AM-6PM",
    "services": [
      "Arabic-speaking Waxing in Kansas consultation",
      "Professional service",
      "Quality guarantee"
    ],
    "social_links": {}
  },
  {
    "name": "European Wax Center - Olathe",
    "address": "11987 S. Black Bob Road, Olathe, KS 66062",
    "phone": "(913) 246-0300",
    "rating": 4.5,
    "reviews": 25,
    "website": "https://www.waxcenter.com/ks-olathe",
    "category": "Arabic-speaking Waxing in Kansas",
    "description": "This European Wax Center location offers specialized waxing services, including bikini, Brazilian, and facial waxing, with a focus on smooth, lasting results",
    "hours": "Mon-Fri 9AM-6PM",
    "services": [
      "Arabic-speaking Waxing in Kansas consultation",
      "Professional service",
      "Quality guarantee"
    ],
    "social_links": {}
  },
  {
    "name": "The Glam Room",
    "address": "304 W 8th Street, Kansas City, MO 64105",
    "phone": "(816) 605-1949",
    "rating": 4.7,
    "reviews": 25,
    "website": "https://www.theglamroomkc.com/",
    "category": "Arabic-speaking Waxing in Kansas",
    "description": "A popular salon in Kansas City offering various body waxing services, including bikini, Brazilian, back, legs, underarms, and facial waxing, performed by professional estheticians",
    "hours": "Mon-Fri 9AM-6PM",
    "services": [
      "Arabic-speaking Waxing in Kansas consultation",
      "Professional service",
      "Quality guarantee"
    ],
    "social_links": {}
  },
  {
    "name": "Hello Sugar - MO Kansas City | Crossroads",
    "address": "441 E. 19th St, Suites 928 & 929, Kansas City, MO 64108",
    "phone": "(816) 203-1567 (text for receptionist)",
    "rating": 4.8,
    "reviews": 25,
    "website": "https://hellosugar.com/locations/kansas-city-crossroads/",
    "category": "Arabic-speaking Waxing in Kansas",
    "description": "This salon specializes in Brazilian and full body waxing using both regular and sugar wax for men and women. They also offer other skin treatments",
    "hours": "Mon-Fri 9AM-6PM",
    "services": [
      "Arabic-speaking Waxing in Kansas consultation",
      "Professional service",
      "Quality guarantee"
    ],
    "social_links": {}
  },
  {
    "name": "The Grove Spa & Boutique",
    "address": "(Specific address not readily available, but located in Kansas City)",
    "phone": "",
    "rating": 4.6,
    "reviews": 25,
    "website": "https://www.thegrovespa.com/",
    "category": "Arabic-speaking Waxing in Kansas",
    "description": "Offers a range of body waxing services, including bikini, Brazilian, facial, arm, leg, and underarm waxing, using high-quality products",
    "hours": "Mon-Fri 9AM-6PM",
    "services": [
      "Arabic-speaking Waxing in Kansas consultation",
      "Professional service",
      "Quality guarantee"
    ],
    "social_links": {}
  },
  {
    "name": "Elysian Salon and Spa",
    "address": "13312 W. 87th Street Pkwy, Lenexa, KS 66215",
    "phone": "913-499-8081",
    "rating": 4.7,
    "reviews": 25,
    "website": "https://www.elysiansalonandspa.com/",
    "category": "Arabic-speaking Waxing in Kansas",
    "description": "A full-service salon providing professional hair, nail, waxing, and skincare services. They focus on client education and a positive experience",
    "hours": "Mon-Fri 9AM-6PM",
    "services": [
      "Arabic-speaking Waxing in Kansas consultation",
      "Professional service",
      "Quality guarantee"
    ],
    "social_links": {}
  },
  {
    "name": "In The Pink",
    "address": "(Specific address not readily available, but located in Prairie Village)",
    "phone": "",
    "rating": 4.8,
    "reviews": 25,
    "website": "https://www.inthepinks.com/",
    "category": "Arabic-speaking Waxing in Kansas",
    "description": "A premiere waxing and skin care studio offering various waxing treatments and advanced skincare services, including HydraFacials and brow/lash tinting",
    "hours": "Mon-Fri 9AM-6PM",
    "services": [
      "Arabic-speaking Waxing in Kansas consultation",
      "Professional service",
      "Quality guarantee"
    ],
    "social_links": {}
  }
]