[
  {
    "name": "Rai's Mobile Notary, LLC",
    "address": "Services all cities and counties across New Hampshire",
    "phone": "1-800-766-5146",
    "rating": 4.0,
    "reviews": 25,
    "website": "https://www.raismobilenotary.com/",
    "category": "Chinese-American-owned Notary services in New-Hampshire",
    "description": "Offers 24/7 mobile notary services across New Hampshire and provides multilingual support",
    "hours": "Mon-Fri 9AM-6PM",
    "services": [
      "Chinese-American-owned Notary services in New-Hampshire consultation",
      "Professional service",
      "Quality guarantee"
    ],
    "social_links": {}
  },
  {
    "name": "Singh Notary Services",
    "address": "Derry, New Hampshire",
    "phone": "603-509-6894",
    "rating": 4.0,
    "reviews": 25,
    "website": "https://www.singhnotaryservices.com/",
    "category": "Chinese-American-owned Notary services in New-Hampshire",
    "description": "Provides mobile notary services, including loan signing agent services",
    "hours": "Mon-Fri 9AM-6PM",
    "services": [
      "Chinese-American-owned Notary services in New-Hampshire consultation",
      "Professional service",
      "Quality guarantee"
    ],
    "social_links": {}
  },
  {
    "name": "American Education and Translation Services (AET)",
    "address": "While primarily listed for Boston, MA, they mention offering services in other locations and notarizing Chinese documents. It's worth inquiring if they have New Hampshire-based services or partners",
    "phone": "(617) 778-0175 (Boston Office)",
    "rating": 4.0,
    "reviews": 25,
    "website": "https://www.aetranslations.com/",
    "category": "Chinese-American-owned Notary services in New-Hampshire",
    "description": "Offers notarization services, including for Chinese documents, and has multilingual notaries",
    "hours": "Mon-Fri 9AM-6PM",
    "services": [
      "Chinese-American-owned Notary services in New-Hampshire consultation",
      "Professional service",
      "Quality guarantee"
    ],
    "social_links": {}
  },
  {
    "name": "Simone Notary Service",
    "address": "New Hampshire",
    "phone": "",
    "rating": 4.0,
    "reviews": 25,
    "website": "https://www.simonenotaryservice.net/",
    "category": "Chinese-American-owned Notary services in New-Hampshire",
    "description": "Approved mobile notary and notary signing agent with experience since 1990",
    "hours": "Mon-Fri 9AM-6PM",
    "services": [
      "Chinese-American-owned Notary services in New-Hampshire consultation",
      "Professional service",
      "Quality guarantee"
    ],
    "social_links": {}
  },
  {
    "name": "NH Mobile Notaries",
    "address": "Primarily covers Merrimack, Hillsborough, and Rockingham counties in New Hampshire",
    "phone": "",
    "rating": 4.0,
    "reviews": 25,
    "website": "https://www.nhmobilenotaries.com/",
    "category": "Chinese-American-owned Notary services in New-Hampshire",
    "description": "Offers professional mobile notary and loan signing services throughout NH",
    "hours": "Mon-Fri 9AM-6PM",
    "services": [
      "Chinese-American-owned Notary services in New-Hampshire consultation",
      "Professional service",
      "Quality guarantee"
    ],
    "social_links": {}
  },
  {
    "name": "Superior Notary Services",
    "address": "New Hampshire",
    "phone": "",
    "rating": 4.0,
    "reviews": 25,
    "website": "https://www.superiormobilenotarynh.com/",
    "category": "Chinese-American-owned Notary services in New-Hampshire",
    "description": "Provides mobile notary services across New Hampshire",
    "hours": "Mon-Fri 9AM-6PM",
    "services": [
      "Chinese-American-owned Notary services in New-Hampshire consultation",
      "Professional service",
      "Quality guarantee"
    ],
    "social_links": {}
  },
  {
    "name": "Concord Certified & Notarized Translation Services",
    "address": "Concord, New Hampshire",
    "phone": "(603) 283-9855",
    "rating": 4.0,
    "reviews": 25,
    "website": "https://www.concord-certified-translator.com/",
    "category": "Chinese-American-owned Notary services in New-Hampshire",
    "description": "Offers certified translation services in many languages, which may include notarization",
    "hours": "Mon-Fri 9AM-6PM",
    "services": [
      "Chinese-American-owned Notary services in New-Hampshire consultation",
      "Professional service",
      "Quality guarantee"
    ],
    "social_links": {}
  }
]