[
  {
    "name": "Simply Silk Laser Hair Removal",
    "address": "2728 Pawtucket Ave, East Providence, RI 02914",
    "phone": "(401) 438-7455",
    "rating": 4.0,
    "reviews": 25,
    "website": "http://simplysilk.com/",
    "category": "Arabic-speaking Laser hair removal in Rhode-Island",
    "description": "Offers laser hair removal for men and women using Quanta Pro Diode Laser technology, described as fast and affordable",
    "hours": "Mon-Fri 9AM-6PM",
    "services": [
      "Arabic-speaking Laser hair removal in Rhode-Island consultation",
      "Professional service",
      "Quality guarantee"
    ],
    "social_links": {}
  },
  {
    "name": "Anti-Aging & Laser Institute",
    "address": "1000 Reservoir Ave, Suite 207, Cranston, RI 02920",
    "phone": "(401) 464-0007",
    "rating": 4.0,
    "reviews": 25,
    "website": "https://www.antiagingandlaser.com/",
    "category": "Arabic-speaking Laser hair removal in Rhode-Island",
    "description": "Provides laser hair removal for various body areas, emphasizing customization for all skin types and safe, effective treatments",
    "hours": "Mon-Fri 9AM-6PM",
    "services": [
      "Arabic-speaking Laser hair removal in Rhode-Island consultation",
      "Professional service",
      "Quality guarantee"
    ],
    "social_links": {}
  },
  {
    "name": "Center For Medical Aesthetics",
    "address": "1000 Reservoir Ave, Suite 207, Cranston, RI 02920",
    "phone": "(401) 490-0244",
    "rating": 4.0,
    "reviews": 25,
    "website": "https://www.centerformedicalaesthetics.com/",
    "category": "Arabic-speaking Laser hair removal in Rhode-Island",
    "description": "Offers laser hair removal using advanced technology like the DIOLAZE XL laser system for safe, fast, and virtually painless permanent hair reduction",
    "hours": "Mon-Fri 9AM-6PM",
    "services": [
      "Arabic-speaking Laser hair removal in Rhode-Island consultation",
      "Professional service",
      "Quality guarantee"
    ],
    "social_links": {}
  },
  {
    "name": "SeaMist MedSpa",
    "address": "Multiple locations including 1000 Centerville Rd, Warwick, RI 02886 and 144 Long Wharf Dr, Newport, RI 02840",
    "phone": "(401) 782-2400",
    "rating": 4.0,
    "reviews": 25,
    "website": "https://www.seamistmedspa.com/",
    "category": "Arabic-speaking Laser hair removal in Rhode-Island",
    "description": "Provides laser hair removal using the Gentle Max Pro Laser, suitable for all skin types, including darker complexions",
    "hours": "Mon-Fri 9AM-6PM",
    "services": [
      "Arabic-speaking Laser hair removal in Rhode-Island consultation",
      "Professional service",
      "Quality guarantee"
    ],
    "social_links": {}
  },
  {
    "name": "DermaZenith",
    "address": "1450 Bald Hill Rd, Suite 201, Warwick, RI 02886",
    "phone": "(401) 205-0022",
    "rating": 4.0,
    "reviews": 25,
    "website": "https://www.dermazenith.com/",
    "category": "Arabic-speaking Laser hair removal in Rhode-Island",
    "description": "A medical spa specializing in non-invasive technologies including DiolazeXL laser hair removal, described as fast, safe, and virtually painless",
    "hours": "Mon-Fri 9AM-6PM",
    "services": [
      "Arabic-speaking Laser hair removal in Rhode-Island consultation",
      "Professional service",
      "Quality guarantee"
    ],
    "social_links": {}
  },
  {
    "name": "Viva Medspa & Wellness",
    "address": "1000 Reservoir Ave, Suite 101, Cranston, RI 02920",
    "phone": "(401) 228-0070",
    "rating": 4.0,
    "reviews": 25,
    "website": "https://www.vivamedspa.com/",
    "category": "Arabic-speaking Laser hair removal in Rhode-Island",
    "description": "Offers laser hair removal as one of its professional hair removal treatments, focusing on long-lasting results and smooth skin",
    "hours": "Mon-Fri 9AM-6PM",
    "services": [
      "Arabic-speaking Laser hair removal in Rhode-Island consultation",
      "Professional service",
      "Quality guarantee"
    ],
    "social_links": {}
  },
  {
    "name": "Primary Walk-In Medical Center / Primary Laser Skincare",
    "address": "684 Warren Avenue, East Providence, RI 02914",
    "phone": "(401) 434-0022",
    "rating": 4.0,
    "reviews": 25,
    "website": "https://www.primarywalkin.com/laser-hair-removal",
    "category": "Arabic-speaking Laser hair removal in Rhode-Island",
    "description": "Utilizes the Cynosure Elite MPX Plus laser for permanent hair removal, suitable for all skin tones",
    "hours": "Mon-Fri 9AM-6PM",
    "services": [
      "Arabic-speaking Laser hair removal in Rhode-Island consultation",
      "Professional service",
      "Quality guarantee"
    ],
    "social_links": {}
  },
  {
    "name": "The Laser Lounge Inc.",
    "address": "3377 South County Trail, East Greenwich, RI 02818",
    "phone": "(401) 588-4330",
    "rating": 4.0,
    "reviews": 25,
    "website": "https://www.thelaserloungeri.com/",
    "category": "Arabic-speaking Laser hair removal in Rhode-Island",
    "description": "Provides laser hair removal and skin rejuvenation services using state-of-the-art technology for safety and optimal results",
    "hours": "Mon-Fri 9AM-6PM",
    "services": [
      "Arabic-speaking Laser hair removal in Rhode-Island consultation",
      "Professional service",
      "Quality guarantee"
    ],
    "social_links": {}
  },
  {
    "name": "Radiant Esthetics",
    "address": "208 Bellevue Ave, 2nd Floor, Newport, RI 02840",
    "phone": "(401) 619-3000",
    "rating": 4.0,
    "reviews": 25,
    "website": "https://www.radiantestheticsri.com/",
    "category": "Arabic-speaking Laser hair removal in Rhode-Island",
    "description": "A boutique medspa offering various laser treatments, including laser hair removal, with a focus on personalized care",
    "hours": "Mon-Fri 9AM-6PM",
    "services": [
      "Arabic-speaking Laser hair removal in Rhode-Island consultation",
      "Professional service",
      "Quality guarantee"
    ],
    "social_links": {}
  },
  {
    "name": "Coastal Derm MediSpa",
    "address": "1000 Reservoir Ave, Suite 101, Cranston, RI 02920",
    "phone": "(401) 477-5150",
    "rating": 4.0,
    "reviews": 25,
    "website": "https://www.coastaldermmedispa.com/",
    "category": "Arabic-speaking Laser hair removal in Rhode-Island",
    "description": "A dermatologist-run medispa offering a range of non-invasive facial, laser, and injectable services, including laser hair removal",
    "hours": "Mon-Fri 9AM-6PM",
    "services": [
      "Arabic-speaking Laser hair removal in Rhode-Island consultation",
      "Professional service",
      "Quality guarantee"
    ],
    "social_links": {}
  }
]