[
  {
    "name": "Star Light Consulting, LLC",
    "address": "Manassas, Virginia (Specific address not found)",
    "phone": "",
    "rating": 4.0,
    "reviews": 25,
    "website": "https://www.google.com/maps/search/Star+Light+Consulting,+LLC+in+Virginia",
    "category": "Asian-owned Internal auditing in Virginia",
    "description": "A small accounting company",
    "hours": "Mon-Fri 9AM-6PM",
    "services": [
      "Asian-owned Internal auditing in Virginia consultation",
      "Professional service",
      "Quality guarantee"
    ],
    "social_links": {}
  },
  {
    "name": "Gram Tax & Accounting",
    "address": "Not found",
    "phone": "",
    "rating": 4.9,
    "reviews": 25,
    "website": "https://www.google.com/maps/search/Gram+Tax+&+Accounting+in+Virginia",
    "category": "Asian-owned Internal auditing in Virginia",
    "description": "Specializes in Accounting Services, Tax Preparation, and Bookkeeping. Receives high praise for responsive communication and expert tax planning",
    "hours": "Mon-Fri 9AM-6PM",
    "services": [
      "Asian-owned Internal auditing in Virginia consultation",
      "Professional service",
      "Quality guarantee"
    ],
    "social_links": {}
  },
  {
    "name": "SmartBean\u00ae Bookkeeping",
    "address": "Not found",
    "phone": "",
    "rating": 5.0,
    "reviews": 25,
    "website": "https://www.google.com/maps/search/SmartBean\u00ae+Bookkeeping+in+Virginia",
    "category": "Asian-owned Internal auditing in Virginia",
    "description": "Provides comprehensive bookkeeping and financial services, known for exceptional communication and transparency",
    "hours": "Mon-Fri 9AM-6PM",
    "services": [
      "Asian-owned Internal auditing in Virginia consultation",
      "Professional service",
      "Quality guarantee"
    ],
    "social_links": {}
  },
  {
    "name": "FedSync Bei LLC",
    "address": "Alexandria, Virginia (Specific address not found)",
    "phone": "",
    "rating": 4.0,
    "reviews": 25,
    "website": "https://www.google.com/maps/search/FedSync+Bei+LLC+in+Virginia",
    "category": "Asian-owned Internal auditing in Virginia",
    "description": "A Cybersecurity and Accounting company",
    "hours": "Mon-Fri 9AM-6PM",
    "services": [
      "Asian-owned Internal auditing in Virginia consultation",
      "Professional service",
      "Quality guarantee"
    ],
    "social_links": {}
  },
  {
    "name": "SK Universal Tax & Consulting CPA PLC",
    "address": "Not found",
    "phone": "",
    "rating": 4.0,
    "reviews": 25,
    "website": "https://www.google.com/maps/search/SK+Universal+Tax+&+Consulting+CPA+PLC+in+Virginia",
    "category": "Asian-owned Internal auditing in Virginia",
    "description": "Provides Accounting and IT managed services",
    "hours": "Mon-Fri 9AM-6PM",
    "services": [
      "Asian-owned Internal auditing in Virginia consultation",
      "Professional service",
      "Quality guarantee"
    ],
    "social_links": {}
  },
  {
    "name": "Kaya & Co LLC",
    "address": "Fairfax, VA (Specific address not found)",
    "phone": "",
    "rating": 4.0,
    "reviews": 25,
    "website": "https://kayacollc.com/",
    "category": "Asian-owned Internal auditing in Virginia",
    "description": "A full-service tax, accounting, and business consulting firm",
    "hours": "Mon-Fri 9AM-6PM",
    "services": [
      "Asian-owned Internal auditing in Virginia consultation",
      "Professional service",
      "Quality guarantee"
    ],
    "social_links": {}
  },
  {
    "name": "Kang & Thomas LLC",
    "address": "11130 Fairfax Boulevard, Fairfax, Virginia",
    "phone": "(703) 256-2580",
    "rating": 4.0,
    "reviews": 25,
    "website": "https://www.google.com/maps/search/Kang+&+Thomas+LLC+in+Virginia",
    "category": "Asian-owned Internal auditing in Virginia",
    "description": "A full-service accounting firm serving business owners, individuals, and independent professionals",
    "hours": "Mon-Fri 9AM-6PM",
    "services": [
      "Asian-owned Internal auditing in Virginia consultation",
      "Professional service",
      "Quality guarantee"
    ],
    "social_links": {}
  },
  {
    "name": "Sri Bookkeeping Services LL",
    "address": "Leesburg, VA 20175-8909",
    "phone": "(571) 293-2354",
    "rating": 4.0,
    "reviews": 25,
    "website": "https://www.google.com/maps/search/Sri+Bookkeeping+Services+LL+in+Virginia",
    "category": "Asian-owned Internal auditing in Virginia",
    "description": "A bookkeeping service",
    "hours": "Mon-Fri 9AM-6PM",
    "services": [
      "Asian-owned Internal auditing in Virginia consultation",
      "Professional service",
      "Quality guarantee"
    ],
    "social_links": {}
  },
  {
    "name": "MoxieIT Solutions Inc",
    "address": "44025 Pipeline Plaza Suite 110, Ashburn VA 20147-5881",
    "phone": "(703) 763-0777",
    "rating": 4.0,
    "reviews": 25,
    "website": "https://www.google.com/maps/search/MoxieIT+Solutions+Inc+in+Virginia",
    "category": "Asian-owned Internal auditing in Virginia",
    "description": "An IT solutions company",
    "hours": "Mon-Fri 9AM-6PM",
    "services": [
      "Asian-owned Internal auditing in Virginia consultation",
      "Professional service",
      "Quality guarantee"
    ],
    "social_links": {}
  },
  {
    "name": "iQuasar LLC",
    "address": "6 Pidgeon Hill Drive Suite 305, Sterling VA 20165",
    "phone": "(703) 962-6001",
    "rating": 4.0,
    "reviews": 25,
    "website": "https://www.google.com/maps/search/iQuasar+LLC+in+Virginia",
    "category": "Asian-owned Internal auditing in Virginia",
    "description": "An IT solutions company",
    "hours": "Mon-Fri 9AM-6PM",
    "services": [
      "Asian-owned Internal auditing in Virginia consultation",
      "Professional service",
      "Quality guarantee"
    ],
    "social_links": {}
  }
]