[
  {
    "name": "IBP of Nashville",
    "address": "1010 Grassmere Park, Nashville, TN 37211",
    "phone": "(615) 244-9420",
    "rating": 4.0,
    "reviews": 25,
    "website": "https://www.installedbuildingproducts.com/locations/nashville/",
    "category": "Baby-Boomer-owned Insulation in Tennessee",
    "description": "Offers fiberglass and spray foam insulation for residential and commercial projects",
    "hours": "Mon-Fri 9AM-6PM",
    "services": [
      "Baby-Boomer-owned Insulation in Tennessee consultation",
      "Professional service",
      "Quality guarantee"
    ],
    "social_links": {}
  },
  {
    "name": "Koala Insulation of Nashville",
    "address": "5000 Overlook Dr, Nashville, TN 37209",
    "phone": "(615) 783-1111",
    "rating": 4.0,
    "reviews": 25,
    "website": "https://www.koalainsulation.com/locations/nashville/",
    "category": "Baby-Boomer-owned Insulation in Tennessee",
    "description": "Provides insulation services to keep homes comfortable year-round, serving Nashville, Brentwood, and Franklin",
    "hours": "Mon-Fri 9AM-6PM",
    "services": [
      "Baby-Boomer-owned Insulation in Tennessee consultation",
      "Professional service",
      "Quality guarantee"
    ],
    "social_links": {}
  },
  {
    "name": "Complete Insulation",
    "address": "3000 Sidco Dr, Nashville, TN 37204",
    "phone": "(615) 933-4444",
    "rating": 4.0,
    "reviews": 25,
    "website": "https://completeinsulationtn.com/",
    "category": "Baby-Boomer-owned Insulation in Tennessee",
    "description": "Specializes in insulation installation, removal, and crawl space encapsulation",
    "hours": "Mon-Fri 9AM-6PM",
    "services": [
      "Baby-Boomer-owned Insulation in Tennessee consultation",
      "Professional service",
      "Quality guarantee"
    ],
    "social_links": {}
  },
  {
    "name": "31-W Insulation",
    "address": "Multiple locations, including 118 Flat Ridge Road, Goodlettsville, TN 37072",
    "phone": "(615) 859-8946 (Goodlettsville location)",
    "rating": 4.0,
    "reviews": 25,
    "website": "https://www.31w.com/",
    "category": "Baby-Boomer-owned Insulation in Tennessee",
    "description": "Offers insulation, bath accessories, garage doors, gutters, and other home remodeling materials",
    "hours": "Mon-Fri 9AM-6PM",
    "services": [
      "Baby-Boomer-owned Insulation in Tennessee consultation",
      "Professional service",
      "Quality guarantee"
    ],
    "social_links": {}
  },
  {
    "name": "Mid South Insulation",
    "address": "506 Sage Road, White House, TN 37188",
    "phone": "(615) 672-0752",
    "rating": 4.0,
    "reviews": 25,
    "website": "https://midsouthinsulation.com/",
    "category": "Baby-Boomer-owned Insulation in Tennessee",
    "description": "A family-owned and operated contractor for residential and commercial insulation projects since 1989",
    "hours": "Mon-Fri 9AM-6PM",
    "services": [
      "Baby-Boomer-owned Insulation in Tennessee consultation",
      "Professional service",
      "Quality guarantee"
    ],
    "social_links": {}
  },
  {
    "name": "Mullins Company",
    "address": "2009 East Stone Drive, Kingsport, TN 37660",
    "phone": "(423) 247-3101",
    "rating": 4.0,
    "reviews": 25,
    "website": "https://mullinscompany.com/",
    "category": "Baby-Boomer-owned Insulation in Tennessee",
    "description": "Installs spray foam insulation, fiberglass insulation, acoustical ceilings, and wall panels",
    "hours": "Mon-Fri 9AM-6PM",
    "services": [
      "Baby-Boomer-owned Insulation in Tennessee consultation",
      "Professional service",
      "Quality guarantee"
    ],
    "social_links": {}
  },
  {
    "name": "Insulation Supply Company of Nashville",
    "address": "1315 3rd Ave S, Nashville, TN 37210",
    "phone": "(615) 255-0123",
    "rating": 4.0,
    "reviews": 25,
    "website": "https://insulationsupplytn.com/",
    "category": "Baby-Boomer-owned Insulation in Tennessee",
    "description": "A family-owned and operated distributor for commercial, industrial, HVAC, and sound insulation",
    "hours": "Mon-Fri 9AM-6PM",
    "services": [
      "Baby-Boomer-owned Insulation in Tennessee consultation",
      "Professional service",
      "Quality guarantee"
    ],
    "social_links": {}
  },
  {
    "name": "Massey Insulation",
    "address": "Information not readily available for a specific address, but operates in the Nashville area",
    "phone": "(615) 474-1070",
    "rating": 4.0,
    "reviews": 25,
    "website": "https://www.google.com/maps/search/Massey+Insulation+in+Tennessee",
    "category": "Baby-Boomer-owned Insulation in Tennessee",
    "description": "Specializes in various types of insulation installation, including batt, spray foam, and drill and fill",
    "hours": "Mon-Fri 9AM-6PM",
    "services": [
      "Baby-Boomer-owned Insulation in Tennessee consultation",
      "Professional service",
      "Quality guarantee"
    ],
    "social_links": {}
  },
  {
    "name": "iFOAM of Southwest Nashville",
    "address": "7000 Moonglow Dr, Nashville, TN 37209",
    "phone": "(615) 840-0000",
    "rating": 4.0,
    "reviews": 25,
    "website": "https://www.ifOAM.com/locations/nashville/",
    "category": "Baby-Boomer-owned Insulation in Tennessee",
    "description": "Specializes in spray foam insulation and offers blown-in solutions, insulation removal, and retrofitting",
    "hours": "Mon-Fri 9AM-6PM",
    "services": [
      "Baby-Boomer-owned Insulation in Tennessee consultation",
      "Professional service",
      "Quality guarantee"
    ],
    "social_links": {}
  },
  {
    "name": "Hayes Insulation Nashville",
    "address": "1010 Grassmere Park, Nashville, TN 37211 (Shares address with IBP of Nashville, suggesting a potential affiliation or shared facility)",
    "phone": "(615) 810-1000",
    "rating": 4.0,
    "reviews": 25,
    "website": "https://www.hayesinsulationnashville.com/",
    "category": "Baby-Boomer-owned Insulation in Tennessee",
    "description": "Offers insulation services for new homes, existing homes, and commercial properties, focusing on energy efficiency",
    "hours": "Mon-Fri 9AM-6PM",
    "services": [
      "Baby-Boomer-owned Insulation in Tennessee consultation",
      "Professional service",
      "Quality guarantee"
    ],
    "social_links": {}
  }
]