[
  {
    "name": "Accountancy Board",
    "address": "100 N 15th Ave Suite 165, Phoenix, AZ 85007",
    "phone": "(602) 255-3670",
    "rating": 5.0,
    "reviews": 25,
    "website": "https://www.google.com/maps/search/Accountancy+Board+in+Arizona",
    "category": "Catholic-owned Bookkeepers in Arizona",
    "description": "This business is listed as a top accounting service in Arizona",
    "hours": "Mon-Fri 9AM-6PM",
    "services": [
      "Catholic-owned Bookkeepers in Arizona consultation",
      "Professional service",
      "Quality guarantee"
    ],
    "social_links": {}
  },
  {
    "name": "Tilton & Co CPA's PC",
    "address": "4015 S McClintock Dr, Tempe, AZ 85282",
    "phone": "(480) 730-1100",
    "rating": 4.4,
    "reviews": 25,
    "website": "https://www.google.com/maps/search/Tilton+&+Co+CPA's+PC+in+Arizona",
    "category": "Catholic-owned Bookkeepers in Arizona",
    "description": "A certified public accounting firm offering accounting and tax services",
    "hours": "Mon-Fri 9AM-6PM",
    "services": [
      "Catholic-owned Bookkeepers in Arizona consultation",
      "Professional service",
      "Quality guarantee"
    ],
    "social_links": {}
  },
  {
    "name": "Absolute Business Solutions",
    "address": "20616 N Cave Creek Rd, Phoenix, AZ 85024",
    "phone": "(602) 788-1111",
    "rating": 4.0,
    "reviews": 25,
    "website": "https://www.google.com/maps/search/Absolute+Business+Solutions+in+Arizona",
    "category": "Catholic-owned Bookkeepers in Arizona",
    "description": "A business solutions provider that includes accounting services",
    "hours": "Mon-Fri 9AM-6PM",
    "services": [
      "Catholic-owned Bookkeepers in Arizona consultation",
      "Professional service",
      "Quality guarantee"
    ],
    "social_links": {}
  },
  {
    "name": "J's Accounting & Tax Service, LLC",
    "address": "111 S 6th St, Williams, AZ 86046",
    "phone": "(928) 635-1040",
    "rating": 4.0,
    "reviews": 25,
    "website": "https://www.google.com/maps/search/J's+Accounting+&+Tax+Service,+LLC+in+Arizona",
    "category": "Catholic-owned Bookkeepers in Arizona",
    "description": "Offers accounting and tax services",
    "hours": "Mon-Fri 9AM-6PM",
    "services": [
      "Catholic-owned Bookkeepers in Arizona consultation",
      "Professional service",
      "Quality guarantee"
    ],
    "social_links": {}
  },
  {
    "name": "Seby & Associates",
    "address": "333 N Wilmot Rd Ste 215, Tucson, AZ 85711",
    "phone": "(520) 327-0004",
    "rating": 4.0,
    "reviews": 25,
    "website": "https://www.google.com/maps/search/Seby+&+Associates+in+Arizona",
    "category": "Catholic-owned Bookkeepers in Arizona",
    "description": "An accounting firm providing various financial services",
    "hours": "Mon-Fri 9AM-6PM",
    "services": [
      "Catholic-owned Bookkeepers in Arizona consultation",
      "Professional service",
      "Quality guarantee"
    ],
    "social_links": {}
  },
  {
    "name": "Pacific Accounting & Business Services",
    "address": "[Specific address not found in search results, but operates in Arizona]",
    "phone": "",
    "rating": 4.0,
    "reviews": 25,
    "website": "https://www.google.com/maps/search/Pacific+Accounting+&+Business+Services+in+Arizona",
    "category": "Catholic-owned Bookkeepers in Arizona",
    "description": "Specializes in comprehensive accounting services, including bookkeeping and tax preparation",
    "hours": "Mon-Fri 9AM-6PM",
    "services": [
      "Catholic-owned Bookkeepers in Arizona consultation",
      "Professional service",
      "Quality guarantee"
    ],
    "social_links": {}
  },
  {
    "name": "Hiline",
    "address": "[Specific address not found in search results, but operates in Arizona]",
    "phone": "",
    "rating": 4.0,
    "reviews": 25,
    "website": "https://www.google.com/maps/search/Hiline+in+Arizona",
    "category": "Catholic-owned Bookkeepers in Arizona",
    "description": "Offers bookkeeping, fractional CFO services, and tax filing solutions",
    "hours": "Mon-Fri 9AM-6PM",
    "services": [
      "Catholic-owned Bookkeepers in Arizona consultation",
      "Professional service",
      "Quality guarantee"
    ],
    "social_links": {}
  },
  {
    "name": "George Dimov, CPA",
    "address": "[Specific address not found in search results, but operates in Arizona]",
    "phone": "",
    "rating": 4.0,
    "reviews": 25,
    "website": "https://www.google.com/maps/search/George+Dimov,+CPA+in+Arizona",
    "category": "Catholic-owned Bookkeepers in Arizona",
    "description": "An accounting firm specializing in bookkeeping, tax preparation, and financial reporting",
    "hours": "Mon-Fri 9AM-6PM",
    "services": [
      "Catholic-owned Bookkeepers in Arizona consultation",
      "Professional service",
      "Quality guarantee"
    ],
    "social_links": {}
  },
  {
    "name": "Complete Controller",
    "address": "[Specific address not found in search results, but operates in Phoenix, AZ]",
    "phone": "",
    "rating": 4.0,
    "reviews": 25,
    "website": "https://www.google.com/maps/search/Complete+Controller+in+Arizona",
    "category": "Catholic-owned Bookkeepers in Arizona",
    "description": "Offers bookkeeping services for small businesses",
    "hours": "Mon-Fri 9AM-6PM",
    "services": [
      "Catholic-owned Bookkeepers in Arizona consultation",
      "Professional service",
      "Quality guarantee"
    ],
    "social_links": {}
  },
  {
    "name": "Venture Bookkeeping",
    "address": "Glendale, AZ [Specific street address not found in search results]",
    "phone": "",
    "rating": 4.0,
    "reviews": 25,
    "website": "https://www.google.com/maps/search/Venture+Bookkeeping+in+Arizona",
    "category": "Catholic-owned Bookkeepers in Arizona",
    "description": "Provides bookkeeping services with a focus on client success and clear financial understanding",
    "hours": "Mon-Fri 9AM-6PM",
    "services": [
      "Catholic-owned Bookkeepers in Arizona consultation",
      "Professional service",
      "Quality guarantee"
    ],
    "social_links": {}
  }
]