[
  {
    "name": "Tran Singh LLP",
    "address": "Houston, TX (Specific address not provided in search results)",
    "phone": "(832) 975-7000",
    "rating": 4.0,
    "reviews": 25,
    "website": "https://transinghillp.com/",
    "category": "Asian-owned Bankruptcy law in Texas",
    "description": "Founded by Susan Tran Adams, a second-generation American of Chinese and Vietnamese descent, this firm specializes in bankruptcy and debt relief for individuals and businesses",
    "hours": "Mon-Fri 9AM-6PM",
    "services": [
      "Asian-owned Bankruptcy law in Texas consultation",
      "Professional service",
      "Quality guarantee"
    ],
    "social_links": {}
  },
  {
    "name": "Law Office of Andy Nguyen, PLLC",
    "address": "Arlington, TX (Specific address not provided in search results)",
    "phone": "(817) 704-3303",
    "rating": 4.0,
    "reviews": 25,
    "website": "https://www.andynguyenlaw.com/",
    "category": "Asian-owned Bankruptcy law in Texas",
    "description": "This firm, led by Andy Nguyen, offers bankruptcy services, including Chapter 7, and speaks English, Vietnamese, and Spanish",
    "hours": "Mon-Fri 9AM-6PM",
    "services": [
      "Asian-owned Bankruptcy law in Texas consultation",
      "Professional service",
      "Quality guarantee"
    ],
    "social_links": {}
  },
  {
    "name": "The Ko Law Firm, PLLC",
    "address": "Austin, TX (Specific address not provided in search results)",
    "phone": "(512) 322-5500",
    "rating": 4.0,
    "reviews": 25,
    "website": "https://www.kolawfirm.com/",
    "category": "Asian-owned Bankruptcy law in Texas",
    "description": "Ramey Ko, the principal attorney, is a Mandarin-speaking attorney who serves individuals and businesses, including those in the Asian community",
    "hours": "Mon-Fri 9AM-6PM",
    "services": [
      "Asian-owned Bankruptcy law in Texas consultation",
      "Professional service",
      "Quality guarantee"
    ],
    "social_links": {}
  },
  {
    "name": "Law Offices of SRIS, P.C.",
    "address": "Dallas, TX (Specific address not provided in search results)",
    "phone": "(504) 272-2167",
    "rating": 4.0,
    "reviews": 25,
    "website": "https://www.google.com/maps/search/Law+Offices+of+SRIS,+P.C.+in+Texas",
    "category": "Asian-owned Bankruptcy law in Texas",
    "description": "This firm is listed as providing business consulting services and is located in Dallas, TX",
    "hours": "Mon-Fri 9AM-6PM",
    "services": [
      "Asian-owned Bankruptcy law in Texas consultation",
      "Professional service",
      "Quality guarantee"
    ],
    "social_links": {}
  },
  {
    "name": "Law Offices of Susheela Verma",
    "address": "Dallas, TX (Specific address not provided in search results)",
    "phone": "",
    "rating": 4.0,
    "reviews": 25,
    "website": "https://www.google.com/maps/search/Law+Offices+of+Susheela+Verma+in+Texas",
    "category": "Asian-owned Bankruptcy law in Texas",
    "description": "This firm is listed as providing business consulting services and is located in Dallas, TX",
    "hours": "Mon-Fri 9AM-6PM",
    "services": [
      "Asian-owned Bankruptcy law in Texas consultation",
      "Professional service",
      "Quality guarantee"
    ],
    "social_links": {}
  },
  {
    "name": "Rashid Law Firm",
    "address": "Houston, TX (Specific address not provided in search results)",
    "phone": "832-209-8833",
    "rating": 4.0,
    "reviews": 25,
    "website": "https://www.stopforeclosurelaw.com/",
    "category": "Asian-owned Bankruptcy law in Texas",
    "description": "Radi Rashid is a Houston bankruptcy attorney licensed since 2009, specializing in debt relief",
    "hours": "Mon-Fri 9AM-6PM",
    "services": [
      "Asian-owned Bankruptcy law in Texas consultation",
      "Professional service",
      "Quality guarantee"
    ],
    "social_links": {}
  },
  {
    "name": "Wells & Cuellar, P.C.",
    "address": "440 Louisiana, Suite 718, Houston, TX",
    "phone": "",
    "rating": 4.0,
    "reviews": 25,
    "website": "https://www.google.com/maps/search/Wells+&+Cuellar,+P.C.+in+Texas",
    "category": "Asian-owned Bankruptcy law in Texas",
    "description": "This firm serves the China, TX area (Houston) and handles bankruptcy cases",
    "hours": "Mon-Fri 9AM-6PM",
    "services": [
      "Asian-owned Bankruptcy law in Texas consultation",
      "Professional service",
      "Quality guarantee"
    ],
    "social_links": {}
  },
  {
    "name": "The Martinez Law Firm",
    "address": "5601 Montana Ave, El Paso, TX 79925",
    "phone": "(915) 490-0063",
    "rating": 4.0,
    "reviews": 25,
    "website": "https://www.mlfattorney.com/",
    "category": "Asian-owned Bankruptcy law in Texas",
    "description": "This firm handles bankruptcy, tax law, personal injury, and wills and probate",
    "hours": "Mon-Fri 9AM-6PM",
    "services": [
      "Asian-owned Bankruptcy law in Texas consultation",
      "Professional service",
      "Quality guarantee"
    ],
    "social_links": {}
  },
  {
    "name": "Tanzy & Borrego",
    "address": "El Paso, TX (Specific address not provided in search results)",
    "phone": "",
    "rating": 4.0,
    "reviews": 25,
    "website": "https://www.google.com/maps/search/Tanzy+&+Borrego+in+Texas",
    "category": "Asian-owned Bankruptcy law in Texas",
    "description": "This firm offers expert bankruptcy consultation in El Paso",
    "hours": "Mon-Fri 9AM-6PM",
    "services": [
      "Asian-owned Bankruptcy law in Texas consultation",
      "Professional service",
      "Quality guarantee"
    ],
    "social_links": {}
  },
  {
    "name": "The Nevarez Law Firm, PC",
    "address": "7362 Remcon Circle, El Paso, Texas 79912 (West El Paso Office)",
    "phone": "(915) 225-2255",
    "rating": 4.0,
    "reviews": 25,
    "website": "https://www.nevarezlaw.com/",
    "category": "Asian-owned Bankruptcy law in Texas",
    "description": "This firm handles bankruptcy and consumer law matters for individuals and small businesses",
    "hours": "Mon-Fri 9AM-6PM",
    "services": [
      "Asian-owned Bankruptcy law in Texas consultation",
      "Professional service",
      "Quality guarantee"
    ],
    "social_links": {}
  }
]