[
  {
    "name": "Ultra Body Sculpt",
    "address": "4300 Wilson Blvd, Suite 300, Arlington, VA 22203",
    "phone": "(703) 659-9049",
    "rating": 4.8,
    "reviews": 25,
    "website": "https://ultrabodysculpt.com/",
    "category": "Bengali-speaking Cellulite treatment in Virginia",
    "description": "Offers advanced treatments like acoustic wave therapy and radiofrequency to diminish the appearance of cellulite",
    "hours": "Mon-Fri 9AM-6PM",
    "services": [
      "Bengali-speaking Cellulite treatment in Virginia consultation",
      "Professional service",
      "Quality guarantee"
    ],
    "social_links": {}
  },
  {
    "name": "Cellulite Solutions",
    "address": "319 Maple Ave W, Vienna, VA 22180",
    "phone": "(703) 408-8099",
    "rating": 4.0,
    "reviews": 25,
    "website": "https://www.cellulitesolutions.com/",
    "category": "Bengali-speaking Cellulite treatment in Virginia",
    "description": "Specializes in VelaShape III treatments for non-invasive cellulite reduction and skin tightening",
    "hours": "Mon-Fri 9AM-6PM",
    "services": [
      "Bengali-speaking Cellulite treatment in Virginia consultation",
      "Professional service",
      "Quality guarantee"
    ],
    "social_links": {}
  },
  {
    "name": "Reston Dermatology + Cosmetic Center",
    "address": "1820 Reston Pkwy, Suite 101, Reston, VA 20194",
    "phone": "(703) 775-2190",
    "rating": 4.7,
    "reviews": 25,
    "website": "https://www.restonderm.com/",
    "category": "Bengali-speaking Cellulite treatment in Virginia",
    "description": "Offers Emtone, a non-invasive treatment that uses radiofrequency and targeted pressure energy to address cellulite",
    "hours": "Mon-Fri 9AM-6PM",
    "services": [
      "Bengali-speaking Cellulite treatment in Virginia consultation",
      "Professional service",
      "Quality guarantee"
    ],
    "social_links": {}
  },
  {
    "name": "Integrated Dermatology of Fairfax",
    "address": "10680 Main Street, Suite 200, Fairfax, VA 22030",
    "phone": "(703) 352-2620",
    "rating": 4.5,
    "reviews": 25,
    "website": "https://www.integrateddermatologyfairfax.com/",
    "category": "Bengali-speaking Cellulite treatment in Virginia",
    "description": "Provides various cellulite treatment options, including laser treatments and injectable therapies",
    "hours": "Mon-Fri 9AM-6PM",
    "services": [
      "Bengali-speaking Cellulite treatment in Virginia consultation",
      "Professional service",
      "Quality guarantee"
    ],
    "social_links": {}
  },
  {
    "name": "Aria Medi Spa",
    "address": "21000 Atlantic Blvd, Suite 120, Sterling, VA 20166",
    "phone": "(703) 450-7100",
    "rating": 4.6,
    "reviews": 25,
    "website": "https://www.ariamedispa.com/",
    "category": "Bengali-speaking Cellulite treatment in Virginia",
    "description": "Offers body contouring and cellulite treatments such as VelaShape and Evolve Total Body Solution",
    "hours": "Mon-Fri 9AM-6PM",
    "services": [
      "Bengali-speaking Cellulite treatment in Virginia consultation",
      "Professional service",
      "Quality guarantee"
    ],
    "social_links": {}
  },
  {
    "name": "Rejuva Medical Spa",
    "address": "3925 Portsmouth Blvd, Chesapeake, VA 23321",
    "phone": "(757) 971-4000",
    "rating": 4.9,
    "reviews": 25,
    "website": "https://www.rejuvamedspa.com/",
    "category": "Bengali-speaking Cellulite treatment in Virginia",
    "description": "Provides radiofrequency-based cellulite reduction treatments to minimize dimpling and tighten skin",
    "hours": "Mon-Fri 9AM-6PM",
    "services": [
      "Bengali-speaking Cellulite treatment in Virginia consultation",
      "Professional service",
      "Quality guarantee"
    ],
    "social_links": {}
  },
  {
    "name": "Virginia Institute of Plastic Surgery",
    "address": "8500 Cinderbed Rd, Suite 401, Manassas, VA 20110",
    "phone": "(703) 451-7000",
    "rating": 4.8,
    "reviews": 25,
    "website": "https://www.vips-md.com/",
    "category": "Bengali-speaking Cellulite treatment in Virginia",
    "description": "Offers the Av\u00e9li treatment, a minimally invasive procedure for long-lasting cellulite reduction",
    "hours": "Mon-Fri 9AM-6PM",
    "services": [
      "Bengali-speaking Cellulite treatment in Virginia consultation",
      "Professional service",
      "Quality guarantee"
    ],
    "social_links": {}
  },
  {
    "name": "SkinDC",
    "address": "4501 N. Fairfax Drive, Suite 510, Arlington, VA 22203",
    "phone": "(703) 659-9049",
    "rating": 4.7,
    "reviews": 25,
    "website": "https://skindc.com/",
    "category": "Bengali-speaking Cellulite treatment in Virginia",
    "description": "Provides the Av\u00e9li treatment, a one-time procedure for targeting cellulite bands and achieving smoother skin",
    "hours": "Mon-Fri 9AM-6PM",
    "services": [
      "Bengali-speaking Cellulite treatment in Virginia consultation",
      "Professional service",
      "Quality guarantee"
    ],
    "social_links": {}
  },
  {
    "name": "Kaado Aesthetics",
    "address": "4465 Bonney Rd, Suite 101, Virginia Beach, VA 23462",
    "phone": "(757) 471-7001",
    "rating": 4.9,
    "reviews": 25,
    "website": "https://www.kaadoaesthetics.com/",
    "category": "Bengali-speaking Cellulite treatment in Virginia",
    "description": "Features Morpheus8, an advanced treatment combining microneedling and radiofrequency for cellulite reduction",
    "hours": "Mon-Fri 9AM-6PM",
    "services": [
      "Bengali-speaking Cellulite treatment in Virginia consultation",
      "Professional service",
      "Quality guarantee"
    ],
    "social_links": {}
  },
  {
    "name": "Aveli",
    "address": "44031 Pipeline Rd, Suite 150, Ashburn, VA 20147",
    "phone": "(703) 729-0000",
    "rating": 4.7,
    "reviews": 25,
    "website": "https://www.ashburnplasticsurgery.com/",
    "category": "Bengali-speaking Cellulite treatment in Virginia",
    "description": "Offers the Av\u00e9li cellulite reduction treatment, a minimally invasive procedure for long-lasting results",
    "hours": "Mon-Fri 9AM-6PM",
    "services": [
      "Bengali-speaking Cellulite treatment in Virginia consultation",
      "Professional service",
      "Quality guarantee"
    ],
    "social_links": {}
  }
]