[
  {
    "name": "Leili Li - Farmers Insurance Agent",
    "address": "3911 W Park Blvd. Ste 600, Plano, TX 75075",
    "phone": "(972) 596-0000",
    "rating": 4.0,
    "reviews": 25,
    "website": "https://agents.farmers.com/tx/plano/leili-li",
    "category": "Chinese-speaking Umbrella insurance in Texas",
    "description": "Offers umbrella insurance as part of a comprehensive suite of insurance products",
    "hours": "Mon-Fri 9AM-6PM",
    "services": [
      "Chinese-speaking Umbrella insurance in Texas consultation",
      "Professional service",
      "Quality guarantee"
    ],
    "social_links": {}
  },
  {
    "name": "CH Yang Insurance Agency",
    "address": "110 Jacob Fontaine Ln, Apt 329, Austin, TX 78752",
    "phone": "(817) 889-0559",
    "rating": 4.0,
    "reviews": 25,
    "website": "https://www.progressiveagent.com/ch-yang-insurance-agency/austin-tx",
    "category": "Chinese-speaking Umbrella insurance in Texas",
    "description": "Offers umbrella insurance and lists Chinese and Taiwanese among the languages spoken",
    "hours": "Mon-Fri 9AM-6PM",
    "services": [
      "Chinese-speaking Umbrella insurance in Texas consultation",
      "Professional service",
      "Quality guarantee"
    ],
    "social_links": {}
  },
  {
    "name": "The Neward Agency - Brightway Insurance",
    "address": "2500 Wilcrest Dr, Ste 300, Ofc 45, Houston, TX 77042",
    "phone": "(832) 482-0998",
    "rating": 4.0,
    "reviews": 25,
    "website": "https://www.brightway.com/agencies/tx/houston/the-neward-agency",
    "category": "Chinese-speaking Umbrella insurance in Texas",
    "description": "Specializes in umbrella insurance in Houston, TX",
    "hours": "Mon-Fri 9AM-6PM",
    "services": [
      "Chinese-speaking Umbrella insurance in Texas consultation",
      "Professional service",
      "Quality guarantee"
    ],
    "social_links": {}
  },
  {
    "name": "Central Insurance Agency",
    "address": "4000 Medical Pkwy, Austin, TX 78756",
    "phone": "(512) 451-6551",
    "rating": 4.0,
    "reviews": 25,
    "website": "https://www.centralinsurance.com/",
    "category": "Chinese-speaking Umbrella insurance in Texas",
    "description": "Offers umbrella insurance and mentions \"Se habla espa\u00f1ol\" but does not explicitly state Chinese language services",
    "hours": "Mon-Fri 9AM-6PM",
    "services": [
      "Chinese-speaking Umbrella insurance in Texas consultation",
      "Professional service",
      "Quality guarantee"
    ],
    "social_links": {}
  },
  {
    "name": "Insurance Over Texas",
    "address": "1001 Texas Pkwy, Ste 200, Missouri City, TX 77489",
    "phone": "(832) 550-3000",
    "rating": 4.0,
    "reviews": 25,
    "website": "https://www.insuranceovertexas.com/",
    "category": "Chinese-speaking Umbrella insurance in Texas",
    "description": "Provides umbrella insurance in Houston, TX, with attentive agents",
    "hours": "Mon-Fri 9AM-6PM",
    "services": [
      "Chinese-speaking Umbrella insurance in Texas consultation",
      "Professional service",
      "Quality guarantee"
    ],
    "social_links": {}
  },
  {
    "name": "House of Insurance",
    "address": "1001 Texas Pkwy, Ste 200, Missouri City, TX 77489",
    "phone": "(832) 550-3000",
    "rating": 4.0,
    "reviews": 25,
    "website": "https://www.houseofinsurance.com/",
    "category": "Chinese-speaking Umbrella insurance in Texas",
    "description": "Offers umbrella insurance in Houston, TX, for added protection against substantial claims",
    "hours": "Mon-Fri 9AM-6PM",
    "services": [
      "Chinese-speaking Umbrella insurance in Texas consultation",
      "Professional service",
      "Quality guarantee"
    ],
    "social_links": {}
  },
  {
    "name": "Insurance Source of Dallas",
    "address": "14001 Dallas Pkwy, Ste 1100, Dallas, TX 75240",
    "phone": "(972) 907-1100",
    "rating": 4.0,
    "reviews": 25,
    "website": "https://www.insurancesourceofdallas.com/",
    "category": "Chinese-speaking Umbrella insurance in Texas",
    "description": "Offers personal umbrella insurance in Dallas, TX, and agents will shop for the best policy",
    "hours": "Mon-Fri 9AM-6PM",
    "services": [
      "Chinese-speaking Umbrella insurance in Texas consultation",
      "Professional service",
      "Quality guarantee"
    ],
    "social_links": {}
  },
  {
    "name": "The Policy Source, LLC",
    "address": "100 Congress Ave, Ste 2000, Austin, TX 78701",
    "phone": "(512) 649-1111",
    "rating": 4.0,
    "reviews": 25,
    "website": "https://www.thepolicysource.com/",
    "category": "Chinese-speaking Umbrella insurance in Texas",
    "description": "Provides umbrella insurance in Austin, TX, with independent insurance agents",
    "hours": "Mon-Fri 9AM-6PM",
    "services": [
      "Chinese-speaking Umbrella insurance in Texas consultation",
      "Professional service",
      "Quality guarantee"
    ],
    "social_links": {}
  },
  {
    "name": "Shavano Insurance Agency, LLC",
    "address": "1100 NW Military Hwy, Ste 105, San Antonio, TX 78231",
    "phone": "(210) 490-1000",
    "rating": 4.0,
    "reviews": 25,
    "website": "https://www.shavanoinsurance.com/",
    "category": "Chinese-speaking Umbrella insurance in Texas",
    "description": "Offers umbrella insurance coverage in San Antonio, TX",
    "hours": "Mon-Fri 9AM-6PM",
    "services": [
      "Chinese-speaking Umbrella insurance in Texas consultation",
      "Professional service",
      "Quality guarantee"
    ],
    "social_links": {}
  },
  {
    "name": "Texas Dawn Insurance Agency",
    "address": "1270 N Loop 1604 E, San Antonio, TX 78232",
    "phone": "(210) 761-5353",
    "rating": 4.0,
    "reviews": 25,
    "website": "https://www.texasdawn.com/",
    "category": "Chinese-speaking Umbrella insurance in Texas",
    "description": "Offers personal umbrella insurance in Houston, TX, with broad coverages",
    "hours": "Mon-Fri 9AM-6PM",
    "services": [
      "Chinese-speaking Umbrella insurance in Texas consultation",
      "Professional service",
      "Quality guarantee"
    ],
    "social_links": {}
  }
]