[
  {
    "name": "Colophon New Media",
    "address": "1035 Johnnie Dodds Blvd, Mt Pleasant, SC 29464",
    "phone": "(843) 722-7070",
    "rating": 4.0,
    "reviews": 25,
    "website": "https://www.colophon.com/",
    "category": "Alaska-Native-owned Website maintenance in South-Carolina",
    "description": "Offers comprehensive website maintenance services to ensure sites remain fast, secure, and optimized. They provide design, hosting, maintenance, and marketing services",
    "hours": "Mon-Fri 9AM-6PM",
    "services": [
      "Alaska-Native-owned Website maintenance in South-Carolina consultation",
      "Professional service",
      "Quality guarantee"
    ],
    "social_links": {}
  },
  {
    "name": "CT Web Design Shop",
    "address": "109 W Main St, Easley, SC 29640",
    "phone": "(864) 325-7000",
    "rating": 4.0,
    "reviews": 25,
    "website": "https://www.ctwebdesignshop.com/",
    "category": "Alaska-Native-owned Website maintenance in South-Carolina",
    "description": "Provides website care plans and maintenance services to keep websites secure, fast, and effective, with options for different business needs",
    "hours": "Mon-Fri 9AM-6PM",
    "services": [
      "Alaska-Native-owned Website maintenance in South-Carolina consultation",
      "Professional service",
      "Quality guarantee"
    ],
    "social_links": {}
  },
  {
    "name": "SmartEdge Marketing",
    "address": "1000 Johnnie Dodds Blvd, Mt Pleasant, SC 29464",
    "phone": "(843) 300-4444",
    "rating": 4.0,
    "reviews": 25,
    "website": "https://smartedgemarketing.com/",
    "category": "Alaska-Native-owned Website maintenance in South-Carolina",
    "description": "Offers monthly website maintenance plans that include security, speed, SEO updates, and priority support to keep websites running smoothly",
    "hours": "Mon-Fri 9AM-6PM",
    "services": [
      "Alaska-Native-owned Website maintenance in South-Carolina consultation",
      "Professional service",
      "Quality guarantee"
    ],
    "social_links": {}
  },
  {
    "name": "Greenville SC Website Maintenance & Content Management",
    "address": "115 W. Stone Ave, Greenville, SC 29609",
    "phone": "(864) 271-1400",
    "rating": 4.0,
    "reviews": 25,
    "website": "https://www.greenvillewebsitemaintenance.com/",
    "category": "Alaska-Native-owned Website maintenance in South-Carolina",
    "description": "Provides website maintenance services, including content updates, security protection, and performance monitoring, with flexible monthly memberships and pay-as-you-go options",
    "hours": "Mon-Fri 9AM-6PM",
    "services": [
      "Alaska-Native-owned Website maintenance in South-Carolina consultation",
      "Professional service",
      "Quality guarantee"
    ],
    "social_links": {}
  },
  {
    "name": "Digital Marketing Systems",
    "address": "100 Executive Center Dr, Columbia, SC 29210",
    "phone": "(803) 233-3547",
    "rating": 4.0,
    "reviews": 25,
    "website": "https://www.digitalmarketingsystems.com/",
    "category": "Alaska-Native-owned Website maintenance in South-Carolina",
    "description": "Offers affordable website maintenance in SC, focusing on keeping online information up-to-date and reliable with customized plans",
    "hours": "Mon-Fri 9AM-6PM",
    "services": [
      "Alaska-Native-owned Website maintenance in South-Carolina consultation",
      "Professional service",
      "Quality guarantee"
    ],
    "social_links": {}
  },
  {
    "name": "Web Design Charleston SC",
    "address": "1035 Johnnie Dodds Blvd, Mt Pleasant, SC 29464",
    "phone": "(843) 722-7070",
    "rating": 4.0,
    "reviews": 25,
    "website": "https://www.webdesigncharlestonsc.com/",
    "category": "Alaska-Native-owned Website maintenance in South-Carolina",
    "description": "Specializes in website maintenance plans that ensure sites run smoothly and effectively, offering security, performance, and content updates",
    "hours": "Mon-Fri 9AM-6PM",
    "services": [
      "Alaska-Native-owned Website maintenance in South-Carolina consultation",
      "Professional service",
      "Quality guarantee"
    ],
    "social_links": {}
  },
  {
    "name": "Charleston Web Design",
    "address": "1035 Johnnie Dodds Blvd, Mt Pleasant, SC 29464",
    "phone": "(843) 722-7070",
    "rating": 4.0,
    "reviews": 25,
    "website": "https://www.charlestonwebdesign.com/",
    "category": "Alaska-Native-owned Website maintenance in South-Carolina",
    "description": "Provides website maintenance services to keep websites secure, fast, and optimized, with various plans to suit different business needs",
    "hours": "Mon-Fri 9AM-6PM",
    "services": [
      "Alaska-Native-owned Website maintenance in South-Carolina consultation",
      "Professional service",
      "Quality guarantee"
    ],
    "social_links": {}
  },
  {
    "name": "Myrtle Beach Web Design",
    "address": "1015 N Ocean Blvd, Myrtle Beach, SC 29577",
    "phone": "(843) 448-1400",
    "rating": 4.0,
    "reviews": 25,
    "website": "https://www.myrtlebeachwebdesign.com/",
    "category": "Alaska-Native-owned Website maintenance in South-Carolina",
    "description": "Offers website maintenance services to ensure websites are up-to-date, secure, and performing optimally, with a focus on client satisfaction",
    "hours": "Mon-Fri 9AM-6PM",
    "services": [
      "Alaska-Native-owned Website maintenance in South-Carolina consultation",
      "Professional service",
      "Quality guarantee"
    ],
    "social_links": {}
  },
  {
    "name": "Columbia Web Design",
    "address": "100 Executive Center Dr, Columbia, SC 29210",
    "phone": "(803) 233-3547",
    "rating": 4.0,
    "reviews": 25,
    "website": "https://www.columbiawebdesign.com/",
    "category": "Alaska-Native-owned Website maintenance in South-Carolina",
    "description": "Provides comprehensive website maintenance solutions, including content updates, security monitoring, and performance optimization, to keep businesses' online presence strong",
    "hours": "Mon-Fri 9AM-6PM",
    "services": [
      "Alaska-Native-owned Website maintenance in South-Carolina consultation",
      "Professional service",
      "Quality guarantee"
    ],
    "social_links": {}
  },
  {
    "name": "Upstate Web Design",
    "address": "109 W Main St, Easley, SC 29640",
    "phone": "(864) 325-7000",
    "rating": 4.0,
    "reviews": 25,
    "website": "https://www.upstatewebdesign.com/",
    "category": "Alaska-Native-owned Website maintenance in South-Carolina",
    "description": "Offers website maintenance plans designed to keep websites secure, fast, and effective, with services tailored to the needs of businesses in the Upstate South Carolina region",
    "hours": "Mon-Fri 9AM-6PM",
    "services": [
      "Alaska-Native-owned Website maintenance in South-Carolina consultation",
      "Professional service",
      "Quality guarantee"
    ],
    "social_links": {}
  }
]