[
  {
    "name": "Daddy's Soul Food & Grille",
    "address": "754 N 27th St, Milwaukee, WI 53208",
    "phone": "(414) 448-6165",
    "rating": 4.4,
    "reviews": 25,
    "website": "https://www.daddyssoulfoodandgrille.com/",
    "category": "African-American-owned Quick service in Wisconsin",
    "description": "A sit-down and carry-out southern-style restaurant offering comfort food made from family recipes",
    "hours": "Mon-Fri 9AM-6PM",
    "services": [
      "African-American-owned Quick service in Wisconsin consultation",
      "Professional service",
      "Quality guarantee"
    ],
    "social_links": {}
  },
  {
    "name": "Rise & Grind Cafe - King Drive",
    "address": "2737 N. Dr. Martin Luther King Jr. Drive, Milwaukee, WI 53212",
    "phone": "(414) 249-3846",
    "rating": 4.0,
    "reviews": 25,
    "website": "https://www.google.com/maps/search/Rise+&+Grind+Cafe+-+King+Drive+in+Wisconsin",
    "category": "African-American-owned Quick service in Wisconsin",
    "description": "A cafe offering coffee, breakfast, lunch, and a Saturday soul food brunch. It's known for its welcoming atmosphere and healthy options",
    "hours": "Mon-Fri 9AM-6PM",
    "services": [
      "African-American-owned Quick service in Wisconsin consultation",
      "Professional service",
      "Quality guarantee"
    ],
    "social_links": {}
  },
  {
    "name": "Blue Star Cafe",
    "address": "1619 N Farwell Ave Unit 100, Milwaukee, WI 53202",
    "phone": "",
    "rating": 5.0,
    "reviews": 25,
    "website": "https://www.bluestarcafe.us/",
    "category": "African-American-owned Quick service in Wisconsin",
    "description": "Serves East African cuisine with dishes like spicy chicken, beef, and chicken sandwiches",
    "hours": "Mon-Fri 9AM-6PM",
    "services": [
      "African-American-owned Quick service in Wisconsin consultation",
      "Professional service",
      "Quality guarantee"
    ],
    "social_links": {}
  },
  {
    "name": "The Cozzy Corner",
    "address": "111 N Walnut St, Appleton, WI 54911",
    "phone": "(920) 364-9563",
    "rating": 4.4,
    "reviews": 25,
    "website": "https://www.google.com/maps/search/The+Cozzy+Corner+in+Wisconsin",
    "category": "African-American-owned Quick service in Wisconsin",
    "description": "A soul food restaurant offering dine-in, takeout, and delivery",
    "hours": "Mon-Fri 9AM-6PM",
    "services": [
      "African-American-owned Quick service in Wisconsin consultation",
      "Professional service",
      "Quality guarantee"
    ],
    "social_links": {}
  },
  {
    "name": "Terri Lynn's Soul Food Express",
    "address": "10742 W Hampton Ave, Milwaukee, WI 53225",
    "phone": "(414) 464-1111",
    "rating": 4.3,
    "reviews": 25,
    "website": "https://www.google.com/maps/search/Terri+Lynn's+Soul+Food+Express+in+Wisconsin",
    "category": "African-American-owned Quick service in Wisconsin",
    "description": "Offers soul food with dine-in and takeout options",
    "hours": "Mon-Fri 9AM-6PM",
    "services": [
      "African-American-owned Quick service in Wisconsin consultation",
      "Professional service",
      "Quality guarantee"
    ],
    "social_links": {}
  },
  {
    "name": "Speed Queen Bar-B-Q",
    "address": "1130 W Walnut St, Milwaukee, WI 53205",
    "phone": "(414) 265-2900",
    "rating": 3.8,
    "reviews": 25,
    "website": "https://www.google.com/maps/search/Speed+Queen+Bar-B-Q+in+Wisconsin",
    "category": "African-American-owned Quick service in Wisconsin",
    "description": "A barbecue restaurant offering dine-in, takeout, and delivery",
    "hours": "Mon-Fri 9AM-6PM",
    "services": [
      "African-American-owned Quick service in Wisconsin consultation",
      "Professional service",
      "Quality guarantee"
    ],
    "social_links": {}
  },
  {
    "name": "Buraka",
    "address": "1210 Williamson Street, Madison, WI 53703",
    "phone": "(608) 286-1448",
    "rating": 4.0,
    "reviews": 25,
    "website": "https://burakarestaurant.com/",
    "category": "African-American-owned Quick service in Wisconsin",
    "description": "An East African and Ethiopian-inspired restaurant known for its Dorowot dish",
    "hours": "Mon-Fri 9AM-6PM",
    "services": [
      "African-American-owned Quick service in Wisconsin consultation",
      "Professional service",
      "Quality guarantee"
    ],
    "social_links": {}
  },
  {
    "name": "Kingdom Restaurant",
    "address": "Located in Northside Town Center, Madison, WI",
    "phone": "",
    "rating": 4.0,
    "reviews": 25,
    "website": "https://www.google.com/maps/search/Kingdom+Restaurant+in+Wisconsin",
    "category": "African-American-owned Quick service in Wisconsin",
    "description": "Offers African fusion cuisine, including traditional West African dishes like yassa chicken and domada, as well as gyros and burgers",
    "hours": "Mon-Fri 9AM-6PM",
    "services": [
      "African-American-owned Quick service in Wisconsin consultation",
      "Professional service",
      "Quality guarantee"
    ],
    "social_links": {}
  },
  {
    "name": "House of Flavas",
    "address": "Not explicitly stated, but located in Madison, WI",
    "phone": "",
    "rating": 4.0,
    "reviews": 25,
    "website": "https://www.google.com/maps/search/House+of+Flavas+in+Wisconsin",
    "category": "African-American-owned Quick service in Wisconsin",
    "description": "Serves Chicago-style soul food, including fried catfish, shrimp, and oxtails",
    "hours": "Mon-Fri 9AM-6PM",
    "services": [
      "African-American-owned Quick service in Wisconsin consultation",
      "Professional service",
      "Quality guarantee"
    ],
    "social_links": {}
  },
  {
    "name": "1700 Pull Up",
    "address": "1848 West Fond du Lac Ave, Milwaukee, WI 53205",
    "phone": "",
    "rating": 4.0,
    "reviews": 25,
    "website": "https://www.1700pullup.com/",
    "category": "African-American-owned Quick service in Wisconsin",
    "description": "A neighborhood restaurant specializing in soul food, with dishes like stuffed turkey legs, pot roast, and mac and cheese",
    "hours": "Mon-Fri 9AM-6PM",
    "services": [
      "African-American-owned Quick service in Wisconsin consultation",
      "Professional service",
      "Quality guarantee"
    ],
    "social_links": {}
  }
]