[
  {
    "name": "Teton Beauty Lounge",
    "address": "40 E KARNS AVE, Unit # D, Jackson, Wyoming 83001",
    "phone": "(307) 264-5942",
    "rating": 4.0,
    "reviews": 25,
    "website": "https://www.tetonbeautylounge.com/",
    "category": "Asian-owned Eyebrow tinting in Wyoming",
    "description": "Offers brow tinting, brow shaping, brow lamination, lash tinting, and lash lifts",
    "hours": "Mon-Fri 9AM-6PM",
    "services": [
      "Asian-owned Eyebrow tinting in Wyoming consultation",
      "Professional service",
      "Quality guarantee"
    ],
    "social_links": {}
  },
  {
    "name": "The Good Wax",
    "address": "Cheyenne, WY (Specific street address not provided in search results)",
    "phone": "307-221-8015",
    "rating": 4.0,
    "reviews": 25,
    "website": "https://www.thegoodwax.com/",
    "category": "Asian-owned Eyebrow tinting in Wyoming",
    "description": "Offers eyelash extensions, lifting, and tinting, microblading, eyebrow tinting, full body waxing, and skincare services",
    "hours": "Mon-Fri 9AM-6PM",
    "services": [
      "Asian-owned Eyebrow tinting in Wyoming consultation",
      "Professional service",
      "Quality guarantee"
    ],
    "social_links": {}
  },
  {
    "name": "The Hair Parlour",
    "address": "2900 Grand Avenue, Suite 4, Laramie, WY 82070",
    "phone": "(307) 343-2910",
    "rating": 4.0,
    "reviews": 25,
    "website": "https://www.thehairparlour.com/",
    "category": "Asian-owned Eyebrow tinting in Wyoming",
    "description": "Provides lash and brow services including lash lifts, lash tinting, lash extensions, eyebrow lamination, and eyebrow tinting",
    "hours": "Mon-Fri 9AM-6PM",
    "services": [
      "Asian-owned Eyebrow tinting in Wyoming consultation",
      "Professional service",
      "Quality guarantee"
    ],
    "social_links": {}
  },
  {
    "name": "Luna Salon & Spa",
    "address": "Laramie, WY (Specific street address not provided in search results)",
    "phone": "",
    "rating": 4.0,
    "reviews": 25,
    "website": "https://www.lunasalonandspa.com/",
    "category": "Asian-owned Eyebrow tinting in Wyoming",
    "description": "Offers microblading and brow tinting services",
    "hours": "Mon-Fri 9AM-6PM",
    "services": [
      "Asian-owned Eyebrow tinting in Wyoming consultation",
      "Professional service",
      "Quality guarantee"
    ],
    "social_links": {}
  },
  {
    "name": "Melt Medspa",
    "address": "Cheyenne, Wyoming (Specific street address not provided in search results)",
    "phone": "(307) 441-9050",
    "rating": 4.0,
    "reviews": 25,
    "website": "https://www.meltmedspa.com/",
    "category": "Asian-owned Eyebrow tinting in Wyoming",
    "description": "Offers lash and brow services including eyelash extensions, brow shaping, and brow tinting",
    "hours": "Mon-Fri 9AM-6PM",
    "services": [
      "Asian-owned Eyebrow tinting in Wyoming consultation",
      "Professional service",
      "Quality guarantee"
    ],
    "social_links": {}
  },
  {
    "name": "Beauty and the Ink",
    "address": "1507 Stillwater Ave Suite C, Cheyenne, WY 82009",
    "phone": "",
    "rating": 4.0,
    "reviews": 25,
    "website": "https://www.beautyandtheink.com/",
    "category": "Asian-owned Eyebrow tinting in Wyoming",
    "description": "Offers brow lamination, waxing, tinting, lash lift and tint, and other waxing services",
    "hours": "Mon-Fri 9AM-6PM",
    "services": [
      "Asian-owned Eyebrow tinting in Wyoming consultation",
      "Professional service",
      "Quality guarantee"
    ],
    "social_links": {}
  },
  {
    "name": "Brow & Beauty Bar",
    "address": "Santa Fe, NM (This business is located in New Mexico, not Wyoming, but is mentioned in the search results for its services.)",
    "phone": "",
    "rating": 4.0,
    "reviews": 25,
    "website": "https://browandbeautybar.com/",
    "category": "Asian-owned Eyebrow tinting in Wyoming",
    "description": "Offers eyebrow threading, waxing, tinting (dye and henna), brow lamination, lash lift, facials, and hair services",
    "hours": "Mon-Fri 9AM-6PM",
    "services": [
      "Asian-owned Eyebrow tinting in Wyoming consultation",
      "Professional service",
      "Quality guarantee"
    ],
    "social_links": {}
  },
  {
    "name": "Derma Bella Progressive Skin Care",
    "address": "2326 Aspen Grove Dr., Sheridan, WY, 82801 and 731 North Main Street (Specific address for tinting services not clear)",
    "phone": "307-763-0186",
    "rating": 4.0,
    "reviews": 25,
    "website": "https://www.dermabella.com/",
    "category": "Asian-owned Eyebrow tinting in Wyoming",
    "description": "Offers lash and eyebrow tinting",
    "hours": "Mon-Fri 9AM-6PM",
    "services": [
      "Asian-owned Eyebrow tinting in Wyoming consultation",
      "Professional service",
      "Quality guarantee"
    ],
    "social_links": {}
  },
  {
    "name": "Shea's Jackson Hole",
    "address": "250 Scott Ln # 101, Jackson, WY 83001",
    "phone": "(307) 203-2273",
    "rating": 4.0,
    "reviews": 25,
    "website": "https://www.sheasjacksonhole.com/",
    "category": "Asian-owned Eyebrow tinting in Wyoming",
    "description": "Offers eyebrow tinting and eyelash tinting",
    "hours": "Mon-Fri 9AM-6PM",
    "services": [
      "Asian-owned Eyebrow tinting in Wyoming consultation",
      "Professional service",
      "Quality guarantee"
    ],
    "social_links": {}
  },
  {
    "name": "Benefit Cosmetics BrowBar at Ulta",
    "address": "Casper, WY (Specific street address not provided in search results, but located within Ulta)",
    "phone": "",
    "rating": 4.0,
    "reviews": 25,
    "website": "https://www.ulta.com/",
    "category": "Asian-owned Eyebrow tinting in Wyoming",
    "description": "Offers brow tinting services",
    "hours": "Mon-Fri 9AM-6PM",
    "services": [
      "Asian-owned Eyebrow tinting in Wyoming consultation",
      "Professional service",
      "Quality guarantee"
    ],
    "social_links": {}
  }
]