[
  {
    "name": "Hometown Garage",
    "address": "116 Marlborough St, Portland, CT 06480",
    "phone": "(860) 342-5777",
    "rating": 4.8,
    "reviews": 25,
    "website": "https://hometowngarageportland.com/",
    "category": "Asian-owned Alternator repair in Connecticut",
    "description": "Specializes in alternator repair and full-system diagnostics, serving Portland and surrounding areas since 1998",
    "hours": "Mon-Fri 9AM-6PM",
    "services": [
      "Asian-owned Alternator repair in Connecticut consultation",
      "Professional service",
      "Quality guarantee"
    ],
    "social_links": {}
  },
  {
    "name": "Portland Automotive",
    "address": "131 Marlborough Street, Portland, CT 06480",
    "phone": "(860) 920-5560",
    "rating": 4.0,
    "reviews": 25,
    "website": "https://www.google.com/maps/search/Portland+Automotive+in+Connecticut",
    "category": "Asian-owned Alternator repair in Connecticut",
    "description": "Offers alternator repair and replacement with ASE-Certified technicians, known for honesty and quality service since 1992",
    "hours": "Mon-Fri 9AM-6PM",
    "services": [
      "Asian-owned Alternator repair in Connecticut consultation",
      "Professional service",
      "Quality guarantee"
    ],
    "social_links": {}
  },
  {
    "name": "Darrell's Auto Service and Towing",
    "address": "722 N Colony Rd, Wallingford, CT 06492",
    "phone": "(203) 626-9741",
    "rating": 4.0,
    "reviews": 25,
    "website": "https://www.google.com/maps/search/Darrell's+Auto+Service+and+Towing+in+Connecticut",
    "category": "Asian-owned Alternator repair in Connecticut",
    "description": "A full-service auto repair facility specializing in Asian vehicle repairs, including alternators",
    "hours": "Mon-Fri 9AM-6PM",
    "services": [
      "Asian-owned Alternator repair in Connecticut consultation",
      "Professional service",
      "Quality guarantee"
    ],
    "social_links": {}
  },
  {
    "name": "Guy's Electric Service, Inc.",
    "address": "Not explicitly stated, but serves South Windsor, CT",
    "phone": "(860) 528-8174",
    "rating": 4.0,
    "reviews": 25,
    "website": "https://www.google.com/maps/search/Guy's+Electric+Service,+Inc.+in+Connecticut",
    "category": "Asian-owned Alternator repair in Connecticut",
    "description": "Specializes in alternator and starter repairs, offering rebuilding services for all makes and models",
    "hours": "Mon-Fri 9AM-6PM",
    "services": [
      "Asian-owned Alternator repair in Connecticut consultation",
      "Professional service",
      "Quality guarantee"
    ],
    "social_links": {}
  },
  {
    "name": "D'Addario's Auto Service",
    "address": "Not explicitly stated, but serves Hartford, CT",
    "phone": "",
    "rating": 4.0,
    "reviews": 25,
    "website": "https://www.google.com/maps/search/D'Addario's+Auto+Service+in+Connecticut",
    "category": "Asian-owned Alternator repair in Connecticut",
    "description": "Specializes in alternator repair and replacement, with ASE-certified technicians",
    "hours": "Mon-Fri 9AM-6PM",
    "services": [
      "Asian-owned Alternator repair in Connecticut consultation",
      "Professional service",
      "Quality guarantee"
    ],
    "social_links": {}
  },
  {
    "name": "Auto Tech CT",
    "address": "64 Magee Avenue, Stamford, CT 06902",
    "phone": "(203) 348-8421",
    "rating": 4.0,
    "reviews": 25,
    "website": "https://autotechct.com/",
    "category": "Asian-owned Alternator repair in Connecticut",
    "description": "Specializes in foreign and European car repair, likely including alternators",
    "hours": "Mon-Fri 9AM-6PM",
    "services": [
      "Asian-owned Alternator repair in Connecticut consultation",
      "Professional service",
      "Quality guarantee"
    ],
    "social_links": {}
  },
  {
    "name": "The Shop CT",
    "address": "Not explicitly stated, but has been established since 2005",
    "phone": "",
    "rating": 4.0,
    "reviews": 25,
    "website": "https://www.theshopct.com/",
    "category": "Asian-owned Alternator repair in Connecticut",
    "description": "Provides quality and knowledgeable service for all makes and models, emphasizing transparency and attention to detail",
    "hours": "Mon-Fri 9AM-6PM",
    "services": [
      "Asian-owned Alternator repair in Connecticut consultation",
      "Professional service",
      "Quality guarantee"
    ],
    "social_links": {}
  },
  {
    "name": "Pro Tek Auto",
    "address": "315 Main Street, Niantic, CT 06357",
    "phone": "(860) 739-5729",
    "rating": 4.0,
    "reviews": 25,
    "website": "https://www.google.com/maps/search/Pro+Tek+Auto+in+Connecticut",
    "category": "Asian-owned Alternator repair in Connecticut",
    "description": "Offers high-quality automotive service and maintenance on all vehicles, including foreign and domestic, with a 3-year/36,000-mile warranty",
    "hours": "Mon-Fri 9AM-6PM",
    "services": [
      "Asian-owned Alternator repair in Connecticut consultation",
      "Professional service",
      "Quality guarantee"
    ],
    "social_links": {}
  },
  {
    "name": "Imported Auto Center CT",
    "address": "Not explicitly stated, but serves Glastonbury and Hartford, CT",
    "phone": "",
    "rating": 4.0,
    "reviews": 25,
    "website": "https://importedautoct.com/",
    "category": "Asian-owned Alternator repair in Connecticut",
    "description": "Specializes in foreign car repair and maintenance, serving the area since 1981",
    "hours": "Mon-Fri 9AM-6PM",
    "services": [
      "Asian-owned Alternator repair in Connecticut consultation",
      "Professional service",
      "Quality guarantee"
    ],
    "social_links": {}
  },
  {
    "name": "Bosch Auto Service",
    "address": "Various locations throughout Connecticut (specific address not provided in search results)",
    "phone": "",
    "rating": 4.0,
    "reviews": 25,
    "website": "https://www.boschautoservice.com/",
    "category": "Asian-owned Alternator repair in Connecticut",
    "description": "A network of auto repair shops offering quality and reliability, likely including alternator services",
    "hours": "Mon-Fri 9AM-6PM",
    "services": [
      "Asian-owned Alternator repair in Connecticut consultation",
      "Professional service",
      "Quality guarantee"
    ],
    "social_links": {}
  }
]