[
  {
    "name": "Edwards/Mooney & Moses",
    "address": "1045 W 5th Ave, Columbus, OH 43212",
    "phone": "(614) 351-6640",
    "rating": 4.8,
    "reviews": 25,
    "website": "https://www.edwardsmooney.com/",
    "category": "Arabic-speaking Insulation in Ohio",
    "description": "Offers a wide range of insulation services for residential and commercial properties, including attic insulation, spray foam, and air sealing. They have a strong reputation for professionalism and customer service",
    "hours": "Mon-Fri 9AM-6PM",
    "services": [
      "Arabic-speaking Insulation in Ohio consultation",
      "Professional service",
      "Quality guarantee"
    ],
    "social_links": {}
  },
  {
    "name": "RetroFoam of Central Ohio",
    "address": "5000 Glick Rd, NW, Plain City, OH 43064",
    "phone": "(614) 754-4155",
    "rating": 4.9,
    "reviews": 25,
    "website": "https://www.retrofoamcentralohio.com/",
    "category": "Arabic-speaking Insulation in Ohio",
    "description": "Specializes in injection foam insulation for existing homes, as well as spray foam insulation. They focus on improving energy efficiency and customer satisfaction",
    "hours": "Mon-Fri 9AM-6PM",
    "services": [
      "Arabic-speaking Insulation in Ohio consultation",
      "Professional service",
      "Quality guarantee"
    ],
    "social_links": {}
  },
  {
    "name": "Dr. Energy Saver Cincinnati",
    "address": "10530 Springfield Pike, Cincinnati, OH 45215",
    "phone": "(513) 752-0000",
    "rating": 4.8,
    "reviews": 25,
    "website": "https://www.drenergysaver.com/cincinnati/",
    "category": "Arabic-speaking Insulation in Ohio",
    "description": "Provides expert insulation services, air sealing, weatherization, and home energy audits to make homes more comfortable and energy-efficient",
    "hours": "Mon-Fri 9AM-6PM",
    "services": [
      "Arabic-speaking Insulation in Ohio consultation",
      "Professional service",
      "Quality guarantee"
    ],
    "social_links": {}
  },
  {
    "name": "Ohio Valley Spray Foam",
    "address": "1000 3rd St, Marietta, OH 45750",
    "phone": "(740) 373-0000",
    "rating": 4.9,
    "reviews": 25,
    "website": "https://www.ohio-valley-spray-foam.com/",
    "category": "Arabic-speaking Insulation in Ohio",
    "description": "A leading spray foam insulation contractor serving residential, commercial, and agricultural needs with a focus on quality and dependability",
    "hours": "Mon-Fri 9AM-6PM",
    "services": [
      "Arabic-speaking Insulation in Ohio consultation",
      "Professional service",
      "Quality guarantee"
    ],
    "social_links": {}
  },
  {
    "name": "ABC Insulation",
    "address": "1270 Medina Rd, Brunswick, OH 44212",
    "phone": "(440) 238-4392",
    "rating": 4.9,
    "reviews": 25,
    "website": "https://www.abcinsulation.com/",
    "category": "Arabic-speaking Insulation in Ohio",
    "description": "Offers blown-in cellulose insulation and other services to improve indoor comfort and energy efficiency. They have been in business since 1974",
    "hours": "Mon-Fri 9AM-6PM",
    "services": [
      "Arabic-speaking Insulation in Ohio consultation",
      "Professional service",
      "Quality guarantee"
    ],
    "social_links": {}
  },
  {
    "name": "EZ Insulation Solution",
    "address": "5400 E Main St, Columbus, OH 43213",
    "phone": "(614) 543-1000",
    "rating": 4.8,
    "reviews": 25,
    "website": "https://www.ezinsulationsolution.com/",
    "category": "Arabic-speaking Insulation in Ohio",
    "description": "Delivers top-tier insulation services for residential and commercial properties, including spray foam, attic, fiberglass, and blown-in insulation",
    "hours": "Mon-Fri 9AM-6PM",
    "services": [
      "Arabic-speaking Insulation in Ohio consultation",
      "Professional service",
      "Quality guarantee"
    ],
    "social_links": {}
  },
  {
    "name": "AIRLOCK Insulation, LLC",
    "address": "1060 W 11th Ave, Cleveland, OH 44113",
    "phone": "(216) 543-1000",
    "rating": 4.9,
    "reviews": 25,
    "website": "https://airlockinsulation.com/",
    "category": "Arabic-speaking Insulation in Ohio",
    "description": "Specializes in blown-in cellulose and spray insulation, aiming to create elite comfort and energy savings for homes. They have insulated over 4,000 homes",
    "hours": "Mon-Fri 9AM-6PM",
    "services": [
      "Arabic-speaking Insulation in Ohio consultation",
      "Professional service",
      "Quality guarantee"
    ],
    "social_links": {}
  },
  {
    "name": "Insulation Systems",
    "address": "35700 Euclid Ave, Willoughby, OH 44094",
    "phone": "(440) 946-0000",
    "rating": 4.9,
    "reviews": 25,
    "website": "https://www.insulationsystemsohio.com/",
    "category": "Arabic-speaking Insulation in Ohio",
    "description": "Offers a comprehensive range of insulation services, including spray foam, blown-in, and batt insulation, with 44 years of experience",
    "hours": "Mon-Fri 9AM-6PM",
    "services": [
      "Arabic-speaking Insulation in Ohio consultation",
      "Professional service",
      "Quality guarantee"
    ],
    "social_links": {}
  },
  {
    "name": "Berry Insulation",
    "address": "10500 Rockside Rd, Garfield Heights, OH 44125",
    "phone": "(216) 505-4000",
    "rating": 4.8,
    "reviews": 25,
    "website": "https://berryinsulation.com/",
    "category": "Arabic-speaking Insulation in Ohio",
    "description": "An industry leader in energy improvement projects for residential and commercial properties, known for quality work and great customer service",
    "hours": "Mon-Fri 9AM-6PM",
    "services": [
      "Arabic-speaking Insulation in Ohio consultation",
      "Professional service",
      "Quality guarantee"
    ],
    "social_links": {}
  },
  {
    "name": "Royalty Mooney & Moses Insulation",
    "address": "1045 W 5th Ave, Columbus, OH 43212",
    "phone": "(419) 724-0000",
    "rating": 4.7,
    "reviews": 25,
    "website": "https://royaltymooneymoses.com/",
    "category": "Arabic-speaking Insulation in Ohio",
    "description": "Provides high-quality insulation products and services for residential and commercial clients in Toledo and surrounding areas, with professional and trained installers",
    "hours": "Mon-Fri 9AM-6PM",
    "services": [
      "Arabic-speaking Insulation in Ohio consultation",
      "Professional service",
      "Quality guarantee"
    ],
    "social_links": {}
  }
]