[
  {
    "name": "Trailside Yoga & Beyond",
    "address": "513 W. Prairie Street, Fayetteville, AR 72701",
    "phone": "(479) 313-1300",
    "rating": 5.0,
    "reviews": 25,
    "website": "https://www.trailsideyoga.com/",
    "category": "Buddhist-owned Restorative yoga in Arkansas",
    "description": "Offers a variety of yoga classes, including restorative yoga, in an inclusive community setting",
    "hours": "Mon-Fri 9AM-6PM",
    "services": [
      "Buddhist-owned Restorative yoga in Arkansas consultation",
      "Professional service",
      "Quality guarantee"
    ],
    "social_links": {}
  },
  {
    "name": "Arkansas Yoga and Therapy Center",
    "address": "107 S. West Ave, Fayetteville, AR 72701",
    "phone": "(479) 444-9642",
    "rating": 4.8,
    "reviews": 25,
    "website": "https://www.arkansasyogacenter.com/",
    "category": "Buddhist-owned Restorative yoga in Arkansas",
    "description": "A dedicated yoga studio with a focus on safe, accessible, and adaptable practices, offering a welcoming atmosphere",
    "hours": "Mon-Fri 9AM-6PM",
    "services": [
      "Buddhist-owned Restorative yoga in Arkansas consultation",
      "Professional service",
      "Quality guarantee"
    ],
    "social_links": {}
  },
  {
    "name": "Bee Well Yoga",
    "address": "5208 Village Parkway, Suite 8, Rogers, AR 72758",
    "phone": "(479) 616-7715",
    "rating": 4.7,
    "reviews": 25,
    "website": "https://www.beewellyoga.com/",
    "category": "Buddhist-owned Restorative yoga in Arkansas",
    "description": "Offers a variety of yoga classes, including restorative and yin yoga, with a strong community focus",
    "hours": "Mon-Fri 9AM-6PM",
    "services": [
      "Buddhist-owned Restorative yoga in Arkansas consultation",
      "Professional service",
      "Quality guarantee"
    ],
    "social_links": {}
  },
  {
    "name": "The Floating Lotus Day Spa and Yoga Studio",
    "address": "1001 Cantrell Rd, Suite 100, Little Rock, AR 72201",
    "phone": "(501) 361-2518",
    "rating": 4.5,
    "reviews": 25,
    "website": "https://www.floatinglotusdayspa.com/",
    "category": "Buddhist-owned Restorative yoga in Arkansas",
    "description": "Provides gentle restorative yoga classes suitable for all levels, in a day spa and yoga studio setting",
    "hours": "Mon-Fri 9AM-6PM",
    "services": [
      "Buddhist-owned Restorative yoga in Arkansas consultation",
      "Professional service",
      "Quality guarantee"
    ],
    "social_links": {}
  },
  {
    "name": "Blue Yoga Nyla",
    "address": "4000 JFK Blvd, North Little Rock, AR 72118",
    "phone": "(501) 993-4000",
    "rating": 4.9,
    "reviews": 25,
    "website": "https://www.blueyoganyla.com/",
    "category": "Buddhist-owned Restorative yoga in Arkansas",
    "description": "Voted Best Yoga Studio in Arkansas, offering a safe and non-competitive environment with various class levels",
    "hours": "Mon-Fri 9AM-6PM",
    "services": [
      "Buddhist-owned Restorative yoga in Arkansas consultation",
      "Professional service",
      "Quality guarantee"
    ],
    "social_links": {}
  },
  {
    "name": "Seva Yoga Studios",
    "address": "4000 Rogers Ave, Fort Smith, AR 72903",
    "phone": "(479) 739-5233",
    "rating": 4.9,
    "reviews": 25,
    "website": "https://www.sevayogastudios.com/",
    "category": "Buddhist-owned Restorative yoga in Arkansas",
    "description": "A yoga studio dedicated to making yoga accessible, offering regular, heated, and \"seva\" (selfless service) classes",
    "hours": "Mon-Fri 9AM-6PM",
    "services": [
      "Buddhist-owned Restorative yoga in Arkansas consultation",
      "Professional service",
      "Quality guarantee"
    ],
    "social_links": {}
  },
  {
    "name": "Arkansas Yoga Collective",
    "address": "1521 Merrill Drive Suite D135, Little Rock, AR 72211",
    "phone": "(501) 554-6655",
    "rating": 4.9,
    "reviews": 25,
    "website": "https://www.arkansasyogacollective.com/",
    "category": "Buddhist-owned Restorative yoga in Arkansas",
    "description": "Offers a wide range of yoga classes, from beginner to all-levels, with a focus on the art and science of yoga",
    "hours": "Mon-Fri 9AM-6PM",
    "services": [
      "Buddhist-owned Restorative yoga in Arkansas consultation",
      "Professional service",
      "Quality guarantee"
    ],
    "social_links": {}
  },
  {
    "name": "Sixth House Studio",
    "address": "1001 Cantrell Rd, Suite 100, Little Rock, AR 72207",
    "phone": "(501) 361-2518",
    "rating": 4.7,
    "reviews": 25,
    "website": "https://www.sixthhousestudio.com/",
    "category": "Buddhist-owned Restorative yoga in Arkansas",
    "description": "A studio focused on wellbeing through yoga, movement, and holistic technologies, aiming to create a safe space for healing and transformation",
    "hours": "Mon-Fri 9AM-6PM",
    "services": [
      "Buddhist-owned Restorative yoga in Arkansas consultation",
      "Professional service",
      "Quality guarantee"
    ],
    "social_links": {}
  },
  {
    "name": "Cocoon Yoga Lab",
    "address": "1001 Cantrell Rd, Suite 100, Little Rock, AR 72207",
    "phone": "(501) 361-2518",
    "rating": 4.8,
    "reviews": 25,
    "website": "https://www.cocoonyogalab.com/",
    "category": "Buddhist-owned Restorative yoga in Arkansas",
    "description": "A sanctuary for transformation and growth, offering various healing modalities including yoga, inspired by nature and everyday life",
    "hours": "Mon-Fri 9AM-6PM",
    "services": [
      "Buddhist-owned Restorative yoga in Arkansas consultation",
      "Professional service",
      "Quality guarantee"
    ],
    "social_links": {}
  },
  {
    "name": "Gyobutsuji Zen Monastery",
    "address": "18755 County Road 101, Kingston, AR 72742",
    "phone": "(479) 665-2000",
    "rating": 4.0,
    "reviews": 25,
    "website": "https://www.gyobutsuji.org/",
    "category": "Buddhist-owned Restorative yoga in Arkansas",
    "description": "A small monastic practice place devoted to zazen (Zen meditation) in the Soto Zen tradition, located in the Ozark mountains. While not offering restorative yoga classes, it is a Buddhist center",
    "hours": "Mon-Fri 9AM-6PM",
    "services": [
      "Buddhist-owned Restorative yoga in Arkansas consultation",
      "Professional service",
      "Quality guarantee"
    ],
    "social_links": {}
  }
]