[
  {
    "name": "Mojo Up",
    "address": "8626 East 116th Street, Suite 200, Fishers, IN 46037",
    "phone": "317-892-8109",
    "rating": 4.0,
    "reviews": 25,
    "website": "https://www.google.com/maps/search/Mojo+Up+in+Indiana",
    "category": "Black-owned Digital advertising management in Indiana",
    "description": "Described as the largest Black-owned marketing agency in Indiana, specializing in helping clients improve diversity, equity, and inclusion (DEI) through marketing",
    "hours": "Mon-Fri 9AM-6PM",
    "services": [
      "Black-owned Digital advertising management in Indiana consultation",
      "Professional service",
      "Quality guarantee"
    ],
    "social_links": {}
  },
  {
    "name": "Oduraa Media House",
    "address": "Indianapolis, IN",
    "phone": "(317) 676-3280",
    "rating": 4.0,
    "reviews": 25,
    "website": "https://www.google.com/maps/search/Oduraa+Media+House+in+Indiana",
    "category": "Black-owned Digital advertising management in Indiana",
    "description": "A digital marketing business located in Indianapolis",
    "hours": "Mon-Fri 9AM-6PM",
    "services": [
      "Black-owned Digital advertising management in Indiana consultation",
      "Professional service",
      "Quality guarantee"
    ],
    "social_links": {}
  },
  {
    "name": "\"Dai In & Dai Out Productions\"",
    "address": "Indianapolis, IN",
    "phone": "3175606206",
    "rating": 4.0,
    "reviews": 25,
    "website": "https://www.google.com/maps/search/\"Dai+In+&+Dai+Out+Productions\"+in+Indiana",
    "category": "Black-owned Digital advertising management in Indiana",
    "description": "A digital marketing business located in Indianapolis",
    "hours": "Mon-Fri 9AM-6PM",
    "services": [
      "Black-owned Digital advertising management in Indiana consultation",
      "Professional service",
      "Quality guarantee"
    ],
    "social_links": {}
  },
  {
    "name": "Digital Purpose",
    "address": "Crown Point, IN",
    "phone": "+12197147777",
    "rating": 4.0,
    "reviews": 25,
    "website": "https://www.google.com/maps/search/Digital+Purpose+in+Indiana",
    "category": "Black-owned Digital advertising management in Indiana",
    "description": "A digital marketing business located in Crown Point",
    "hours": "Mon-Fri 9AM-6PM",
    "services": [
      "Black-owned Digital advertising management in Indiana consultation",
      "Professional service",
      "Quality guarantee"
    ],
    "social_links": {}
  },
  {
    "name": "Ratel SEO",
    "address": "Indianapolis, IN",
    "phone": "(317) 762 2659",
    "rating": 4.0,
    "reviews": 25,
    "website": "https://www.google.com/maps/search/Ratel+SEO+in+Indiana",
    "category": "Black-owned Digital advertising management in Indiana",
    "description": "A digital marketing business located in Indianapolis, specializing in SEO",
    "hours": "Mon-Fri 9AM-6PM",
    "services": [
      "Black-owned Digital advertising management in Indiana consultation",
      "Professional service",
      "Quality guarantee"
    ],
    "social_links": {}
  },
  {
    "name": "Eat Dress and Be Merry",
    "address": "Indianapolis, IN",
    "phone": "",
    "rating": 4.0,
    "reviews": 25,
    "website": "https://www.google.com/maps/search/Eat+Dress+and+Be+Merry+in+Indiana",
    "category": "Black-owned Digital advertising management in Indiana",
    "description": "A digital marketing business located in Indianapolis",
    "hours": "Mon-Fri 9AM-6PM",
    "services": [
      "Black-owned Digital advertising management in Indiana consultation",
      "Professional service",
      "Quality guarantee"
    ],
    "social_links": {}
  },
  {
    "name": "Dixon's Digital Photo America",
    "address": "Indianapolis, IN",
    "phone": "(317) 637-3790",
    "rating": 4.0,
    "reviews": 25,
    "website": "https://www.google.com/maps/search/Dixon's+Digital+Photo+America+in+Indiana",
    "category": "Black-owned Digital advertising management in Indiana",
    "description": "A digital marketing business located in Indianapolis",
    "hours": "Mon-Fri 9AM-6PM",
    "services": [
      "Black-owned Digital advertising management in Indiana consultation",
      "Professional service",
      "Quality guarantee"
    ],
    "social_links": {}
  },
  {
    "name": "Dauss FOTO",
    "address": "Indianapolis, IN",
    "phone": "(317) 445-6266",
    "rating": 4.0,
    "reviews": 25,
    "website": "https://www.google.com/maps/search/Dauss+FOTO+in+Indiana",
    "category": "Black-owned Digital advertising management in Indiana",
    "description": "A digital marketing business located in Indianapolis",
    "hours": "Mon-Fri 9AM-6PM",
    "services": [
      "Black-owned Digital advertising management in Indiana consultation",
      "Professional service",
      "Quality guarantee"
    ],
    "social_links": {}
  },
  {
    "name": "Dauss Miller Photographer",
    "address": "Indianapolis, IN",
    "phone": "(317) 445-6266",
    "rating": 4.0,
    "reviews": 25,
    "website": "https://www.google.com/maps/search/Dauss+Miller+Photographer+in+Indiana",
    "category": "Black-owned Digital advertising management in Indiana",
    "description": "A digital marketing business located in Indianapolis",
    "hours": "Mon-Fri 9AM-6PM",
    "services": [
      "Black-owned Digital advertising management in Indiana consultation",
      "Professional service",
      "Quality guarantee"
    ],
    "social_links": {}
  },
  {
    "name": "Ciz Films",
    "address": "Indianapolis, IN",
    "phone": "(260) 804 8980",
    "rating": 4.0,
    "reviews": 25,
    "website": "https://www.google.com/maps/search/Ciz+Films+in+Indiana",
    "category": "Black-owned Digital advertising management in Indiana",
    "description": "A digital marketing business located in Indianapolis",
    "hours": "Mon-Fri 9AM-6PM",
    "services": [
      "Black-owned Digital advertising management in Indiana consultation",
      "Professional service",
      "Quality guarantee"
    ],
    "social_links": {}
  }
]