[
  {
    "name": "Garden City Nail Spa",
    "address": "40 Sockanosset Cross Road, Cranston, RI 02920",
    "phone": "(401) 533-9988",
    "rating": 4.0,
    "reviews": 25,
    "website": "https://www.google.com/maps/search/Garden+City+Nail+Spa+Rhode+Island",
    "category": "Buddhist-owned Manicures in Rhode-Island",
    "description": "A nail salon in Cranston, RI, specializing in nails, pedicures, and manicures",
    "hours": "Mon-Fri 9AM-6PM",
    "services": [
      "Buddhist-owned Manicures in Rhode-Island consultation",
      "Professional service",
      "Quality guarantee"
    ],
    "social_links": {}
  },
  {
    "name": "SuperNails & Spa",
    "address": "552 Warren Ave, East Providence, RI 02914",
    "phone": "(401) 434-0567",
    "rating": 4.0,
    "reviews": 25,
    "website": "https://www.google.com/maps/search/SuperNails+&+Spa+Rhode+Island",
    "category": "Buddhist-owned Manicures in Rhode-Island",
    "description": "Offers manicure, pedicure, and waxing services in East Providence, RI",
    "hours": "Mon-Fri 9AM-6PM",
    "services": [
      "Buddhist-owned Manicures in Rhode-Island consultation",
      "Professional service",
      "Quality guarantee"
    ],
    "social_links": {}
  },
  {
    "name": "Cosmo Nails",
    "address": "Garden City Chapel View, Cranston, RI",
    "phone": "",
    "rating": 4.0,
    "reviews": 25,
    "website": "https://www.google.com/maps/search/Cosmo+Nails+Rhode+Island",
    "category": "Buddhist-owned Manicures in Rhode-Island",
    "description": "A nail salon in Cranston, RI, known for using quality products and offering spa parties",
    "hours": "Mon-Fri 9AM-6PM",
    "services": [
      "Buddhist-owned Manicures in Rhode-Island consultation",
      "Professional service",
      "Quality guarantee"
    ],
    "social_links": {}
  },
  {
    "name": "Bossy Nails LLC",
    "address": "East Providence, RI",
    "phone": "(401) 808-6797",
    "rating": 4.0,
    "reviews": 25,
    "website": "https://www.google.com/maps/search/Bossy+Nails+LLC+Rhode+Island",
    "category": "Buddhist-owned Manicures in Rhode-Island",
    "description": "A nail salon in East Providence, RI, offering nail art and waxing services",
    "hours": "Mon-Fri 9AM-6PM",
    "services": [
      "Buddhist-owned Manicures in Rhode-Island consultation",
      "Professional service",
      "Quality guarantee"
    ],
    "social_links": {}
  },
  {
    "name": "Five Star Nail Salon",
    "address": "1235 Oaklawn Ave, Cranston, RI 02920",
    "phone": "",
    "rating": 4.0,
    "reviews": 25,
    "website": "https://www.google.com/maps/search/Five+Star+Nail+Salon+Rhode+Island",
    "category": "Buddhist-owned Manicures in Rhode-Island",
    "description": "Specializes in professional nail care for men and women in Cranston, RI, offering a relaxing atmosphere",
    "hours": "Mon-Fri 9AM-6PM",
    "services": [
      "Buddhist-owned Manicures in Rhode-Island consultation",
      "Professional service",
      "Quality guarantee"
    ],
    "social_links": {}
  },
  {
    "name": "Tina Nails & Spa",
    "address": "Cranston, Rhode Island 02910",
    "phone": "",
    "rating": 4.0,
    "reviews": 25,
    "website": "https://www.google.com/maps/search/Tina+Nails+&+Spa+Rhode+Island",
    "category": "Buddhist-owned Manicures in Rhode-Island",
    "description": "A professional nail salon in Cranston, RI, offering a blend of beauty and relaxation with high-quality services",
    "hours": "Mon-Fri 9AM-6PM",
    "services": [
      "Buddhist-owned Manicures in Rhode-Island consultation",
      "Professional service",
      "Quality guarantee"
    ],
    "social_links": {}
  },
  {
    "name": "J&J Nails & Spa INC",
    "address": "375 Admiral St, Providence, RI 02908",
    "phone": "(401) 272-4900",
    "rating": 4.0,
    "reviews": 25,
    "website": "https://www.google.com/maps/search/J&J+Nails+&+Spa+INC+Rhode+Island",
    "category": "Buddhist-owned Manicures in Rhode-Island",
    "description": "A nail salon in Providence, RI, specializing in pedicures, manicures, and other beauty enhancements",
    "hours": "Mon-Fri 9AM-6PM",
    "services": [
      "Buddhist-owned Manicures in Rhode-Island consultation",
      "Professional service",
      "Quality guarantee"
    ],
    "social_links": {}
  },
  {
    "name": "KayKay Nailed It LLC",
    "address": "Cranston, RI",
    "phone": "",
    "rating": 4.0,
    "reviews": 25,
    "website": "https://www.google.com/maps/search/KayKay+Nailed+It+LLC+Rhode+Island",
    "category": "Buddhist-owned Manicures in Rhode-Island",
    "description": "A nail boutique in Cranston, RI, offering a wide array of services and a personalized client experience",
    "hours": "Mon-Fri 9AM-6PM",
    "services": [
      "Buddhist-owned Manicures in Rhode-Island consultation",
      "Professional service",
      "Quality guarantee"
    ],
    "social_links": {}
  },
  {
    "name": "Clara Nails & Spa",
    "address": "1 Lambert Lind Hwy, Warwick, RI 02886",
    "phone": "(401) 714-0599",
    "rating": 4.0,
    "reviews": 25,
    "website": "https://www.google.com/maps/search/Clara+Nails+&+Spa+Rhode+Island",
    "category": "Buddhist-owned Manicures in Rhode-Island",
    "description": "A premier nail salon in Warwick, RI, offering a world-class experience with skilled technicians",
    "hours": "Mon-Fri 9AM-6PM",
    "services": [
      "Buddhist-owned Manicures in Rhode-Island consultation",
      "Professional service",
      "Quality guarantee"
    ],
    "social_links": {}
  },
  {
    "name": "Maxx Nails & Spa",
    "address": "Warwick, RI",
    "phone": "",
    "rating": 4.0,
    "reviews": 25,
    "website": "https://www.google.com/maps/search/Maxx+Nails+&+Spa+Rhode+Island",
    "category": "Buddhist-owned Manicures in Rhode-Island",
    "description": "A popular and recommended nail salon in Warwick, RI, offering unique manicures and pedicures in a relaxing environment",
    "hours": "Mon-Fri 9AM-6PM",
    "services": [
      "Buddhist-owned Manicures in Rhode-Island consultation",
      "Professional service",
      "Quality guarantee"
    ],
    "social_links": {}
  }
]