[
  {
    "name": "Fo Guang Shan Buddhist Temple, NC",
    "address": "2529 Prince Drive, Raleigh, NC 27606",
    "phone": "(919) 781-4499",
    "rating": 4.0,
    "reviews": 25,
    "website": "http://www.ibpsnc.org/",
    "category": "Buddhist-owned Setup and teardown in North-Carolina",
    "description": "Offers Sunday Dharma services, regular Buddhist events, cultural activities, and programs. They also provide support for weddings and memorial services",
    "hours": "Mon-Fri 9AM-6PM",
    "services": [
      "Buddhist-owned Setup and teardown in North-Carolina consultation",
      "Professional service",
      "Quality guarantee"
    ],
    "social_links": {}
  },
  {
    "name": "Kadampa Center for the Practice of Tibetan Buddhism",
    "address": "5412 Etta Burke Court, Raleigh, NC 27606",
    "phone": "(919) 859-0207",
    "rating": 4.0,
    "reviews": 25,
    "website": "https://kadampa-center.org/",
    "category": "Buddhist-owned Setup and teardown in North-Carolina",
    "description": "Offers programs and meditation courses for everyone, and may be able to assist with event-related needs for community gatherings",
    "hours": "Mon-Fri 9AM-6PM",
    "services": [
      "Buddhist-owned Setup and teardown in North-Carolina consultation",
      "Professional service",
      "Quality guarantee"
    ],
    "social_links": {}
  },
  {
    "name": "North Carolina Buddhist Temple - Theravada Meditation Center",
    "address": "1017 Patterson Road, Durham, NC 27704",
    "phone": "(919) 477-2117",
    "rating": 4.0,
    "reviews": 25,
    "website": "http://www.ncbuddhisttemple.org/",
    "category": "Buddhist-owned Setup and teardown in North-Carolina",
    "description": "Offers guided meditation and Dharma services. They might be a resource for community event support",
    "hours": "Mon-Fri 9AM-6PM",
    "services": [
      "Buddhist-owned Setup and teardown in North-Carolina consultation",
      "Professional service",
      "Quality guarantee"
    ],
    "social_links": {}
  },
  {
    "name": "Piedmont KTC (Karma Thegsum Choling)",
    "address": "110 West Main Street, Suite 2L, Carrboro NC 27510",
    "phone": "(919) 933-0105",
    "rating": 4.0,
    "reviews": 25,
    "website": "http://www.piedmontktc.org/",
    "category": "Buddhist-owned Setup and teardown in North-Carolina",
    "description": "A Tibetan Buddhist meditation group that may offer community support for events",
    "hours": "Mon-Fri 9AM-6PM",
    "services": [
      "Buddhist-owned Setup and teardown in North-Carolina consultation",
      "Professional service",
      "Quality guarantee"
    ],
    "social_links": {}
  },
  {
    "name": "Charlotte Buddhist Vihara",
    "address": "(Specific address not readily available, check website for details) Charlotte, NC",
    "phone": "(704) 607-5111",
    "rating": 4.0,
    "reviews": 25,
    "website": "http://www.charlottebuddhistvihara.org/",
    "category": "Buddhist-owned Setup and teardown in North-Carolina",
    "description": "A monastic residence offering meditation events and Buddhist teachings. They may be able to connect you with resources for event setup",
    "hours": "Mon-Fri 9AM-6PM",
    "services": [
      "Buddhist-owned Setup and teardown in North-Carolina consultation",
      "Professional service",
      "Quality guarantee"
    ],
    "social_links": {}
  },
  {
    "name": "Won Buddhism of North Carolina (Chapel Hill & Raleigh)",
    "address": "Chapel Hill Temple: 8021 Old NC 86, Chapel Hill, NC 27516; Raleigh Temple: (Address not specified, check website)",
    "phone": "(919) 967-9100 (Chapel Hill)",
    "rating": 4.0,
    "reviews": 25,
    "website": "https://www.wonbuddhism.org/",
    "category": "Buddhist-owned Setup and teardown in North-Carolina",
    "description": "Offers various programs, classes, and special events. They may have resources or contacts for event setup and teardown",
    "hours": "Mon-Fri 9AM-6PM",
    "services": [
      "Buddhist-owned Setup and teardown in North-Carolina consultation",
      "Professional service",
      "Quality guarantee"
    ],
    "social_links": {}
  },
  {
    "name": "The North Carolina Zen Center",
    "address": "(Located on 15 acres of wooded land south of Chapel Hill, NC - specific address not provided)",
    "phone": "(919) 933-0105",
    "rating": 4.0,
    "reviews": 25,
    "website": "https://www.nczc.org/",
    "category": "Buddhist-owned Setup and teardown in North-Carolina",
    "description": "A Zen Buddhist community and retreat center that offers meditation sessions and traditional services. They also welcome outside groups to rent the center",
    "hours": "Mon-Fri 9AM-6PM",
    "services": [
      "Buddhist-owned Setup and teardown in North-Carolina consultation",
      "Professional service",
      "Quality guarantee"
    ],
    "social_links": {}
  },
  {
    "name": "Mountain Mindfulness Sangha of Asheville",
    "address": "Asheville, North Carolina (Contact via email or phone for specific location details)",
    "phone": "207-313-0794 (Bob)",
    "rating": 4.0,
    "reviews": 25,
    "website": "https://www.mtn-mindfulness.org/",
    "category": "Buddhist-owned Setup and teardown in North-Carolina",
    "description": "A community practicing engaged Buddhism. They may be able to offer guidance or connections for event support",
    "hours": "Mon-Fri 9AM-6PM",
    "services": [
      "Buddhist-owned Setup and teardown in North-Carolina consultation",
      "Professional service",
      "Quality guarantee"
    ],
    "social_links": {}
  },
  {
    "name": "Southern Dharma Retreat Center",
    "address": "Spring Creek, North Carolina (Approx. 1 hour from Asheville)",
    "phone": "(828) 683-1554",
    "rating": 4.0,
    "reviews": 25,
    "website": "https://www.southerndharma.org/",
    "category": "Buddhist-owned Setup and teardown in North-Carolina",
    "description": "Offers meditation retreats and dharma instruction. They have a community building for meditation and meetings, and may have insights into local event services",
    "hours": "Mon-Fri 9AM-6PM",
    "services": [
      "Buddhist-owned Setup and teardown in North-Carolina consultation",
      "Professional service",
      "Quality guarantee"
    ],
    "social_links": {}
  },
  {
    "name": "Karen Buddhist Society of North Carolina",
    "address": "Chapel Hill, NC (Founded in 2019)",
    "phone": "",
    "rating": 4.0,
    "reviews": 25,
    "website": "https://www.google.com/maps/search/Karen+Buddhist+Society+of+North+Carolina+North+Carolina",
    "category": "Buddhist-owned Setup and teardown in North-Carolina",
    "description": "A Buddhist nonprofit organization. While specific services are not detailed, they may be a point of contact for Buddhist community needs",
    "hours": "Mon-Fri 9AM-6PM",
    "services": [
      "Buddhist-owned Setup and teardown in North-Carolina consultation",
      "Professional service",
      "Quality guarantee"
    ],
    "social_links": {}
  }
]