[
  {
    "name": "Tri-Star Moving",
    "address": "Nashville, TN",
    "phone": "(615) 240-2811",
    "rating": 5.0,
    "reviews": 25,
    "website": "https://www.tristar-moving.com/",
    "category": "Chinese-speaking Move management in Tennessee",
    "description": "A fully licensed and insured full-service moving company offering local and long-distance moves for residential and commercial customers",
    "hours": "Mon-Fri 9AM-6PM",
    "services": [
      "Chinese-speaking Move management in Tennessee consultation",
      "Professional service",
      "Quality guarantee"
    ],
    "social_links": {}
  },
  {
    "name": "6th Man Movers",
    "address": "Nashville, TN",
    "phone": "(615) 434-8272",
    "rating": 4.9,
    "reviews": 25,
    "website": "https://www.6thmanmovers.com/",
    "category": "Chinese-speaking Move management in Tennessee",
    "description": "A reliable and affordable moving company providing local, long-distance, and labor-only moves, as well as packing and storage services",
    "hours": "Mon-Fri 9AM-6PM",
    "services": [
      "Chinese-speaking Move management in Tennessee consultation",
      "Professional service",
      "Quality guarantee"
    ],
    "social_links": {}
  },
  {
    "name": "Good Guys Moving & Delivery",
    "address": "Chattanooga, TN (also serves Nashville and Atlanta)",
    "phone": "(423) 637-2936",
    "rating": 4.86,
    "reviews": 25,
    "website": "https://www.goodguysmoving.com/",
    "category": "Chinese-speaking Move management in Tennessee",
    "description": "An award-winning moving company known for its quality, efficiency, and customer service, offering flexible scheduling and pricing",
    "hours": "Mon-Fri 9AM-6PM",
    "services": [
      "Chinese-speaking Move management in Tennessee consultation",
      "Professional service",
      "Quality guarantee"
    ],
    "social_links": {}
  },
  {
    "name": "My Town Movers",
    "address": "Memphis, TN",
    "phone": "(901) 295-0255",
    "rating": 4.0,
    "reviews": 25,
    "website": "https://www.mytownmovers.com/",
    "category": "Chinese-speaking Move management in Tennessee",
    "description": "A preferred Memphis moving company offering local, long-distance, office, commercial, and apartment moving services",
    "hours": "Mon-Fri 9AM-6PM",
    "services": [
      "Chinese-speaking Move management in Tennessee consultation",
      "Professional service",
      "Quality guarantee"
    ],
    "social_links": {}
  },
  {
    "name": "Big Orange Moving",
    "address": "Knoxville, TN",
    "phone": "(865) 312-0401",
    "rating": 4.0,
    "reviews": 25,
    "website": "https://www.bigorangemoving.com/",
    "category": "Chinese-speaking Move management in Tennessee",
    "description": "A reliable partner for seamless moves in Knoxville, offering tailored moving services for homes and businesses with innovative solutions",
    "hours": "Mon-Fri 9AM-6PM",
    "services": [
      "Chinese-speaking Move management in Tennessee consultation",
      "Professional service",
      "Quality guarantee"
    ],
    "social_links": {}
  },
  {
    "name": "River City Moving",
    "address": "Chattanooga, TN",
    "phone": "(423) 485-1400",
    "rating": 4.0,
    "reviews": 25,
    "website": "https://www.rivercitymoving.com/",
    "category": "Chinese-speaking Move management in Tennessee",
    "description": "A locally owned and operated moving company in Chattanooga, providing dependable and caring service with professional, trustworthy movers",
    "hours": "Mon-Fri 9AM-6PM",
    "services": [
      "Chinese-speaking Move management in Tennessee consultation",
      "Professional service",
      "Quality guarantee"
    ],
    "social_links": {}
  },
  {
    "name": "Yeo Moving",
    "address": "Knoxville, TN",
    "phone": "(865) 312-0401",
    "rating": 4.9,
    "reviews": 25,
    "website": "https://yeomoving.com/",
    "category": "Chinese-speaking Move management in Tennessee",
    "description": "Offers over 16 years of logistics experience for local and long-distance moves, specializing in residential and commercial relocations with professional movers",
    "hours": "Mon-Fri 9AM-6PM",
    "services": [
      "Chinese-speaking Move management in Tennessee consultation",
      "Professional service",
      "Quality guarantee"
    ],
    "social_links": {}
  },
  {
    "name": "Catfish Moving Company",
    "address": "Nashville, TN",
    "phone": "(615) 945-2000",
    "rating": 4.0,
    "reviews": 25,
    "website": "https://catfishmoving.com/",
    "category": "Chinese-speaking Move management in Tennessee",
    "description": "A family-owned business with over 20 years of experience offering local, long-distance, packing, and delivery services",
    "hours": "Mon-Fri 9AM-6PM",
    "services": [
      "Chinese-speaking Move management in Tennessee consultation",
      "Professional service",
      "Quality guarantee"
    ],
    "social_links": {}
  },
  {
    "name": "Cord Moving & Storage",
    "address": "Memphis, TN",
    "phone": "(866) 742-1558",
    "rating": 4.0,
    "reviews": 25,
    "website": "https://www.cordmoving.com/",
    "category": "Chinese-speaking Move management in Tennessee",
    "description": "A Memphis-based company offering comprehensive moving services including residential, local, long-distance, international, and commercial moves, with storage and packing solutions",
    "hours": "Mon-Fri 9AM-6PM",
    "services": [
      "Chinese-speaking Move management in Tennessee consultation",
      "Professional service",
      "Quality guarantee"
    ],
    "social_links": {}
  },
  {
    "name": "Brothers On The Move",
    "address": "Knoxville, TN",
    "phone": "(865) 454-4540",
    "rating": 4.9,
    "reviews": 25,
    "website": "https://brothersonthemove.com/",
    "category": "Chinese-speaking Move management in Tennessee",
    "description": "A family-owned, licensed, and insured moving company offering a full range of services including local and long-distance moving, packing, unpacking, and junk removal",
    "hours": "Mon-Fri 9AM-6PM",
    "services": [
      "Chinese-speaking Move management in Tennessee consultation",
      "Professional service",
      "Quality guarantee"
    ],
    "social_links": {}
  }
]