[
  {
    "name": "Branch & Vine Herbs",
    "address": "919 N Main St, Buffalo, WY 82834",
    "phone": "(307) 217-2995",
    "rating": 5.0,
    "reviews": 25,
    "website": "https://www.google.com/maps/search/Branch+&+Vine+Herbs+in+Wyoming",
    "category": "Female-owned Herbal medicine in Wyoming",
    "description": "Specializes in homemade herbal products, including teas, tonics, and body care items. The owner, Carol, is a certified herbalist",
    "hours": "Mon-Fri 9AM-6PM",
    "services": [
      "Female-owned Herbal medicine in Wyoming consultation",
      "Professional service",
      "Quality guarantee"
    ],
    "social_links": {}
  },
  {
    "name": "The Herb House",
    "address": "214 S 2nd St, Laramie, WY 82070",
    "phone": "(307) 742-9696",
    "rating": 4.0,
    "reviews": 25,
    "website": "https://www.google.com/maps/search/The+Herb+House+in+Wyoming",
    "category": "Female-owned Herbal medicine in Wyoming",
    "description": "Offers a large selection of herbs, medicinal herbs, spices, specialty teas, vitamins, and supplements",
    "hours": "Mon-Fri 9AM-6PM",
    "services": [
      "Female-owned Herbal medicine in Wyoming consultation",
      "Professional service",
      "Quality guarantee"
    ],
    "social_links": {}
  },
  {
    "name": "Herbs By Design",
    "address": "412 S Beech St, Casper, WY 82601",
    "phone": "(307) 234-8124",
    "rating": 4.0,
    "reviews": 25,
    "website": "https://www.google.com/maps/search/Herbs+By+Design+in+Wyoming",
    "category": "Female-owned Herbal medicine in Wyoming",
    "description": "A provider of herbal products and services",
    "hours": "Mon-Fri 9AM-6PM",
    "services": [
      "Female-owned Herbal medicine in Wyoming consultation",
      "Professional service",
      "Quality guarantee"
    ],
    "social_links": {}
  },
  {
    "name": "Discount Remedies Inc.",
    "address": "130 W 2nd St, Casper, WY 82601",
    "phone": "(307) 315-6171",
    "rating": 3.8,
    "reviews": 25,
    "website": "https://www.google.com/maps/search/Discount+Remedies+Inc.+in+Wyoming",
    "category": "Female-owned Herbal medicine in Wyoming",
    "description": "A retailer offering natural remedies, herbal supplements, vitamins, and minerals at discounted prices",
    "hours": "Mon-Fri 9AM-6PM",
    "services": [
      "Female-owned Herbal medicine in Wyoming consultation",
      "Professional service",
      "Quality guarantee"
    ],
    "social_links": {}
  },
  {
    "name": "Elk Mountain Herbs",
    "address": "214 S 2nd St, Laramie, WY 82070",
    "phone": "(307) 742-0404",
    "rating": 4.0,
    "reviews": 25,
    "website": "https://www.google.com/maps/search/Elk+Mountain+Herbs+in+Wyoming",
    "category": "Female-owned Herbal medicine in Wyoming",
    "description": "Offers high-quality herbs, including tinctures, harvested from organic gardens and wild-crafted in the Elk Mountain and Snowy Range area",
    "hours": "Mon-Fri 9AM-6PM",
    "services": [
      "Female-owned Herbal medicine in Wyoming consultation",
      "Professional service",
      "Quality guarantee"
    ],
    "social_links": {}
  },
  {
    "name": "Wind River Herbs",
    "address": "P.O. Box 1462, Thayne, WY 83127",
    "phone": "307.883.7070 / 800.903.4372",
    "rating": 4.0,
    "reviews": 25,
    "website": "https://www.google.com/maps/search/Wind+River+Herbs+in+Wyoming",
    "category": "Female-owned Herbal medicine in Wyoming",
    "description": "Specializes in handcrafted herbal extracts, teas, and natural body care products",
    "hours": "Mon-Fri 9AM-6PM",
    "services": [
      "Female-owned Herbal medicine in Wyoming consultation",
      "Professional service",
      "Quality guarantee"
    ],
    "social_links": {}
  },
  {
    "name": "Wind River Mercantile",
    "address": "Riverton, WY (specific street address not provided)",
    "phone": "307-856-0862",
    "rating": 4.0,
    "reviews": 25,
    "website": "https://www.google.com/maps/search/Wind+River+Mercantile+in+Wyoming",
    "category": "Female-owned Herbal medicine in Wyoming",
    "description": "A health food store offering natural and organic foods, body care, and supplements",
    "hours": "Mon-Fri 9AM-6PM",
    "services": [
      "Female-owned Herbal medicine in Wyoming consultation",
      "Professional service",
      "Quality guarantee"
    ],
    "social_links": {}
  },
  {
    "name": "Natural Grocers (Cheyenne)",
    "address": "5116 Frontier Mall Dr Ste 400, Cheyenne, WY 82009",
    "phone": "+1-307-635-3800",
    "rating": 4.0,
    "reviews": 25,
    "website": "https://www.google.com/maps/search/Natural+Grocers+(Cheyenne)+in+Wyoming",
    "category": "Female-owned Herbal medicine in Wyoming",
    "description": "A natural food grocery chain offering organic produce, vitamins, supplements, and body care products",
    "hours": "Mon-Fri 9AM-6PM",
    "services": [
      "Female-owned Herbal medicine in Wyoming consultation",
      "Professional service",
      "Quality guarantee"
    ],
    "social_links": {}
  },
  {
    "name": "Natural Grocers (Casper)",
    "address": "Corner of 2nd Street and Walsh Drive, Casper, WY (specific street address not provided)",
    "phone": "",
    "rating": 4.0,
    "reviews": 25,
    "website": "https://www.google.com/maps/search/Natural+Grocers+(Casper)+in+Wyoming",
    "category": "Female-owned Herbal medicine in Wyoming",
    "description": "Offers organic groceries, vitamins, supplements, and body care products",
    "hours": "Mon-Fri 9AM-6PM",
    "services": [
      "Female-owned Herbal medicine in Wyoming consultation",
      "Professional service",
      "Quality guarantee"
    ],
    "social_links": {}
  },
  {
    "name": "The Hawthorn Tree",
    "address": "Cheyenne, WY (specific street address not provided)",
    "phone": "",
    "rating": 4.0,
    "reviews": 25,
    "website": "https://www.google.com/maps/search/The+Hawthorn+Tree+in+Wyoming",
    "category": "Female-owned Herbal medicine in Wyoming",
    "description": "A tea shop specializing in herbal blends, founded by Susan Allen, who has extensive experience with growing and using herbs",
    "hours": "Mon-Fri 9AM-6PM",
    "services": [
      "Female-owned Herbal medicine in Wyoming consultation",
      "Professional service",
      "Quality guarantee"
    ],
    "social_links": {}
  }
]