[
  {
    "name": "Black River Automotive",
    "address": "1837 U.S. 46, Ledgewood, NJ 07852",
    "phone": "(973) 252-8904",
    "rating": 4.0,
    "reviews": 25,
    "website": "https://www.blackriverautomotive.com/",
    "category": "African-American-owned Tire sales in New-Jersey",
    "description": "Family-owned and operated automotive service and repair shop established in 2018",
    "hours": "Mon-Fri 9AM-6PM",
    "services": [
      "African-American-owned Tire sales in New-Jersey consultation",
      "Professional service",
      "Quality guarantee"
    ],
    "social_links": {}
  },
  {
    "name": "Black's Auto Service",
    "address": "100 W Merchant St, Audubon, NJ 08106",
    "phone": "(856) 546-0000",
    "rating": 4.0,
    "reviews": 25,
    "website": "https://www.blacksautoserviceaudubon.com/",
    "category": "African-American-owned Tire sales in New-Jersey",
    "description": "Auto repair shop serving Audubon, NJ, focusing on trust and customer loyalty",
    "hours": "Mon-Fri 9AM-6PM",
    "services": [
      "African-American-owned Tire sales in New-Jersey consultation",
      "Professional service",
      "Quality guarantee"
    ],
    "social_links": {}
  },
  {
    "name": "Werbany Tire Town",
    "address": "1337 N Black Horse Pike, Blackwood, NJ 08012",
    "phone": "(856) 227-1222",
    "rating": 4.0,
    "reviews": 25,
    "website": "https://werbanytiretowntnj.com/",
    "category": "African-American-owned Tire sales in New-Jersey",
    "description": "Local, family-owned business serving Camden, Gloucester, and Cumberland Counties since 1950, specializing in auto and tire services",
    "hours": "Mon-Fri 9AM-6PM",
    "services": [
      "African-American-owned Tire sales in New-Jersey consultation",
      "Professional service",
      "Quality guarantee"
    ],
    "social_links": {}
  },
  {
    "name": "ETD Discount Tire Centers",
    "address": "Multiple locations across New Jersey (e.g., 100 Rt 17 S, Lyndhurst, NJ 07071)",
    "phone": "(201) 939-7700 (Lyndhurst location)",
    "rating": 4.0,
    "reviews": 25,
    "website": "https://www.etddiscounttire.com/",
    "category": "African-American-owned Tire sales in New-Jersey",
    "description": "Family-owned auto repair shop with multiple locations offering tire sales and automotive services",
    "hours": "Mon-Fri 9AM-6PM",
    "services": [
      "African-American-owned Tire sales in New-Jersey consultation",
      "Professional service",
      "Quality guarantee"
    ],
    "social_links": {}
  },
  {
    "name": "Tire Kingdom by Mavis",
    "address": "Multiple locations across New Jersey",
    "phone": "",
    "rating": 4.0,
    "reviews": 25,
    "website": "https://www.mavisdiscounttire.com/locations/tire-kingdom",
    "category": "African-American-owned Tire sales in New-Jersey",
    "description": "Offers a full range of automotive services, including tire sales and installation, oil changes, and brake repairs",
    "hours": "Mon-Fri 9AM-6PM",
    "services": [
      "African-American-owned Tire sales in New-Jersey consultation",
      "Professional service",
      "Quality guarantee"
    ],
    "social_links": {}
  },
  {
    "name": "Mr. Tire",
    "address": "Multiple locations across New Jersey",
    "phone": "",
    "rating": 4.0,
    "reviews": 25,
    "website": "https://www.mrtire.com/",
    "category": "African-American-owned Tire sales in New-Jersey",
    "description": "Offers expert auto repair and tire services, including oil changes and tire installation",
    "hours": "Mon-Fri 9AM-6PM",
    "services": [
      "African-American-owned Tire sales in New-Jersey consultation",
      "Professional service",
      "Quality guarantee"
    ],
    "social_links": {}
  },
  {
    "name": "Tire Warehouse",
    "address": "Multiple locations across New Jersey",
    "phone": "",
    "rating": 4.0,
    "reviews": 25,
    "website": "https://www.tirewarehouse.com/",
    "category": "African-American-owned Tire sales in New-Jersey",
    "description": "Tire shop offering discounts, mounting, balancing, and flat tire repairs",
    "hours": "Mon-Fri 9AM-6PM",
    "services": [
      "African-American-owned Tire sales in New-Jersey consultation",
      "Professional service",
      "Quality guarantee"
    ],
    "social_links": {}
  },
  {
    "name": "American Tire and Auto Care",
    "address": "8 locations across central New Jersey",
    "phone": "",
    "rating": 4.0,
    "reviews": 25,
    "website": "https://www.americantireandautocare.com/",
    "category": "African-American-owned Tire sales in New-Jersey",
    "description": "Provides friendly vehicle service, automotive repair, and a selection of brand-name tires",
    "hours": "Mon-Fri 9AM-6PM",
    "services": [
      "African-American-owned Tire sales in New-Jersey consultation",
      "Professional service",
      "Quality guarantee"
    ],
    "social_links": {}
  },
  {
    "name": "Benigno's Tire Exchange",
    "address": "60 Jewell St, Garfield, NJ 07026",
    "phone": "(973) 546-4518",
    "rating": 4.0,
    "reviews": 25,
    "website": "https://www.benignostire.com/",
    "category": "African-American-owned Tire sales in New-Jersey",
    "description": "Sells all brands of tires and offers auto repair services, in business since 1933",
    "hours": "Mon-Fri 9AM-6PM",
    "services": [
      "African-American-owned Tire sales in New-Jersey consultation",
      "Professional service",
      "Quality guarantee"
    ],
    "social_links": {}
  },
  {
    "name": "Tire Farm",
    "address": "142 Colts Neck Road, Farmingdale, NJ 07727",
    "phone": "(732) 938-2070",
    "rating": 4.0,
    "reviews": 25,
    "website": "https://www.tirefarmnj.com/",
    "category": "African-American-owned Tire sales in New-Jersey",
    "description": "Source for tires and tire services, selling brands like Bridgestone, Firestone, and Michelin",
    "hours": "Mon-Fri 9AM-6PM",
    "services": [
      "African-American-owned Tire sales in New-Jersey consultation",
      "Professional service",
      "Quality guarantee"
    ],
    "social_links": {}
  }
]