[
  {
    "name": "Spa Apsara Skincare & Sugaring",
    "address": "1029 Regents Blvd, Fircrest, WA 98466",
    "phone": "(253) 499-7504 (AI Agent)",
    "rating": 4.0,
    "reviews": 25,
    "website": "https://www.google.com/maps/search/Spa+Apsara+Skincare+&+Sugaring+in+Washington",
    "category": "Chinese-American-owned Sugaring in Washington",
    "description": "Offers sugaring hair removal, facials, and skincare treatments",
    "hours": "Mon-Fri 9AM-6PM",
    "services": [
      "Chinese-American-owned Sugaring in Washington consultation",
      "Professional service",
      "Quality guarantee"
    ],
    "social_links": {}
  },
  {
    "name": "Sugar Sugar Spa",
    "address": "510 NE 65th St, Seattle, WA 98115",
    "phone": "206.789.1127",
    "rating": 4.0,
    "reviews": 25,
    "website": "https://www.google.com/maps/search/Sugar+Sugar+Spa+in+Washington",
    "category": "Chinese-American-owned Sugaring in Washington",
    "description": "Premier sugaring and skincare spa offering body sugaring, facials, and transformative treatments",
    "hours": "Mon-Fri 9AM-6PM",
    "services": [
      "Chinese-American-owned Sugaring in Washington consultation",
      "Professional service",
      "Quality guarantee"
    ],
    "social_links": {}
  },
  {
    "name": "Sugar Plum",
    "address": "4301 S Pine St. Suite 17, Tacoma, WA 98409",
    "phone": "(206) 512-3033",
    "rating": 4.0,
    "reviews": 25,
    "website": "https://www.google.com/maps/search/Sugar+Plum+in+Washington",
    "category": "Chinese-American-owned Sugaring in Washington",
    "description": "Offers sugaring services in Tacoma, located next to the Tacoma Mall",
    "hours": "Mon-Fri 9AM-6PM",
    "services": [
      "Chinese-American-owned Sugaring in Washington consultation",
      "Professional service",
      "Quality guarantee"
    ],
    "social_links": {}
  },
  {
    "name": "SugarThis",
    "address": "[Not provided in search results] Vancouver, WA",
    "phone": "",
    "rating": 4.0,
    "reviews": 25,
    "website": "https://www.google.com/maps/search/SugarThis+in+Washington",
    "category": "Chinese-American-owned Sugaring in Washington",
    "description": "A sugaring studio offering expert hair removal services like Brazilians and brow shaping",
    "hours": "Mon-Fri 9AM-6PM",
    "services": [
      "Chinese-American-owned Sugaring in Washington consultation",
      "Professional service",
      "Quality guarantee"
    ],
    "social_links": {}
  },
  {
    "name": "RENNU Spa",
    "address": "[Downtown Bellevue, WA - specific address not provided]",
    "phone": "",
    "rating": 4.0,
    "reviews": 25,
    "website": "https://www.google.com/maps/search/RENNU+Spa+in+Washington",
    "category": "Chinese-American-owned Sugaring in Washington",
    "description": "Offers professional waxing and sugaring services for women and men in Bellevue, WA",
    "hours": "Mon-Fri 9AM-6PM",
    "services": [
      "Chinese-American-owned Sugaring in Washington consultation",
      "Professional service",
      "Quality guarantee"
    ],
    "social_links": {}
  },
  {
    "name": "Hello Sugar",
    "address": "5101 25th Ave NE, Suite 8, Seattle, WA 98105",
    "phone": "",
    "rating": 4.0,
    "reviews": 25,
    "website": "https://www.google.com/maps/search/Hello+Sugar+in+Washington",
    "category": "Chinese-American-owned Sugaring in Washington",
    "description": "Full body waxing and sugaring salon specializing in Brazilians, with a focus on a comfortable and inclusive environment",
    "hours": "Mon-Fri 9AM-6PM",
    "services": [
      "Chinese-American-owned Sugaring in Washington consultation",
      "Professional service",
      "Quality guarantee"
    ],
    "social_links": {}
  },
  {
    "name": "Skinplicity Tacoma",
    "address": "[Tacoma, WA - specific address not provided]",
    "phone": "",
    "rating": 4.0,
    "reviews": 25,
    "website": "https://www.google.com/maps/search/Skinplicity+Tacoma+in+Washington",
    "category": "Chinese-American-owned Sugaring in Washington",
    "description": "Offers sugaring, waxing, customized facials, and lash lifts",
    "hours": "Mon-Fri 9AM-6PM",
    "services": [
      "Chinese-American-owned Sugaring in Washington consultation",
      "Professional service",
      "Quality guarantee"
    ],
    "social_links": {}
  },
  {
    "name": "Smooth Sugaring Studio",
    "address": "[Madison Park, Seattle, WA - specific address not provided]",
    "phone": "1-206-948-5966",
    "rating": 4.0,
    "reviews": 25,
    "website": "https://www.google.com/maps/search/Smooth+Sugaring+Studio+in+Washington",
    "category": "Chinese-American-owned Sugaring in Washington",
    "description": "Offers hair removal services for men and women using an all-natural sugar paste",
    "hours": "Mon-Fri 9AM-6PM",
    "services": [
      "Chinese-American-owned Sugaring in Washington consultation",
      "Professional service",
      "Quality guarantee"
    ],
    "social_links": {}
  },
  {
    "name": "Sh\u00faga Studio",
    "address": "1009 N Washington St Suite D, Spokane, WA 99201",
    "phone": "509-426-4746",
    "rating": 4.0,
    "reviews": 25,
    "website": "https://www.google.com/maps/search/Sh\u00faga+Studio+in+Washington",
    "category": "Chinese-American-owned Sugaring in Washington",
    "description": "Premier Spokane esthetician focusing on sugaring, semi-permanent make-up, and lamination",
    "hours": "Mon-Fri 9AM-6PM",
    "services": [
      "Chinese-American-owned Sugaring in Washington consultation",
      "Professional service",
      "Quality guarantee"
    ],
    "social_links": {}
  },
  {
    "name": "Sato Skin Care",
    "address": "1733 South Southeast Boulevard, Spokane, Washington 99203",
    "phone": "(509) 991-4211",
    "rating": 4.0,
    "reviews": 25,
    "website": "https://www.google.com/maps/search/Sato+Skin+Care+in+Washington",
    "category": "Chinese-American-owned Sugaring in Washington",
    "description": "Offers sugaring hair removal and customized skincare treatments",
    "hours": "Mon-Fri 9AM-6PM",
    "services": [
      "Chinese-American-owned Sugaring in Washington consultation",
      "Professional service",
      "Quality guarantee"
    ],
    "social_links": {}
  }
]