[
  {
    "name": "Eye Surgeons of Indiana",
    "address": "9002 N Meridian St #100, Indianapolis, IN 46260",
    "phone": "(317) 844-5530",
    "rating": 4.7,
    "reviews": 25,
    "website": "https://www.eyesurgeonsofindiana.com/",
    "category": "Arabic-speaking LASIK surgery in Indiana",
    "description": "Offers advanced LASIK treatments like Contoura LASIK and utilizes state-of-the-art technology. They have a highly experienced team and are recommended by optometrists",
    "hours": "Mon-Fri 9AM-6PM",
    "services": [
      "Arabic-speaking LASIK surgery in Indiana consultation",
      "Professional service",
      "Quality guarantee"
    ],
    "social_links": {}
  },
  {
    "name": "Price Vision Group",
    "address": "9002 N Meridian St #100, Indianapolis, IN 46260",
    "phone": "(317) 844-5530",
    "rating": 4.5,
    "reviews": 25,
    "website": "https://www.pricevisiongroup.com/",
    "category": "Arabic-speaking LASIK surgery in Indiana",
    "description": "A leading provider of vision correction in Indiana with extensive experience in LASIK, including research that led to FDA approval. They offer a range of vision correction options",
    "hours": "Mon-Fri 9AM-6PM",
    "services": [
      "Arabic-speaking LASIK surgery in Indiana consultation",
      "Professional service",
      "Quality guarantee"
    ],
    "social_links": {}
  },
  {
    "name": "Elite LASIK & Cataract",
    "address": "8440 Northwest Blvd #120, Indianapolis, IN 46278",
    "phone": "(317) 202-0669",
    "rating": 4.8,
    "reviews": 25,
    "website": "https://www.elite-lasik.com/",
    "category": "Arabic-speaking LASIK surgery in Indiana",
    "description": "Specializes in personalized LASIK and cataract surgery with a focus on patient care and competitive pricing. They have a large number of procedures performed by board-certified corneal specialists",
    "hours": "Mon-Fri 9AM-6PM",
    "services": [
      "Arabic-speaking LASIK surgery in Indiana consultation",
      "Professional service",
      "Quality guarantee"
    ],
    "social_links": {}
  },
  {
    "name": "LASIK Specialist LLC",
    "address": "Multiple locations, including Indianapolis, South Bend, and Elkhart. The surgery center is in Indianapolis",
    "phone": "(574) 206-1000 (South Bend/Elkhart)",
    "rating": 4.9,
    "reviews": 25,
    "website": "https://www.lasikspecialistllc.com/",
    "category": "Arabic-speaking LASIK surgery in Indiana",
    "description": "Led by Dr. Martin Burger, who has performed over 120,000 LASIK procedures. They offer free consultations and financing options",
    "hours": "Mon-Fri 9AM-6PM",
    "services": [
      "Arabic-speaking LASIK surgery in Indiana consultation",
      "Professional service",
      "Quality guarantee"
    ],
    "social_links": {}
  },
  {
    "name": "The LASIK Vision Institute",
    "address": "Multiple locations including South Bend and Bloomington",
    "phone": "866-388-5354",
    "rating": 4.7,
    "reviews": 25,
    "website": "https://www.lasik.com/",
    "category": "Arabic-speaking LASIK surgery in Indiana",
    "description": "Offers LASIK surgery with experienced surgeons, guaranteed financing, and a lifetime assurance plan",
    "hours": "Mon-Fri 9AM-6PM",
    "services": [
      "Arabic-speaking LASIK surgery in Indiana consultation",
      "Professional service",
      "Quality guarantee"
    ],
    "social_links": {}
  },
  {
    "name": "Indiana LASIK Centers",
    "address": "Offices in Fort Wayne and Mishawaka",
    "phone": "(260) 424-5656 (Fort Wayne)",
    "rating": 4.5,
    "reviews": 25,
    "website": "https://www.indianalasik.com/",
    "category": "Arabic-speaking LASIK surgery in Indiana",
    "description": "Provides LASIK and PRK surgery with a focus on affordability and patient care, offering free consultations",
    "hours": "Mon-Fri 9AM-6PM",
    "services": [
      "Arabic-speaking LASIK surgery in Indiana consultation",
      "Professional service",
      "Quality guarantee"
    ],
    "social_links": {}
  },
  {
    "name": "The Eye Center of Southern Indiana",
    "address": "1525 N Walnut St, Bloomington, IN 47404",
    "phone": "(812) 334-1213",
    "rating": 4.6,
    "reviews": 25,
    "website": "https://www.the-eye-center.com/",
    "category": "Arabic-speaking LASIK surgery in Indiana",
    "description": "Offers LASIK surgery with advanced technology and a focus on achieving excellent visual outcomes for patients in Bloomington",
    "hours": "Mon-Fri 9AM-6PM",
    "services": [
      "Arabic-speaking LASIK surgery in Indiana consultation",
      "Professional service",
      "Quality guarantee"
    ],
    "social_links": {}
  },
  {
    "name": "Ohio Valley Eye Institute",
    "address": "1000 N. Weinbach Ave., Evansville, IN 47711",
    "phone": "(812) 421-2020",
    "rating": 4.7,
    "reviews": 25,
    "website": "https://www.ohiovalleyeye.com/",
    "category": "Arabic-speaking LASIK surgery in Indiana",
    "description": "Provides a range of vision correction services including LASIK and cataract surgery. Dr. Aalaa Shahin, an optometrist at this location, is fluent in Arabic",
    "hours": "Mon-Fri 9AM-6PM",
    "services": [
      "Arabic-speaking LASIK surgery in Indiana consultation",
      "Professional service",
      "Quality guarantee"
    ],
    "social_links": {}
  },
  {
    "name": "The Vision Care Center",
    "address": "122 SE 4th St, Evansville, IN 47708",
    "phone": "(812) 477-8696",
    "rating": 4.7,
    "reviews": 25,
    "website": "https://www.visioncarecenter.net/",
    "category": "Arabic-speaking LASIK surgery in Indiana",
    "description": "Offers advanced LASIK technology and personalized treatments, including topography-guided LASIK. They provide pre- and post-operative care",
    "hours": "Mon-Fri 9AM-6PM",
    "services": [
      "Arabic-speaking LASIK surgery in Indiana consultation",
      "Professional service",
      "Quality guarantee"
    ],
    "social_links": {}
  },
  {
    "name": "Fort Wayne Eye Center",
    "address": "7030 W. Jefferson Blvd., Fort Wayne, IN 46804",
    "phone": "(260) 424-5656",
    "rating": 4.7,
    "reviews": 25,
    "website": "https://www.fortwayneeyecenter.com/",
    "category": "Arabic-speaking LASIK surgery in Indiana",
    "description": "Home to Dr. J. Rex Parent, a nationally recognized ophthalmologist specializing in cataract and refractive surgery, including Custom LASIK. They were the first in Northeast Indiana to offer Custom LASIK",
    "hours": "Mon-Fri 9AM-6PM",
    "services": [
      "Arabic-speaking LASIK surgery in Indiana consultation",
      "Professional service",
      "Quality guarantee"
    ],
    "social_links": {}
  }
]