[
  {
    "name": "Country Club of Jackson",
    "address": "3430 Country Club Dr, Jackson, MS 39211, USA",
    "phone": "(601) 982-1111",
    "rating": 4.0,
    "reviews": 25,
    "website": "http://www.countryclubofjackson.com/",
    "category": "Bengali-speaking Event space rentals in Mississippi",
    "description": "This venue has hosted South Asian weddings and offers event planning services",
    "hours": "Mon-Fri 9AM-6PM",
    "services": [
      "Bengali-speaking Event space rentals in Mississippi consultation",
      "Professional service",
      "Quality guarantee"
    ],
    "social_links": {}
  },
  {
    "name": "Jackson Convention Complex (JCC)",
    "address": "201 E. Pascagoula St, Jackson, MS 39201, USA",
    "phone": "(601) 960-1500",
    "rating": 4.0,
    "reviews": 25,
    "website": "https://www.jacksonconventioncomplex.com/",
    "category": "Bengali-speaking Event space rentals in Mississippi",
    "description": "A large facility with extensive meeting and exhibit space, suitable for various events",
    "hours": "Mon-Fri 9AM-6PM",
    "services": [
      "Bengali-speaking Event space rentals in Mississippi consultation",
      "Professional service",
      "Quality guarantee"
    ],
    "social_links": {}
  },
  {
    "name": "Gulf Coast Event Center",
    "address": "9475 Highway 49, Gulfport, MS 39503, USA",
    "phone": "(228) 867-6322",
    "rating": 4.0,
    "reviews": 25,
    "website": "https://www.gulfcoasteventcenter.com/",
    "category": "Bengali-speaking Event space rentals in Mississippi",
    "description": "Offers a ballroom that can be divided into flexible meeting/event rooms, with a pre-event space",
    "hours": "Mon-Fri 9AM-6PM",
    "services": [
      "Bengali-speaking Event space rentals in Mississippi consultation",
      "Professional service",
      "Quality guarantee"
    ],
    "social_links": {}
  },
  {
    "name": "The Parlour on Lorraine",
    "address": "8910 Lorraine Rd, Gulfport, MS 39503, USA",
    "phone": "",
    "rating": 4.0,
    "reviews": 25,
    "website": "https://www.theparlouronlorraine.com/",
    "category": "Bengali-speaking Event space rentals in Mississippi",
    "description": "An intimate micro-event venue perfect for private events, accommodating up to 45 guests",
    "hours": "Mon-Fri 9AM-6PM",
    "services": [
      "Bengali-speaking Event space rentals in Mississippi consultation",
      "Professional service",
      "Quality guarantee"
    ],
    "social_links": {}
  },
  {
    "name": "Batesville Civic Center",
    "address": "101 Civic Center Dr, Batesville, MS 38606, USA",
    "phone": "(662) 563-6200",
    "rating": 4.0,
    "reviews": 25,
    "website": "https://www.batesvilleciviccenter.com/",
    "category": "Bengali-speaking Event space rentals in Mississippi",
    "description": "A large venue with up to 45,000 square feet of event space, suitable for banquets, conferences, and seminars",
    "hours": "Mon-Fri 9AM-6PM",
    "services": [
      "Bengali-speaking Event space rentals in Mississippi consultation",
      "Professional service",
      "Quality guarantee"
    ],
    "social_links": {}
  },
  {
    "name": "Cottonwood Barn at Seward Farms",
    "address": "1046 Seward Farms Rd, Lucedale, MS 39452, USA",
    "phone": "(601) 947-4121",
    "rating": 4.0,
    "reviews": 25,
    "website": "https://www.cottonwoodbarn.com/",
    "category": "Bengali-speaking Event space rentals in Mississippi",
    "description": "A restored event venue on a working farm, offering rustic-chic charm and modern amenities",
    "hours": "Mon-Fri 9AM-6PM",
    "services": [
      "Bengali-speaking Event space rentals in Mississippi consultation",
      "Professional service",
      "Quality guarantee"
    ],
    "social_links": {}
  },
  {
    "name": "The Henry Smith House",
    "address": "10101 Highway 11 S, Picayune, MS 39466, USA",
    "phone": "(601) 889-4444",
    "rating": 4.0,
    "reviews": 25,
    "website": "https://www.thehenrysmithhouse.com/",
    "category": "Bengali-speaking Event space rentals in Mississippi",
    "description": "A wedding and special event venue on a 2.5-acre estate, offering indoor and outdoor spaces",
    "hours": "Mon-Fri 9AM-6PM",
    "services": [
      "Bengali-speaking Event space rentals in Mississippi consultation",
      "Professional service",
      "Quality guarantee"
    ],
    "social_links": {}
  },
  {
    "name": "Duling Hall",
    "address": "655 Duling Ave, Jackson, MS 39216, USA",
    "phone": "(601) 718-1000",
    "rating": 4.0,
    "reviews": 25,
    "website": "https://www.dulinghall.com/",
    "category": "Bengali-speaking Event space rentals in Mississippi",
    "description": "A historic venue in Fondren hosting concerts, community events, private parties, and weddings",
    "hours": "Mon-Fri 9AM-6PM",
    "services": [
      "Bengali-speaking Event space rentals in Mississippi consultation",
      "Professional service",
      "Quality guarantee"
    ],
    "social_links": {}
  },
  {
    "name": "Spice Avenue",
    "address": "4711 HWY 55 N, Jackson, MS 39206, USA",
    "phone": "(601) 982-0890",
    "rating": 4.0,
    "reviews": 25,
    "website": "https://www.spiceavenue.com/",
    "category": "Bengali-speaking Event space rentals in Mississippi",
    "description": "While primarily a restaurant serving Indian food, they may have options for private events or catering that could be relevant",
    "hours": "Mon-Fri 9AM-6PM",
    "services": [
      "Bengali-speaking Event space rentals in Mississippi consultation",
      "Professional service",
      "Quality guarantee"
    ],
    "social_links": {}
  },
  {
    "name": "The Grand Bhagwati (TGB)",
    "address": "This venue is not located in Mississippi, but is mentioned as a venue for South Asian weddings",
    "phone": "",
    "rating": 4.0,
    "reviews": 25,
    "website": "https://www.tgb.com/",
    "category": "Bengali-speaking Event space rentals in Mississippi",
    "description": "Offers versatile venues for grand weddings and social gatherings, with a focus on South Asian traditions",
    "hours": "Mon-Fri 9AM-6PM",
    "services": [
      "Bengali-speaking Event space rentals in Mississippi consultation",
      "Professional service",
      "Quality guarantee"
    ],
    "social_links": {}
  }
]