[
  {
    "name": "U-Haul Storage of Foster Rd",
    "address": "6030 SE Foster Rd, Portland, OR 97206",
    "phone": "1-800-GO-U-HAUL (1-800-468-4285)",
    "rating": 4.0,
    "reviews": 25,
    "website": "https://www.uhaul.com/",
    "category": "Chinese-speaking Moving supply sales in Oregon",
    "description": "Offers a complete line of moving supplies, including boxes, packing tape, bubble cushion wrap, and more. They also offer truck rentals and storage",
    "hours": "Mon-Fri 9AM-6PM",
    "services": [
      "Chinese-speaking Moving supply sales in Oregon consultation",
      "Professional service",
      "Quality guarantee"
    ],
    "social_links": {}
  },
  {
    "name": "The UPS Store Salem",
    "address": "4676 Commercial St SE, Salem, OR 97302",
    "phone": "(503) 371-7777",
    "rating": 4.0,
    "reviews": 25,
    "website": "https://locations.theupsstore.com/or/salem/4676-commercial-st-se",
    "category": "Chinese-speaking Moving supply sales in Oregon",
    "description": "A one-stop shop for moving boxes, packing tape, bubble cushioning, and other moving supplies. They also offer packing and shipping services",
    "hours": "Mon-Fri 9AM-6PM",
    "services": [
      "Chinese-speaking Moving supply sales in Oregon consultation",
      "Professional service",
      "Quality guarantee"
    ],
    "social_links": {}
  },
  {
    "name": "NW Postal & Shipping",
    "address": "1021 SE 45th Ave, Portland, OR 97215",
    "phone": "(503) 274-9489",
    "rating": 4.0,
    "reviews": 25,
    "website": "https://www.nwpostal.com/",
    "category": "Chinese-speaking Moving supply sales in Oregon",
    "description": "Offers a wide variety of moving and packing supplies, including over 40 box sizes, packing peanuts, bubble wrap, tape, and mailing tubes. They also provide custom box making and packing services",
    "hours": "Mon-Fri 9AM-6PM",
    "services": [
      "Chinese-speaking Moving supply sales in Oregon consultation",
      "Professional service",
      "Quality guarantee"
    ],
    "social_links": {}
  },
  {
    "name": "U-Haul Storage at Silverton",
    "address": "4742 Liberty Rd S, Salem, OR 97302",
    "phone": "(503) 399-9418",
    "rating": 4.0,
    "reviews": 25,
    "website": "https://www.uhaul.com/",
    "category": "Chinese-speaking Moving supply sales in Oregon",
    "description": "Provides moving boxes, packing tape, bubble cushion wrap, and other essential moving supplies. They also offer truck rentals and storage",
    "hours": "Mon-Fri 9AM-6PM",
    "services": [
      "Chinese-speaking Moving supply sales in Oregon consultation",
      "Professional service",
      "Quality guarantee"
    ],
    "social_links": {}
  },
  {
    "name": "The UPS Store Gresham",
    "address": "2870 NE Hogan Dr Ste E, Gresham, OR 97030",
    "phone": "(503) 661-3993",
    "rating": 4.0,
    "reviews": 25,
    "website": "https://locations.theupsstore.com/or/gresham/2870-ne-hogan-dr-ste-e",
    "category": "Chinese-speaking Moving supply sales in Oregon",
    "description": "Offers a variety of moving box sizes, bubble cushioning, packing tape, and more. They also provide packing and shipping services",
    "hours": "Mon-Fri 9AM-6PM",
    "services": [
      "Chinese-speaking Moving supply sales in Oregon consultation",
      "Professional service",
      "Quality guarantee"
    ],
    "social_links": {}
  },
  {
    "name": "Eugene Mailbox Inc.",
    "address": "1711 Willamette St. Ste 301, Eugene, OR 97401",
    "phone": "(541) 485-1360",
    "rating": 4.0,
    "reviews": 25,
    "website": "https://www.eugenemailbox.com/",
    "category": "Chinese-speaking Moving supply sales in Oregon",
    "description": "Provides a wide selection of packing and moving supplies, including boxes, packing peanuts, bubble wrap, and tape. They also offer custom box making and packing services",
    "hours": "Mon-Fri 9AM-6PM",
    "services": [
      "Chinese-speaking Moving supply sales in Oregon consultation",
      "Professional service",
      "Quality guarantee"
    ],
    "social_links": {}
  },
  {
    "name": "The UPS Store Eugene",
    "address": "2852 Willamette St, Eugene, OR 97405",
    "phone": "(541) 344-1111",
    "rating": 4.0,
    "reviews": 25,
    "website": "https://locations.theupsstore.com/or/eugene/2852-willamette-st",
    "category": "Chinese-speaking Moving supply sales in Oregon",
    "description": "Offers moving boxes, bubble cushioning, packing tape, and other moving supplies. They also provide packing and shipping services",
    "hours": "Mon-Fri 9AM-6PM",
    "services": [
      "Chinese-speaking Moving supply sales in Oregon consultation",
      "Professional service",
      "Quality guarantee"
    ],
    "social_links": {}
  },
  {
    "name": "MAIL DEPOT",
    "address": "4742 Liberty Rd S, Salem, OR 97302",
    "phone": "(503) 585-3072",
    "rating": 4.0,
    "reviews": 25,
    "website": "https://www.maildepotsalem.com/",
    "category": "Chinese-speaking Moving supply sales in Oregon",
    "description": "Carries a wide range of packing and moving supplies, including over 55 box sizes, specialty boxes, packing peanuts, bubble wrap, and tape. They also offer custom box making and packing services",
    "hours": "Mon-Fri 9AM-6PM",
    "services": [
      "Chinese-speaking Moving supply sales in Oregon consultation",
      "Professional service",
      "Quality guarantee"
    ],
    "social_links": {}
  },
  {
    "name": "U-Haul at Powell Blvd",
    "address": "12011 SE Powell Blvd, Portland, OR 97206",
    "phone": "(503) 774-1171",
    "rating": 4.0,
    "reviews": 25,
    "website": "https://www.uhaul.com/",
    "category": "Chinese-speaking Moving supply sales in Oregon",
    "description": "Offers a variety of moving supplies such as boxes, packing tape, bubble cushion wrap, and more. They also provide truck rentals and storage",
    "hours": "Mon-Fri 9AM-6PM",
    "services": [
      "Chinese-speaking Moving supply sales in Oregon consultation",
      "Professional service",
      "Quality guarantee"
    ],
    "social_links": {}
  },
  {
    "name": "The Home Depot",
    "address": "Multiple locations across Oregon (e.g., 1111 SE 164th Ave, Portland, OR 97233)",
    "phone": "Varies by location (general customer service: 1-800-HOME-DEPOT)",
    "rating": 4.0,
    "reviews": 25,
    "website": "https://www.homedepot.com/",
    "category": "Chinese-speaking Moving supply sales in Oregon",
    "description": "Offers a wide selection of moving boxes, packing tape, mattress bags, and other moving essentials. They also have a moving calculator to help estimate needs",
    "hours": "Mon-Fri 9AM-6PM",
    "services": [
      "Chinese-speaking Moving supply sales in Oregon consultation",
      "Professional service",
      "Quality guarantee"
    ],
    "social_links": {}
  }
]