[
  {
    "name": "Twin Cities Integrative Medicine",
    "address": "15700 43rd Ave N, Maple Grove, MN 55311",
    "phone": "(763) 315-3110",
    "rating": 4.5,
    "reviews": 25,
    "website": "https://www.tcim.com/",
    "category": "Bengali-speaking Functional medicine in Minnesota",
    "description": "Offers a personalized, comprehensive approach using integrative and functional medicine principles to help patients achieve optimal health and vitality",
    "hours": "Mon-Fri 9AM-6PM",
    "services": [
      "Bengali-speaking Functional medicine in Minnesota consultation",
      "Professional service",
      "Quality guarantee"
    ],
    "social_links": {}
  },
  {
    "name": "Olos Integrative & Functional Medicine",
    "address": "1000 West River Road, Suite 100, Minneapolis, MN 55411",
    "phone": "(612) 439-7007",
    "rating": 4.8,
    "reviews": 25,
    "website": "https://oloshealth.com/",
    "category": "Bengali-speaking Functional medicine in Minnesota",
    "description": "Provides functional and regenerative medicine for patients with complex, chronic conditions, utilizing science-backed, non-invasive therapies",
    "hours": "Mon-Fri 9AM-6PM",
    "services": [
      "Bengali-speaking Functional medicine in Minnesota consultation",
      "Professional service",
      "Quality guarantee"
    ],
    "social_links": {}
  },
  {
    "name": "Newbridge Health & Wellness",
    "address": "7101 York Ave #130, Edina, MN 55435",
    "phone": "(612) 730-2237",
    "rating": 4.9,
    "reviews": 25,
    "website": "https://www.newbridgeclinic.com/",
    "category": "Bengali-speaking Functional medicine in Minnesota",
    "description": "Offers functional and integrative medicine services, focusing on treating the underlying root causes of illness to optimize health",
    "hours": "Mon-Fri 9AM-6PM",
    "services": [
      "Bengali-speaking Functional medicine in Minnesota consultation",
      "Professional service",
      "Quality guarantee"
    ],
    "social_links": {}
  },
  {
    "name": "Minnesota Center for Functional Medicine",
    "address": "1000 West River Road, Suite 100, Minneapolis, MN 55411",
    "phone": "(612) 439-7007",
    "rating": 4.8,
    "reviews": 25,
    "website": "https://mnfunctionalmedicine.com/",
    "category": "Bengali-speaking Functional medicine in Minnesota",
    "description": "Specializes in helping adults with autoimmune conditions find the root cause of their symptoms and develop personalized health optimization programs",
    "hours": "Mon-Fri 9AM-6PM",
    "services": [
      "Bengali-speaking Functional medicine in Minnesota consultation",
      "Professional service",
      "Quality guarantee"
    ],
    "social_links": {}
  },
  {
    "name": "Be Well Natural Medicine",
    "address": "4748 Chicago Ave, Minneapolis, MN 55407",
    "phone": "(612) 440-7710",
    "rating": 4.7,
    "reviews": 25,
    "website": "https://bewellnaturalmedicine.com/",
    "category": "Bengali-speaking Functional medicine in Minnesota",
    "description": "A naturopathic medicine clinic specializing in functional medicine and lab testing, offering 1:1 support for various health concerns",
    "hours": "Mon-Fri 9AM-6PM",
    "services": [
      "Bengali-speaking Functional medicine in Minnesota consultation",
      "Professional service",
      "Quality guarantee"
    ],
    "social_links": {}
  },
  {
    "name": "O'Keefe Matz Functional Health Clinic",
    "address": "1660 Grand Ave, St Paul, MN 55105",
    "phone": "(651) 699-1143",
    "rating": 4.6,
    "reviews": 25,
    "website": "https://okeefematz.com/",
    "category": "Bengali-speaking Functional medicine in Minnesota",
    "description": "Integrates chiropractic and functional medicine to address the root causes of fatigue, thyroid imbalance, hormone shifts, and chronic inflammation",
    "hours": "Mon-Fri 9AM-6PM",
    "services": [
      "Bengali-speaking Functional medicine in Minnesota consultation",
      "Professional service",
      "Quality guarantee"
    ],
    "social_links": {}
  },
  {
    "name": "Vitality Chiropractic & Wellness Center",
    "address": "1660 Grand Ave, St Paul, MN 55105",
    "phone": "(612) 293-5529",
    "rating": 4.6,
    "reviews": 25,
    "website": "https://www.vitalitychiropracticwellness.com/",
    "category": "Bengali-speaking Functional medicine in Minnesota",
    "description": "Offers functional medicine services to address chronic fatigue, digestive issues, and unexplained symptoms by uncovering connections others miss",
    "hours": "Mon-Fri 9AM-6PM",
    "services": [
      "Bengali-speaking Functional medicine in Minnesota consultation",
      "Professional service",
      "Quality guarantee"
    ],
    "social_links": {}
  },
  {
    "name": "Rochester Clinic",
    "address": "1000 10th St SE, Suite 100, Rochester, MN 55904",
    "phone": "(507) 218-2180",
    "rating": 4.9,
    "reviews": 25,
    "website": "https://rochester-clinic.com/",
    "category": "Bengali-speaking Functional medicine in Minnesota",
    "description": "Practices functional medicine, focusing on discovering and healing the root cause of health concerns through comprehensive biomarker assessments and personalized plans",
    "hours": "Mon-Fri 9AM-6PM",
    "services": [
      "Bengali-speaking Functional medicine in Minnesota consultation",
      "Professional service",
      "Quality guarantee"
    ],
    "social_links": {}
  },
  {
    "name": "Functional Medicine Center of MN",
    "address": "1000 10th St SE, Suite 100, Rochester, MN 55904",
    "phone": "(507) 218-2180",
    "rating": 4.9,
    "reviews": 25,
    "website": "https://www.functionalmedicinecentermn.com/",
    "category": "Bengali-speaking Functional medicine in Minnesota",
    "description": "An experienced team of doctors and practitioners who help patients gain freedom from chronic pain or other chronic health issues through personalized plans",
    "hours": "Mon-Fri 9AM-6PM",
    "services": [
      "Bengali-speaking Functional medicine in Minnesota consultation",
      "Professional service",
      "Quality guarantee"
    ],
    "social_links": {}
  },
  {
    "name": "WomanWell Functional & Integrative Medicine",
    "address": "825 S Kenwood Dr, Suite 100, St. Paul, MN 55116",
    "phone": "(651) 222-7670",
    "rating": 4.7,
    "reviews": 25,
    "website": "https://www.mnwomenscare.com/womanwell",
    "category": "Bengali-speaking Functional medicine in Minnesota",
    "description": "Offers functional and integrative medicine for women, addressing the root cause of health concerns with a whole-person approach",
    "hours": "Mon-Fri 9AM-6PM",
    "services": [
      "Bengali-speaking Functional medicine in Minnesota consultation",
      "Professional service",
      "Quality guarantee"
    ],
    "social_links": {}
  }
]