[
  {
    "name": "Pino Periodontics",
    "address": "7007 Wyoming Blvd, Suite D-1, Albuquerque, NM 87109",
    "phone": "(505) 822-0565",
    "rating": 4.9,
    "reviews": 25,
    "website": "https://www.pinoperio.com/",
    "category": "Arabic-speaking Periodontics in New-Mexico",
    "description": "Specializes in dental implants, comprehensive evaluations, periodontal treatment, and sedation dentistry",
    "hours": "Mon-Fri 9AM-6PM",
    "services": [
      "Arabic-speaking Periodontics in New-Mexico consultation",
      "Professional service",
      "Quality guarantee"
    ],
    "social_links": {}
  },
  {
    "name": "Albuquerque Periodontal & Implant Specialists Inc.",
    "address": "2400 Louisiana Blvd NE, Suite 410, Albuquerque, NM 87110",
    "phone": "(505) 275-0500",
    "rating": 4.8,
    "reviews": 25,
    "website": "https://www.albuquerqueperiodontal.com/",
    "category": "Arabic-speaking Periodontics in New-Mexico",
    "description": "Offers a range of periodontal services including dental implants, gum grafting, and crown lengthening",
    "hours": "Mon-Fri 9AM-6PM",
    "services": [
      "Arabic-speaking Periodontics in New-Mexico consultation",
      "Professional service",
      "Quality guarantee"
    ],
    "social_links": {}
  },
  {
    "name": "Bear Canyon Periodontics and Implant Specialists",
    "address": "8300 Palomas Ave NE, Suite D, Albuquerque, NM 87109",
    "phone": "(505) 275-1662",
    "rating": 4.7,
    "reviews": 25,
    "website": "https://www.bearcanyonperio.com/",
    "category": "Arabic-speaking Periodontics in New-Mexico",
    "description": "Provides comprehensive periodontal care, including dental implants, cosmetic periodontal surgery, and gum grafting",
    "hours": "Mon-Fri 9AM-6PM",
    "services": [
      "Arabic-speaking Periodontics in New-Mexico consultation",
      "Professional service",
      "Quality guarantee"
    ],
    "social_links": {}
  },
  {
    "name": "Petra I. Mayer DDS",
    "address": "5400 Gibson Blvd SE, Suite 200, Albuquerque, NM 87108",
    "phone": "(505) 881-2400",
    "rating": 4.6,
    "reviews": 25,
    "website": "https://www.petraimayerdds.com/",
    "category": "Arabic-speaking Periodontics in New-Mexico",
    "description": "A female periodontist offering dental implants, gum disease treatment, tooth extractions, and gum surgery",
    "hours": "Mon-Fri 9AM-6PM",
    "services": [
      "Arabic-speaking Periodontics in New-Mexico consultation",
      "Professional service",
      "Quality guarantee"
    ],
    "social_links": {}
  },
  {
    "name": "Alfred Lopez, DDS",
    "address": "10151 Montgomery Blvd NE, Suite 101, Albuquerque, NM 87111",
    "phone": "(505) 299-5500",
    "rating": 4.9,
    "reviews": 25,
    "website": "https://www.alfredlopezdds.com/",
    "category": "Arabic-speaking Periodontics in New-Mexico",
    "description": "Periodontist with extensive experience in periodontics and dental implants, serving Albuquerque since 1988",
    "hours": "Mon-Fri 9AM-6PM",
    "services": [
      "Arabic-speaking Periodontics in New-Mexico consultation",
      "Professional service",
      "Quality guarantee"
    ],
    "social_links": {}
  },
  {
    "name": "Ghiassi Periodontics",
    "address": "333 W. Alameda St., Suite 101, Santa Fe, NM 87501",
    "phone": "(505) 988-2100",
    "rating": 4.8,
    "reviews": 25,
    "website": "https://www.ghiassiperiodontics.com/",
    "category": "Arabic-speaking Periodontics in New-Mexico",
    "description": "Offers high-quality periodontal care, including implant dentistry and laser gum surgery, in Santa Fe and Los Alamos",
    "hours": "Mon-Fri 9AM-6PM",
    "services": [
      "Arabic-speaking Periodontics in New-Mexico consultation",
      "Professional service",
      "Quality guarantee"
    ],
    "social_links": {}
  },
  {
    "name": "Implant & Laser Periodontal Surgery Center (Las Cruces)",
    "address": "3045 East University Ave, Ste. A, Las Cruces, NM 88011",
    "phone": "(575) 522-2477",
    "rating": 4.7,
    "reviews": 25,
    "website": "https://www.implantlaserperio.com/",
    "category": "Arabic-speaking Periodontics in New-Mexico",
    "description": "Specializes in periodontics and dental implants, with board-certified periodontists Drs. Frank Feuille and Bryan Kalish",
    "hours": "Mon-Fri 9AM-6PM",
    "services": [
      "Arabic-speaking Periodontics in New-Mexico consultation",
      "Professional service",
      "Quality guarantee"
    ],
    "social_links": {}
  },
  {
    "name": "Dr. Asli Kiran-Canavan, DDS",
    "address": "1801 Camino de Salud NE, Albuquerque, NM 87102",
    "phone": "(505) 255-1111",
    "rating": 5.0,
    "reviews": 25,
    "website": "https://www.kirancanavandental.com/",
    "category": "Arabic-speaking Periodontics in New-Mexico",
    "description": "A cosmetic dentistry practice that also offers periodontal services",
    "hours": "Mon-Fri 9AM-6PM",
    "services": [
      "Arabic-speaking Periodontics in New-Mexico consultation",
      "Professional service",
      "Quality guarantee"
    ],
    "social_links": {}
  },
  {
    "name": "Dr. Brendan Schleyer, DDS",
    "address": "2800 Coors Blvd NW, Suite A, Albuquerque, NM 87120",
    "phone": "(505) 831-5700",
    "rating": 4.8,
    "reviews": 25,
    "website": "https://www.schleyerdental.com/",
    "category": "Arabic-speaking Periodontics in New-Mexico",
    "description": "Provides a range of periodontal services with a focus on patient care and trust",
    "hours": "Mon-Fri 9AM-6PM",
    "services": [
      "Arabic-speaking Periodontics in New-Mexico consultation",
      "Professional service",
      "Quality guarantee"
    ],
    "social_links": {}
  },
  {
    "name": "Dr. David Opack, DDS",
    "address": "4201 Central Ave NW, Suite F1, Albuquerque, NM 87105",
    "phone": "(505) 831-3300",
    "rating": 4.5,
    "reviews": 25,
    "website": "https://www.drodental.com/",
    "category": "Arabic-speaking Periodontics in New-Mexico",
    "description": "A general dentistry practice that may offer periodontal services",
    "hours": "Mon-Fri 9AM-6PM",
    "services": [
      "Arabic-speaking Periodontics in New-Mexico consultation",
      "Professional service",
      "Quality guarantee"
    ],
    "social_links": {}
  }
]