[
  {
    "name": "Your Vision's Catalyst, LLC",
    "address": "1718 Capitol Avenue, Cheyenne, WY",
    "phone": "",
    "rating": 4.0,
    "reviews": 25,
    "website": "https://www.google.com/maps/search/Your+Vision's+Catalyst,+LLC+in+Wyoming",
    "category": "African-American-owned Landing pages in Wyoming",
    "description": "A business offering professional training and coaching services",
    "hours": "Mon-Fri 9AM-6PM",
    "services": [
      "African-American-owned Landing pages in Wyoming consultation",
      "Professional service",
      "Quality guarantee"
    ],
    "social_links": {}
  },
  {
    "name": "Black Mountain Coffee",
    "address": "Sheridan, Wyoming",
    "phone": "",
    "rating": 4.0,
    "reviews": 25,
    "website": "https://www.google.com/maps/search/Black+Mountain+Coffee+in+Wyoming",
    "category": "African-American-owned Landing pages in Wyoming",
    "description": "A coffee roaster and coffee shop",
    "hours": "Mon-Fri 9AM-6PM",
    "services": [
      "African-American-owned Landing pages in Wyoming consultation",
      "Professional service",
      "Quality guarantee"
    ],
    "social_links": {}
  },
  {
    "name": "El Burro Loco",
    "address": "2333 E Yellowstone Hwy, Casper WY 82609",
    "phone": "(307) 333-2233",
    "rating": 4.0,
    "reviews": 25,
    "website": "https://www.google.com/maps/search/El+Burro+Loco+in+Wyoming",
    "category": "African-American-owned Landing pages in Wyoming",
    "description": "A restaurant",
    "hours": "Mon-Fri 9AM-6PM",
    "services": [
      "African-American-owned Landing pages in Wyoming consultation",
      "Professional service",
      "Quality guarantee"
    ],
    "social_links": {}
  },
  {
    "name": "Express Solutions",
    "address": "PO Box 773, Evansville WY 82636",
    "phone": "(307) 277-5151",
    "rating": 4.0,
    "reviews": 25,
    "website": "https://www.google.com/maps/search/Express+Solutions+in+Wyoming",
    "category": "African-American-owned Landing pages in Wyoming",
    "description": "A business service provider",
    "hours": "Mon-Fri 9AM-6PM",
    "services": [
      "African-American-owned Landing pages in Wyoming consultation",
      "Professional service",
      "Quality guarantee"
    ],
    "social_links": {}
  },
  {
    "name": "Sweet Zoey, LLC",
    "address": "632 CY Ave, Casper WY 82604",
    "phone": "(307) 333-4307",
    "rating": 4.0,
    "reviews": 25,
    "website": "https://www.google.com/maps/search/Sweet+Zoey,+LLC+in+Wyoming",
    "category": "African-American-owned Landing pages in Wyoming",
    "description": "A business with an unknown specialty",
    "hours": "Mon-Fri 9AM-6PM",
    "services": [
      "African-American-owned Landing pages in Wyoming consultation",
      "Professional service",
      "Quality guarantee"
    ],
    "social_links": {}
  },
  {
    "name": "Martinizing of Wyoming - One Hour Martinizing",
    "address": "828 CY Ave, Casper WY 82601-5114",
    "phone": "(307) 234-0595",
    "rating": 4.0,
    "reviews": 25,
    "website": "https://www.google.com/maps/search/Martinizing+of+Wyoming+-+One+Hour+Martinizing+in+Wyoming",
    "category": "African-American-owned Landing pages in Wyoming",
    "description": "A dry cleaning service",
    "hours": "Mon-Fri 9AM-6PM",
    "services": [
      "African-American-owned Landing pages in Wyoming consultation",
      "Professional service",
      "Quality guarantee"
    ],
    "social_links": {}
  }
]