[
  {
    "name": "Mini Kabob",
    "address": "313 1/2 Vine St, Glendale, CA 91204",
    "phone": "(818) 244-1111",
    "rating": 4.6,
    "reviews": 25,
    "website": "https://minikabob.com/",
    "category": "Armenian-speaking Halal catering in California",
    "description": "A family-run Armenian restaurant known for its legendary kebabs and Middle Eastern influences. They offer catering services",
    "hours": "Mon-Fri 9AM-6PM",
    "services": [
      "Armenian-speaking Halal catering in California consultation",
      "Professional service",
      "Quality guarantee"
    ],
    "social_links": {}
  },
  {
    "name": "Alla's Mediterranean Armenian Restaurant",
    "address": "3051 E. Ashlan Ave, Fresno, CA 93726",
    "phone": "(559) 221-1161",
    "rating": 4.5,
    "reviews": 25,
    "website": "https://www.allasmed.com/",
    "category": "Armenian-speaking Halal catering in California",
    "description": "Offers a diverse menu of Mediterranean and Armenian dishes, including catering services. They note gluten-free, vegetarian, and vegan options",
    "hours": "Mon-Fri 9AM-6PM",
    "services": [
      "Armenian-speaking Halal catering in California consultation",
      "Professional service",
      "Quality guarantee"
    ],
    "social_links": {}
  },
  {
    "name": "AJ's Armenian Cuisine",
    "address": "5048 N Maroa Ave, Fresno, CA 93704",
    "phone": "(559) 225-4580",
    "rating": 4.5,
    "reviews": 25,
    "website": "https://ajsarmenia.com/",
    "category": "Armenian-speaking Halal catering in California",
    "description": "Features a fusion of Armenian and Mediterranean flavors, with catering available for special events",
    "hours": "Mon-Fri 9AM-6PM",
    "services": [
      "Armenian-speaking Halal catering in California consultation",
      "Professional service",
      "Quality guarantee"
    ],
    "social_links": {}
  },
  {
    "name": "Zankou Chicken",
    "address": "Multiple locations in Los Angeles, CA (e.g., 1712 Glenoaks Blvd, San Fernando, CA 91340)",
    "phone": "Varies by location (e.g., (818) 365-7777 for San Fernando)",
    "rating": 4.5,
    "reviews": 25,
    "website": "https://www.zankouchicken.com/",
    "category": "Armenian-speaking Halal catering in California",
    "description": "Family-owned since 1962, rooted in Armenia, born in Lebanon, and raised in Los Angeles. They offer Mediterranean cuisine and catering services, emphasizing home-cooked meals",
    "hours": "Mon-Fri 9AM-6PM",
    "services": [
      "Armenian-speaking Halal catering in California consultation",
      "Professional service",
      "Quality guarantee"
    ],
    "social_links": {}
  },
  {
    "name": "Anwar's Kitchen",
    "address": "Los Angeles, CA (specific address not readily available for catering inquiries, but they serve the LA area)",
    "phone": "(310) 893-5555",
    "rating": 4.7,
    "reviews": 25,
    "website": "https://anwarskitchen.com/",
    "category": "Armenian-speaking Halal catering in California",
    "description": "Offers 100% Halal catering with a Mediterranean and Palestinian influence, suitable for various events",
    "hours": "Mon-Fri 9AM-6PM",
    "services": [
      "Armenian-speaking Halal catering in California consultation",
      "Professional service",
      "Quality guarantee"
    ],
    "social_links": {}
  },
  {
    "name": "Aleppo's Kitchen",
    "address": "723 W Lincoln Ave, Anaheim, CA 92805",
    "phone": "(714) 991-5000",
    "rating": 4.5,
    "reviews": 25,
    "website": "https://www.alepposkitchen.com/",
    "category": "Armenian-speaking Halal catering in California",
    "description": "Serves authentic Syrian and Arabic halal dishes, with catering available for various occasions",
    "hours": "Mon-Fri 9AM-6PM",
    "services": [
      "Armenian-speaking Halal catering in California consultation",
      "Professional service",
      "Quality guarantee"
    ],
    "social_links": {}
  },
  {
    "name": "Hatam Restaurant",
    "address": "1031 N Magnolia Ave, Anaheim, CA 92801",
    "phone": "(714) 991-6262",
    "rating": 4.4,
    "reviews": 25,
    "website": "https://hatamrestaurant.com/",
    "category": "Armenian-speaking Halal catering in California",
    "description": "A Persian restaurant in Anaheim that serves halal meat and offers catering. They also have a prayer room",
    "hours": "Mon-Fri 9AM-6PM",
    "services": [
      "Armenian-speaking Halal catering in California consultation",
      "Professional service",
      "Quality guarantee"
    ],
    "social_links": {}
  },
  {
    "name": "The Halal Guys",
    "address": "Multiple locations, including San Francisco (336 O'Farrell St, San Francisco, CA 94102) and Oakland (2100 Franklin St, Suite 2190, Oakland, CA 94612)",
    "phone": "Varies by location (e.g., (415) 549-3454 for San Francisco, (510) 808-5062 for Oakland)",
    "rating": 4.5,
    "reviews": 25,
    "website": "https://www.thehalalguys.com/",
    "category": "Armenian-speaking Halal catering in California",
    "description": "Pioneers of American Halal food, offering catering services across various locations. While not specifically Armenian, they are a well-known Halal option",
    "hours": "Mon-Fri 9AM-6PM",
    "services": [
      "Armenian-speaking Halal catering in California consultation",
      "Professional service",
      "Quality guarantee"
    ],
    "social_links": {}
  },
  {
    "name": "Muqaddas Catering",
    "address": "San Diego, CA (specific address not provided for catering, but they serve the San Diego area)",
    "phone": "",
    "rating": 4.9,
    "reviews": 25,
    "website": "https://muqaddascatering.com/",
    "category": "Armenian-speaking Halal catering in California",
    "description": "Offers upscale Halal catering in San Diego, specializing in gourmet dishes for various events",
    "hours": "Mon-Fri 9AM-6PM",
    "services": [
      "Armenian-speaking Halal catering in California consultation",
      "Professional service",
      "Quality guarantee"
    ],
    "social_links": {}
  },
  {
    "name": "King Kabob",
    "address": "Sacramento, CA (specific address not provided, but they are a mobile Halal food option)",
    "phone": "",
    "rating": 4.0,
    "reviews": 25,
    "website": "https://www.roaminghunger.com/king-kabob/",
    "category": "Armenian-speaking Halal catering in California",
    "description": "A Halal food provider in Sacramento that offers catering. They serve kabob pita wraps, lamb gyros, and more",
    "hours": "Mon-Fri 9AM-6PM",
    "services": [
      "Armenian-speaking Halal catering in California consultation",
      "Professional service",
      "Quality guarantee"
    ],
    "social_links": {}
  }
]