[
  {
    "name": "Homewood Nursery & Garden Center",
    "address": "10809 Honeycutt Rd, Raleigh, NC 27614",
    "phone": "(919) 847-0117",
    "rating": 4.6,
    "reviews": 25,
    "website": "https://www.homewoodnursery.com/",
    "category": "Bengali-speaking Indoor plant care in North-Carolina",
    "description": "A family-owned store offering a wide selection of indoor and outdoor plants, gardening supplies, gifts, and pottery. They also provide landscaping services",
    "hours": "Mon-Fri 9AM-6PM",
    "services": [
      "Bengali-speaking Indoor plant care in North-Carolina consultation",
      "Professional service",
      "Quality guarantee"
    ],
    "social_links": {}
  },
  {
    "name": "Logan's Garden Shop",
    "address": "3225 Blue Ridge Rd, Raleigh, NC 27612",
    "phone": "(919) 834-4545",
    "rating": 4.6,
    "reviews": 25,
    "website": "https://www.logansgarden.com/",
    "category": "Bengali-speaking Indoor plant care in North-Carolina",
    "description": "A full-service garden center and plant nursery known for quality plants, expert advice, and friendly service. They offer greenhouse plants, vegetables, and outdoor furniture",
    "hours": "Mon-Fri 9AM-6PM",
    "services": [
      "Bengali-speaking Indoor plant care in North-Carolina consultation",
      "Professional service",
      "Quality guarantee"
    ],
    "social_links": {}
  },
  {
    "name": "Copperline Plant Co.",
    "address": "6433 Glenwood Ave, Raleigh, NC 27612",
    "phone": "(919) 803-1110",
    "rating": 4.8,
    "reviews": 25,
    "website": "https://copperlineplant.com/",
    "category": "Bengali-speaking Indoor plant care in North-Carolina",
    "description": "Specializes in houseplants, succulents, cacti, aroids, and tropical plants. They also offer home goods, plant care advice, and host classes and events",
    "hours": "Mon-Fri 9AM-6PM",
    "services": [
      "Bengali-speaking Indoor plant care in North-Carolina consultation",
      "Professional service",
      "Quality guarantee"
    ],
    "social_links": {}
  },
  {
    "name": "Johnson Nursery",
    "address": "15003 US-17, Trenton, NC 28585",
    "phone": "(252) 448-1244",
    "rating": 4.7,
    "reviews": 25,
    "website": "https://johnsonnurserync.com/",
    "category": "Bengali-speaking Indoor plant care in North-Carolina",
    "description": "A wholesale and retail plant nursery featuring a vast variety of plants, including annuals, perennials, shrubs, and trees. They offer local delivery and host educational workshops",
    "hours": "Mon-Fri 9AM-6PM",
    "services": [
      "Bengali-speaking Indoor plant care in North-Carolina consultation",
      "Professional service",
      "Quality guarantee"
    ],
    "social_links": {}
  },
  {
    "name": "Creekside Nursery, Inc.",
    "address": "2020 Dallas Cherryville Hwy, Dallas, NC 28034",
    "phone": "(704) 922-1151",
    "rating": 4.7,
    "reviews": 25,
    "website": "https://www.creeksidenursery.com/",
    "category": "Bengali-speaking Indoor plant care in North-Carolina",
    "description": "A grower-direct nursery offering high-quality plants. They are located on 8.5 acres and are a Proven Winners\u00ae Destination Nursery",
    "hours": "Mon-Fri 9AM-6PM",
    "services": [
      "Bengali-speaking Indoor plant care in North-Carolina consultation",
      "Professional service",
      "Quality guarantee"
    ],
    "social_links": {}
  },
  {
    "name": "Carolina Native Nursery",
    "address": "4225 Old Haw River Rd, Saxapahaw, NC 27340",
    "phone": "(336) 376-1811",
    "rating": 4.9,
    "reviews": 25,
    "website": "https://www.carolinanativenursery.com/",
    "category": "Bengali-speaking Indoor plant care in North-Carolina",
    "description": "Specializes in native shrubs and perennials, particularly native azaleas and rhododendrons. They focus on high-quality, hard-to-find, and hardy plants",
    "hours": "Mon-Fri 9AM-6PM",
    "services": [
      "Bengali-speaking Indoor plant care in North-Carolina consultation",
      "Professional service",
      "Quality guarantee"
    ],
    "social_links": {}
  },
  {
    "name": "Flower of Carolina",
    "address": "10700 Old Statesville Rd, Huntersville, NC 28078",
    "phone": "(704) 921-0400",
    "rating": 4.8,
    "reviews": 25,
    "website": "https://www.flowernative.com/",
    "category": "Bengali-speaking Indoor plant care in North-Carolina",
    "description": "A native plant nursery specializing in North Carolina natives, with a diverse selection of pollinator-friendly and shade-loving plants",
    "hours": "Mon-Fri 9AM-6PM",
    "services": [
      "Bengali-speaking Indoor plant care in North-Carolina consultation",
      "Professional service",
      "Quality guarantee"
    ],
    "social_links": {}
  },
  {
    "name": "Bashavia Gardens",
    "address": "1005 S Elm St, Greensboro, NC 27401",
    "phone": "(336) 574-2222",
    "rating": 4.9,
    "reviews": 25,
    "website": "https://www.bashaviagardens.com/",
    "category": "Bengali-speaking Indoor plant care in North-Carolina",
    "description": "An ecological garden design firm and native plant nursery, open by appointment. They focus on sustainable practices and native plantings",
    "hours": "Mon-Fri 9AM-6PM",
    "services": [
      "Bengali-speaking Indoor plant care in North-Carolina consultation",
      "Professional service",
      "Quality guarantee"
    ],
    "social_links": {}
  },
  {
    "name": "One More House Plant",
    "address": "1203 W Friendly Ave, Greensboro, NC 27403",
    "phone": "(336) 574-0077",
    "rating": 4.8,
    "reviews": 25,
    "website": "https://www.onemorehouseplant.com/",
    "category": "Bengali-speaking Indoor plant care in North-Carolina",
    "description": "Offers a wide selection of houseplants at affordable prices, with a focus on providing quality plants and customer service",
    "hours": "Mon-Fri 9AM-6PM",
    "services": [
      "Bengali-speaking Indoor plant care in North-Carolina consultation",
      "Professional service",
      "Quality guarantee"
    ],
    "social_links": {}
  },
  {
    "name": "Urban Pothos Houseplant Shop",
    "address": "1101 East Whitaker Mill Road, Raleigh, NC 27604",
    "phone": "(984) 253-3955",
    "rating": 4.7,
    "reviews": 25,
    "website": "https://www.urbanpothos.com/",
    "category": "Bengali-speaking Indoor plant care in North-Carolina",
    "description": "A plant boutique in Raleigh offering houseplants and friendly plant care expertise. They are located at Raleigh Iron Works",
    "hours": "Mon-Fri 9AM-6PM",
    "services": [
      "Bengali-speaking Indoor plant care in North-Carolina consultation",
      "Professional service",
      "Quality guarantee"
    ],
    "social_links": {}
  }
]