[
  {
    "name": "Veloz IT Solutions LLC",
    "address": "722 East Market Street, Suite 102 Ste 102, Leesburg VA 20176-4475",
    "phone": "(703) 362-1000",
    "rating": 4.0,
    "reviews": 25,
    "website": "https://www.google.com/maps/search/Veloz+IT+Solutions+LLC+in+Virginia",
    "category": "Hispanic-owned Database design in Virginia",
    "description": "Identified as Hispanic/Latino Owned. Services may include IT solutions",
    "hours": "Mon-Fri 9AM-6PM",
    "services": [
      "Hispanic-owned Database design in Virginia consultation",
      "Professional service",
      "Quality guarantee"
    ],
    "social_links": {}
  },
  {
    "name": "CMIT Solutions of Dulles",
    "address": "20130 Lakeview Center Plaza, Suite 400, Ashburn VA 20147",
    "phone": "(571) 463-0987",
    "rating": 4.0,
    "reviews": 25,
    "website": "https://www.google.com/maps/search/CMIT+Solutions+of+Dulles+in+Virginia",
    "category": "Hispanic-owned Database design in Virginia",
    "description": "Identified as Hispanic/Latino Owned. Services may include IT solutions",
    "hours": "Mon-Fri 9AM-6PM",
    "services": [
      "Hispanic-owned Database design in Virginia consultation",
      "Professional service",
      "Quality guarantee"
    ],
    "social_links": {}
  },
  {
    "name": "Axia Management Group",
    "address": "1618 Purple Sage Dr, Reston VA 20194",
    "phone": "(813) 551-8021",
    "rating": 4.0,
    "reviews": 25,
    "website": "https://www.google.com/maps/search/Axia+Management+Group+in+Virginia",
    "category": "Hispanic-owned Database design in Virginia",
    "description": "Identified as Hispanic/Latino Owned. Services may include IT solutions",
    "hours": "Mon-Fri 9AM-6PM",
    "services": [
      "Hispanic-owned Database design in Virginia consultation",
      "Professional service",
      "Quality guarantee"
    ],
    "social_links": {}
  },
  {
    "name": "Bright Wave Facilities Solutions",
    "address": "Sterling VA 20164",
    "phone": "(703) 498-6466",
    "rating": 4.0,
    "reviews": 25,
    "website": "https://www.google.com/maps/search/Bright+Wave+Facilities+Solutions+in+Virginia",
    "category": "Hispanic-owned Database design in Virginia",
    "description": "Identified as Hispanic/Latino Owned. Services may include IT solutions",
    "hours": "Mon-Fri 9AM-6PM",
    "services": [
      "Hispanic-owned Database design in Virginia consultation",
      "Professional service",
      "Quality guarantee"
    ],
    "social_links": {}
  },
  {
    "name": "RedSky",
    "address": "40865 Tulip Poplar Pl, Aldie VA 20105",
    "phone": "(240) 491-7810",
    "rating": 4.0,
    "reviews": 25,
    "website": "https://www.google.com/maps/search/RedSky+in+Virginia",
    "category": "Hispanic-owned Database design in Virginia",
    "description": "Identified as Hispanic/Latino Owned. Services may include IT solutions",
    "hours": "Mon-Fri 9AM-6PM",
    "services": [
      "Hispanic-owned Database design in Virginia consultation",
      "Professional service",
      "Quality guarantee"
    ],
    "social_links": {}
  },
  {
    "name": "Roof-Tech Services, Inc.",
    "address": "43760 Trade Center Place Suite 165, Dulles VA 20166",
    "phone": "(703) 999-9769",
    "rating": 4.0,
    "reviews": 25,
    "website": "https://www.google.com/maps/search/Roof-Tech+Services,+Inc.+in+Virginia",
    "category": "Hispanic-owned Database design in Virginia",
    "description": "Identified as Hispanic/Latino Owned. Services may include IT solutions",
    "hours": "Mon-Fri 9AM-6PM",
    "services": [
      "Hispanic-owned Database design in Virginia consultation",
      "Professional service",
      "Quality guarantee"
    ],
    "social_links": {}
  },
  {
    "name": "MAS Global Consulting",
    "address": "Dulles, VA",
    "phone": "",
    "rating": 4.0,
    "reviews": 25,
    "website": "https://www.google.com/maps/search/MAS+Global+Consulting+in+Virginia",
    "category": "Hispanic-owned Database design in Virginia",
    "description": "Commended for expertise in data analytics and software development",
    "hours": "Mon-Fri 9AM-6PM",
    "services": [
      "Hispanic-owned Database design in Virginia consultation",
      "Professional service",
      "Quality guarantee"
    ],
    "social_links": {}
  },
  {
    "name": "TRIAEM, LLC",
    "address": "Dulles, Virginia",
    "phone": "",
    "rating": 4.0,
    "reviews": 25,
    "website": "https://www.google.com/maps/search/TRIAEM,+LLC+in+Virginia",
    "category": "Hispanic-owned Database design in Virginia",
    "description": "Custom software development firm that may offer database services",
    "hours": "Mon-Fri 9AM-6PM",
    "services": [
      "Hispanic-owned Database design in Virginia consultation",
      "Professional service",
      "Quality guarantee"
    ],
    "social_links": {}
  },
  {
    "name": "Indium Software",
    "address": "Not specified in search results",
    "phone": "",
    "rating": 4.0,
    "reviews": 25,
    "website": "https://www.google.com/maps/search/Indium+Software+in+Virginia",
    "category": "Hispanic-owned Database design in Virginia",
    "description": "Specializes in big data, BI, and data strategy",
    "hours": "Mon-Fri 9AM-6PM",
    "services": [
      "Hispanic-owned Database design in Virginia consultation",
      "Professional service",
      "Quality guarantee"
    ],
    "social_links": {}
  },
  {
    "name": "dbSeer",
    "address": "Not specified in search results",
    "phone": "",
    "rating": 4.0,
    "reviews": 25,
    "website": "https://www.google.com/maps/search/dbSeer+in+Virginia",
    "category": "Hispanic-owned Database design in Virginia",
    "description": "Boutique consulting firm focused on data analytics, financial analytics, data engineering, infrastructure, and migration",
    "hours": "Mon-Fri 9AM-6PM",
    "services": [
      "Hispanic-owned Database design in Virginia consultation",
      "Professional service",
      "Quality guarantee"
    ],
    "social_links": {}
  }
]