[
  {
    "name": "Deckscapes",
    "address": "14350 Minnieville Rd, Woodbridge, VA 22193",
    "phone": "(703) 552-4400",
    "rating": 4.8,
    "reviews": 25,
    "website": "https://deckscapes.com/",
    "category": "Chinese-American-owned Decks in Virginia",
    "description": "Deckscapes specializes in the design and build of custom decks, patios, and porches in Northern Virginia, aiming to create your perfect outdoor living space",
    "hours": "Mon-Fri 9AM-6PM",
    "services": [
      "Chinese-American-owned Decks in Virginia consultation",
      "Professional service",
      "Quality guarantee"
    ],
    "social_links": {}
  },
  {
    "name": "PROdeck Construction LLC",
    "address": "7039 Haycock Rd, Falls Church, VA 22043",
    "phone": "(703) 851-1000",
    "rating": 4.9,
    "reviews": 25,
    "website": "https://www.prodeckconstruction.com/",
    "category": "Chinese-American-owned Decks in Virginia",
    "description": "PROdeck Construction LLC is a family-owned company specializing in the construction of pavilions, patios, porches, and decks, using Trex decking for their projects",
    "hours": "Mon-Fri 9AM-6PM",
    "services": [
      "Chinese-American-owned Decks in Virginia consultation",
      "Professional service",
      "Quality guarantee"
    ],
    "social_links": {}
  },
  {
    "name": "Decks by DAK Construction",
    "address": "1020 Monticello Dr, Charlottesville, VA 22901",
    "phone": "(434) 971-5411",
    "rating": 4.8,
    "reviews": 25,
    "website": "https://decksbydak.com/",
    "category": "Chinese-American-owned Decks in Virginia",
    "description": "Decks by DAK Construction is a veteran-owned business with over 30 years of experience in building custom decks, screened porches, and sunrooms, and is a TrexPro Platinum Partner",
    "hours": "Mon-Fri 9AM-6PM",
    "services": [
      "Chinese-American-owned Decks in Virginia consultation",
      "Professional service",
      "Quality guarantee"
    ],
    "social_links": {}
  },
  {
    "name": "Deck Builders Inc.",
    "address": "10001 Maplewood Dr, Nokesville, VA 20181",
    "phone": "(703) 594-4000",
    "rating": 4.7,
    "reviews": 25,
    "website": "https://www.deckbuildersinc.com/",
    "category": "Chinese-American-owned Decks in Virginia",
    "description": "Deck Builders Inc. specializes in decks, fences, porches, gazebos, and masonry services, offering a 2-year labor warranty and honoring manufacturer warranties",
    "hours": "Mon-Fri 9AM-6PM",
    "services": [
      "Chinese-American-owned Decks in Virginia consultation",
      "Professional service",
      "Quality guarantee"
    ],
    "social_links": {}
  },
  {
    "name": "Smallwood Renovations",
    "address": "1001 E Main St, Richmond, VA 23219",
    "phone": "(804) 518-0100",
    "rating": 4.9,
    "reviews": 25,
    "website": "https://smallwoodrenovations.com/",
    "category": "Chinese-American-owned Decks in Virginia",
    "description": "Smallwood Renovations is a leading deck builder in Richmond, VA, offering custom decks, railings, pergolas, and ADA-compliant ramps, with an A+ rating from the Better Business Bureau",
    "hours": "Mon-Fri 9AM-6PM",
    "services": [
      "Chinese-American-owned Decks in Virginia consultation",
      "Professional service",
      "Quality guarantee"
    ],
    "social_links": {}
  },
  {
    "name": "Virginia Deck Builders",
    "address": "501 Holland Ln, Alexandria, VA 22304",
    "phone": "(703) 627-0150",
    "rating": 4.8,
    "reviews": 25,
    "website": "https://www.virginiadeckbuilders.com/",
    "category": "Chinese-American-owned Decks in Virginia",
    "description": "Virginia Deck Builders specializes in custom deck and patio construction, known for their professionalism, clear communication, and quality craftsmanship",
    "hours": "Mon-Fri 9AM-6PM",
    "services": [
      "Chinese-American-owned Decks in Virginia consultation",
      "Professional service",
      "Quality guarantee"
    ],
    "social_links": {}
  },
  {
    "name": "Deck Envy, LLC",
    "address": "14400 Potomac Mills Rd, Woodbridge, VA 22192",
    "phone": "(571) 340-0220",
    "rating": 5.0,
    "reviews": 25,
    "website": "https://www.deckenvy.com/",
    "category": "Chinese-American-owned Decks in Virginia",
    "description": "Deck Envy, LLC is a minority-owned business specializing in custom decks and patios, committed to high standards of quality and craftsmanship, and offers free estimates",
    "hours": "Mon-Fri 9AM-6PM",
    "services": [
      "Chinese-American-owned Decks in Virginia consultation",
      "Professional service",
      "Quality guarantee"
    ],
    "social_links": {}
  },
  {
    "name": "Prince William Home Improvement (PWHI)",
    "address": "7505 Doane St, Manassas, VA 20110",
    "phone": "(703) 754-0345",
    "rating": 4.8,
    "reviews": 25,
    "website": "https://www.pwhi.com/",
    "category": "Chinese-American-owned Decks in Virginia",
    "description": "PWHI is a Trex Pro Platinum-certified deck builder in Northern Virginia, offering custom deck, patio, and screen room construction with a focus on quality and customer service since 1986",
    "hours": "Mon-Fri 9AM-6PM",
    "services": [
      "Chinese-American-owned Decks in Virginia consultation",
      "Professional service",
      "Quality guarantee"
    ],
    "social_links": {}
  },
  {
    "name": "Core Outdoor",
    "address": "10000 Main St, Fairfax, VA 22030",
    "phone": "(703) 400-1100",
    "rating": 4.9,
    "reviews": 25,
    "website": "https://www.coreoutdoor.com/",
    "category": "Chinese-American-owned Decks in Virginia",
    "description": "Core Outdoor is a top-rated deck, porch, and patio company in Northern Virginia, focusing on sustainable practices and building durable, high-quality outdoor living spaces",
    "hours": "Mon-Fri 9AM-6PM",
    "services": [
      "Chinese-American-owned Decks in Virginia consultation",
      "Professional service",
      "Quality guarantee"
    ],
    "social_links": {}
  },
  {
    "name": "Stoneridge Outdoor Living, LLC",
    "address": "10314 Main St, Fairfax, VA 22030",
    "phone": "(703) 657-4000",
    "rating": 4.7,
    "reviews": 25,
    "website": "https://stoneridgeoutdoorliving.com/",
    "category": "Chinese-American-owned Decks in Virginia",
    "description": "Stoneridge Outdoor Living, LLC, established in 2006, offers custom outdoor living solutions including decks, patios, and pergolas, with a focus on creating unique and functional spaces",
    "hours": "Mon-Fri 9AM-6PM",
    "services": [
      "Chinese-American-owned Decks in Virginia consultation",
      "Professional service",
      "Quality guarantee"
    ],
    "social_links": {}
  }
]