[
  {
    "name": "Highland Roofing",
    "address": "11100 Westport Rd, Louisville, KY 40243",
    "phone": "(502) 425-1221",
    "rating": 4.7,
    "reviews": 25,
    "website": "https://highlandroofing.net/",
    "category": "Agnostic-owned Slate roofing in Kentucky",
    "description": "Specializes in slate and tile roofing installation and maintenance, offering expertise for new and existing homes",
    "hours": "Mon-Fri 9AM-6PM",
    "services": [
      "Agnostic-owned Slate roofing in Kentucky consultation",
      "Professional service",
      "Quality guarantee"
    ],
    "social_links": {}
  },
  {
    "name": "TNT Roofing and Restoration LLC",
    "address": "10100 Westport Rd, Louisville, KY 40243",
    "phone": "(502) 544-1251",
    "rating": 4.8,
    "reviews": 25,
    "website": "https://www.tntroofingandrestoration.com/",
    "category": "Agnostic-owned Slate roofing in Kentucky",
    "description": "A family-owned business with over 25 years of experience in residential and commercial roofing, including slate. They offer comprehensive solutions from replacements to repairs",
    "hours": "Mon-Fri 9AM-6PM",
    "services": [
      "Agnostic-owned Slate roofing in Kentucky consultation",
      "Professional service",
      "Quality guarantee"
    ],
    "social_links": {}
  },
  {
    "name": "MK Contractors LLC",
    "address": "10100 Westport Rd, Louisville, KY 40243",
    "phone": "(859) 271-0524",
    "rating": 4.9,
    "reviews": 25,
    "website": "https://www.mkcontractorsllc.com/",
    "category": "Agnostic-owned Slate roofing in Kentucky",
    "description": "Offers high-quality slate roofing services in the Lexington area, specializing in both natural and synthetic slate. They are BBB A+ accredited and HomeAdvisor Top Rated",
    "hours": "Mon-Fri 9AM-6PM",
    "services": [
      "Agnostic-owned Slate roofing in Kentucky consultation",
      "Professional service",
      "Quality guarantee"
    ],
    "social_links": {}
  },
  {
    "name": "Bluegrass Brothers Roofing",
    "address": "3703 Taylorsville Rd Suite 216, Louisville, KY 40220",
    "phone": "(502) 907-4839",
    "rating": 4.9,
    "reviews": 25,
    "website": "https://www.bluegrassbrothersroofing.com/",
    "category": "Agnostic-owned Slate roofing in Kentucky",
    "description": "Specializes in the installation of high-quality slate roofs, emphasizing their natural beauty, durability, and timeless appeal",
    "hours": "Mon-Fri 9AM-6PM",
    "services": [
      "Agnostic-owned Slate roofing in Kentucky consultation",
      "Professional service",
      "Quality guarantee"
    ],
    "social_links": {}
  },
  {
    "name": "Cox Residential Roofing",
    "address": "10100 Westport Rd, Louisville, KY 40243",
    "phone": "(502) 817-7777",
    "rating": 4.9,
    "reviews": 25,
    "website": "https://coxresidentialroofing.com/",
    "category": "Agnostic-owned Slate roofing in Kentucky",
    "description": "Provides excellent customer service and professional roofing services, including slate roof work. They are highly recommended for their expertise and efficiency",
    "hours": "Mon-Fri 9AM-6PM",
    "services": [
      "Agnostic-owned Slate roofing in Kentucky consultation",
      "Professional service",
      "Quality guarantee"
    ],
    "social_links": {}
  },
  {
    "name": "CMS Roofing LLC",
    "address": "1237 Westen St, Bowling Green, KY 42104",
    "phone": "(270) 842-1706",
    "rating": 4.7,
    "reviews": 25,
    "website": "https://cmsroofingllc.com/",
    "category": "Agnostic-owned Slate roofing in Kentucky",
    "description": "A leader in commercial roofing, offering expertise in slate roof repair and installation, including both natural and synthetic options",
    "hours": "Mon-Fri 9AM-6PM",
    "services": [
      "Agnostic-owned Slate roofing in Kentucky consultation",
      "Professional service",
      "Quality guarantee"
    ],
    "social_links": {}
  },
  {
    "name": "Merrick-Kemper",
    "address": "3808 Ralph Avenue, Louisville, KY 40211",
    "phone": "(502) 449-1234",
    "rating": 4.8,
    "reviews": 25,
    "website": "https://merrick-kemper.com/",
    "category": "Agnostic-owned Slate roofing in Kentucky",
    "description": "Offers exceptional slate roofing services with a focus on craftsmanship and attention to detail, boasting over 200 years of combined experience",
    "hours": "Mon-Fri 9AM-6PM",
    "services": [
      "Agnostic-owned Slate roofing in Kentucky consultation",
      "Professional service",
      "Quality guarantee"
    ],
    "social_links": {}
  },
  {
    "name": "Allen Home Improvement & Roofing Inc.",
    "address": "2514 Rockford Ln, Louisville, KY 40216",
    "phone": "(502) 447-5672",
    "rating": 4.7,
    "reviews": 25,
    "website": "https://www.allenhomeimprovementandroofing.com/",
    "category": "Agnostic-owned Slate roofing in Kentucky",
    "description": "Provides slate roofing services, highlighting its longevity, elegance, and durability, and offers professional repair and inspection services",
    "hours": "Mon-Fri 9AM-6PM",
    "services": [
      "Agnostic-owned Slate roofing in Kentucky consultation",
      "Professional service",
      "Quality guarantee"
    ],
    "social_links": {}
  },
  {
    "name": "Florence Roofing",
    "address": "7170 US-42, Florence, KY 41042",
    "phone": "(859) 371-0000",
    "rating": 4.6,
    "reviews": 25,
    "website": "https://florenceroofing.com/",
    "category": "Agnostic-owned Slate roofing in Kentucky",
    "description": "Offers affordable slate roof installation, construction, replacement, and repair services in Florence, KY, emphasizing durability and aesthetic appeal",
    "hours": "Mon-Fri 9AM-6PM",
    "services": [
      "Agnostic-owned Slate roofing in Kentucky consultation",
      "Professional service",
      "Quality guarantee"
    ],
    "social_links": {}
  },
  {
    "name": "HKC Roofing & Sheet Metal",
    "address": "10100 Westport Rd, Louisville, KY 40243",
    "phone": "(513) 621-3455",
    "rating": 4.9,
    "reviews": 25,
    "website": "https://hkcroofing.com/",
    "category": "Agnostic-owned Slate roofing in Kentucky",
    "description": "Specializes in repairing, installing, maintaining, and restoring slate roofs in Northern Kentucky and the Cincinnati region, adhering to high standards of craftsmanship",
    "hours": "Mon-Fri 9AM-6PM",
    "services": [
      "Agnostic-owned Slate roofing in Kentucky consultation",
      "Professional service",
      "Quality guarantee"
    ],
    "social_links": {}
  }
]