[
  {
    "name": "AAA Rents & Event Services",
    "address": "7722 S 72nd St, Omaha, NE 68147",
    "phone": "(402) 731-0200",
    "rating": 4.5,
    "reviews": 25,
    "website": "http://www.aaarents.com/",
    "category": "Agnostic-owned Event setup crews in Nebraska",
    "description": "Offers a wide range of rental items including tables, chairs, dinnerware, and glassware for weddings, corporate events, and more, with delivery and installation services",
    "hours": "Mon-Fri 9AM-6PM",
    "services": [
      "Agnostic-owned Event setup crews in Nebraska consultation",
      "Professional service",
      "Quality guarantee"
    ],
    "social_links": {}
  },
  {
    "name": "Elite Events Rental",
    "address": "1300 P St, Lincoln, NE 68508",
    "phone": "(402) 476-5500",
    "rating": 4.8,
    "reviews": 25,
    "website": "http://www.eliteeventsrental.com/",
    "category": "Agnostic-owned Event setup crews in Nebraska",
    "description": "A premier event rental store specializing in tables, chairs, linens, dishes, and decor, committed to guiding clients through the design process",
    "hours": "Mon-Fri 9AM-6PM",
    "services": [
      "Agnostic-owned Event setup crews in Nebraska consultation",
      "Professional service",
      "Quality guarantee"
    ],
    "social_links": {}
  },
  {
    "name": "Honeyman Rent-All",
    "address": "5701 N 72nd St, Omaha, NE 68104",
    "phone": "(402) 571-2100",
    "rating": 4.4,
    "reviews": 25,
    "website": "http://www.honeymanrentall.com/",
    "category": "Agnostic-owned Event setup crews in Nebraska",
    "description": "Specializes in party rentals and equipment rentals for various events, from grand openings to block parties, serving Nebraska, Iowa, and the Midwest",
    "hours": "Mon-Fri 9AM-6PM",
    "services": [
      "Agnostic-owned Event setup crews in Nebraska consultation",
      "Professional service",
      "Quality guarantee"
    ],
    "social_links": {}
  },
  {
    "name": "Modern Talent",
    "address": "100 N 10th St Suite 450, Omaha, NE 68102",
    "phone": "(402) 932-7000",
    "rating": 4.7,
    "reviews": 25,
    "website": "http://www.moderntalent.net/",
    "category": "Agnostic-owned Event setup crews in Nebraska",
    "description": "A local event staffing and promotional modeling agency providing brand ambassadors, event staff, and promotional models for various events",
    "hours": "Mon-Fri 9AM-6PM",
    "services": [
      "Agnostic-owned Event setup crews in Nebraska consultation",
      "Professional service",
      "Quality guarantee"
    ],
    "social_links": {}
  },
  {
    "name": "Quality Event Rentals",
    "address": "1009 W 10th St, Hastings, NE 68901",
    "phone": "(402) 463-5657",
    "rating": 4.9,
    "reviews": 25,
    "website": "http://www.qualityeventrentals.net/",
    "category": "Agnostic-owned Event setup crews in Nebraska",
    "description": "A full-service event rental company for weddings, graduations, and special celebrations, offering tents, tables, chairs, and more with professional installation",
    "hours": "Mon-Fri 9AM-6PM",
    "services": [
      "Agnostic-owned Event setup crews in Nebraska consultation",
      "Professional service",
      "Quality guarantee"
    ],
    "social_links": {}
  },
  {
    "name": "Something Blue Events",
    "address": "Hickman, NE (Specific address not publicly listed, but serves the area)",
    "phone": "(402) 570-0245",
    "rating": 5.0,
    "reviews": 25,
    "website": "https://www.somethingblueevents.com/",
    "category": "Agnostic-owned Event setup crews in Nebraska",
    "description": "A wedding planning company specializing in full-service and month-of-wedding coordination, dedicated to making couples' dreams a reality",
    "hours": "Mon-Fri 9AM-6PM",
    "services": [
      "Agnostic-owned Event setup crews in Nebraska consultation",
      "Professional service",
      "Quality guarantee"
    ],
    "social_links": {}
  },
  {
    "name": "Thrive Corporate Events, LLC",
    "address": "Lincoln, NE (Specific address not publicly listed, but serves the area)",
    "phone": "",
    "rating": 4.0,
    "reviews": 25,
    "website": "https://thrivecorporateevents.com/",
    "category": "Agnostic-owned Event setup crews in Nebraska",
    "description": "An event planning company known for its attention to detail, creativity, and ability to take stress off clients' plates for corporate events and celebrations",
    "hours": "Mon-Fri 9AM-6PM",
    "services": [
      "Agnostic-owned Event setup crews in Nebraska consultation",
      "Professional service",
      "Quality guarantee"
    ],
    "social_links": {}
  },
  {
    "name": "U Neek Events",
    "address": "Lincoln, NE (Specific address not publicly listed, but serves the area)",
    "phone": "(402) 430-4422",
    "rating": 4.0,
    "reviews": 25,
    "website": "http://www.uneekevents.com/",
    "category": "Agnostic-owned Event setup crews in Nebraska",
    "description": "Offers event rentals including tents, tables, chairs, linens, stage, pipe and drape, and more for various occasions in Lincoln, NE, and surrounding areas",
    "hours": "Mon-Fri 9AM-6PM",
    "services": [
      "Agnostic-owned Event setup crews in Nebraska consultation",
      "Professional service",
      "Quality guarantee"
    ],
    "social_links": {}
  },
  {
    "name": "402 Events",
    "address": "Omaha, NE (Specific address not publicly listed, but serves the area)",
    "phone": "(402) 990-4020",
    "rating": 4.9,
    "reviews": 25,
    "website": "https://www.402events.com/",
    "category": "Agnostic-owned Event setup crews in Nebraska",
    "description": "An event planning company highly praised for exceptional wedding planning services, responsiveness, attention to detail, and ability to create stress-free and magical events",
    "hours": "Mon-Fri 9AM-6PM",
    "services": [
      "Agnostic-owned Event setup crews in Nebraska consultation",
      "Professional service",
      "Quality guarantee"
    ],
    "social_links": {}
  },
  {
    "name": "Luxx Events & Rentals",
    "address": "1230 P St, Lincoln, NE 68508",
    "phone": "(402) 480-1704",
    "rating": 4.0,
    "reviews": 25,
    "website": "http://www.luxxeventsandrentals.com/",
    "category": "Agnostic-owned Event setup crews in Nebraska",
    "description": "A premier event planning, production, design, and rental company with extensive experience, specializing in corporate events, luxury weddings, and custom productions",
    "hours": "Mon-Fri 9AM-6PM",
    "services": [
      "Agnostic-owned Event setup crews in Nebraska consultation",
      "Professional service",
      "Quality guarantee"
    ],
    "social_links": {}
  }
]