[
  {
    "name": "ATax",
    "address": "Not specified in search results",
    "phone": "(414) 527-2829",
    "rating": 4.0,
    "reviews": 25,
    "website": "https://www.google.com/maps/search/ATax+in+Wisconsin",
    "category": "African-American-owned Sales tax compliance in Wisconsin",
    "description": "Offers comprehensive tax preparation services for individuals and small businesses",
    "hours": "Mon-Fri 9AM-6PM",
    "services": [
      "African-American-owned Sales tax compliance in Wisconsin consultation",
      "Professional service",
      "Quality guarantee"
    ],
    "social_links": {}
  },
  {
    "name": "BOSSED Tax Prep",
    "address": "Not specified in search results",
    "phone": "(414) 377-3241",
    "rating": 4.0,
    "reviews": 25,
    "website": "https://www.google.com/maps/search/BOSSED+Tax+Prep+in+Wisconsin",
    "category": "African-American-owned Sales tax compliance in Wisconsin",
    "description": "Provides tax planning and preparation services to help maximize deductions and credits",
    "hours": "Mon-Fri 9AM-6PM",
    "services": [
      "African-American-owned Sales tax compliance in Wisconsin consultation",
      "Professional service",
      "Quality guarantee"
    ],
    "social_links": {}
  },
  {
    "name": "Eclat Enterprises",
    "address": "Not specified in search results",
    "phone": "(414) 375-9600",
    "rating": 4.0,
    "reviews": 25,
    "website": "https://www.google.com/maps/search/Eclat+Enterprises+in+Wisconsin",
    "category": "African-American-owned Sales tax compliance in Wisconsin",
    "description": "Offers accounting, tax, and business consulting services for individuals and small businesses",
    "hours": "Mon-Fri 9AM-6PM",
    "services": [
      "African-American-owned Sales tax compliance in Wisconsin consultation",
      "Professional service",
      "Quality guarantee"
    ],
    "social_links": {}
  },
  {
    "name": "Greenwood Ave Tax Preparation",
    "address": "Not specified in search results",
    "phone": "(800) 950-5970",
    "rating": 4.0,
    "reviews": 25,
    "website": "https://www.google.com/maps/search/Greenwood+Ave+Tax+Preparation+in+Wisconsin",
    "category": "African-American-owned Sales tax compliance in Wisconsin",
    "description": "Provides virtual and in-person tax preparation services",
    "hours": "Mon-Fri 9AM-6PM",
    "services": [
      "African-American-owned Sales tax compliance in Wisconsin consultation",
      "Professional service",
      "Quality guarantee"
    ],
    "social_links": {}
  },
  {
    "name": "Notable Income Tax and Accounting",
    "address": "Not specified in search results",
    "phone": "(414) 732-8684",
    "rating": 4.0,
    "reviews": 25,
    "website": "https://www.google.com/maps/search/Notable+Income+Tax+and+Accounting+in+Wisconsin",
    "category": "African-American-owned Sales tax compliance in Wisconsin",
    "description": "Specializes in individual and small business taxation, including bookkeeping services",
    "hours": "Mon-Fri 9AM-6PM",
    "services": [
      "African-American-owned Sales tax compliance in Wisconsin consultation",
      "Professional service",
      "Quality guarantee"
    ],
    "social_links": {}
  },
  {
    "name": "Lockwood & Lockwood Services",
    "address": "2323 S 109th St Suite 135, West Allis WI 53227",
    "phone": "(414) 659-0736",
    "rating": 4.0,
    "reviews": 25,
    "website": "https://www.google.com/maps/search/Lockwood+&+Lockwood+Services+in+Wisconsin",
    "category": "African-American-owned Sales tax compliance in Wisconsin",
    "description": "Listed under Accounting & Tax services by the African American Chamber of Commerce of Wisconsin",
    "hours": "Mon-Fri 9AM-6PM",
    "services": [
      "African-American-owned Sales tax compliance in Wisconsin consultation",
      "Professional service",
      "Quality guarantee"
    ],
    "social_links": {}
  },
  {
    "name": "Brown-Beasley Accounting, LLC",
    "address": "1850 N. Dr. Martin Luther King Dr Suite 201, Milwaukee WI 53212",
    "phone": "(414) 264-6491",
    "rating": 4.0,
    "reviews": 25,
    "website": "https://www.google.com/maps/search/Brown-Beasley+Accounting,+LLC+in+Wisconsin",
    "category": "African-American-owned Sales tax compliance in Wisconsin",
    "description": "Offers accounting and tax services and is a member of the African American Chamber of Commerce of Wisconsin",
    "hours": "Mon-Fri 9AM-6PM",
    "services": [
      "African-American-owned Sales tax compliance in Wisconsin consultation",
      "Professional service",
      "Quality guarantee"
    ],
    "social_links": {}
  },
  {
    "name": "Alliance Tax & Accounting Service",
    "address": "13500 Watertown Plank Rd Suite 103, Elm Grove WI 53122",
    "phone": "(262) 786-4442",
    "rating": 4.0,
    "reviews": 25,
    "website": "https://www.google.com/maps/search/Alliance+Tax+&+Accounting+Service+in+Wisconsin",
    "category": "African-American-owned Sales tax compliance in Wisconsin",
    "description": "Listed under Accounting & Tax services by the African American Chamber of Commerce of Wisconsin",
    "hours": "Mon-Fri 9AM-6PM",
    "services": [
      "African-American-owned Sales tax compliance in Wisconsin consultation",
      "Professional service",
      "Quality guarantee"
    ],
    "social_links": {}
  },
  {
    "name": "Integrity Taxes Services LLC",
    "address": "12577 W Custer Ave, Butler WI 53007",
    "phone": "(414) 797-2349",
    "rating": 4.0,
    "reviews": 25,
    "website": "https://www.google.com/maps/search/Integrity+Taxes+Services+LLC+in+Wisconsin",
    "category": "African-American-owned Sales tax compliance in Wisconsin",
    "description": "Listed under Accounting & Tax services by the African American Chamber of Commerce of Wisconsin",
    "hours": "Mon-Fri 9AM-6PM",
    "services": [
      "African-American-owned Sales tax compliance in Wisconsin consultation",
      "Professional service",
      "Quality guarantee"
    ],
    "social_links": {}
  },
  {
    "name": "McCray Accounting Services",
    "address": "Milwaukee WI 53201-1662",
    "phone": "(414) 702-5012",
    "rating": 4.0,
    "reviews": 25,
    "website": "https://www.google.com/maps/search/McCray+Accounting+Services+in+Wisconsin",
    "category": "African-American-owned Sales tax compliance in Wisconsin",
    "description": "Listed under Accounting & Tax services by the African American Chamber of Commerce of Wisconsin",
    "hours": "Mon-Fri 9AM-6PM",
    "services": [
      "African-American-owned Sales tax compliance in Wisconsin consultation",
      "Professional service",
      "Quality guarantee"
    ],
    "social_links": {}
  }
]