[
  {
    "name": "Extra Space Storage",
    "address": "851 N Black Horse Pike, Blackwood, New Jersey 08012, United States",
    "phone": "(888) 319-0615 (new customer)",
    "rating": 5.0,
    "reviews": 25,
    "website": "https://www.extraspace.com/",
    "category": "Black-owned Self-storage in New-Jersey",
    "description": "Offers a large selection of storage units, including drive-up, climate-controlled, and non-climate-controlled options, with helpful staff and convenient freeway access",
    "hours": "Mon-Fri 9AM-6PM",
    "services": [
      "Black-owned Self-storage in New-Jersey consultation",
      "Professional service",
      "Quality guarantee"
    ],
    "social_links": {}
  },
  {
    "name": "Public Storage",
    "address": "3651 Route 9 North, Allentown, NJ 08857",
    "phone": "",
    "rating": 4.0,
    "reviews": 25,
    "website": "https://www.publicstorage.com/",
    "category": "Black-owned Self-storage in New-Jersey",
    "description": "Provides a mix of unit types, including climate-controlled options, and various sizes, with an on-site store for moving supplies",
    "hours": "Mon-Fri 9AM-6PM",
    "services": [
      "Black-owned Self-storage in New-Jersey consultation",
      "Professional service",
      "Quality guarantee"
    ],
    "social_links": {}
  },
  {
    "name": "CubeSmart",
    "address": "640 North Black Horse Pike, Monroe, NJ 08094",
    "phone": "",
    "rating": 4.0,
    "reviews": 25,
    "website": "https://www.cubesmart.com/",
    "category": "Black-owned Self-storage in New-Jersey",
    "description": "Offers climate-controlled and interior storage units, with options for upstairs access via stairs",
    "hours": "Mon-Fri 9AM-6PM",
    "services": [
      "Black-owned Self-storage in New-Jersey consultation",
      "Professional service",
      "Quality guarantee"
    ],
    "social_links": {}
  },
  {
    "name": "StorQuest Self Storage",
    "address": "319 Tonnelle Ave, Jersey City, NJ 07306",
    "phone": "(855) 214-8212 (new customer)",
    "rating": 4.3,
    "reviews": 25,
    "website": "https://www.storquest.com/",
    "category": "Black-owned Self-storage in New-Jersey",
    "description": "Provides state-of-the-art self-storage facilities with features like climate-controlled units, 24/7 rentals, electronic gate access, and security surveillance",
    "hours": "Mon-Fri 9AM-6PM",
    "services": [
      "Black-owned Self-storage in New-Jersey consultation",
      "Professional service",
      "Quality guarantee"
    ],
    "social_links": {}
  },
  {
    "name": "Storage King USA",
    "address": "1448 McCarter Highway, Newark, NJ 07104",
    "phone": "(973) 484-1900",
    "rating": 4.0,
    "reviews": 25,
    "website": "https://www.storagekingusa.com/",
    "category": "Black-owned Self-storage in New-Jersey",
    "description": "Offers a wide range of unit sizes and prices, with options for residential and commercial storage, including climate control and high-tech security features",
    "hours": "Mon-Fri 9AM-6PM",
    "services": [
      "Black-owned Self-storage in New-Jersey consultation",
      "Professional service",
      "Quality guarantee"
    ],
    "social_links": {}
  },
  {
    "name": "U-Haul Neighborhood Dealer (Ikeja African Market And Bakery)",
    "address": "1234 Washington St, Irvington, NJ 07111",
    "phone": "1-800-GO-U-HAUL (1-800-468-4285)",
    "rating": 4.0,
    "reviews": 25,
    "website": "https://www.uhaul.com/",
    "category": "Black-owned Self-storage in New-Jersey",
    "description": "A U-Haul neighborhood dealer offering moving truck rentals and potentially self-storage options",
    "hours": "Mon-Fri 9AM-6PM",
    "services": [
      "Black-owned Self-storage in New-Jersey consultation",
      "Professional service",
      "Quality guarantee"
    ],
    "social_links": {}
  },
  {
    "name": "U-Haul Neighborhood Dealer (Black Diamond Garage)",
    "address": "175 Parsippany Rd, Parsippany, NJ 07054",
    "phone": "1-800-GO-U-HAUL (1-800-468-4285)",
    "rating": 4.0,
    "reviews": 25,
    "website": "https://www.uhaul.com/",
    "category": "Black-owned Self-storage in New-Jersey",
    "description": "A U-Haul neighborhood dealer providing moving truck rentals",
    "hours": "Mon-Fri 9AM-6PM",
    "services": [
      "Black-owned Self-storage in New-Jersey consultation",
      "Professional service",
      "Quality guarantee"
    ],
    "social_links": {}
  },
  {
    "name": "SafeSecureDry Self Storage",
    "address": "1234 Blackwood, NJ (specific street address not provided in search results)",
    "phone": "(856) 374-8100",
    "rating": 4.0,
    "reviews": 25,
    "website": "https://www.google.com/maps/search/SafeSecureDry+Self+Storage+New+Jersey",
    "category": "Black-owned Self-storage in New-Jersey",
    "description": "Offers a variety of storage options, including car storage and moving rentals, with a fenced and gated facility providing 24/7 access",
    "hours": "Mon-Fri 9AM-6PM",
    "services": [
      "Black-owned Self-storage in New-Jersey consultation",
      "Professional service",
      "Quality guarantee"
    ],
    "social_links": {}
  },
  {
    "name": "Monarch Self Storage",
    "address": "850 West Blenheim Ave, Blenheim, NJ 08012",
    "phone": "(856) 227-4711",
    "rating": 4.0,
    "reviews": 25,
    "website": "https://www.google.com/maps/search/Monarch+Self+Storage+New+Jersey",
    "category": "Black-owned Self-storage in New-Jersey",
    "description": "A state-of-the-art self-storage facility offering climate-controlled units, outdoor storage, and specialized storage for classic cars, boats, and RVs",
    "hours": "Mon-Fri 9AM-6PM",
    "services": [
      "Black-owned Self-storage in New-Jersey consultation",
      "Professional service",
      "Quality guarantee"
    ],
    "social_links": {}
  },
  {
    "name": "Access Self Storage",
    "address": "Not specified in search results, but serves New Jersey and NYC suburbs",
    "phone": "",
    "rating": 4.0,
    "reviews": 25,
    "website": "https://www.accessselfstorage.com/",
    "category": "Black-owned Self-storage in New-Jersey",
    "description": "A local, family-owned business with over 40 years of experience, offering free truck rentals for move-ins and guaranteed first-year rental rates",
    "hours": "Mon-Fri 9AM-6PM",
    "services": [
      "Black-owned Self-storage in New-Jersey consultation",
      "Professional service",
      "Quality guarantee"
    ],
    "social_links": {}
  }
]