[
  {
    "name": "New Hampshire Family Dentistry",
    "address": "1270 South Mammoth Road, Manchester, NH 03109",
    "phone": "(603) 625-1877",
    "rating": 4.0,
    "reviews": 25,
    "website": "https://www.nhfamilydentistry.com/",
    "category": "Bengali-speaking General dentistry in New-Hampshire",
    "description": "Offers a wide range of dental services for patients of all ages",
    "hours": "Mon-Fri 9AM-6PM",
    "services": [
      "Bengali-speaking General dentistry in New-Hampshire consultation",
      "Professional service",
      "Quality guarantee"
    ],
    "social_links": {}
  },
  {
    "name": "Dental Arts of Salem",
    "address": "141 S Broadway, Salem, NH 03079",
    "phone": "(603) 898-9180",
    "rating": 4.0,
    "reviews": 25,
    "website": "https://www.dentalartsofsalem.com/",
    "category": "Bengali-speaking General dentistry in New-Hampshire",
    "description": "Provides comprehensive dental care for the whole family",
    "hours": "Mon-Fri 9AM-6PM",
    "services": [
      "Bengali-speaking General dentistry in New-Hampshire consultation",
      "Professional service",
      "Quality guarantee"
    ],
    "social_links": {}
  },
  {
    "name": "Gentle Dental Care (Dr. Krisha Shah)",
    "address": "151 Main St, Nashua, NH 03060",
    "phone": "(603) 882-8255",
    "rating": 4.0,
    "reviews": 25,
    "website": "https://www.gentledental.com/locations/nashua-main-st/",
    "category": "Bengali-speaking General dentistry in New-Hampshire",
    "description": "Dr. Krisha Shah is a general dentist",
    "hours": "Mon-Fri 9AM-6PM",
    "services": [
      "Bengali-speaking General dentistry in New-Hampshire consultation",
      "Professional service",
      "Quality guarantee"
    ],
    "social_links": {}
  },
  {
    "name": "Birch Family Dentistry",
    "address": "170 Route 101, Bedford, NH 03110",
    "phone": "(603) 627-3344",
    "rating": 4.0,
    "reviews": 25,
    "website": "https://www.birchdentistry.com/",
    "category": "Bengali-speaking General dentistry in New-Hampshire",
    "description": "Offers a full spectrum of general, restorative, and cosmetic dental services for patients of all ages",
    "hours": "Mon-Fri 9AM-6PM",
    "services": [
      "Bengali-speaking General dentistry in New-Hampshire consultation",
      "Professional service",
      "Quality guarantee"
    ],
    "social_links": {}
  },
  {
    "name": "Plymouth General Dentistry",
    "address": "103 Highland St, Plymouth, NH 03264",
    "phone": "(603) 536-1000",
    "rating": 4.0,
    "reviews": 25,
    "website": "https://www.plymouthgeneral.com/",
    "category": "Bengali-speaking General dentistry in New-Hampshire",
    "description": "A privately owned practice offering general, cosmetic, and restorative dentistry",
    "hours": "Mon-Fri 9AM-6PM",
    "services": [
      "Bengali-speaking General dentistry in New-Hampshire consultation",
      "Professional service",
      "Quality guarantee"
    ],
    "social_links": {}
  },
  {
    "name": "Mascoma Dental Associates",
    "address": "16 Center St, Lebanon, NH 03766",
    "phone": "(603) 448-4771",
    "rating": 4.0,
    "reviews": 25,
    "website": "https://www.mascomadental.com/",
    "category": "Bengali-speaking General dentistry in New-Hampshire",
    "description": "Offers general and cosmetic dentistry, teeth whitening, and implants. Dr. Sharma received her dental degree in India",
    "hours": "Mon-Fri 9AM-6PM",
    "services": [
      "Bengali-speaking General dentistry in New-Hampshire consultation",
      "Professional service",
      "Quality guarantee"
    ],
    "social_links": {}
  },
  {
    "name": "Community Dental Care of Claremont",
    "address": "153 Broad St, Claremont, NH 03743",
    "phone": "(603) 542-2194",
    "rating": 4.0,
    "reviews": 25,
    "website": "https://www.communitydentalcare.com/locations/claremont/",
    "category": "Bengali-speaking General dentistry in New-Hampshire",
    "description": "Dr. Khushbu C. Patel, a general dentist, began her dental journey in India",
    "hours": "Mon-Fri 9AM-6PM",
    "services": [
      "Bengali-speaking General dentistry in New-Hampshire consultation",
      "Professional service",
      "Quality guarantee"
    ],
    "social_links": {}
  },
  {
    "name": "Manchester Dentistry and Braces",
    "address": "1270 South Mammoth Road, Manchester, NH 03109",
    "phone": "(603) 760-6000",
    "rating": 4.0,
    "reviews": 25,
    "website": "https://www.manchesterdentistryandbraces.com/",
    "category": "Bengali-speaking General dentistry in New-Hampshire",
    "description": "Offers general dentistry, orthodontics, and other dental services. Dr. Tiwari received her dental degree in India",
    "hours": "Mon-Fri 9AM-6PM",
    "services": [
      "Bengali-speaking General dentistry in New-Hampshire consultation",
      "Professional service",
      "Quality guarantee"
    ],
    "social_links": {}
  },
  {
    "name": "Belknap Dental Associates",
    "address": "107 Locust St, Dover, NH 03820",
    "phone": "(603) 742-2722",
    "rating": 4.0,
    "reviews": 25,
    "website": "https://www.belknapdental.com/",
    "category": "Bengali-speaking General dentistry in New-Hampshire",
    "description": "Offers general, cosmetic, orthodontics, and emergency dental care",
    "hours": "Mon-Fri 9AM-6PM",
    "services": [
      "Bengali-speaking General dentistry in New-Hampshire consultation",
      "Professional service",
      "Quality guarantee"
    ],
    "social_links": {}
  },
  {
    "name": "Gentle Dental Dover",
    "address": "107 Locust St, Dover, NH 03820",
    "phone": "(603) 742-2722",
    "rating": 4.0,
    "reviews": 25,
    "website": "https://www.gentledental.com/locations/dover/",
    "category": "Bengali-speaking General dentistry in New-Hampshire",
    "description": "Offers comprehensive dental services in a comfortable environment",
    "hours": "Mon-Fri 9AM-6PM",
    "services": [
      "Bengali-speaking General dentistry in New-Hampshire consultation",
      "Professional service",
      "Quality guarantee"
    ],
    "social_links": {}
  }
]