[
  {
    "name": "Smileboston Cosmetic & Implant Dentistry",
    "address": "1000 Massachusetts Ave, Boston, MA 02118",
    "phone": "(617) 397-3090",
    "rating": 4.9,
    "reviews": 25,
    "website": "https://smileboston.com/",
    "category": "Chinese-American-owned Dental implants in Massachusetts",
    "description": "This practice offers a range of cosmetic and implant dentistry services, utilizing advanced technology for procedures like dental laser implant surgery",
    "hours": "Mon-Fri 9AM-6PM",
    "services": [
      "Chinese-American-owned Dental implants in Massachusetts consultation",
      "Professional service",
      "Quality guarantee"
    ],
    "social_links": {}
  },
  {
    "name": "Implants.life (Dr. Peter Brzoza)",
    "address": "1 Roosevelt Avenue, Suite 203, Peabody, MA 01960",
    "phone": "(978) 384-0188",
    "rating": 4.0,
    "reviews": 25,
    "website": "https://www.implants.life/",
    "category": "Chinese-American-owned Dental implants in Massachusetts",
    "description": "Dr. Peter Brzoza's practice focuses on dental implants, utilizing 3D technology for precision and patient comfort",
    "hours": "Mon-Fri 9AM-6PM",
    "services": [
      "Chinese-American-owned Dental implants in Massachusetts consultation",
      "Professional service",
      "Quality guarantee"
    ],
    "social_links": {}
  },
  {
    "name": "Beacon Family Dental (Dr. Xinyan Lucy Liu)",
    "address": "1333 Beacon St, Brookline, MA 02446",
    "phone": "(617) 738-5000",
    "rating": 4.0,
    "reviews": 25,
    "website": "https://www.beaconfamilydental.com/",
    "category": "Chinese-American-owned Dental implants in Massachusetts",
    "description": "Dr. Xinyan Lucy Liu, originally from Beijing, China, has extensive training in implant dentistry and founded Beacon Family Dental to provide high-quality comprehensive care",
    "hours": "Mon-Fri 9AM-6PM",
    "services": [
      "Chinese-American-owned Dental implants in Massachusetts consultation",
      "Professional service",
      "Quality guarantee"
    ],
    "social_links": {}
  },
  {
    "name": "Waltham Dental Center (Dr. Shih Ming Tang)",
    "address": "463 Worcester Road, Suite 201, Framingham, MA 01701 (also has a Franklin location)",
    "phone": "(508) 820-7792",
    "rating": 4.0,
    "reviews": 25,
    "website": "https://www.smilagedental.com/",
    "category": "Chinese-American-owned Dental implants in Massachusetts",
    "description": "Dr. Shih Ming Tang is an Implant and Cosmetic Family Dentist who speaks English and Chinese (Mandarin). He has a D.M.D. from Tufts Dental School",
    "hours": "Mon-Fri 9AM-6PM",
    "services": [
      "Chinese-American-owned Dental implants in Massachusetts consultation",
      "Professional service",
      "Quality guarantee"
    ],
    "social_links": {}
  },
  {
    "name": "Smilage Dental Center (Dr. Chi Yun Sham)",
    "address": "463 Worcester Road, Suite 201, Framingham, MA 01701 and 72 Grove Street, Suite 2, Franklin, MA 02038",
    "phone": "(508) 820-7792 (Framingham), (508) 541-1433 (Franklin)",
    "rating": 4.0,
    "reviews": 25,
    "website": "https://www.smilagedental.com/",
    "category": "Chinese-American-owned Dental implants in Massachusetts",
    "description": "Dr. Chi Yun Sham speaks English and Chinese (Mandarin & Cantonese) and has a D.M.D. from Tufts University",
    "hours": "Mon-Fri 9AM-6PM",
    "services": [
      "Chinese-American-owned Dental implants in Massachusetts consultation",
      "Professional service",
      "Quality guarantee"
    ],
    "social_links": {}
  },
  {
    "name": "Union Dental (Dr. Tony Tong)",
    "address": "310 Boston Turnpike, Shrewsbury, MA 01545 (This address is listed for Dr. Yan Wang, but Dr. Tong is associated with Union Dental in Marlborough)",
    "phone": "(508) 485-1100 (Marlborough)",
    "rating": 4.0,
    "reviews": 25,
    "website": "https://uniondental.com/",
    "category": "Chinese-American-owned Dental implants in Massachusetts",
    "description": "Dr. Tony Tong has a DMD from Boston University and extensive experience in Oral Surgery, Orthodontics, and Implant Dentistry. He received his initial dental licensure in China",
    "hours": "Mon-Fri 9AM-6PM",
    "services": [
      "Chinese-American-owned Dental implants in Massachusetts consultation",
      "Professional service",
      "Quality guarantee"
    ],
    "social_links": {}
  },
  {
    "name": "ReNEW Dental Denture & Implant Center (Dr. Elaine Wu)",
    "address": "1975 Main St, Tewksbury, MA 01876",
    "phone": "(978) 304-1700",
    "rating": 4.0,
    "reviews": 25,
    "website": "https://www.renewdentalimplants.com/",
    "category": "Chinese-American-owned Dental implants in Massachusetts",
    "description": "Dr. Elaine Wu leads a skilled team specializing in advanced 3D digital implant procedures",
    "hours": "Mon-Fri 9AM-6PM",
    "services": [
      "Chinese-American-owned Dental implants in Massachusetts consultation",
      "Professional service",
      "Quality guarantee"
    ],
    "social_links": {}
  },
  {
    "name": "Twin City Dental (Dr. Celia Huang)",
    "address": "100 Erdman Way, Leominster, MA 01453 (also serves Fitchburg)",
    "phone": "(978) 751-8655",
    "rating": 4.0,
    "reviews": 25,
    "website": "https://twincitydental.com/",
    "category": "Chinese-American-owned Dental implants in Massachusetts",
    "description": "Dr. Celia Huang provides a range of dental services, including dental implants, and is skilled in 3D digital dentistry",
    "hours": "Mon-Fri 9AM-6PM",
    "services": [
      "Chinese-American-owned Dental implants in Massachusetts consultation",
      "Professional service",
      "Quality guarantee"
    ],
    "social_links": {}
  },
  {
    "name": "Bell Dental Associates (Dr. Li Zhong)",
    "address": "418 Massachusetts Ave, Ste 2, Acton, MA 01720",
    "phone": "(978) 429-8348",
    "rating": 4.0,
    "reviews": 25,
    "website": "https://www.belldentalassociates.com/",
    "category": "Chinese-American-owned Dental implants in Massachusetts",
    "description": "Dr. Li Zhong earned his DMD from Boston University and Central South University Xiangya School of Dental Medicine and provides services including dental implants",
    "hours": "Mon-Fri 9AM-6PM",
    "services": [
      "Chinese-American-owned Dental implants in Massachusetts consultation",
      "Professional service",
      "Quality guarantee"
    ],
    "social_links": {}
  },
  {
    "name": "Foreon Dental (Dr. Quan)",
    "address": "Not explicitly stated in search results, but mentioned in a YouTube video about dental implants in Boston, MA. The video provides a phone number",
    "phone": "(978) 751-8655 (This number is also listed for Twin City Dental, suggesting a potential connection or error in search results)",
    "rating": 4.0,
    "reviews": 25,
    "website": "https://www.foreondental.com/service/dental-implants/",
    "category": "Chinese-American-owned Dental implants in Massachusetts",
    "description": "This practice is featured in a patient testimonial video discussing dental implants in Boston, MA. Dr. Quan is mentioned as a dentist who helped a patient achieve their goal of eating steaks again",
    "hours": "Mon-Fri 9AM-6PM",
    "services": [
      "Chinese-American-owned Dental implants in Massachusetts consultation",
      "Professional service",
      "Quality guarantee"
    ],
    "social_links": {}
  }
]