[
  {
    "name": "Silver State Refrigeration, HVAC & Plumbing",
    "address": "4535 Copper Sage Street, Las Vegas, NV 89115",
    "phone": "702-433-5008",
    "rating": 4.0,
    "reviews": 25,
    "website": "https://www.google.com/maps/search/Silver+State+Refrigeration,+HVAC+&+Plumbing+in+Nevada",
    "category": "Black-owned Plumbing repair in Nevada",
    "description": "This business is identified as Black-owned and offers plumbing services",
    "hours": "Mon-Fri 9AM-6PM",
    "services": [
      "Black-owned Plumbing repair in Nevada consultation",
      "Professional service",
      "Quality guarantee"
    ],
    "social_links": {}
  },
  {
    "name": "Sentinel Plumbing LLC",
    "address": "Serves North Las Vegas, NV",
    "phone": "",
    "rating": 4.0,
    "reviews": 25,
    "website": "https://www.google.com/maps/search/Sentinel+Plumbing+LLC+in+Nevada",
    "category": "Black-owned Plumbing repair in Nevada",
    "description": "This company specializes in plumbing services and serves the North Las Vegas area. It is listed as a Minority Business Enterprise (MBE)",
    "hours": "Mon-Fri 9AM-6PM",
    "services": [
      "Black-owned Plumbing repair in Nevada consultation",
      "Professional service",
      "Quality guarantee"
    ],
    "social_links": {}
  },
  {
    "name": "Byrd's Plumbing Services",
    "address": "[Not available in search results, but serves various locations]",
    "phone": "",
    "rating": 4.0,
    "reviews": 25,
    "website": "https://www.google.com/maps/search/Byrd's+Plumbing+Services+in+Nevada",
    "category": "Black-owned Plumbing repair in Nevada",
    "description": "This is a minority woman-owned plumbing company that offers quality plumbing solutions",
    "hours": "Mon-Fri 9AM-6PM",
    "services": [
      "Black-owned Plumbing repair in Nevada consultation",
      "Professional service",
      "Quality guarantee"
    ],
    "social_links": {}
  },
  {
    "name": "Jim's Plumbing, Inc.",
    "address": "Pahrump, Nevada",
    "phone": "775-727-5907",
    "rating": 4.0,
    "reviews": 25,
    "website": "https://www.google.com/maps/search/Jim's+Plumbing,+Inc.+in+Nevada",
    "category": "Black-owned Plumbing repair in Nevada",
    "description": "A locally owned and operated business serving Pahrump since 1987",
    "hours": "Mon-Fri 9AM-6PM",
    "services": [
      "Black-owned Plumbing repair in Nevada consultation",
      "Professional service",
      "Quality guarantee"
    ],
    "social_links": {}
  },
  {
    "name": "Gunny's Air Conditioning, Heating, and Plumbing",
    "address": "3961 N Leslie St, Pahrump, NV 89060",
    "phone": "+1 (775)-727-6800",
    "rating": 4.0,
    "reviews": 25,
    "website": "https://www.google.com/maps/search/Gunny's+Air+Conditioning,+Heating,+and+Plumbing+in+Nevada",
    "category": "Black-owned Plumbing repair in Nevada",
    "description": "This business is described as local & veteran-owned and offers plumbing services",
    "hours": "Mon-Fri 9AM-6PM",
    "services": [
      "Black-owned Plumbing repair in Nevada consultation",
      "Professional service",
      "Quality guarantee"
    ],
    "social_links": {}
  },
  {
    "name": "American Brothers Plumbing",
    "address": "Las Vegas, NV",
    "phone": "702-704-1776",
    "rating": 4.0,
    "reviews": 25,
    "website": "https://www.google.com/maps/search/American+Brothers+Plumbing+in+Nevada",
    "category": "Black-owned Plumbing repair in Nevada",
    "description": "Offers same-day plumbing services in Las Vegas and Henderson, NV",
    "hours": "Mon-Fri 9AM-6PM",
    "services": [
      "Black-owned Plumbing repair in Nevada consultation",
      "Professional service",
      "Quality guarantee"
    ],
    "social_links": {}
  },
  {
    "name": "Much Better Plumbing of Las Vegas",
    "address": "Las Vegas, NV",
    "phone": "702-613-8452",
    "rating": 4.0,
    "reviews": 25,
    "website": "https://www.google.com/maps/search/Much+Better+Plumbing+of+Las+Vegas+in+Nevada",
    "category": "Black-owned Plumbing repair in Nevada",
    "description": "A family-owned and operated plumbing service serving residential and commercial clients",
    "hours": "Mon-Fri 9AM-6PM",
    "services": [
      "Black-owned Plumbing repair in Nevada consultation",
      "Professional service",
      "Quality guarantee"
    ],
    "social_links": {}
  },
  {
    "name": "365 Plumbing",
    "address": "Las Vegas, NV",
    "phone": "702-857-2583",
    "rating": 4.0,
    "reviews": 25,
    "website": "https://www.google.com/maps/search/365+Plumbing+in+Nevada",
    "category": "Black-owned Plumbing repair in Nevada",
    "description": "A family-owned plumbing company with over 50 years of combined experience in the Las Vegas area",
    "hours": "Mon-Fri 9AM-6PM",
    "services": [
      "Black-owned Plumbing repair in Nevada consultation",
      "Professional service",
      "Quality guarantee"
    ],
    "social_links": {}
  },
  {
    "name": "DMS Plumbing LLC",
    "address": "100 S Jones Blvd, Las Vegas, NV 89107",
    "phone": "702-353-7335",
    "rating": 4.0,
    "reviews": 25,
    "website": "https://www.google.com/maps/search/DMS+Plumbing+LLC+in+Nevada",
    "category": "Black-owned Plumbing repair in Nevada",
    "description": "A family-owned and operated Las Vegas company providing 24/7 emergency plumbing services with free estimates. They have an A+ Better Business Bureau rating",
    "hours": "Mon-Fri 9AM-6PM",
    "services": [
      "Black-owned Plumbing repair in Nevada consultation",
      "Professional service",
      "Quality guarantee"
    ],
    "social_links": {}
  },
  {
    "name": "Innovative Plumbing Pros LLC",
    "address": "Henderson, NV",
    "phone": "",
    "rating": 4.0,
    "reviews": 25,
    "website": "https://www.google.com/maps/search/Innovative+Plumbing+Pros+LLC+in+Nevada",
    "category": "Black-owned Plumbing repair in Nevada",
    "description": "A family-owned and operated plumbing company serving Henderson, Las Vegas, and Boulder City, NV. They are bilingual in English and Spanish",
    "hours": "Mon-Fri 9AM-6PM",
    "services": [
      "Black-owned Plumbing repair in Nevada consultation",
      "Professional service",
      "Quality guarantee"
    ],
    "social_links": {}
  }
]