[
  {
    "name": "In the Black Accounting, LLC",
    "address": "3849 E Broadway Blvd #196, Tucson, AZ 85716",
    "phone": "(520) 730-9209",
    "rating": 4.0,
    "reviews": 25,
    "website": "https://www.intotheblackaccounting.com/",
    "category": "Black-owned QuickBooks setup in Arizona",
    "description": "Offers comprehensive bookkeeping, payroll, and tax filing services for small to medium-sized businesses and non-profits. They also mention assisting with QuickBooks Online",
    "hours": "Mon-Fri 9AM-6PM",
    "services": [
      "Black-owned QuickBooks setup in Arizona consultation",
      "Professional service",
      "Quality guarantee"
    ],
    "social_links": {}
  },
  {
    "name": "ENA Financial Solutions (Eunice Allen)",
    "address": "Chandler, AZ (Specific address not provided, but Eunice Allen is listed as a Black accountant in Chandler, AZ)",
    "phone": "",
    "rating": 4.0,
    "reviews": 25,
    "website": "https://www.google.com/maps/search/ENA+Financial+Solutions+(Eunice+Allen)+in+Arizona",
    "category": "Black-owned QuickBooks setup in Arizona",
    "description": "Eunice Allen offers bookkeeping and business consulting services",
    "hours": "Mon-Fri 9AM-6PM",
    "services": [
      "Black-owned QuickBooks setup in Arizona consultation",
      "Professional service",
      "Quality guarantee"
    ],
    "social_links": {}
  },
  {
    "name": "Black Star Tax Services",
    "address": "Phoenix, AZ (Specific address not provided, but operates in Phoenix, AZ)",
    "phone": "",
    "rating": 4.0,
    "reviews": 25,
    "website": "https://www.google.com/maps/search/Black+Star+Tax+Services+in+Arizona",
    "category": "Black-owned QuickBooks setup in Arizona",
    "description": "Provides tax preparation, bookkeeping, and consulting services. They emphasize community financial literacy",
    "hours": "Mon-Fri 9AM-6PM",
    "services": [
      "Black-owned QuickBooks setup in Arizona consultation",
      "Professional service",
      "Quality guarantee"
    ],
    "social_links": {}
  },
  {
    "name": "Copper Peak Financial",
    "address": "Chandler, AZ (Specific address not provided, but serves Chandler, AZ)",
    "phone": "(480) 535-6585",
    "rating": 4.0,
    "reviews": 25,
    "website": "https://copperpeakfinancial.com/",
    "category": "Black-owned QuickBooks setup in Arizona",
    "description": "Offers QuickBooks setup, training, and troubleshooting services. They have certified QuickBooks ProAdvisors",
    "hours": "Mon-Fri 9AM-6PM",
    "services": [
      "Black-owned QuickBooks setup in Arizona consultation",
      "Professional service",
      "Quality guarantee"
    ],
    "social_links": {}
  },
  {
    "name": "Lowy Your Taxes",
    "address": "Phoenix, AZ (Specific address not provided, but serves the Phoenix area)",
    "phone": "(602) 943-4494",
    "rating": 4.0,
    "reviews": 25,
    "website": "https://www.lowyyourtaxes.com/",
    "category": "Black-owned QuickBooks setup in Arizona",
    "description": "A CPA firm and Certified QuickBooks ProAdvisor offering QuickBooks installation, setup, and training",
    "hours": "Mon-Fri 9AM-6PM",
    "services": [
      "Black-owned QuickBooks setup in Arizona consultation",
      "Professional service",
      "Quality guarantee"
    ],
    "social_links": {}
  },
  {
    "name": "K. A. Lindow, CPA, P.C.",
    "address": "Phoenix, AZ (Specific address not provided, but serves Phoenix, AZ)",
    "phone": "(480) 734-3758",
    "rating": 4.0,
    "reviews": 25,
    "website": "https://www.kalindowcpa.com/",
    "category": "Black-owned QuickBooks setup in Arizona",
    "description": "Provides QuickBooks setup and training services, with virtual options available",
    "hours": "Mon-Fri 9AM-6PM",
    "services": [
      "Black-owned QuickBooks setup in Arizona consultation",
      "Professional service",
      "Quality guarantee"
    ],
    "social_links": {}
  },
  {
    "name": "The Balance Sheet",
    "address": "Scottsdale, AZ (Specific address not provided, but serves Scottsdale, AZ)",
    "phone": "(480) 948-1080",
    "rating": 4.0,
    "reviews": 25,
    "website": "https://www.balancesheet.net/",
    "category": "Black-owned QuickBooks setup in Arizona",
    "description": "Offers QuickBooks setup, training, and ongoing maintenance. They are QuickBooks Certified ProAdvisors",
    "hours": "Mon-Fri 9AM-6PM",
    "services": [
      "Black-owned QuickBooks setup in Arizona consultation",
      "Professional service",
      "Quality guarantee"
    ],
    "social_links": {}
  },
  {
    "name": "Kayabooks",
    "address": "Buckeye, AZ (Specific address not provided, but serves Buckeye, AZ)",
    "phone": "(848) 800-4805",
    "rating": 4.0,
    "reviews": 25,
    "website": "https://www.google.com/maps/search/Kayabooks+in+Arizona",
    "category": "Black-owned QuickBooks setup in Arizona",
    "description": "Provides remote QuickBooks setup, support, and consulting services",
    "hours": "Mon-Fri 9AM-6PM",
    "services": [
      "Black-owned QuickBooks setup in Arizona consultation",
      "Professional service",
      "Quality guarantee"
    ],
    "social_links": {}
  },
  {
    "name": "P. Curtis Black, CPA",
    "address": "7702 E. Doubletree Ranch Road, Suite 300, Scottsdale, AZ 85258",
    "phone": "(602) 571-9477",
    "rating": 4.0,
    "reviews": 25,
    "website": "https://www.pcblackcpa.com/",
    "category": "Black-owned QuickBooks setup in Arizona",
    "description": "Offers QuickBooks setup and training, along with a range of other accounting and bookkeeping services",
    "hours": "Mon-Fri 9AM-6PM",
    "services": [
      "Black-owned QuickBooks setup in Arizona consultation",
      "Professional service",
      "Quality guarantee"
    ],
    "social_links": {}
  },
  {
    "name": "Small Business Accounting Tax & Bookkeeping Service",
    "address": "Phoenix, AZ (Specific address not provided, but serves Phoenix, AZ)",
    "phone": "(602) 368-3588",
    "rating": 4.0,
    "reviews": 25,
    "website": "https://www.sba-tax.com/",
    "category": "Black-owned QuickBooks setup in Arizona",
    "description": "A full-service tax, accounting, bookkeeping, and business consulting firm that serves clients worldwide, including in Phoenix, AZ. They offer comprehensive financial services",
    "hours": "Mon-Fri 9AM-6PM",
    "services": [
      "Black-owned QuickBooks setup in Arizona consultation",
      "Professional service",
      "Quality guarantee"
    ],
    "social_links": {}
  }
]