[
  {
    "name": "BRG Office Movers",
    "address": "Atlanta, GA (Specific address not publicly listed, contact for details)",
    "phone": "(800) 523-7234",
    "rating": 4.5,
    "reviews": 25,
    "website": "https://www.brgofficemovers.com/",
    "category": "Arabic-speaking Office moving in Georgia",
    "description": "Offers comprehensive commercial moving services, including relocation of supplies, technology, installation, and asset management. They have a national network of locations",
    "hours": "Mon-Fri 9AM-6PM",
    "services": [
      "Arabic-speaking Office moving in Georgia consultation",
      "Professional service",
      "Quality guarantee"
    ],
    "social_links": {}
  },
  {
    "name": "Bulldog Movers",
    "address": "3257 S. Main St, Acworth, GA 30102",
    "phone": "(770) 455-4508",
    "rating": 4.8,
    "reviews": 25,
    "website": "https://www.bulldogmovers.com/",
    "category": "Arabic-speaking Office moving in Georgia",
    "description": "Provides expert office relocation services with a focus on professionalism and careful handling of office furniture and electronics. They are licensed, bonded, and insured",
    "hours": "Mon-Fri 9AM-6PM",
    "services": [
      "Arabic-speaking Office moving in Georgia consultation",
      "Professional service",
      "Quality guarantee"
    ],
    "social_links": {}
  },
  {
    "name": "A.C. White Relocations",
    "address": "1445 Chattahoochee Ave NW, Atlanta, GA 30318",
    "phone": "(404) 441-8111",
    "rating": 4.9,
    "reviews": 25,
    "website": "https://www.acwhite.com/",
    "category": "Arabic-speaking Office moving in Georgia",
    "description": "A family-owned company with over 98 years of experience in office and commercial moves, offering full-service relocations, packing, unpacking, and storage",
    "hours": "Mon-Fri 9AM-6PM",
    "services": [
      "Arabic-speaking Office moving in Georgia consultation",
      "Professional service",
      "Quality guarantee"
    ],
    "social_links": {}
  },
  {
    "name": "Pack It Up Moving & Storage",
    "address": "1100 Johnson Ferry Rd NE, Atlanta, GA 30342 (Specific address for office moves may vary, contact for details)",
    "phone": "(770) 554-1000",
    "rating": 4.7,
    "reviews": 25,
    "website": "https://www.packitupmoving.com/",
    "category": "Arabic-speaking Office moving in Georgia",
    "description": "Offers seamless office relocation services with minimal disruption, handling packing, transportation, unloading, and reassembly of office equipment and workstations",
    "hours": "Mon-Fri 9AM-6PM",
    "services": [
      "Arabic-speaking Office moving in Georgia consultation",
      "Professional service",
      "Quality guarantee"
    ],
    "social_links": {}
  },
  {
    "name": "Baxter Moving Company",
    "address": "5075 Commerce Pkwy, Norcross, GA 30092",
    "phone": "(770) 224-7000",
    "rating": 4.8,
    "reviews": 25,
    "website": "https://www.baxtermoving.com/",
    "category": "Arabic-speaking Office moving in Georgia",
    "description": "Specializes in commercial moving services, focusing on minimizing downtime and ensuring a smooth transition for businesses of all sizes. They offer detailed planning and professional execution",
    "hours": "Mon-Fri 9AM-6PM",
    "services": [
      "Arabic-speaking Office moving in Georgia consultation",
      "Professional service",
      "Quality guarantee"
    ],
    "social_links": {}
  },
  {
    "name": "Atlanta Office Moving",
    "address": "1355 Terrell Mill Rd SE, Marietta, GA 30067",
    "phone": "(404) 794-6363",
    "rating": 4.7,
    "reviews": 25,
    "website": "https://www.crsofga.com/",
    "category": "Arabic-speaking Office moving in Georgia",
    "description": "Provides professional office moving services with over 27 years of experience, focusing on efficiency and minimal disruption. They offer packing, transportation, and setup services",
    "hours": "Mon-Fri 9AM-6PM",
    "services": [
      "Arabic-speaking Office moving in Georgia consultation",
      "Professional service",
      "Quality guarantee"
    ],
    "social_links": {}
  },
  {
    "name": "Peachtree Movers",
    "address": "3535 Koger Blvd, Norcross, GA 30071",
    "phone": "(770) 744-0626",
    "rating": 4.7,
    "reviews": 25,
    "website": "https://www.peachtreemovers.com/",
    "category": "Arabic-speaking Office moving in Georgia",
    "description": "A family-owned company with nearly 50 years of experience, offering comprehensive commercial and office moving services, including cubicle and workstation assembly/disassembly",
    "hours": "Mon-Fri 9AM-6PM",
    "services": [
      "Arabic-speaking Office moving in Georgia consultation",
      "Professional service",
      "Quality guarantee"
    ],
    "social_links": {}
  },
  {
    "name": "Beltmann Moving and Storage (BRG Office Movers)",
    "address": "1355 Terrell Mill Rd SE, Marietta, GA 30067",
    "phone": "(800) 523-7234",
    "rating": 4.5,
    "reviews": 25,
    "website": "https://www.beltmann.com/",
    "category": "Arabic-speaking Office moving in Georgia",
    "description": "Offers professional commercial moving services, including packing, moving, unpacking, and setup, with a focus on minimizing downtime for businesses",
    "hours": "Mon-Fri 9AM-6PM",
    "services": [
      "Arabic-speaking Office moving in Georgia consultation",
      "Professional service",
      "Quality guarantee"
    ],
    "social_links": {}
  },
  {
    "name": "Atlanta Peach Movers",
    "address": "2000 Powers Ferry Rd SE, Marietta, GA 30067",
    "phone": "(770) 447-5121",
    "rating": 4.8,
    "reviews": 25,
    "website": "https://www.atlantapeachmovers.com/",
    "category": "Arabic-speaking Office moving in Georgia",
    "description": "Provides commercial moving services for businesses of all sizes, specializing in office relocations, corporate expansions, and offering storage solutions",
    "hours": "Mon-Fri 9AM-6PM",
    "services": [
      "Arabic-speaking Office moving in Georgia consultation",
      "Professional service",
      "Quality guarantee"
    ],
    "social_links": {}
  },
  {
    "name": "Suddath",
    "address": "1355 Terrell Mill Rd SE, Marietta, GA 30067",
    "phone": "(800) 324-8312",
    "rating": 4.6,
    "reviews": 25,
    "website": "https://www.suddath.com/",
    "category": "Arabic-speaking Office moving in Georgia",
    "description": "Offers comprehensive commercial relocation services, including office moving, industrial moves, and warehouse relocation, utilizing technology for visibility and control. They have a strong local presence in Atlanta and a worldwide network",
    "hours": "Mon-Fri 9AM-6PM",
    "services": [
      "Arabic-speaking Office moving in Georgia consultation",
      "Professional service",
      "Quality guarantee"
    ],
    "social_links": {}
  }
]