[
  {
    "name": "Alamerica Bank",
    "address": "2170 Highland Avenue, Birmingham, AL 35205",
    "phone": "(205) 252-4000",
    "rating": 4.0,
    "reviews": 25,
    "website": "https://www.alamericabank.com/",
    "category": "Black-owned Industry-specific solutions in Alabama",
    "description": "A Black-owned bank offering personal and small business checking, savings accounts, and certificates of deposit",
    "hours": "Mon-Fri 9AM-6PM",
    "services": [
      "Black-owned Industry-specific solutions in Alabama consultation",
      "Professional service",
      "Quality guarantee"
    ],
    "social_links": {}
  },
  {
    "name": "Commonwealth National Bank",
    "address": "1901 Dauphin Street, Mobile, AL 36604",
    "phone": "(251) 476-5938",
    "rating": 4.0,
    "reviews": 25,
    "website": "https://www.commonwealthnationalbank.com/",
    "category": "Black-owned Industry-specific solutions in Alabama",
    "description": "A Black-owned bank headquartered in Mobile, providing personalized financial services, including personal loans, commercial real estate loans, small business loans, and checking/savings accounts",
    "hours": "Mon-Fri 9AM-6PM",
    "services": [
      "Black-owned Industry-specific solutions in Alabama consultation",
      "Professional service",
      "Quality guarantee"
    ],
    "social_links": {}
  },
  {
    "name": "Citizens Trust Bank",
    "address": "Multiple locations, including Birmingham and Eutaw. (Specific branch address for Birmingham: 1000 Urban Center Drive, Birmingham, AL 35202)",
    "phone": "(205) 933-7200 (Birmingham branch)",
    "rating": 4.0,
    "reviews": 25,
    "website": "https://ctbconnect.com/",
    "category": "Black-owned Industry-specific solutions in Alabama",
    "description": "A Black-owned bank with branches in Alabama, offering a range of financial services and a focus on community support",
    "hours": "Mon-Fri 9AM-6PM",
    "services": [
      "Black-owned Industry-specific solutions in Alabama consultation",
      "Professional service",
      "Quality guarantee"
    ],
    "social_links": {}
  },
  {
    "name": "People Optimum Consulting",
    "address": "2000 Southbridge Parkway, Suite 100, Birmingham, AL 35209",
    "phone": "(205) 401-0300",
    "rating": 4.0,
    "reviews": 25,
    "website": "https://www.peopleoptimumconsulting.com/",
    "category": "Black-owned Industry-specific solutions in Alabama",
    "description": "A Black-owned Human Resources consulting practice offering organizational development solutions, HR strategy, and leadership development",
    "hours": "Mon-Fri 9AM-6PM",
    "services": [
      "Black-owned Industry-specific solutions in Alabama consultation",
      "Professional service",
      "Quality guarantee"
    ],
    "social_links": {}
  },
  {
    "name": "Essnova Solutions, Inc.",
    "address": "2000 Riverchase Galleria, Suite 1000, Birmingham, AL 35244",
    "phone": "(888) 405-3189",
    "rating": 4.0,
    "reviews": 25,
    "website": "https://www.essnova.com/",
    "category": "Black-owned Industry-specific solutions in Alabama",
    "description": "An IT solutions company recognized as the Alabama Minority-Owned Small Business of the Year, providing technology and program management support services",
    "hours": "Mon-Fri 9AM-6PM",
    "services": [
      "Black-owned Industry-specific solutions in Alabama consultation",
      "Professional service",
      "Quality guarantee"
    ],
    "social_links": {}
  },
  {
    "name": "Dawn & Co.",
    "address": "2100 1st Ave S, Birmingham, AL 35233",
    "phone": "(205) 537-1100 (This number is also listed for BGRACE MEDIA, which may be related or the same entity)",
    "rating": 4.0,
    "reviews": 25,
    "website": "https://www.dawndigital.co/",
    "category": "Black-owned Industry-specific solutions in Alabama",
    "description": "A Black-owned digital marketing agency focused on helping service-based businesses visualize and amplify their brand",
    "hours": "Mon-Fri 9AM-6PM",
    "services": [
      "Black-owned Industry-specific solutions in Alabama consultation",
      "Professional service",
      "Quality guarantee"
    ],
    "social_links": {}
  },
  {
    "name": "Adam Black Media",
    "address": "2000 Riverchase Galleria, Suite 1000, Birmingham, AL 35244 (This address is also associated with Essnova Solutions, suggesting a potential shared office space or business park)",
    "phone": "(205) 537-1100 (This number is also listed for BGRACE MEDIA)",
    "rating": 4.0,
    "reviews": 25,
    "website": "https://adamblackmedia.com/",
    "category": "Black-owned Industry-specific solutions in Alabama",
    "description": "A creative marketing firm in Trussville, Alabama, focused on helping businesses grow through strategic marketing practices",
    "hours": "Mon-Fri 9AM-6PM",
    "services": [
      "Black-owned Industry-specific solutions in Alabama consultation",
      "Professional service",
      "Quality guarantee"
    ],
    "social_links": {}
  },
  {
    "name": "Interweave Technologies",
    "address": "1000 Wholesale Row, Suite 300, Huntsville, AL 35801",
    "phone": "(256) 489-4000",
    "rating": 4.0,
    "reviews": 25,
    "website": "https://www.interweavetechnologies.com/",
    "category": "Black-owned Industry-specific solutions in Alabama",
    "description": "A minority-owned small business offering managed IT services, cybersecurity expertise, and compliance-driven solutions for various industries",
    "hours": "Mon-Fri 9AM-6PM",
    "services": [
      "Black-owned Industry-specific solutions in Alabama consultation",
      "Professional service",
      "Quality guarantee"
    ],
    "social_links": {}
  },
  {
    "name": "Advantage Consulting & Solutions LLC (ACAS)",
    "address": "102 COMMERCE DRIVE, ENTERPRISE, AL 36330",
    "phone": "(334) 475-0256",
    "rating": 4.0,
    "reviews": 25,
    "website": "https://www.acasolutions.tech/",
    "category": "Black-owned Industry-specific solutions in Alabama",
    "description": "Provides strategic consulting, technology services, and managed services to commercial, non-profit, and government organizations, with multiple certifications including Alabama Minority Business Enterprise (MBE)",
    "hours": "Mon-Fri 9AM-6PM",
    "services": [
      "Black-owned Industry-specific solutions in Alabama consultation",
      "Professional service",
      "Quality guarantee"
    ],
    "social_links": {}
  },
  {
    "name": "Hamilton Wealth Advisors",
    "address": "2000 Riverchase Galleria, Suite 1000, Birmingham, AL 35244 (This address is associated with multiple businesses in the search results, suggesting a shared office space or business park)",
    "phone": "(205) 847-9096",
    "rating": 4.0,
    "reviews": 25,
    "website": "https://hamiltonwealthadvisors.com/",
    "category": "Black-owned Industry-specific solutions in Alabama",
    "description": "The first Black-owned investment firm, focused on helping clients plan for multigenerational wealth through personalized financial strategies",
    "hours": "Mon-Fri 9AM-6PM",
    "services": [
      "Black-owned Industry-specific solutions in Alabama consultation",
      "Professional service",
      "Quality guarantee"
    ],
    "social_links": {}
  }
]