[
  {
    "name": "Civic Garden Center of Greater Cincinnati",
    "address": "2715 Reading Road, Cincinnati, Ohio 45206",
    "phone": "513-221-0981",
    "rating": 4.0,
    "reviews": 25,
    "website": "https://www.civicgardencenter.org/",
    "category": "Catholic-owned Educational garden tours in Ohio",
    "description": "Offers school garden lessons and youth education programs aligned with science standards",
    "hours": "Mon-Fri 9AM-6PM",
    "services": [
      "Catholic-owned Educational garden tours in Ohio consultation",
      "Professional service",
      "Quality guarantee"
    ],
    "social_links": {}
  },
  {
    "name": "Ramseyer Farms",
    "address": "3488 Akers Rd, Wooster, OH 44691",
    "phone": "(330) 264-0264",
    "rating": 4.0,
    "reviews": 25,
    "website": "https://www.ramseyerfarms.com/",
    "category": "Catholic-owned Educational garden tours in Ohio",
    "description": "Offers educational field trips for Pre-K through 5th grade with activities like hayrides, a corn maze, and pumpkin picking",
    "hours": "Mon-Fri 9AM-6PM",
    "services": [
      "Catholic-owned Educational garden tours in Ohio consultation",
      "Professional service",
      "Quality guarantee"
    ],
    "social_links": {}
  },
  {
    "name": "Cleveland Botanical Garden",
    "address": "11030 East Blvd, Cleveland, OH 44106",
    "phone": "(216) 721-1600",
    "rating": 4.0,
    "reviews": 25,
    "website": "https://www.holdenfg.org/visit-us/cleveland-botanical-garden/",
    "category": "Catholic-owned Educational garden tours in Ohio",
    "description": "Provides in-person and virtual visits, programs, and self-guided tours for elementary through high school students",
    "hours": "Mon-Fri 9AM-6PM",
    "services": [
      "Catholic-owned Educational garden tours in Ohio consultation",
      "Professional service",
      "Quality guarantee"
    ],
    "social_links": {}
  },
  {
    "name": "Gorman Heritage Farm",
    "address": "12551 Cyclops Rd, Cincinnati, OH 45241",
    "phone": "(513) 563-4323",
    "rating": 4.0,
    "reviews": 25,
    "website": "https://www.gormanfarm.org/",
    "category": "Catholic-owned Educational garden tours in Ohio",
    "description": "Offers hands-on, interdisciplinary field trips for all grades, meeting Ohio State Common Core Learning Standards",
    "hours": "Mon-Fri 9AM-6PM",
    "services": [
      "Catholic-owned Educational garden tours in Ohio consultation",
      "Professional service",
      "Quality guarantee"
    ],
    "social_links": {}
  },
  {
    "name": "Beech Creek Gardens",
    "address": "1875 Beech Creek Ave NE, Alliance, OH 44601",
    "phone": "(330) 823-7001",
    "rating": 4.0,
    "reviews": 25,
    "website": "https://www.beechcreekgardens.org/",
    "category": "Catholic-owned Educational garden tours in Ohio",
    "description": "A botanical garden and nature preserve offering programs to educate people of all ages about plants and the environment",
    "hours": "Mon-Fri 9AM-6PM",
    "services": [
      "Catholic-owned Educational garden tours in Ohio consultation",
      "Professional service",
      "Quality guarantee"
    ],
    "social_links": {}
  },
  {
    "name": "Franklin Park Conservatory and Botanical Gardens",
    "address": "1777 E Broad St, Columbus, OH 43203",
    "phone": "(614) 715-8000",
    "rating": 4.0,
    "reviews": 25,
    "website": "https://www.fpconservatory.org/",
    "category": "Catholic-owned Educational garden tours in Ohio",
    "description": "Offers education programs with fun, plant-focused activities for Pre-K and K-12 students, aligned with Ohio Standards",
    "hours": "Mon-Fri 9AM-6PM",
    "services": [
      "Catholic-owned Educational garden tours in Ohio consultation",
      "Professional service",
      "Quality guarantee"
    ],
    "social_links": {}
  },
  {
    "name": "Cleveland Roots",
    "address": "1100 Starkweather Ave, Cleveland, OH 44113",
    "phone": "(216) 651-7000",
    "rating": 4.0,
    "reviews": 25,
    "website": "https://www.clevelandroots.org/",
    "category": "Catholic-owned Educational garden tours in Ohio",
    "description": "A community-based food hub offering educational programs, community gardens, and urban agriculture support",
    "hours": "Mon-Fri 9AM-6PM",
    "services": [
      "Catholic-owned Educational garden tours in Ohio consultation",
      "Professional service",
      "Quality guarantee"
    ],
    "social_links": {}
  },
  {
    "name": "Patterson Fruit Farm",
    "address": "11414 Caves Rd, Chesterland, OH 44026",
    "phone": "(440) 729-1964",
    "rating": 4.0,
    "reviews": 25,
    "website": "https://www.pattersonfarm.com/",
    "category": "Catholic-owned Educational garden tours in Ohio",
    "description": "Offers educational children's tours focused on farm life and agriculture, with options for preschool, elementary, and homeschool groups",
    "hours": "Mon-Fri 9AM-6PM",
    "services": [
      "Catholic-owned Educational garden tours in Ohio consultation",
      "Professional service",
      "Quality guarantee"
    ],
    "social_links": {}
  },
  {
    "name": "The MAiZE at Little Darby Creek",
    "address": "8657 Axe Handle Rd, Milford Center, OH 43045",
    "phone": "(937) 349-4781",
    "rating": 4.0,
    "reviews": 25,
    "website": "https://www.utica-maize.com/",
    "category": "Catholic-owned Educational garden tours in Ohio",
    "description": "Provides educational field trips with a focus on agriculture, including a corn maze, animal interactions, and hayrides",
    "hours": "Mon-Fri 9AM-6PM",
    "services": [
      "Catholic-owned Educational garden tours in Ohio consultation",
      "Professional service",
      "Quality guarantee"
    ],
    "social_links": {}
  },
  {
    "name": "Chadwick Arboretum & Learning Gardens",
    "address": "1775 Alum Creek Dr, Columbus, OH 43210",
    "phone": "(614) 292-3770",
    "rating": 4.0,
    "reviews": 25,
    "website": "https://\u0a9a\u0abe\u0aa1\u0ab5\u0abf\u0a9a\u0a95\u0a85\u0ab0\u0acd\u0aac\u0acb\u0ab0\u0ac7\u0a9f\u0aae.osu.edu/",
    "category": "Catholic-owned Educational garden tours in Ohio",
    "description": "An urban green space offering learning gardens as an outdoor laboratory for teaching and research",
    "hours": "Mon-Fri 9AM-6PM",
    "services": [
      "Catholic-owned Educational garden tours in Ohio consultation",
      "Professional service",
      "Quality guarantee"
    ],
    "social_links": {}
  }
]