[
  {
    "name": "Crown and Glory Salon",
    "address": "1409 Broad Street, Providence, RI",
    "phone": "(401) 438-0000",
    "rating": 4.0,
    "reviews": 25,
    "website": "https://www.google.com/maps/search/Crown+and+Glory+Salon+Rhode+Island",
    "category": "Black-owned Hair treatments in Rhode-Island",
    "description": "A Black hair salon in Providence offering a range of hair services",
    "hours": "Mon-Fri 9AM-6PM",
    "services": [
      "Black-owned Hair treatments in Rhode-Island consultation",
      "Professional service",
      "Quality guarantee"
    ],
    "social_links": {}
  },
  {
    "name": "M.A.W. Beauty Hair & Makeup Studio",
    "address": "560 Mineral Spring Avenue, Unit CY103, Pawtucket, RI",
    "phone": "(401) 305-3200",
    "rating": 4.0,
    "reviews": 25,
    "website": "https://www.google.com/maps/search/M.A.W.+Beauty+Hair+&+Makeup+Studio+Rhode+Island",
    "category": "Black-owned Hair treatments in Rhode-Island",
    "description": "Offers hair and makeup services, likely catering to diverse hair types",
    "hours": "Mon-Fri 9AM-6PM",
    "services": [
      "Black-owned Hair treatments in Rhode-Island consultation",
      "Professional service",
      "Quality guarantee"
    ],
    "social_links": {}
  },
  {
    "name": "Salon You Are You",
    "address": "2121 Elmwood Avenue, Warwick, RI",
    "phone": "(401) 737-0000",
    "rating": 4.0,
    "reviews": 25,
    "website": "https://www.google.com/maps/search/Salon+You+Are+You+Rhode+Island",
    "category": "Black-owned Hair treatments in Rhode-Island",
    "description": "A salon in Warwick that may offer various hair treatments",
    "hours": "Mon-Fri 9AM-6PM",
    "services": [
      "Black-owned Hair treatments in Rhode-Island consultation",
      "Professional service",
      "Quality guarantee"
    ],
    "social_links": {}
  },
  {
    "name": "Straight & Sassy Styling Studio",
    "address": "1664 Cranston Street, Cranston, RI",
    "phone": "(401) 941-0000",
    "rating": 4.0,
    "reviews": 25,
    "website": "https://www.google.com/maps/search/Straight+&+Sassy+Styling+Studio+Rhode+Island",
    "category": "Black-owned Hair treatments in Rhode-Island",
    "description": "A styling studio in Cranston that provides hair services",
    "hours": "Mon-Fri 9AM-6PM",
    "services": [
      "Black-owned Hair treatments in Rhode-Island consultation",
      "Professional service",
      "Quality guarantee"
    ],
    "social_links": {}
  },
  {
    "name": "Hair By Rahsaan",
    "address": "Providence, RI (specific address not detailed, but serves Providence area)",
    "phone": "(401) 418-4501",
    "rating": 4.0,
    "reviews": 25,
    "website": "https://www.google.com/maps/search/Hair+By+Rahsaan+Rhode+Island",
    "category": "Black-owned Hair treatments in Rhode-Island",
    "description": "Specializes in expert styling and hair coloring for African American hair",
    "hours": "Mon-Fri 9AM-6PM",
    "services": [
      "Black-owned Hair treatments in Rhode-Island consultation",
      "Professional service",
      "Quality guarantee"
    ],
    "social_links": {}
  },
  {
    "name": "First Step Beauty \u2013 Braiding LLC",
    "address": "221 Plainfield Street, Providence, RI 02909 (also has a location in Central Falls, RI)",
    "phone": "",
    "rating": 4.0,
    "reviews": 25,
    "website": "https://www.google.com/maps/search/First+Step+Beauty+\u2013+Braiding+LLC+Rhode+Island",
    "category": "Black-owned Hair treatments in Rhode-Island",
    "description": "Offers braiding services and other hair satisfaction services",
    "hours": "Mon-Fri 9AM-6PM",
    "services": [
      "Black-owned Hair treatments in Rhode-Island consultation",
      "Professional service",
      "Quality guarantee"
    ],
    "social_links": {}
  },
  {
    "name": "Debonair Curls",
    "address": "375 N Broadway, Rumford, Rhode Island 02916",
    "phone": "(401) 563-8073",
    "rating": 4.0,
    "reviews": 25,
    "website": "https://www.google.com/maps/search/Debonair+Curls+Rhode+Island",
    "category": "Black-owned Hair treatments in Rhode-Island",
    "description": "Specializes in diverse hair textures, focusing on understanding and embracing natural hair",
    "hours": "Mon-Fri 9AM-6PM",
    "services": [
      "Black-owned Hair treatments in Rhode-Island consultation",
      "Professional service",
      "Quality guarantee"
    ],
    "social_links": {}
  },
  {
    "name": "Queens Beyond Beauty",
    "address": "Information not available, but mentioned as being on Charles St, Providence",
    "phone": "",
    "rating": 4.0,
    "reviews": 25,
    "website": "https://www.google.com/maps/search/Queens+Beyond+Beauty+Rhode+Island",
    "category": "Black-owned Hair treatments in Rhode-Island",
    "description": "An excellent Black-owned hair salon mentioned for its services",
    "hours": "Mon-Fri 9AM-6PM",
    "services": [
      "Black-owned Hair treatments in Rhode-Island consultation",
      "Professional service",
      "Quality guarantee"
    ],
    "social_links": {}
  },
  {
    "name": "Bliss Medical Hair Replacement Center",
    "address": "Information not available, but formerly Bliss Salon Rhode Island",
    "phone": "",
    "rating": 4.0,
    "reviews": 25,
    "website": "https://www.google.com/maps/search/Bliss+Medical+Hair+Replacement+Center+Rhode+Island",
    "category": "Black-owned Hair treatments in Rhode-Island",
    "description": "Specializes in cranial prosthesis, medical wigs, custom wigs, and hair extensions, offering salon services and hair treatments",
    "hours": "Mon-Fri 9AM-6PM",
    "services": [
      "Black-owned Hair treatments in Rhode-Island consultation",
      "Professional service",
      "Quality guarantee"
    ],
    "social_links": {}
  },
  {
    "name": "Natural Girl Wigs",
    "address": "Listed in a directory of Black-owned businesses in Providence, RI. Specific address not provided",
    "phone": "",
    "rating": 4.0,
    "reviews": 25,
    "website": "https://www.google.com/maps/search/Natural+Girl+Wigs+Rhode+Island",
    "category": "Black-owned Hair treatments in Rhode-Island",
    "description": "A Black-owned business that likely offers wigs and related hair services",
    "hours": "Mon-Fri 9AM-6PM",
    "services": [
      "Black-owned Hair treatments in Rhode-Island consultation",
      "Professional service",
      "Quality guarantee"
    ],
    "social_links": {}
  }
]