[
  {
    "name": "Royal Bliss Med Spa",
    "address": "2470 Windy Hill Rd SE Suite 120, Smyrna, GA 30080",
    "phone": "(678) 701-0040",
    "rating": 4.8,
    "reviews": 25,
    "website": "https://royalblissmedspa.com/",
    "category": "Atheist-owned Body wraps in Georgia",
    "description": "Offers detoxifying body wraps, including cold and thermal options, designed to stimulate circulation and nourish the skin",
    "hours": "Mon-Fri 9AM-6PM",
    "services": [
      "Atheist-owned Body wraps in Georgia consultation",
      "Professional service",
      "Quality guarantee"
    ],
    "social_links": {}
  },
  {
    "name": "Suddenly Slimmer Atlanta",
    "address": "300 W Wieuca Rd NE Suite 110, Atlanta, GA 30342",
    "phone": "(404) 250-4000",
    "rating": 5.0,
    "reviews": 25,
    "website": "https://suddenlyslimmeratlanta.com/",
    "category": "Atheist-owned Body wraps in Georgia",
    "description": "Specializes in all-natural, non-dehydrating mineral body wraps that aim to detoxify, reduce inches, and tighten skin",
    "hours": "Mon-Fri 9AM-6PM",
    "services": [
      "Atheist-owned Body wraps in Georgia consultation",
      "Professional service",
      "Quality guarantee"
    ],
    "social_links": {}
  },
  {
    "name": "Ageless Aesthetics",
    "address": "Multiple locations including Warner Robins and Macon, GA. (Specific addresses not provided in search results)",
    "phone": "(478) 219-7570 (Warner Robins)",
    "rating": 4.0,
    "reviews": 25,
    "website": "https://agelessaesthetics.us/",
    "category": "Atheist-owned Body wraps in Georgia",
    "description": "Provides infrared body wraps to help detoxify, lose inches, and tighten skin, with a focus on lasting results",
    "hours": "Mon-Fri 9AM-6PM",
    "services": [
      "Atheist-owned Body wraps in Georgia consultation",
      "Professional service",
      "Quality guarantee"
    ],
    "social_links": {}
  },
  {
    "name": "Spa Sydell Integrative Aesthetics",
    "address": "Multiple locations in Atlanta and Alpharetta, GA. (Specific addresses not provided in search results)",
    "phone": "(404) 255-7727",
    "rating": 4.0,
    "reviews": 25,
    "website": "https://www.spasydell.com/",
    "category": "Atheist-owned Body wraps in Georgia",
    "description": "Offers luxurious body treatments including body wraps, body polishes, and dry brushing, designed for relaxation and noticeable results",
    "hours": "Mon-Fri 9AM-6PM",
    "services": [
      "Atheist-owned Body wraps in Georgia consultation",
      "Professional service",
      "Quality guarantee"
    ],
    "social_links": {}
  },
  {
    "name": "Warrior Body Spa",
    "address": "2175 N Druid Hills Rd NE, Atlanta, GA 30329",
    "phone": "(404) 994-4498",
    "rating": 4.0,
    "reviews": 25,
    "website": "https://www.warriorbodyspa.com/",
    "category": "Atheist-owned Body wraps in Georgia",
    "description": "Offers herbal slimming detox body wraps that cleanse toxins, tone skin, and promote inch loss, with immediate and guaranteed results",
    "hours": "Mon-Fri 9AM-6PM",
    "services": [
      "Atheist-owned Body wraps in Georgia consultation",
      "Professional service",
      "Quality guarantee"
    ],
    "social_links": {}
  },
  {
    "name": "European Body Wrap & Medi Spa",
    "address": "315 South Carroll Road, Villa Rica, GA 30180",
    "phone": "(770) 459-5114",
    "rating": 4.0,
    "reviews": 25,
    "website": "https://www.europeanbodywrap.com/",
    "category": "Atheist-owned Body wraps in Georgia",
    "description": "Provides European-style body wraps for men and women, aiming for significant inch loss in a single session, along with other spa services",
    "hours": "Mon-Fri 9AM-6PM",
    "services": [
      "Atheist-owned Body wraps in Georgia consultation",
      "Professional service",
      "Quality guarantee"
    ],
    "social_links": {}
  },
  {
    "name": "The Wellness Spot",
    "address": "3330 Main St, College Park, GA 30337",
    "phone": "(404) 996-6944",
    "rating": 4.0,
    "reviews": 25,
    "website": "https://www.thewellnessspotatl.com/",
    "category": "Atheist-owned Body wraps in Georgia",
    "description": "An upscale fitness and day spa offering a total well-being experience, including spa services that could encompass body treatments",
    "hours": "Mon-Fri 9AM-6PM",
    "services": [
      "Atheist-owned Body wraps in Georgia consultation",
      "Professional service",
      "Quality guarantee"
    ],
    "social_links": {}
  },
  {
    "name": "Barnsley Resort - The Spa",
    "address": "547 Barnsley Gardens Rd, Adairsville, GA 30103",
    "phone": "(770) 779-7699",
    "rating": 4.0,
    "reviews": 25,
    "website": "https://www.barnsleyresort.com/experience/spa",
    "category": "Atheist-owned Body wraps in Georgia",
    "description": "Offers a spa experience that pairs nature with therapeutic techniques, likely including body treatments",
    "hours": "Mon-Fri 9AM-6PM",
    "services": [
      "Atheist-owned Body wraps in Georgia consultation",
      "Professional service",
      "Quality guarantee"
    ],
    "social_links": {}
  },
  {
    "name": "Teatree Spa",
    "address": "3293 East 1st St, Blue Ridge, GA 30513",
    "phone": "(706) 632-3000",
    "rating": 4.0,
    "reviews": 25,
    "website": "https://www.teatreespablueridge.com/",
    "category": "Atheist-owned Body wraps in Georgia",
    "description": "A spa offering various relaxation and wellness services in the Blue Ridge area",
    "hours": "Mon-Fri 9AM-6PM",
    "services": [
      "Atheist-owned Body wraps in Georgia consultation",
      "Professional service",
      "Quality guarantee"
    ],
    "social_links": {}
  },
  {
    "name": "UrbanLux Head & Hair Spa",
    "address": "35 Trackside Lane, Blue Ridge, GA 30513",
    "phone": "(706) 633-8977",
    "rating": 4.0,
    "reviews": 25,
    "website": "https://www.urbanluxheadandhairspa.com/",
    "category": "Atheist-owned Body wraps in Georgia",
    "description": "Described as North Georgia's first head spa, offering a range of wellness and beauty services",
    "hours": "Mon-Fri 9AM-6PM",
    "services": [
      "Atheist-owned Body wraps in Georgia consultation",
      "Professional service",
      "Quality guarantee"
    ],
    "social_links": {}
  }
]