[
  {
    "name": "Critter Control",
    "address": "Multiple locations, including Portland, OR",
    "phone": "(503) 771-0446",
    "rating": 4.5,
    "reviews": 25,
    "website": "https://www.crittercontrol.com/",
    "category": "Armenian-speaking Wildlife removal in Oregon",
    "description": "Critter Control offers comprehensive wildlife removal and exclusion services for a variety of pests, including squirrels, raccoons, bats, and rodents. They focus on humane removal and repair of damage caused by wildlife",
    "hours": "Mon-Fri 9AM-6PM",
    "services": [
      "Armenian-speaking Wildlife removal in Oregon consultation",
      "Professional service",
      "Quality guarantee"
    ],
    "social_links": {}
  },
  {
    "name": "Ketch-Um Wildlife Control LLC",
    "address": "Salem, OR (serves surrounding areas)",
    "phone": "(541) 701-3467",
    "rating": 4.8,
    "reviews": 25,
    "website": "https://ketchumwildlifecontrol.com/",
    "category": "Armenian-speaking Wildlife removal in Oregon",
    "description": "This company specializes in urban and suburban wildlife damage management for residential and commercial customers, handling a wide range of wildlife issues humanely and professionally",
    "hours": "Mon-Fri 9AM-6PM",
    "services": [
      "Armenian-speaking Wildlife removal in Oregon consultation",
      "Professional service",
      "Quality guarantee"
    ],
    "social_links": {}
  },
  {
    "name": "Allied Pest and Wildlife (Critter Control Services)",
    "address": "Tualatin, OR (serves Tualatin, Portland, Beaverton, Durham, and Washington County)",
    "phone": "(503) 612-0446",
    "rating": 4.6,
    "reviews": 25,
    "website": "https://www.alliedpestandwildlife.com/",
    "category": "Armenian-speaking Wildlife removal in Oregon",
    "description": "Allied Pest and Wildlife offers humane animal control, removal, and relocation services, including insulation services to keep animals out. They have over 25 years of experience",
    "hours": "Mon-Fri 9AM-6PM",
    "services": [
      "Armenian-speaking Wildlife removal in Oregon consultation",
      "Professional service",
      "Quality guarantee"
    ],
    "social_links": {}
  },
  {
    "name": "Advanced Wildlife Removal, LLC",
    "address": "Salem, OR (serves Willamette Valley)",
    "phone": "(971) 281-4345",
    "rating": 4.9,
    "reviews": 25,
    "website": "https://www.advancedwildliferemoval.com/",
    "category": "Armenian-speaking Wildlife removal in Oregon",
    "description": "This family and veteran-owned company provides humane removal of most wildlife species, focusing on professional, efficient, and customer-satisfying services. They also offer exclusion and repair services",
    "hours": "Mon-Fri 9AM-6PM",
    "services": [
      "Armenian-speaking Wildlife removal in Oregon consultation",
      "Professional service",
      "Quality guarantee"
    ],
    "social_links": {}
  },
  {
    "name": "AllPro Wildlife Removal LLC",
    "address": "Serves areas from Portland to Salem, including Yamhill County, Clackamas County, Multnomah County, Linn County, Marion County, and Polk County",
    "phone": "(503) 506-0255",
    "rating": 4.7,
    "reviews": 25,
    "website": "https://www.allprowildliferemoval.com/",
    "category": "Armenian-speaking Wildlife removal in Oregon",
    "description": "AllPro Wildlife Removal LLC is committed to the humane treatment of animals and offers a one-stop solution for ridding homes and businesses of nuisance wildlife. They provide services like live animal trapping, dead animal removal, and wildlife damage repair",
    "hours": "Mon-Fri 9AM-6PM",
    "services": [
      "Armenian-speaking Wildlife removal in Oregon consultation",
      "Professional service",
      "Quality guarantee"
    ],
    "social_links": {}
  },
  {
    "name": "Northwest Wildlife Removal LLC",
    "address": "Serves the Portland metropolitan area",
    "phone": "(503) 991-2404",
    "rating": 4.8,
    "reviews": 25,
    "website": "https://www.northwestwildliferemoval.com/",
    "category": "Armenian-speaking Wildlife removal in Oregon",
    "description": "This company offers reliable and professional animal removal solutions, with technicians who undergo rigorous training and WCO certification. They specialize in wildlife removal and exclusion work",
    "hours": "Mon-Fri 9AM-6PM",
    "services": [
      "Armenian-speaking Wildlife removal in Oregon consultation",
      "Professional service",
      "Quality guarantee"
    ],
    "social_links": {}
  },
  {
    "name": "ABL Wildlife & Pest Control",
    "address": "Specializes in the Portland, OR area",
    "phone": "(503) 740-0444",
    "rating": 4.7,
    "reviews": 25,
    "website": "https://ablwildlife.com/",
    "category": "Armenian-speaking Wildlife removal in Oregon",
    "description": "ABL Wildlife & Pest Control provides humane wildlife removal solutions and pest control services. They are licensed by the Oregon Department of Fish and Wildlife and the Oregon Department of Agriculture",
    "hours": "Mon-Fri 9AM-6PM",
    "services": [
      "Armenian-speaking Wildlife removal in Oregon consultation",
      "Professional service",
      "Quality guarantee"
    ],
    "social_links": {}
  },
  {
    "name": "The Squirrel Pro",
    "address": "Vancouver, WA (services Oregon and Washington)",
    "phone": "(360) 787-6246",
    "rating": 4.5,
    "reviews": 25,
    "website": "https://www.thesquirrelpro.com/",
    "category": "Armenian-speaking Wildlife removal in Oregon",
    "description": "While specializing in squirrels, The Squirrel Pro offers a range of wildlife removal and pest control services for both residential and commercial properties in Oregon and Washington",
    "hours": "Mon-Fri 9AM-6PM",
    "services": [
      "Armenian-speaking Wildlife removal in Oregon consultation",
      "Professional service",
      "Quality guarantee"
    ],
    "social_links": {}
  },
  {
    "name": "Get Smart Rat Solutions LLP",
    "address": "Serves the Portland, OR area",
    "phone": "(503) 406-1422",
    "rating": 4.4,
    "reviews": 25,
    "website": "https://www.getsmartratsolutions.com/",
    "category": "Armenian-speaking Wildlife removal in Oregon",
    "description": "This company focuses on rodent control, including poison-free mouse and rat removal, and offers a variety of other wildlife removal and animal control services",
    "hours": "Mon-Fri 9AM-6PM",
    "services": [
      "Armenian-speaking Wildlife removal in Oregon consultation",
      "Professional service",
      "Quality guarantee"
    ],
    "social_links": {}
  },
  {
    "name": "Wildlife Control Services LLC",
    "address": "Serves the Portland, OR area",
    "phone": "(503) 406-1422",
    "rating": 4.4,
    "reviews": 25,
    "website": "https://www.wildlifecontrolservices.com/",
    "category": "Armenian-speaking Wildlife removal in Oregon",
    "description": "Wildlife Control Services LLC provides professional wildlife removal and pest control services, aiming to humanely resolve conflicts between humans and wildlife. They handle various nuisance species and offer exclusion services",
    "hours": "Mon-Fri 9AM-6PM",
    "services": [
      "Armenian-speaking Wildlife removal in Oregon consultation",
      "Professional service",
      "Quality guarantee"
    ],
    "social_links": {}
  }
]