[
  {
    "name": "Hampshire Driving School",
    "address": "6 Temple St, Nashua, NH 03060",
    "phone": "(603) 882-7443",
    "rating": 4.0,
    "reviews": 25,
    "website": "https://www.hampshiredriving.com/",
    "category": "Baby-Boomer-owned Adult driving lessons in New-Hampshire",
    "description": "Offers driver education classes and behind-the-wheel driving lessons for teens and adults",
    "hours": "Mon-Fri 9AM-6PM",
    "services": [
      "Baby-Boomer-owned Adult driving lessons in New-Hampshire consultation",
      "Professional service",
      "Quality guarantee"
    ],
    "social_links": {}
  },
  {
    "name": "A & J Driving School LLC",
    "address": "42 Bridge Street, Suite 100A, Manchester, NH 03101",
    "phone": "(603) 591-3566 or (603) 716-8274",
    "rating": 4.0,
    "reviews": 25,
    "website": "https://www.google.com/maps/search/A+&+J+Driving+School+LLC+New+Hampshire",
    "category": "Baby-Boomer-owned Adult driving lessons in New-Hampshire",
    "description": "A woman-owned driving school in Manchester offering driver safety education and instruction on state rules and regulations",
    "hours": "Mon-Fri 9AM-6PM",
    "services": [
      "Baby-Boomer-owned Adult driving lessons in New-Hampshire consultation",
      "Professional service",
      "Quality guarantee"
    ],
    "social_links": {}
  },
  {
    "name": "Williams Driving School",
    "address": "1 Wakefield St, Ste 210, Rochester, NH 03867",
    "phone": "(603) 335-5136",
    "rating": 4.0,
    "reviews": 25,
    "website": "https://www.google.com/maps/search/Williams+Driving+School+New+Hampshire",
    "category": "Baby-Boomer-owned Adult driving lessons in New-Hampshire",
    "description": "Provides driving lessons with a focus on teaching students to drive properly",
    "hours": "Mon-Fri 9AM-6PM",
    "services": [
      "Baby-Boomer-owned Adult driving lessons in New-Hampshire consultation",
      "Professional service",
      "Quality guarantee"
    ],
    "social_links": {}
  },
  {
    "name": "AAA Driving School",
    "address": "746 Daniel Webster Hwy, Ste 3, Merrimack, NH 03054",
    "phone": "(603) 424-0220",
    "rating": 4.0,
    "reviews": 25,
    "website": "https://www.aaa.com/drivers-education",
    "category": "Baby-Boomer-owned Adult driving lessons in New-Hampshire",
    "description": "Offers driver education with a research-based curriculum focused on teen safety, and also provides driver improvement courses",
    "hours": "Mon-Fri 9AM-6PM",
    "services": [
      "Baby-Boomer-owned Adult driving lessons in New-Hampshire consultation",
      "Professional service",
      "Quality guarantee"
    ],
    "social_links": {}
  },
  {
    "name": "Benson's Driving School",
    "address": "Multiple locations including 683 Calef Hwy, Barrington, NH 03825 and 472 Rte 111, Ste B5, Hampstead, NH 03841",
    "phone": "(603) 244-2198",
    "rating": 4.0,
    "reviews": 25,
    "website": "https://www.bensonsdriving.com/",
    "category": "Baby-Boomer-owned Adult driving lessons in New-Hampshire",
    "description": "A family-owned business offering professional and friendly instructors, with a focus on safe driving habits and preparing new drivers",
    "hours": "Mon-Fri 9AM-6PM",
    "services": [
      "Baby-Boomer-owned Adult driving lessons in New-Hampshire consultation",
      "Professional service",
      "Quality guarantee"
    ],
    "social_links": {}
  },
  {
    "name": "B Safe Driving School",
    "address": "10 Pierce St, Dover, NH 03820",
    "phone": "(603) 617-3777",
    "rating": 4.0,
    "reviews": 25,
    "website": "https://www.google.com/maps/search/B+Safe+Driving+School+New+Hampshire",
    "category": "Baby-Boomer-owned Adult driving lessons in New-Hampshire",
    "description": "Provides driving lessons in the Dover area",
    "hours": "Mon-Fri 9AM-6PM",
    "services": [
      "Baby-Boomer-owned Adult driving lessons in New-Hampshire consultation",
      "Professional service",
      "Quality guarantee"
    ],
    "social_links": {}
  },
  {
    "name": "1st Gear Driving, Inc.",
    "address": "141 Rte 101A, Unit M7, Amherst, NH 03031",
    "phone": "(603) 801-7939",
    "rating": 4.0,
    "reviews": 25,
    "website": "https://www.google.com/maps/search/1st+Gear+Driving,+Inc.+New+Hampshire",
    "category": "Baby-Boomer-owned Adult driving lessons in New-Hampshire",
    "description": "Offers complete driver education for teens and adults, including private driving lessons and driver improvement classes",
    "hours": "Mon-Fri 9AM-6PM",
    "services": [
      "Baby-Boomer-owned Adult driving lessons in New-Hampshire consultation",
      "Professional service",
      "Quality guarantee"
    ],
    "social_links": {}
  },
  {
    "name": "Mr Ross' Driving School",
    "address": "12 Mercury Dr, Londonderry, NH 03053",
    "phone": "(603) 661-3547",
    "rating": 4.0,
    "reviews": 25,
    "website": "https://www.google.com/maps/search/Mr+Ross'+Driving+School+New+Hampshire",
    "category": "Baby-Boomer-owned Adult driving lessons in New-Hampshire",
    "description": "Emphasizes safe driving and adherence to traffic regulations",
    "hours": "Mon-Fri 9AM-6PM",
    "services": [
      "Baby-Boomer-owned Adult driving lessons in New-Hampshire consultation",
      "Professional service",
      "Quality guarantee"
    ],
    "social_links": {}
  },
  {
    "name": "Bradford's Driving School",
    "address": "416 Daniel Webster Hwy j, Merrimack, NH 03054; 819 Second St, Manchester, NH 03102; 25 Indian Rock Rd #18, Windham, NH 03087",
    "phone": "(603) 339-9557",
    "rating": 4.0,
    "reviews": 25,
    "website": "https://www.bradfordsdrivingschool.com/",
    "category": "Baby-Boomer-owned Adult driving lessons in New-Hampshire",
    "description": "Offers driver education with a focus on a safe and quality program in a conducive learning environment",
    "hours": "Mon-Fri 9AM-6PM",
    "services": [
      "Baby-Boomer-owned Adult driving lessons in New-Hampshire consultation",
      "Professional service",
      "Quality guarantee"
    ],
    "social_links": {}
  },
  {
    "name": "Capital Driving Academy",
    "address": "Bow, NH (specific street address not provided in search results)",
    "phone": "",
    "rating": 4.0,
    "reviews": 25,
    "website": "https://www.capitaldrivingacademy.com/",
    "category": "Baby-Boomer-owned Adult driving lessons in New-Hampshire",
    "description": "Provides comprehensive teen and adult driver education courses with a focus on building confidence and teaching road rules",
    "hours": "Mon-Fri 9AM-6PM",
    "services": [
      "Baby-Boomer-owned Adult driving lessons in New-Hampshire consultation",
      "Professional service",
      "Quality guarantee"
    ],
    "social_links": {}
  }
]