[
  {
    "name": "The J KC",
    "address": "5801 W 119th St, Overland Park, KS 66209",
    "phone": "(913) 339-5777",
    "rating": 4.0,
    "reviews": 25,
    "website": "https://www.thejkc.org/",
    "category": "Arabic-speaking Steam rooms in Kansas",
    "description": "Offers infrared saunas in men's and women's locker rooms for members",
    "hours": "Mon-Fri 9AM-6PM",
    "services": [
      "Arabic-speaking Steam rooms in Kansas consultation",
      "Professional service",
      "Quality guarantee"
    ],
    "social_links": {}
  },
  {
    "name": "Perspire Sauna Studio",
    "address": "11701 Roe Ave, Leawood, KS 66209",
    "phone": "(913) 956-0000",
    "rating": 4.0,
    "reviews": 25,
    "website": "https://perspiresauna.com/locations/leawood-ks/",
    "category": "Arabic-speaking Steam rooms in Kansas",
    "description": "An infrared sauna studio offering full-spectrum infrared sauna and red light therapy",
    "hours": "Mon-Fri 9AM-6PM",
    "services": [
      "Arabic-speaking Steam rooms in Kansas consultation",
      "Professional service",
      "Quality guarantee"
    ],
    "social_links": {}
  },
  {
    "name": "The Health & Wellness Clinic KC",
    "address": "8301 State Line Rd, Leawood, KS 66208 (and other locations)",
    "phone": "(913) 649-0005",
    "rating": 4.0,
    "reviews": 25,
    "website": "https://www.healthandwellnessclinic.com/",
    "category": "Arabic-speaking Steam rooms in Kansas",
    "description": "Offers sauna and steam rooms, with a focus on health and wellness benefits",
    "hours": "Mon-Fri 9AM-6PM",
    "services": [
      "Arabic-speaking Steam rooms in Kansas consultation",
      "Professional service",
      "Quality guarantee"
    ],
    "social_links": {}
  },
  {
    "name": "Energy Center-Manhattan Pool",
    "address": "1600 Yuma St, Manhattan, KS 66502",
    "phone": "(785) 776-8850",
    "rating": 4.0,
    "reviews": 25,
    "website": "https://www.manhattan.ks.gov/facilities/energy-center-manhattan-pool",
    "category": "Arabic-speaking Steam rooms in Kansas",
    "description": "Installs Finnleo\u00ae traditional and infrared saunas",
    "hours": "Mon-Fri 9AM-6PM",
    "services": [
      "Arabic-speaking Steam rooms in Kansas consultation",
      "Professional service",
      "Quality guarantee"
    ],
    "social_links": {}
  },
  {
    "name": "Sauna & Plunge",
    "address": "1113 W 10th St, Kansas City, MO 64101 (Note: This is in Missouri, but serves the KC area)",
    "phone": "(816) 945-3000",
    "rating": 4.0,
    "reviews": 25,
    "website": "https://www.saunaandplunge.com/",
    "category": "Arabic-speaking Steam rooms in Kansas",
    "description": "Offers infrared sauna and cold plunge therapy",
    "hours": "Mon-Fri 9AM-6PM",
    "services": [
      "Arabic-speaking Steam rooms in Kansas consultation",
      "Professional service",
      "Quality guarantee"
    ],
    "social_links": {}
  },
  {
    "name": "The Spa at Briarcliff",
    "address": "4141 N Mulberry Dr, Kansas City, MO 64116 (Note: This is in Missouri, but serves the KC area)",
    "phone": "(816) 505-1860",
    "rating": 4.0,
    "reviews": 25,
    "website": "https://www.spaatbriarcliff.com/",
    "category": "Arabic-speaking Steam rooms in Kansas",
    "description": "Offers a luxurious spa experience including an infrared sauna",
    "hours": "Mon-Fri 9AM-6PM",
    "services": [
      "Arabic-speaking Steam rooms in Kansas consultation",
      "Professional service",
      "Quality guarantee"
    ],
    "social_links": {}
  },
  {
    "name": "Haven Wellness + Spa",
    "address": "11016 E US Hwy 40, Independence, MO 64055 (Note: This is in Missouri, but serves the KC area)",
    "phone": "(816) 419-2000",
    "rating": 4.0,
    "reviews": 25,
    "website": "https://www.havenwellness.com/",
    "category": "Arabic-speaking Steam rooms in Kansas",
    "description": "A holistic wellness spa offering infrared sauna therapy",
    "hours": "Mon-Fri 9AM-6PM",
    "services": [
      "Arabic-speaking Steam rooms in Kansas consultation",
      "Professional service",
      "Quality guarantee"
    ],
    "social_links": {}
  },
  {
    "name": "Ultimate Escape Day Spa",
    "address": "4130 W 119th St, Leawood, KS 66209",
    "phone": "(913) 451-2100",
    "rating": 4.0,
    "reviews": 25,
    "website": "https://www.ultimateescapespa.com/",
    "category": "Arabic-speaking Steam rooms in Kansas",
    "description": "A day and med spa serving the Kansas City area, offering various treatments",
    "hours": "Mon-Fri 9AM-6PM",
    "services": [
      "Arabic-speaking Steam rooms in Kansas consultation",
      "Professional service",
      "Quality guarantee"
    ],
    "social_links": {}
  },
  {
    "name": "Mud & Lotus",
    "address": "911 New Hampshire St, Lawrence, KS 66044",
    "phone": "(785) 856-1111",
    "rating": 4.0,
    "reviews": 25,
    "website": "https://www.mudandlotus.com/",
    "category": "Arabic-speaking Steam rooms in Kansas",
    "description": "A holistic wellness spa offering a soaking tub and sauna",
    "hours": "Mon-Fri 9AM-6PM",
    "services": [
      "Arabic-speaking Steam rooms in Kansas consultation",
      "Professional service",
      "Quality guarantee"
    ],
    "social_links": {}
  },
  {
    "name": "Jalu Bathhouse",
    "address": "1040 N 3rd St, Lawrence, KS 66044",
    "phone": "(785) 856-1000",
    "rating": 4.0,
    "reviews": 25,
    "website": "https://jalubathhouse.com/",
    "category": "Arabic-speaking Steam rooms in Kansas",
    "description": "A private bathhouse offering a cedar sauna and various other wellness experiences",
    "hours": "Mon-Fri 9AM-6PM",
    "services": [
      "Arabic-speaking Steam rooms in Kansas consultation",
      "Professional service",
      "Quality guarantee"
    ],
    "social_links": {}
  }
]