[
  {
    "name": "ABS Technologies",
    "address": "Multiple locations in Pennsylvania (specific addresses vary, but they serve businesses across the state)",
    "phone": "(877) 227-0700",
    "rating": 4.0,
    "reviews": 25,
    "website": "https://www.abstech.us/",
    "category": "Armenian-speaking Computer setup in Pennsylvania",
    "description": "Offers comprehensive IT services including managed IT, cloud services, DevOps, and information security, and states they help \"Armenian businesses manage IT infrastructure.\"",
    "hours": "Mon-Fri 9AM-6PM",
    "services": [
      "Armenian-speaking Computer setup in Pennsylvania consultation",
      "Professional service",
      "Quality guarantee"
    ],
    "social_links": {}
  },
  {
    "name": "Reset Computer Services",
    "address": "Not specified in search results, but operates in Armenia and offers services globally",
    "phone": "",
    "rating": 4.0,
    "reviews": 25,
    "website": "https://reset.am/",
    "category": "Armenian-speaking Computer setup in Pennsylvania",
    "description": "A software development and hardware maintenance company that provides high-quality services",
    "hours": "Mon-Fri 9AM-6PM",
    "services": [
      "Armenian-speaking Computer setup in Pennsylvania consultation",
      "Professional service",
      "Quality guarantee"
    ],
    "social_links": {}
  },
  {
    "name": "Armenian Solutions",
    "address": "Not specified in search results, but operates globally",
    "phone": "",
    "rating": 4.0,
    "reviews": 25,
    "website": "https://armeniantech.com/",
    "category": "Armenian-speaking Computer setup in Pennsylvania",
    "description": "A software development company specializing in creating reliable and scalable software solutions, offering consulting and other IT services",
    "hours": "Mon-Fri 9AM-6PM",
    "services": [
      "Armenian-speaking Computer setup in Pennsylvania consultation",
      "Professional service",
      "Quality guarantee"
    ],
    "social_links": {}
  },
  {
    "name": "HelloTech",
    "address": "Services provided in-home across Pennsylvania",
    "phone": "1-855-727-4357",
    "rating": 4.0,
    "reviews": 25,
    "website": "https://www.hellotechexperts.com/",
    "category": "Armenian-speaking Computer setup in Pennsylvania",
    "description": "Offers in-home tech support, computer services, installations, and setups throughout Pennsylvania",
    "hours": "Mon-Fri 9AM-6PM",
    "services": [
      "Armenian-speaking Computer setup in Pennsylvania consultation",
      "Professional service",
      "Quality guarantee"
    ],
    "social_links": {}
  },
  {
    "name": "Geeks on Site",
    "address": "Provides remote and on-site services throughout Pennsylvania",
    "phone": "1-855-433-5778",
    "rating": 4.0,
    "reviews": 25,
    "website": "https://www.geekson-site.com/",
    "category": "Armenian-speaking Computer setup in Pennsylvania",
    "description": "Offers remote and on-site IT support, computer repair, hardware installation, and network solutions",
    "hours": "Mon-Fri 9AM-6PM",
    "services": [
      "Armenian-speaking Computer setup in Pennsylvania consultation",
      "Professional service",
      "Quality guarantee"
    ],
    "social_links": {}
  },
  {
    "name": "PC Support Services",
    "address": "1000 Belmont Ave, Milmont Park, PA 19033",
    "phone": "(610) 522-2668",
    "rating": 4.0,
    "reviews": 25,
    "website": "https://www.pcsupportservices.net/",
    "category": "Armenian-speaking Computer setup in Pennsylvania",
    "description": "Provides IT solutions for home and business, including computer repair, managed IT services, data backup, and virus removal",
    "hours": "Mon-Fri 9AM-6PM",
    "services": [
      "Armenian-speaking Computer setup in Pennsylvania consultation",
      "Professional service",
      "Quality guarantee"
    ],
    "social_links": {}
  },
  {
    "name": "Ryan's Computer Consulting Services",
    "address": "Primarily serves Greencastle, PA, and surrounding areas",
    "phone": "(717) 659-3911",
    "rating": 4.0,
    "reviews": 25,
    "website": "https://ryanscomputerconsulting.com/",
    "category": "Armenian-speaking Computer setup in Pennsylvania",
    "description": "Offers residential and commercial computer repair, sales, virus removal, data recovery, and networking services",
    "hours": "Mon-Fri 9AM-6PM",
    "services": [
      "Armenian-speaking Computer setup in Pennsylvania consultation",
      "Professional service",
      "Quality guarantee"
    ],
    "social_links": {}
  },
  {
    "name": "COMP SHOP USA LLC",
    "address": "Serves Windber and Johnstown, PA, with on-site services",
    "phone": "(814) 467-7770",
    "rating": 4.0,
    "reviews": 25,
    "website": "https://www.comp-shop.com/",
    "category": "Armenian-speaking Computer setup in Pennsylvania",
    "description": "Provides computer repair, sales, virus removal, hardware installation, and software services, with on-site and remote options",
    "hours": "Mon-Fri 9AM-6PM",
    "services": [
      "Armenian-speaking Computer setup in Pennsylvania consultation",
      "Professional service",
      "Quality guarantee"
    ],
    "social_links": {}
  },
  {
    "name": "Landis Local IT",
    "address": "Gap, PA",
    "phone": "(717) 442-0947",
    "rating": 4.0,
    "reviews": 25,
    "website": "https://landislocalit.com/",
    "category": "Armenian-speaking Computer setup in Pennsylvania",
    "description": "Offers managed IT services, Microsoft 365, cloud solutions, security, and backups for businesses in the Gap area",
    "hours": "Mon-Fri 9AM-6PM",
    "services": [
      "Armenian-speaking Computer setup in Pennsylvania consultation",
      "Professional service",
      "Quality guarantee"
    ],
    "social_links": {}
  },
  {
    "name": "CNA Computer Repair",
    "address": "921 Darby Rd, Havertown, PA 19083",
    "phone": "(610) 624-3774",
    "rating": 4.0,
    "reviews": 25,
    "website": "https://cnacomputerrepair.com/",
    "category": "Armenian-speaking Computer setup in Pennsylvania",
    "description": "Provides quick and affordable computer repair services for laptops and PCs, including virus removal and screen repair",
    "hours": "Mon-Fri 9AM-6PM",
    "services": [
      "Armenian-speaking Computer setup in Pennsylvania consultation",
      "Professional service",
      "Quality guarantee"
    ],
    "social_links": {}
  }
]