[
  {
    "name": "JE Tire & Wheels",
    "address": "16535 Aurora Ave N, Seattle, Washington",
    "phone": "(206) 364-7100",
    "rating": 4.0,
    "reviews": 25,
    "website": "http://www.jetireandwheels.com/",
    "category": "American-Indian-owned Tire balancing in Washington",
    "description": "Specializes in wheel balancing to enhance driving experience, adjusting weight distribution to eliminate vibrations and improve tire longevity",
    "hours": "Mon-Fri 9AM-6PM",
    "services": [
      "American-Indian-owned Tire balancing in Washington consultation",
      "Professional service",
      "Quality guarantee"
    ],
    "social_links": {}
  },
  {
    "name": "Masters Auto & Tire Service",
    "address": "10633 16th Ave SW, Seattle, Washington 98146",
    "phone": "(206) 243-8487",
    "rating": 4.0,
    "reviews": 25,
    "website": "https://www.mastersautoandtire.com/",
    "category": "American-Indian-owned Tire balancing in Washington",
    "description": "Provides trusted tire balancing and other vehicle maintenance and repair services. They use the latest balancing equipment for a smoother ride and increased tire lifespan",
    "hours": "Mon-Fri 9AM-6PM",
    "services": [
      "American-Indian-owned Tire balancing in Washington consultation",
      "Professional service",
      "Quality guarantee"
    ],
    "social_links": {}
  },
  {
    "name": "AutoLogic Inc.",
    "address": "13600 Bel-Red Rd, Bellevue, WA 98005",
    "phone": "(425) 455-2303",
    "rating": 4.0,
    "reviews": 25,
    "website": "https://www.autologicinc.com/",
    "category": "American-Indian-owned Tire balancing in Washington",
    "description": "Offers wheel balancing services in Bellevue, WA, using the latest equipment to ensure even weight distribution for a smoother ride and even tire wear",
    "hours": "Mon-Fri 9AM-6PM",
    "services": [
      "American-Indian-owned Tire balancing in Washington consultation",
      "Professional service",
      "Quality guarantee"
    ],
    "social_links": {}
  },
  {
    "name": "Liberty Tire",
    "address": "3253 E 1st Ave, Spokane, WA 99202",
    "phone": "(509) 535-8008",
    "rating": 4.0,
    "reviews": 25,
    "website": "https://libertytire.net/",
    "category": "American-Indian-owned Tire balancing in Washington",
    "description": "Offers tire balancing services in Spokane, WA, to prolong tire life and increase vehicle safety",
    "hours": "Mon-Fri 9AM-6PM",
    "services": [
      "American-Indian-owned Tire balancing in Washington consultation",
      "Professional service",
      "Quality guarantee"
    ],
    "social_links": {}
  },
  {
    "name": "Tire Nation & Auto Repair Point S - Kirkland",
    "address": "11727 124th Avenue Northeast, Kirkland, WA, 98034",
    "phone": "(425) 827-6287",
    "rating": 4.0,
    "reviews": 25,
    "website": "https://www.pointstire.com/locations/kirkland-wa/tire-nation-point-s/",
    "category": "American-Indian-owned Tire balancing in Washington",
    "description": "Provides tire balancing and other auto repair services, ensuring tires run smoothly and quietly",
    "hours": "Mon-Fri 9AM-6PM",
    "services": [
      "American-Indian-owned Tire balancing in Washington consultation",
      "Professional service",
      "Quality guarantee"
    ],
    "social_links": {}
  },
  {
    "name": "Point S Affordable Tire & Service",
    "address": "900 1st Ave S Suite 412, Seattle, WA 98134",
    "phone": "(206) 441-9900",
    "rating": 5.0,
    "reviews": 25,
    "website": "https://www.pointsaffordabletire.com/",
    "category": "American-Indian-owned Tire balancing in Washington",
    "description": "Offers tire services, including balancing, with a focus on extraordinary customer service and a welcoming environment",
    "hours": "Mon-Fri 9AM-6PM",
    "services": [
      "American-Indian-owned Tire balancing in Washington consultation",
      "Professional service",
      "Quality guarantee"
    ],
    "social_links": {}
  },
  {
    "name": "Les Schwab Tire Center - Seattle Ballard",
    "address": "5000 15th Ave NW, Seattle, WA 98107",
    "phone": "(206) 783-7131",
    "rating": 4.0,
    "reviews": 25,
    "website": "https://www.lesschwab.com/store/wa/seattle/5000-15th-ave-nw",
    "category": "American-Indian-owned Tire balancing in Washington",
    "description": "Offers a wide selection of tires and services including tire balancing, brakes, wheels, batteries, shocks, and alignment services",
    "hours": "Mon-Fri 9AM-6PM",
    "services": [
      "American-Indian-owned Tire balancing in Washington consultation",
      "Professional service",
      "Quality guarantee"
    ],
    "social_links": {}
  },
  {
    "name": "Firestone Complete Auto Care",
    "address": "400 NE 45th St, Seattle, WA 98105",
    "phone": "(206) 632-0300",
    "rating": 4.0,
    "reviews": 25,
    "website": "https://www.firestonecompleteautocare.com/locations/wa/seattle/400-ne-45th-st/",
    "category": "American-Indian-owned Tire balancing in Washington",
    "description": "Provides tire balancing and other automotive services to ensure a smooth and safe driving experience",
    "hours": "Mon-Fri 9AM-6PM",
    "services": [
      "American-Indian-owned Tire balancing in Washington consultation",
      "Professional service",
      "Quality guarantee"
    ],
    "social_links": {}
  },
  {
    "name": "Express Oil Change & Tire Engineers",
    "address": "1011 N 105th St, Seattle, WA 98133",
    "phone": "(206) 782-0200",
    "rating": 4.0,
    "reviews": 25,
    "website": "https://www.expressoil.com/locations/seattle-wa/1011-n-105th-st/",
    "category": "American-Indian-owned Tire balancing in Washington",
    "description": "Offers tire services, including balancing, along with oil changes, brakes, alignments, and full auto services",
    "hours": "Mon-Fri 9AM-6PM",
    "services": [
      "American-Indian-owned Tire balancing in Washington consultation",
      "Professional service",
      "Quality guarantee"
    ],
    "social_links": {}
  },
  {
    "name": "Commercial Tire",
    "address": "1101 N 35th St, Seattle, WA 98103",
    "phone": "(206) 632-0900",
    "rating": 4.0,
    "reviews": 25,
    "website": "https://www.commercialtire.com/locations/seattle-wa/1101-n-35th-st/",
    "category": "American-Indian-owned Tire balancing in Washington",
    "description": "Provides professional automotive services specializing in tires, wheel alignments, oil changes, and brakes, with a focus on quality service at a fair price",
    "hours": "Mon-Fri 9AM-6PM",
    "services": [
      "American-Indian-owned Tire balancing in Washington consultation",
      "Professional service",
      "Quality guarantee"
    ],
    "social_links": {}
  }
]