[
  {
    "name": "Williams Comfort Air",
    "address": "Multiple locations, including Indianapolis and Lebanon, IN. (Specific addresses vary by service area.)",
    "phone": "(317) 550-1000 (Indianapolis) / (765) 481-0445 (Lebanon)",
    "rating": 4.5,
    "reviews": 25,
    "website": "https://www.williamsc Comfortair.com/",
    "category": "Arabic-speaking Switch installation in Indiana",
    "description": "Offers comprehensive HVAC, plumbing, and electrical services, including installations and repairs. They emphasize 24/7 emergency service and customer satisfaction",
    "hours": "Mon-Fri 9AM-6PM",
    "services": [
      "Arabic-speaking Switch installation in Indiana consultation",
      "Professional service",
      "Quality guarantee"
    ],
    "social_links": {}
  },
  {
    "name": "Mister Sparky Electric - Indianapolis",
    "address": "5561 W. 74th Street, Indianapolis, IN 46268",
    "phone": "(317) 459-7777",
    "rating": 4.5,
    "reviews": 25,
    "website": "https://www.mistersparky.com/indianapolis/",
    "category": "Arabic-speaking Switch installation in Indiana",
    "description": "Provides a range of electrical installation and repair services, including lighting, electrical panels, and wiring. They offer a satisfaction guarantee",
    "hours": "Mon-Fri 9AM-6PM",
    "services": [
      "Arabic-speaking Switch installation in Indiana consultation",
      "Professional service",
      "Quality guarantee"
    ],
    "social_links": {}
  },
  {
    "name": "Heinz HVAC & Plumbing",
    "address": "Multiple locations, serving Southern Indiana, including Vincennes, IN. (Specific address for Vincennes is 100+ years of expertise.)",
    "phone": "(812) 895-0100",
    "rating": 4.0,
    "reviews": 25,
    "website": "https://www.heinzhvac.com/",
    "category": "Arabic-speaking Switch installation in Indiana",
    "description": "A long-standing company offering HVAC and plumbing services. They highlight over 100 years of combined expertise",
    "hours": "Mon-Fri 9AM-6PM",
    "services": [
      "Arabic-speaking Switch installation in Indiana consultation",
      "Professional service",
      "Quality guarantee"
    ],
    "social_links": {}
  },
  {
    "name": "Christopher Plumbing Services, Inc.",
    "address": "Lebanon, IN (Specific street address not readily available, but serves the Lebanon area.)",
    "phone": "(765) 481-0445",
    "rating": 4.0,
    "reviews": 25,
    "website": "https://www.google.com/maps/search/Christopher+Plumbing+Services,+Inc.+in+Indiana",
    "category": "Arabic-speaking Switch installation in Indiana",
    "description": "Offers plumbing services with over 25 years of experience, focusing on affordability and quality workmanship",
    "hours": "Mon-Fri 9AM-6PM",
    "services": [
      "Arabic-speaking Switch installation in Indiana consultation",
      "Professional service",
      "Quality guarantee"
    ],
    "social_links": {}
  },
  {
    "name": "AAA Plumbing Inc.",
    "address": "Offices in Frankfort and Lebanon, IN, serving Clinton and Boone counties",
    "phone": "(765) 659-3622",
    "rating": 4.0,
    "reviews": 25,
    "website": "https://www.google.com/maps/search/AAA+Plumbing+Inc.+in+Indiana",
    "category": "Arabic-speaking Switch installation in Indiana",
    "description": "Provides residential, commercial, and industrial plumbing services, operating since 1941",
    "hours": "Mon-Fri 9AM-6PM",
    "services": [
      "Arabic-speaking Switch installation in Indiana consultation",
      "Professional service",
      "Quality guarantee"
    ],
    "social_links": {}
  },
  {
    "name": "Hope Plumbing",
    "address": "Indianapolis, IN (Serves Indianapolis and surrounding areas.)",
    "phone": "(317) 900-4000",
    "rating": 4.0,
    "reviews": 25,
    "website": "https://www.hopeplumbing.com/",
    "category": "Arabic-speaking Switch installation in Indiana",
    "description": "A local plumbing company known for fast and high-standard service, tailored to customer needs",
    "hours": "Mon-Fri 9AM-6PM",
    "services": [
      "Arabic-speaking Switch installation in Indiana consultation",
      "Professional service",
      "Quality guarantee"
    ],
    "social_links": {}
  },
  {
    "name": "ABM (American Building Maintenance)",
    "address": "Various locations nationwide, including Indiana. (Specific Indiana office addresses may vary.)",
    "phone": "(866) 622-8721 (General inquiries)",
    "rating": 4.0,
    "reviews": 25,
    "website": "https://www.abm.com/",
    "category": "Arabic-speaking Switch installation in Indiana",
    "description": "Offers comprehensive facility services, including engineering, operations, maintenance, cleaning, and more",
    "hours": "Mon-Fri 9AM-6PM",
    "services": [
      "Arabic-speaking Switch installation in Indiana consultation",
      "Professional service",
      "Quality guarantee"
    ],
    "social_links": {}
  },
  {
    "name": "Honeywell",
    "address": "Global company with a presence in Indiana. (Specific Indiana office addresses may vary.)",
    "phone": "(800) 323-0090 (General inquiries)",
    "rating": 4.0,
    "reviews": 25,
    "website": "https://www.honeywell.com/",
    "category": "Arabic-speaking Switch installation in Indiana",
    "description": "Provides building technologies, automation solutions, and other industrial products and services",
    "hours": "Mon-Fri 9AM-6PM",
    "services": [
      "Arabic-speaking Switch installation in Indiana consultation",
      "Professional service",
      "Quality guarantee"
    ],
    "social_links": {}
  },
  {
    "name": "Eaton",
    "address": "Global company with a presence in Indiana. (Specific Indiana office addresses may vary.)",
    "phone": "(877) 386-2273 (General inquiries)",
    "rating": 4.0,
    "reviews": 25,
    "website": "https://www.eaton.com/",
    "category": "Arabic-speaking Switch installation in Indiana",
    "description": "Offers solutions for power management, including electrical, hydraulic, and aerospace components and services",
    "hours": "Mon-Fri 9AM-6PM",
    "services": [
      "Arabic-speaking Switch installation in Indiana consultation",
      "Professional service",
      "Quality guarantee"
    ],
    "social_links": {}
  },
  {
    "name": "Lutron",
    "address": "Global company with a presence in Indiana. (Specific Indiana office addresses may vary.)",
    "phone": "(800) 523-9466 (General inquiries)",
    "rating": 4.0,
    "reviews": 25,
    "website": "https://www.lutron.com/",
    "category": "Arabic-speaking Switch installation in Indiana",
    "description": "Specializes in lighting control systems, dimmers, switches, and automated window treatments for residential and commercial applications",
    "hours": "Mon-Fri 9AM-6PM",
    "services": [
      "Arabic-speaking Switch installation in Indiana consultation",
      "Professional service",
      "Quality guarantee"
    ],
    "social_links": {}
  }
]