[
  {
    "name": "Oregon Commission for the Blind",
    "address": "Multiple locations including Portland, Eugene, Medford, Redmond, and Salem. (Specific addresses vary by location.)",
    "phone": "Portland: 971-673-1588 or 888-202-5463. Eugene: 541-686-7990. Medford: 541-776-6047. Redmond: 541-699-5090. Salem: 503-378-8479",
    "rating": 4.0,
    "reviews": 25,
    "website": "https://www.oregon.gov/ocb/Pages/index.aspx",
    "category": "African-American-owned Low vision services in Oregon",
    "description": "Provides vocational rehabilitation and independent living services for state residents who experience vision loss",
    "hours": "Mon-Fri 9AM-6PM",
    "services": [
      "African-American-owned Low vision services in Oregon consultation",
      "Professional service",
      "Quality guarantee"
    ],
    "social_links": {}
  },
  {
    "name": "Casey Eye Institute - OHSU Vision Rehabilitation Center",
    "address": "3303 S.W. Bond Avenue, Portland, OR 97239",
    "phone": "503-418-9008 (General Inquiries), 503-494-3098 (Appointments)",
    "rating": 4.0,
    "reviews": 25,
    "website": "https://www.ohsu.edu/casey-eye-institute/vision-rehabilitation",
    "category": "African-American-owned Low vision services in Oregon",
    "description": "Offers assessment and treatment planning for the effects of vision loss, with a team of optometrists and certified low vision therapists",
    "hours": "Mon-Fri 9AM-6PM",
    "services": [
      "African-American-owned Low vision services in Oregon consultation",
      "Professional service",
      "Quality guarantee"
    ],
    "social_links": {}
  },
  {
    "name": "Legacy Devers Eye Institute \u2013 Memorial Eye Clinic",
    "address": "1040 NW 22nd Avenue, Portland, OR 97210",
    "phone": "(503) 413-7022",
    "rating": 4.0,
    "reviews": 25,
    "website": "https://www.google.com/maps/search/Legacy+Devers+Eye+Institute+\u2013+Memorial+Eye+Clinic+in+Oregon",
    "category": "African-American-owned Low vision services in Oregon",
    "description": "Provides eye care services, likely including low vision support",
    "hours": "Mon-Fri 9AM-6PM",
    "services": [
      "African-American-owned Low vision services in Oregon consultation",
      "Professional service",
      "Quality guarantee"
    ],
    "social_links": {}
  },
  {
    "name": "Oregon Lions Statewide Low Vision Clinic (LVC)",
    "address": "Serves children throughout Oregon. Specific clinic locations may vary",
    "phone": "503-413-7399",
    "rating": 4.0,
    "reviews": 25,
    "website": "https://olshf.org/low-vision-clinic/",
    "category": "African-American-owned Low vision services in Oregon",
    "description": "Provides comprehensive low vision exams for children with severe visual impairments, offering strategies for learning and school",
    "hours": "Mon-Fri 9AM-6PM",
    "services": [
      "African-American-owned Low vision services in Oregon consultation",
      "Professional service",
      "Quality guarantee"
    ],
    "social_links": {}
  },
  {
    "name": "Eugene Eye Clinic",
    "address": "1675 Coburg Rd, Eugene, OR 97401",
    "phone": "(541) 687-1777",
    "rating": 4.0,
    "reviews": 25,
    "website": "https://www.eugeneeye.com/",
    "category": "African-American-owned Low vision services in Oregon",
    "description": "Offers low vision services and can help determine the best optical low vision aids for individual needs",
    "hours": "Mon-Fri 9AM-6PM",
    "services": [
      "African-American-owned Low vision services in Oregon consultation",
      "Professional service",
      "Quality guarantee"
    ],
    "social_links": {}
  },
  {
    "name": "Blind Enterprises of Oregon",
    "address": "6540 SE Foster Road, Portland, OR 97206",
    "phone": "(503) 774-6387",
    "rating": 4.0,
    "reviews": 25,
    "website": "https://www.google.com/maps/search/Blind+Enterprises+of+Oregon+in+Oregon",
    "category": "African-American-owned Low vision services in Oregon",
    "description": "Listed as a resource for low vision services in Oregon",
    "hours": "Mon-Fri 9AM-6PM",
    "services": [
      "African-American-owned Low vision services in Oregon consultation",
      "Professional service",
      "Quality guarantee"
    ],
    "social_links": {}
  },
  {
    "name": "Community Vision",
    "address": "2475 SE Ladd Avenue, Suite 240, Portland, OR 97214",
    "phone": "503-292-4964, extension 152 for the AT Lab",
    "rating": 4.0,
    "reviews": 25,
    "website": "https://cvision.org/",
    "category": "African-American-owned Low vision services in Oregon",
    "description": "Provides services, education, and advocacy to ensure people with disabilities direct their own lives, including an Assistive Technology Lab",
    "hours": "Mon-Fri 9AM-6PM",
    "services": [
      "African-American-owned Low vision services in Oregon consultation",
      "Professional service",
      "Quality guarantee"
    ],
    "social_links": {}
  },
  {
    "name": "VA Portland Health Care - Low Vision Clinic",
    "address": "Main Portland campus, Vancouver campus, Salem CBOC, and Bend CBOC. (Specific addresses vary by location.)",
    "phone": "Program Support Assistant: 360-905-1751. Visual Impairment Services Team (VIST) Coordinator: 503-402-2986. Certified Low Vision Therapist: 503-220-3403",
    "rating": 4.0,
    "reviews": 25,
    "website": "https://www.portland.va.gov/services/low-vision.asp",
    "category": "African-American-owned Low vision services in Oregon",
    "description": "Aims to improve the quality of life for veterans who are visually impaired, offering low vision services and therapy",
    "hours": "Mon-Fri 9AM-6PM",
    "services": [
      "African-American-owned Low vision services in Oregon consultation",
      "Professional service",
      "Quality guarantee"
    ],
    "social_links": {}
  },
  {
    "name": "Albany Eyecare",
    "address": "330 SW 10th Ave, Albany, OR 97322",
    "phone": "541-926-6077",
    "rating": 4.0,
    "reviews": 25,
    "website": "http://albanyeyecare.com/",
    "category": "African-American-owned Low vision services in Oregon",
    "description": "Offers low vision services and recommendations for managing vision loss",
    "hours": "Mon-Fri 9AM-6PM",
    "services": [
      "African-American-owned Low vision services in Oregon consultation",
      "Professional service",
      "Quality guarantee"
    ],
    "social_links": {}
  },
  {
    "name": "Oregon Vision Development Center",
    "address": "Multiple locations including Albany and Eugene. (Specific addresses vary by location.)",
    "phone": "New Patients: 541-967-3097. Established VT Patients Albany: 541-704-0458. Established VT Patients Eugene: 541-255-3495",
    "rating": 4.0,
    "reviews": 25,
    "website": "https://www.oregonvisiondevelopment.com/",
    "category": "African-American-owned Low vision services in Oregon",
    "description": "Helps people of all ages improve visual function, including those with vision development issues",
    "hours": "Mon-Fri 9AM-6PM",
    "services": [
      "African-American-owned Low vision services in Oregon consultation",
      "Professional service",
      "Quality guarantee"
    ],
    "social_links": {}
  }
]