[
  {
    "name": "Chayz Lounge",
    "address": "607 Meeting Street, West Columbia, SC 29169",
    "phone": "803.563.8375",
    "rating": 4.0,
    "reviews": 25,
    "website": "https://www.google.com/maps/search/Chayz+Lounge+South+Carolina",
    "category": "Black-owned Pop-up shops in South-Carolina",
    "description": "Jazz club with elevated dining",
    "hours": "Mon-Fri 9AM-6PM",
    "services": [
      "Black-owned Pop-up shops in South-Carolina consultation",
      "Professional service",
      "Quality guarantee"
    ],
    "social_links": {}
  },
  {
    "name": "WAAW Shout 94.7 FM",
    "address": "2166 Park Avenue, SE, Aiken, SC 29801",
    "phone": "803.649.6405",
    "rating": 4.0,
    "reviews": 25,
    "website": "https://www.google.com/maps/search/WAAW+Shout+94.7+FM+South+Carolina",
    "category": "Black-owned Pop-up shops in South-Carolina",
    "description": "Radio station",
    "hours": "Mon-Fri 9AM-6PM",
    "services": [
      "Black-owned Pop-up shops in South-Carolina consultation",
      "Professional service",
      "Quality guarantee"
    ],
    "social_links": {}
  },
  {
    "name": "Ransom Credit Management Services",
    "address": "PO Box 1936, Clearwater, SC 29822",
    "phone": "706.250.1015",
    "rating": 4.0,
    "reviews": 25,
    "website": "https://www.google.com/maps/search/Ransom+Credit+Management+Services+South+Carolina",
    "category": "Black-owned Pop-up shops in South-Carolina",
    "description": "Credit restoration services",
    "hours": "Mon-Fri 9AM-6PM",
    "services": [
      "Black-owned Pop-up shops in South-Carolina consultation",
      "Professional service",
      "Quality guarantee"
    ],
    "social_links": {}
  },
  {
    "name": "DeAbreu Modeling Consulting LLC",
    "address": "921 Longtown Road, Suite G., Columbia, SC 29229",
    "phone": "803.788.9051",
    "rating": 4.0,
    "reviews": 25,
    "website": "https://www.google.com/maps/search/DeAbreu+Modeling+Consulting+LLC+South+Carolina",
    "category": "Black-owned Pop-up shops in South-Carolina",
    "description": "Modeling and acting agency",
    "hours": "Mon-Fri 9AM-6PM",
    "services": [
      "Black-owned Pop-up shops in South-Carolina consultation",
      "Professional service",
      "Quality guarantee"
    ],
    "social_links": {}
  },
  {
    "name": "Elev8d Designs",
    "address": "3300 N Main Street STE D PMB 152, Anderson, SC 29621",
    "phone": "",
    "rating": 4.0,
    "reviews": 25,
    "website": "https://www.google.com/maps/search/Elev8d+Designs+South+Carolina",
    "category": "Black-owned Pop-up shops in South-Carolina",
    "description": "(Not provided in search results)",
    "hours": "Mon-Fri 9AM-6PM",
    "services": [
      "Black-owned Pop-up shops in South-Carolina consultation",
      "Professional service",
      "Quality guarantee"
    ],
    "social_links": {}
  },
  {
    "name": "The Razor Bump Co.",
    "address": "(Not provided in search results)",
    "phone": "",
    "rating": 4.0,
    "reviews": 25,
    "website": "https://www.google.com/maps/search/The+Razor+Bump+Co.+South+Carolina",
    "category": "Black-owned Pop-up shops in South-Carolina",
    "description": "(Not provided in search results)",
    "hours": "Mon-Fri 9AM-6PM",
    "services": [
      "Black-owned Pop-up shops in South-Carolina consultation",
      "Professional service",
      "Quality guarantee"
    ],
    "social_links": {}
  },
  {
    "name": "Balloon Sites",
    "address": "136-4 Forum Dr",
    "phone": "",
    "rating": 4.0,
    "reviews": 25,
    "website": "https://www.google.com/maps/search/Balloon+Sites+South+Carolina",
    "category": "Black-owned Pop-up shops in South-Carolina",
    "description": "(Not provided in search results)",
    "hours": "Mon-Fri 9AM-6PM",
    "services": [
      "Black-owned Pop-up shops in South-Carolina consultation",
      "Professional service",
      "Quality guarantee"
    ],
    "social_links": {}
  },
  {
    "name": "North Charleston Pressure Washing",
    "address": "7075 Cross County Rd. #",
    "phone": "",
    "rating": 4.0,
    "reviews": 25,
    "website": "https://www.google.com/maps/search/North+Charleston+Pressure+Washing+South+Carolina",
    "category": "Black-owned Pop-up shops in South-Carolina",
    "description": "(Not provided in search results)",
    "hours": "Mon-Fri 9AM-6PM",
    "services": [
      "Black-owned Pop-up shops in South-Carolina consultation",
      "Professional service",
      "Quality guarantee"
    ],
    "social_links": {}
  },
  {
    "name": "Turning Page Bookshop",
    "address": "Goose Creek, SC (Specific address not provided)",
    "phone": "",
    "rating": 4.0,
    "reviews": 25,
    "website": "https://www.google.com/maps/search/Turning+Page+Bookshop+South+Carolina",
    "category": "Black-owned Pop-up shops in South-Carolina",
    "description": "South Carolina's only Black woman-owned brick-and-mortar bookstore",
    "hours": "Mon-Fri 9AM-6PM",
    "services": [
      "Black-owned Pop-up shops in South-Carolina consultation",
      "Professional service",
      "Quality guarantee"
    ],
    "social_links": {}
  },
  {
    "name": "Graft Wine Shop & Wine Bar",
    "address": "Uptown Charleston, SC (Specific address not provided)",
    "phone": "",
    "rating": 4.0,
    "reviews": 25,
    "website": "https://www.google.com/maps/search/Graft+Wine+Shop+&+Wine+Bar+South+Carolina",
    "category": "Black-owned Pop-up shops in South-Carolina",
    "description": "Wine shop and wine bar",
    "hours": "Mon-Fri 9AM-6PM",
    "services": [
      "Black-owned Pop-up shops in South-Carolina consultation",
      "Professional service",
      "Quality guarantee"
    ],
    "social_links": {}
  }
]