[
  {
    "name": "Zen Beauty Spa & Body Works",
    "address": "Albuquerque, NM (Specific address not readily available in search results)",
    "phone": "",
    "rating": 4.0,
    "reviews": 25,
    "website": "https://www.zenbeautyspa.com/",
    "category": "Bengali-speaking Body scrubs in New-Mexico",
    "description": "Offers body scrub and body wrap treatments designed to rejuvenate skin",
    "hours": "Mon-Fri 9AM-6PM",
    "services": [
      "Bengali-speaking Body scrubs in New-Mexico consultation",
      "Professional service",
      "Quality guarantee"
    ],
    "social_links": {}
  },
  {
    "name": "Skin Bliss",
    "address": "2045 S Plaza St NW, Albuquerque, NM 87104",
    "phone": "(505) 225-1415",
    "rating": 4.0,
    "reviews": 25,
    "website": "https://skinblissalbuquerque.com/",
    "category": "Bengali-speaking Body scrubs in New-Mexico",
    "description": "Offers body treatments including a Salt Glow and a renewal and rejuvenate Sugar Scrub Treatment",
    "hours": "Mon-Fri 9AM-6PM",
    "services": [
      "Bengali-speaking Body scrubs in New-Mexico consultation",
      "Professional service",
      "Quality guarantee"
    ],
    "social_links": {}
  },
  {
    "name": "Broadway Skin and Body Retreat",
    "address": "408 Broadway Blvd SE, Albuquerque, NM 87102",
    "phone": "(505) 246-2400",
    "rating": 4.0,
    "reviews": 25,
    "website": "https://www.broadwayskinandbody.com/",
    "category": "Bengali-speaking Body scrubs in New-Mexico",
    "description": "Offers facials and body sugar scrubs, described as amazing, calming, and invigorating",
    "hours": "Mon-Fri 9AM-6PM",
    "services": [
      "Bengali-speaking Body scrubs in New-Mexico consultation",
      "Professional service",
      "Quality guarantee"
    ],
    "social_links": {}
  },
  {
    "name": "Inn of the Mountain Gods Spa",
    "address": "287 Carrizo Canyon Rd, Mescalero, NM 88340 (Located within the Inn of the Mountain Gods Resort & Casino)",
    "phone": "(575) 464-7070",
    "rating": 4.0,
    "reviews": 25,
    "website": "https://innofthemountaingods.com/spa/",
    "category": "Bengali-speaking Body scrubs in New-Mexico",
    "description": "Offers a Revitalizing Sugar Scrub and other body treatments",
    "hours": "Mon-Fri 9AM-6PM",
    "services": [
      "Bengali-speaking Body scrubs in New-Mexico consultation",
      "Professional service",
      "Quality guarantee"
    ],
    "social_links": {}
  },
  {
    "name": "The Remedy Day Spa",
    "address": "Albuquerque, NM (Specific address not readily available in search results)",
    "phone": "",
    "rating": 4.0,
    "reviews": 25,
    "website": "https://www.theremedydayspa.com/",
    "category": "Bengali-speaking Body scrubs in New-Mexico",
    "description": "A day spa offering various wellness and beauty services, likely including body treatments",
    "hours": "Mon-Fri 9AM-6PM",
    "services": [
      "Bengali-speaking Body scrubs in New-Mexico consultation",
      "Professional service",
      "Quality guarantee"
    ],
    "social_links": {}
  },
  {
    "name": "Natureland Massage",
    "address": "6220 San Mateo Blvd NE #2E, Albuquerque, NM 87109",
    "phone": "(505) 369-1225",
    "rating": 4.0,
    "reviews": 25,
    "website": "https://www.google.com/maps/search/Natureland+Massage+New+Mexico",
    "category": "Bengali-speaking Body scrubs in New-Mexico",
    "description": "Offers various massage services and is listed as a venue for body scrub treatments",
    "hours": "Mon-Fri 9AM-6PM",
    "services": [
      "Bengali-speaking Body scrubs in New-Mexico consultation",
      "Professional service",
      "Quality guarantee"
    ],
    "social_links": {}
  },
  {
    "name": "Casa Verde Salon Spa",
    "address": "5113 Comanche Rd NE, Albuquerque, NM 87110",
    "phone": "(505) 295-5262",
    "rating": 4.0,
    "reviews": 25,
    "website": "https://www.google.com/maps/search/Casa+Verde+Salon+Spa+New+Mexico",
    "category": "Bengali-speaking Body scrubs in New-Mexico",
    "description": "A salon and spa that offers various beauty and wellness treatments",
    "hours": "Mon-Fri 9AM-6PM",
    "services": [
      "Bengali-speaking Body scrubs in New-Mexico consultation",
      "Professional service",
      "Quality guarantee"
    ],
    "social_links": {}
  },
  {
    "name": "Enchantment Spa",
    "address": "5610 Menaul Blvd NE, Albuquerque, NM 87110",
    "phone": "(505) 730-9192",
    "rating": 4.0,
    "reviews": 25,
    "website": "https://www.google.com/maps/search/Enchantment+Spa+New+Mexico",
    "category": "Bengali-speaking Body scrubs in New-Mexico",
    "description": "Offers spa services, including body scrubs",
    "hours": "Mon-Fri 9AM-6PM",
    "services": [
      "Bengali-speaking Body scrubs in New-Mexico consultation",
      "Professional service",
      "Quality guarantee"
    ],
    "social_links": {}
  },
  {
    "name": "Chinese Healing Massage",
    "address": "3214 San Mateo Blvd NE, Albuquerque, NM 87110",
    "phone": "(505) 884-1155",
    "rating": 4.0,
    "reviews": 25,
    "website": "https://www.google.com/maps/search/Chinese+Healing+Massage+New+Mexico",
    "category": "Bengali-speaking Body scrubs in New-Mexico",
    "description": "Offers massage services and is listed as a venue for body scrubs",
    "hours": "Mon-Fri 9AM-6PM",
    "services": [
      "Bengali-speaking Body scrubs in New-Mexico consultation",
      "Professional service",
      "Quality guarantee"
    ],
    "social_links": {}
  },
  {
    "name": "Being Present Body Care",
    "address": "906 Park Ave SW, Albuquerque, New Mexico 87102",
    "phone": "",
    "rating": 4.0,
    "reviews": 25,
    "website": "https://beingpresentbodycare.com/",
    "category": "Bengali-speaking Body scrubs in New-Mexico",
    "description": "Offers handmade, natural body care products, likely including scrubs",
    "hours": "Mon-Fri 9AM-6PM",
    "services": [
      "Bengali-speaking Body scrubs in New-Mexico consultation",
      "Professional service",
      "Quality guarantee"
    ],
    "social_links": {}
  }
]