[
  {
    "name": "Accurate Auto Alignment",
    "address": "4920 W. Electric Ave., Milwaukee, WI 53219",
    "phone": "(414) 321-7277",
    "rating": 4.3,
    "reviews": 25,
    "website": "https://www.accurateauto.biz/",
    "category": "Catholic-owned Wheel alignment in Wisconsin",
    "description": "Offers comprehensive wheel alignment services for all vehicle types, along with metal fabrication",
    "hours": "Mon-Fri 9AM-6PM",
    "services": [
      "Catholic-owned Wheel alignment in Wisconsin consultation",
      "Professional service",
      "Quality guarantee"
    ],
    "social_links": {}
  },
  {
    "name": "Laubenheimer's Garage",
    "address": "1860 State Road 175, Richfield, WI 53076",
    "phone": "(262) 628-2235",
    "rating": 4.0,
    "reviews": 25,
    "website": "https://www.laubenheimegarage.com/",
    "category": "Catholic-owned Wheel alignment in Wisconsin",
    "description": "A family-owned auto repair shop providing services including wheel alignments",
    "hours": "Mon-Fri 9AM-6PM",
    "services": [
      "Catholic-owned Wheel alignment in Wisconsin consultation",
      "Professional service",
      "Quality guarantee"
    ],
    "social_links": {}
  },
  {
    "name": "Silver Lake Auto & Tire Centers",
    "address": "Multiple locations, including 36355 E Wisconsin Ave, Oconomowoc, WI 53066",
    "phone": "(262) 567-0284 (Oconomowoc location)",
    "rating": 4.0,
    "reviews": 25,
    "website": "https://www.silverlakeauto.com/",
    "category": "Catholic-owned Wheel alignment in Wisconsin",
    "description": "Offers a wide range of auto repair services, including wheel alignments, at 8 locations across Southeastern Wisconsin",
    "hours": "Mon-Fri 9AM-6PM",
    "services": [
      "Catholic-owned Wheel alignment in Wisconsin consultation",
      "Professional service",
      "Quality guarantee"
    ],
    "social_links": {}
  },
  {
    "name": "Sanborn's Tire & Alignment",
    "address": "10149 State Hwy 16, Sparta, WI 54656",
    "phone": "(608) 269-6339",
    "rating": 4.0,
    "reviews": 25,
    "website": "https://www.sanbornstireandalignment.com/",
    "category": "Catholic-owned Wheel alignment in Wisconsin",
    "description": "A local choice for auto repair and tires, including wheel alignments",
    "hours": "Mon-Fri 9AM-6PM",
    "services": [
      "Catholic-owned Wheel alignment in Wisconsin consultation",
      "Professional service",
      "Quality guarantee"
    ],
    "social_links": {}
  },
  {
    "name": "FM Auto",
    "address": "4264 S Packard Ave, Saint Francis, WI 53235",
    "phone": "(414) 455-8750",
    "rating": 4.0,
    "reviews": 25,
    "website": "https://www.fmautowisconsin.com/",
    "category": "Catholic-owned Wheel alignment in Wisconsin",
    "description": "A family-owned auto repair shop offering services such as wheel alignment",
    "hours": "Mon-Fri 9AM-6PM",
    "services": [
      "Catholic-owned Wheel alignment in Wisconsin consultation",
      "Professional service",
      "Quality guarantee"
    ],
    "social_links": {}
  },
  {
    "name": "Noble's Tire Service",
    "address": "1490 East Division Ave, Barron, WI 54812",
    "phone": "(715) 537-5268",
    "rating": 4.0,
    "reviews": 25,
    "website": "https://nobles-tire-service.com/",
    "category": "Catholic-owned Wheel alignment in Wisconsin",
    "description": "A family-owned business offering auto repair and service, including wheel alignments",
    "hours": "Mon-Fri 9AM-6PM",
    "services": [
      "Catholic-owned Wheel alignment in Wisconsin consultation",
      "Professional service",
      "Quality guarantee"
    ],
    "social_links": {}
  },
  {
    "name": "Midway Automotive, Inc.",
    "address": "Stone Lake, WI (Specific street address not provided in search results)",
    "phone": "715-865-2581",
    "rating": 4.0,
    "reviews": 25,
    "website": "https://www.midwayautomotiveinc.com/",
    "category": "Catholic-owned Wheel alignment in Wisconsin",
    "description": "Offers honest and expert auto repairs, including services that would involve wheel alignment",
    "hours": "Mon-Fri 9AM-6PM",
    "services": [
      "Catholic-owned Wheel alignment in Wisconsin consultation",
      "Professional service",
      "Quality guarantee"
    ],
    "social_links": {}
  },
  {
    "name": "Clausen Automotive",
    "address": "2118 S. Stoughton Rd., Madison, WI 53716",
    "phone": "(608) 221-8321",
    "rating": 4.0,
    "reviews": 25,
    "website": "https://www.clausenautomotive.com/",
    "category": "Catholic-owned Wheel alignment in Wisconsin",
    "description": "Provides quality auto repair services, including those related to wheel alignment",
    "hours": "Mon-Fri 9AM-6PM",
    "services": [
      "Catholic-owned Wheel alignment in Wisconsin consultation",
      "Professional service",
      "Quality guarantee"
    ],
    "social_links": {}
  },
  {
    "name": "Pomp's Tire Service",
    "address": "Multiple locations throughout the Midwest, including Wisconsin. (Specific addresses vary by location.)",
    "phone": "",
    "rating": 4.0,
    "reviews": 25,
    "website": "https://www.pomps.com/",
    "category": "Catholic-owned Wheel alignment in Wisconsin",
    "description": "Offers auto repair and tire services at over 120 locations",
    "hours": "Mon-Fri 9AM-6PM",
    "services": [
      "Catholic-owned Wheel alignment in Wisconsin consultation",
      "Professional service",
      "Quality guarantee"
    ],
    "social_links": {}
  },
  {
    "name": "Mr. Tire",
    "address": "Multiple locations throughout Wisconsin. (Specific addresses vary by location.)",
    "phone": "",
    "rating": 4.0,
    "reviews": 25,
    "website": "https://www.mrtire.com/",
    "category": "Catholic-owned Wheel alignment in Wisconsin",
    "description": "Provides expert auto repair and tire services, including wheel alignment",
    "hours": "Mon-Fri 9AM-6PM",
    "services": [
      "Catholic-owned Wheel alignment in Wisconsin consultation",
      "Professional service",
      "Quality guarantee"
    ],
    "social_links": {}
  }
]