[
  {
    "name": "Afrikan Art Gallery & Bookstore",
    "address": "800 N Farish St, Jackson, MS 39202",
    "phone": "+1769-572-7441",
    "rating": 4.0,
    "reviews": 25,
    "website": "https://www.google.com/maps/search/Afrikan+Art+Gallery+&+Bookstore+in+Mississippi",
    "category": "Black-owned Art instruction in Mississippi",
    "description": "This gallery and bookstore in Jackson offers a space to explore African culture through art and literature. It may offer related programming or events",
    "hours": "Mon-Fri 9AM-6PM",
    "services": [
      "Black-owned Art instruction in Mississippi consultation",
      "Professional service",
      "Quality guarantee"
    ],
    "social_links": {}
  },
  {
    "name": "BYO Brush Studio",
    "address": "[Address not specified in search results, but located in Ocean Springs, MS]",
    "phone": "(228) 326-7809",
    "rating": 4.0,
    "reviews": 25,
    "website": "https://www.google.com/maps/search/BYO+Brush+Studio+in+Mississippi",
    "category": "Black-owned Art instruction in Mississippi",
    "description": "A guided painting studio offering classes for various occasions, including family nights and after-school art classes for children",
    "hours": "Mon-Fri 9AM-6PM",
    "services": [
      "Black-owned Art instruction in Mississippi consultation",
      "Professional service",
      "Quality guarantee"
    ],
    "social_links": {}
  },
  {
    "name": "DGreene Art",
    "address": "[Located in Southwest Mississippi; specific address not found]",
    "phone": "(386) 237-1745",
    "rating": 4.0,
    "reviews": 25,
    "website": "https://www.google.com/maps/search/DGreene+Art+in+Mississippi",
    "category": "Black-owned Art instruction in Mississippi",
    "description": "Offers Bob Ross Wet-On-Wet\u00ae technique painting classes for individuals aged 16 and older. Classes are scheduled as events on their Facebook page",
    "hours": "Mon-Fri 9AM-6PM",
    "services": [
      "Black-owned Art instruction in Mississippi consultation",
      "Professional service",
      "Quality guarantee"
    ],
    "social_links": {}
  },
  {
    "name": "Fat Cat Art Cafe",
    "address": "Flowood and Ridgeland, MS (specific addresses not provided)",
    "phone": "",
    "rating": 4.0,
    "reviews": 25,
    "website": "https://www.google.com/maps/search/Fat+Cat+Art+Cafe+in+Mississippi",
    "category": "Black-owned Art instruction in Mississippi",
    "description": "Offers pottery painting, canvas painting, and clay sculpting. They also offer pottery wheel throwing reservations. Walk-ins are welcome",
    "hours": "Mon-Fri 9AM-6PM",
    "services": [
      "Black-owned Art instruction in Mississippi consultation",
      "Professional service",
      "Quality guarantee"
    ],
    "social_links": {}
  },
  {
    "name": "Studio Whimzy",
    "address": "807 College Hill Road, Oxford, MS",
    "phone": "",
    "rating": 4.0,
    "reviews": 25,
    "website": "https://www.google.com/maps/search/Studio+Whimzy+in+Mississippi",
    "category": "Black-owned Art instruction in Mississippi",
    "description": "Offers paint classes, birthday parties, group events, seasonal art camps, and after-school art lessons for children",
    "hours": "Mon-Fri 9AM-6PM",
    "services": [
      "Black-owned Art instruction in Mississippi consultation",
      "Professional service",
      "Quality guarantee"
    ],
    "social_links": {}
  },
  {
    "name": "Art For All MS",
    "address": "Mississippi Arts Center (specific address not found)",
    "phone": "",
    "rating": 4.0,
    "reviews": 25,
    "website": "https://www.google.com/maps/search/Art+For+All+MS+in+Mississippi",
    "category": "Black-owned Art instruction in Mississippi",
    "description": "Offers art classes and professional development in Universal Design for Learning and Arts Integration",
    "hours": "Mon-Fri 9AM-6PM",
    "services": [
      "Black-owned Art instruction in Mississippi consultation",
      "Professional service",
      "Quality guarantee"
    ],
    "social_links": {}
  },
  {
    "name": "Fondren Art Gallery",
    "address": "3242 N State St (specific city not found, but likely Jackson, MS based on name)",
    "phone": "(601) 573\u20131060",
    "rating": 4.0,
    "reviews": 25,
    "website": "https://www.google.com/maps/search/Fondren+Art+Gallery+in+Mississippi",
    "category": "Black-owned Art instruction in Mississippi",
    "description": "Offers art lessons, group and individual",
    "hours": "Mon-Fri 9AM-6PM",
    "services": [
      "Black-owned Art instruction in Mississippi consultation",
      "Professional service",
      "Quality guarantee"
    ],
    "social_links": {}
  },
  {
    "name": "Ohr-O'Keefe Museum of Art",
    "address": "386 Beach Boulevard, Biloxi, MS 39530",
    "phone": "228.374.5547",
    "rating": 4.0,
    "reviews": 25,
    "website": "https://www.google.com/maps/search/Ohr-O'Keefe+Museum+of+Art+in+Mississippi",
    "category": "Black-owned Art instruction in Mississippi",
    "description": "Offers various art and mixed media classes for adults and families, including workshops on etching, basket weaving, and painting",
    "hours": "Mon-Fri 9AM-6PM",
    "services": [
      "Black-owned Art instruction in Mississippi consultation",
      "Professional service",
      "Quality guarantee"
    ],
    "social_links": {}
  },
  {
    "name": "Mississippi Museum of Art",
    "address": "380 South Lamar Street, Jackson, MS 39201",
    "phone": "601.960.1515",
    "rating": 4.0,
    "reviews": 25,
    "website": "https://www.google.com/maps/search/Mississippi+Museum+of+Art+in+Mississippi",
    "category": "Black-owned Art instruction in Mississippi",
    "description": "While primarily a museum, it hosts events and exhibitions that may include educational components or workshops",
    "hours": "Mon-Fri 9AM-6PM",
    "services": [
      "Black-owned Art instruction in Mississippi consultation",
      "Professional service",
      "Quality guarantee"
    ],
    "social_links": {}
  },
  {
    "name": "Tougaloo Art Colony",
    "address": "Tougaloo College, Mississippi (specific address for colony not found)",
    "phone": "601-977-7839 or 601-977-7743",
    "rating": 4.0,
    "reviews": 25,
    "website": "http://www.tougaloo.edu/artcolony",
    "category": "Black-owned Art instruction in Mississippi",
    "description": "Offers weeklong studio classes led by professional artists, covering various techniques like printmaking, oil painting, and mural painting",
    "hours": "Mon-Fri 9AM-6PM",
    "services": [
      "Black-owned Art instruction in Mississippi consultation",
      "Professional service",
      "Quality guarantee"
    ],
    "social_links": {}
  }
]