[
  {
    "name": "Salt Therapy & Wellness",
    "address": "Bixby, Oklahoma (Specific address not provided in search results)",
    "phone": "(918) 630-2971",
    "rating": 4.0,
    "reviews": 25,
    "website": "https://www.google.com/maps/search/Salt+Therapy+&+Wellness+in+Oklahoma",
    "category": "Chinese-speaking Salt therapy in Oklahoma",
    "description": "Offers mental health counseling and salt therapy",
    "hours": "Mon-Fri 9AM-6PM",
    "services": [
      "Chinese-speaking Salt therapy in Oklahoma consultation",
      "Professional service",
      "Quality guarantee"
    ],
    "social_links": {}
  },
  {
    "name": "Avenzoar Acupuncture & Wellness Center",
    "address": "Oklahoma City, OK (Specific address not provided in search results)",
    "phone": "(405) 397-2952",
    "rating": 4.0,
    "reviews": 25,
    "website": "https://www.google.com/maps/search/Avenzoar+Acupuncture+&+Wellness+Center+in+Oklahoma",
    "category": "Chinese-speaking Salt therapy in Oklahoma",
    "description": "Provides acupuncture and other wellness services, with a practitioner who studied Chinese medicine and language in Taiwan",
    "hours": "Mon-Fri 9AM-6PM",
    "services": [
      "Chinese-speaking Salt therapy in Oklahoma consultation",
      "Professional service",
      "Quality guarantee"
    ],
    "social_links": {}
  },
  {
    "name": "Acupuncture Healing Corner",
    "address": "8000 N Western, STE 4, Oklahoma City, OK 73114",
    "phone": "",
    "rating": 4.0,
    "reviews": 25,
    "website": "https://www.google.com/maps/search/Acupuncture+Healing+Corner+in+Oklahoma",
    "category": "Chinese-speaking Salt therapy in Oklahoma",
    "description": "Focuses on women's health and fertility using Traditional Chinese Medicine and acupuncture",
    "hours": "Mon-Fri 9AM-6PM",
    "services": [
      "Chinese-speaking Salt therapy in Oklahoma consultation",
      "Professional service",
      "Quality guarantee"
    ],
    "social_links": {}
  },
  {
    "name": "Oriental Medical Arts",
    "address": "Northeastern Oklahoma (Specific location not provided in search results)",
    "phone": "",
    "rating": 4.0,
    "reviews": 25,
    "website": "https://www.google.com/maps/search/Oriental+Medical+Arts+in+Oklahoma",
    "category": "Chinese-speaking Salt therapy in Oklahoma",
    "description": "Offers acupuncture and other traditional Chinese medical techniques",
    "hours": "Mon-Fri 9AM-6PM",
    "services": [
      "Chinese-speaking Salt therapy in Oklahoma consultation",
      "Professional service",
      "Quality guarantee"
    ],
    "social_links": {}
  },
  {
    "name": "Brixton Chiropractic",
    "address": "Oklahoma City, OK (Specific address not provided in search results)",
    "phone": "",
    "rating": 4.0,
    "reviews": 25,
    "website": "https://www.google.com/maps/search/Brixton+Chiropractic+in+Oklahoma",
    "category": "Chinese-speaking Salt therapy in Oklahoma",
    "description": "Offers acupuncture as a complementary care option",
    "hours": "Mon-Fri 9AM-6PM",
    "services": [
      "Chinese-speaking Salt therapy in Oklahoma consultation",
      "Professional service",
      "Quality guarantee"
    ],
    "social_links": {}
  },
  {
    "name": "Be Well Acupuncture",
    "address": "Edmond, OK (Specific address not provided in search results)",
    "phone": "",
    "rating": 4.0,
    "reviews": 25,
    "website": "https://www.google.com/maps/search/Be+Well+Acupuncture+in+Oklahoma",
    "category": "Chinese-speaking Salt therapy in Oklahoma",
    "description": "Provides acupuncture and other integrative therapies",
    "hours": "Mon-Fri 9AM-6PM",
    "services": [
      "Chinese-speaking Salt therapy in Oklahoma consultation",
      "Professional service",
      "Quality guarantee"
    ],
    "social_links": {}
  },
  {
    "name": "Lotus Blossom Yoga & Wellness",
    "address": "Lawton, OK (Specific address not provided in search results)",
    "phone": "",
    "rating": 4.0,
    "reviews": 25,
    "website": "https://www.google.com/maps/search/Lotus+Blossom+Yoga+&+Wellness+in+Oklahoma",
    "category": "Chinese-speaking Salt therapy in Oklahoma",
    "description": "Offers a salt room for halotherapy",
    "hours": "Mon-Fri 9AM-6PM",
    "services": [
      "Chinese-speaking Salt therapy in Oklahoma consultation",
      "Professional service",
      "Quality guarantee"
    ],
    "social_links": {}
  },
  {
    "name": "Poppi's Spa & Lounge",
    "address": "302 S Frankfort Ave. C, Tulsa, OK 74120",
    "phone": "(918) 932-8181",
    "rating": 4.0,
    "reviews": 25,
    "website": "https://www.google.com/maps/search/Poppi's+Spa+&+Lounge+in+Oklahoma",
    "category": "Chinese-speaking Salt therapy in Oklahoma",
    "description": "Offers a salt therapy room as part of its spa services",
    "hours": "Mon-Fri 9AM-6PM",
    "services": [
      "Chinese-speaking Salt therapy in Oklahoma consultation",
      "Professional service",
      "Quality guarantee"
    ],
    "social_links": {}
  },
  {
    "name": "Salt Earth Living",
    "address": "Tulsa, OK (Specific address not provided in search results)",
    "phone": "(918) 364-7258",
    "rating": 4.0,
    "reviews": 25,
    "website": "https://www.google.com/maps/search/Salt+Earth+Living+in+Oklahoma",
    "category": "Chinese-speaking Salt therapy in Oklahoma",
    "description": "Provides massage therapy and dry salt therapy",
    "hours": "Mon-Fri 9AM-6PM",
    "services": [
      "Chinese-speaking Salt therapy in Oklahoma consultation",
      "Professional service",
      "Quality guarantee"
    ],
    "social_links": {}
  },
  {
    "name": "Thrive Mama Collective",
    "address": "1745 NW 16th St. Suite A, Oklahoma City, OK 73106",
    "phone": "405-356-MAMA (6262)",
    "rating": 4.0,
    "reviews": 25,
    "website": "https://www.google.com/maps/search/Thrive+Mama+Collective+in+Oklahoma",
    "category": "Chinese-speaking Salt therapy in Oklahoma",
    "description": "Offers salt booth therapy",
    "hours": "Mon-Fri 9AM-6PM",
    "services": [
      "Chinese-speaking Salt therapy in Oklahoma consultation",
      "Professional service",
      "Quality guarantee"
    ],
    "social_links": {}
  }
]