[
  {
    "name": "K Style Kitchen",
    "address": "6001 Winter Haven Rd NW, Albuquerque, NM",
    "phone": "(505) 890-1100",
    "rating": 4.0,
    "reviews": 25,
    "website": "https://www.kstylekitchen.com/",
    "category": "Korean-American-owned Email response in New-Mexico",
    "description": "Offers Korean and Asian Fusion cuisine, including dishes like Bulgogi and Bibimbap",
    "hours": "Mon-Fri 9AM-6PM",
    "services": [
      "Korean-American-owned Email response in New-Mexico consultation",
      "Professional service",
      "Quality guarantee"
    ],
    "social_links": {}
  },
  {
    "name": "Soo Bak Seoul Bowl",
    "address": "111 Hermosa Drive SE, Albuquerque, NM 87108",
    "phone": "(505) 200-2225",
    "rating": 4.0,
    "reviews": 25,
    "website": "https://www.soobakfoods.com/",
    "category": "Korean-American-owned Email response in New-Mexico",
    "description": "Korean fusion restaurant in Nob Hill, Albuquerque, known for its unique take on Korean flavors",
    "hours": "Mon-Fri 9AM-6PM",
    "services": [
      "Korean-American-owned Email response in New-Mexico consultation",
      "Professional service",
      "Quality guarantee"
    ],
    "social_links": {}
  },
  {
    "name": "Sushi & Sake",
    "address": "4214 Central Ave SE, Albuquerque, NM 87108",
    "phone": "(505) 797-8000",
    "rating": 4.0,
    "reviews": 25,
    "website": "https://www.sushisakeabq.com/",
    "category": "Korean-American-owned Email response in New-Mexico",
    "description": "Offers a variety of Korean dishes, including Korean BBQ, Bibimbap, and Kimchee",
    "hours": "Mon-Fri 9AM-6PM",
    "services": [
      "Korean-American-owned Email response in New-Mexico consultation",
      "Professional service",
      "Quality guarantee"
    ],
    "social_links": {}
  },
  {
    "name": "K-Bowl",
    "address": "Las Cruces, NM (Specific address not found in search results)",
    "phone": "",
    "rating": 4.0,
    "reviews": 25,
    "website": "https://www.google.com/maps/search/K-Bowl+New+Mexico",
    "category": "Korean-American-owned Email response in New-Mexico",
    "description": "Known for authentic Korean cuisine and a warm atmosphere in Las Cruces",
    "hours": "Mon-Fri 9AM-6PM",
    "services": [
      "Korean-American-owned Email response in New-Mexico consultation",
      "Professional service",
      "Quality guarantee"
    ],
    "social_links": {}
  },
  {
    "name": "Arirang Market",
    "address": "Eubank Blvd, Albuquerque, NM (Specific address not found in search results)",
    "phone": "",
    "rating": 4.0,
    "reviews": 25,
    "website": "https://www.google.com/maps/search/Arirang+Market+New+Mexico",
    "category": "Korean-American-owned Email response in New-Mexico",
    "description": "A Korean grocery store and restaurant in Albuquerque",
    "hours": "Mon-Fri 9AM-6PM",
    "services": [
      "Korean-American-owned Email response in New-Mexico consultation",
      "Professional service",
      "Quality guarantee"
    ],
    "social_links": {}
  },
  {
    "name": "Kim's Oriental Market",
    "address": "2306 Morris St NE, Albuquerque, NM 87112",
    "phone": "(505) 344-5400",
    "rating": 4.0,
    "reviews": 25,
    "website": "https://www.google.com/maps/search/Kim's+Oriental+Market+New+Mexico",
    "category": "Korean-American-owned Email response in New-Mexico",
    "description": "An Asian grocery store with a great selection of Korean products, including fresh and frozen items",
    "hours": "Mon-Fri 9AM-6PM",
    "services": [
      "Korean-American-owned Email response in New-Mexico consultation",
      "Professional service",
      "Quality guarantee"
    ],
    "social_links": {}
  },
  {
    "name": "Weee! (Online Grocery Delivery)",
    "address": "",
    "phone": "",
    "rating": 4.0,
    "reviews": 25,
    "website": "https://www.sayweee.com/",
    "category": "Korean-American-owned Email response in New-Mexico",
    "description": "An online supermarket offering a wide variety of Asian groceries, including Korean products, with delivery available throughout New Mexico",
    "hours": "Mon-Fri 9AM-6PM",
    "services": [
      "Korean-American-owned Email response in New-Mexico consultation",
      "Professional service",
      "Quality guarantee"
    ],
    "social_links": {}
  },
  {
    "name": "Santa Fe Asian Market",
    "address": "1644 St. Michaels Drive, Santa Fe, NM 87505",
    "phone": "(505) 954-1816",
    "rating": 4.0,
    "reviews": 25,
    "website": "https://www.google.com/maps/search/Santa+Fe+Asian+Market+New+Mexico",
    "category": "Korean-American-owned Email response in New-Mexico",
    "description": "Santa Fe's only Asian grocery store, offering a wide range of ingredients, including Korean items",
    "hours": "Mon-Fri 9AM-6PM",
    "services": [
      "Korean-American-owned Email response in New-Mexico consultation",
      "Professional service",
      "Quality guarantee"
    ],
    "social_links": {}
  },
  {
    "name": "Kokio Chicken",
    "address": "8019 Menaul Blvd Ste A NE, Albuquerque, NM 87110",
    "phone": "(505) 884-0001",
    "rating": 4.0,
    "reviews": 25,
    "website": "https://www.kokiichicken.com/",
    "category": "Korean-American-owned Email response in New-Mexico",
    "description": "Specializes in Korean fried chicken",
    "hours": "Mon-Fri 9AM-6PM",
    "services": [
      "Korean-American-owned Email response in New-Mexico consultation",
      "Professional service",
      "Quality guarantee"
    ],
    "social_links": {}
  },
  {
    "name": "Asian Pear",
    "address": "Alameda, NM (Specific address not found in search results, mentioned as having moved)",
    "phone": "",
    "rating": 4.0,
    "reviews": 25,
    "website": "https://www.google.com/maps/search/Asian+Pear+New+Mexico",
    "category": "Korean-American-owned Email response in New-Mexico",
    "description": "Offers Korean cuisine with an inspiring fusion menu, using family recipes",
    "hours": "Mon-Fri 9AM-6PM",
    "services": [
      "Korean-American-owned Email response in New-Mexico consultation",
      "Professional service",
      "Quality guarantee"
    ],
    "social_links": {}
  }
]