[
  {
    "name": "Nip Tuk",
    "address": "7027 N 97th St, Omaha, NE 68134",
    "phone": "(402) 915-0097",
    "rating": 5.0,
    "reviews": 25,
    "website": "https://www.niftuk.com/",
    "category": "Arabic-speaking Classic car restoration in Nebraska",
    "description": "Specializes in high-end Restomod builds, custom classic car upgrades, and precision air ride suspension installations, transforming vintage vehicles into modern-day performance machines while preserving their iconic soul",
    "hours": "Mon-Fri 9AM-6PM",
    "services": [
      "Arabic-speaking Classic car restoration in Nebraska consultation",
      "Professional service",
      "Quality guarantee"
    ],
    "social_links": {}
  },
  {
    "name": "Bombers Garage",
    "address": "4340 N 27th St, Lincoln, NE 68504",
    "phone": "(402) 477-2700",
    "rating": 4.8,
    "reviews": 25,
    "website": "https://www.bombersgarage.com/",
    "category": "Arabic-speaking Classic car restoration in Nebraska",
    "description": "An auto body shop offering customization for classic cars, automotive enhancements, and general body work. They focus on quality work in a timely fashion and strive to keep the passion for classic and custom autos alive",
    "hours": "Mon-Fri 9AM-6PM",
    "services": [
      "Arabic-speaking Classic car restoration in Nebraska consultation",
      "Professional service",
      "Quality guarantee"
    ],
    "social_links": {}
  },
  {
    "name": "Quandt Classic Body & Restoration",
    "address": "17610 Storage Rd. Bay #7, Omaha, NE 68136",
    "phone": "(402) 250-3192",
    "rating": 4.7,
    "reviews": 25,
    "website": "https://www.quandtclassic.com/",
    "category": "Arabic-speaking Classic car restoration in Nebraska",
    "description": "Specializes in classic car restoration, collision repair, and RV/mobile home bodywork. They combine old-school values with modern techniques to deliver durable results",
    "hours": "Mon-Fri 9AM-6PM",
    "services": [
      "Arabic-speaking Classic car restoration in Nebraska consultation",
      "Professional service",
      "Quality guarantee"
    ],
    "social_links": {}
  },
  {
    "name": "TORC Motorsports",
    "address": "11902 W Dodge Rd, Omaha, NE 68154",
    "phone": "(402) 502-7070",
    "rating": 4.6,
    "reviews": 25,
    "website": "https://www.torcmotorsports.com/",
    "category": "Arabic-speaking Classic car restoration in Nebraska",
    "description": "Offers restoration and customization services for specialty cars, including interior restoration, rebuilt engines, and auto body restoration, aiming to bring classic cars back to life",
    "hours": "Mon-Fri 9AM-6PM",
    "services": [
      "Arabic-speaking Classic car restoration in Nebraska consultation",
      "Professional service",
      "Quality guarantee"
    ],
    "social_links": {}
  },
  {
    "name": "Best In Omaha Classic Car Repair & Automotive Restoration",
    "address": "10806 S 14th St, Omaha, NE 68137",
    "phone": "(402) 895-1977",
    "rating": 4.5,
    "reviews": 25,
    "website": "https://www.bestinomahaclassiccarrepair.com/",
    "category": "Arabic-speaking Classic car restoration in Nebraska",
    "description": "Provides high-quality service, repair, and restoration for many makes and models of classic cars, including GM, Ford, and Mopar. They also offer vehicle inspections and appraisals",
    "hours": "Mon-Fri 9AM-6PM",
    "services": [
      "Arabic-speaking Classic car restoration in Nebraska consultation",
      "Professional service",
      "Quality guarantee"
    ],
    "social_links": {}
  },
  {
    "name": "T&M Automotive Classic Car/Truck Restoration",
    "address": "1001 N 16th St, Omaha, NE 68102",
    "phone": "(402) 342-3020",
    "rating": 4.9,
    "reviews": 25,
    "website": "https://www.tandmautomotive.com/",
    "category": "Arabic-speaking Classic car restoration in Nebraska",
    "description": "Known for their attention to detail and \"we can do that\" attitude, T&M Automotive offers classic car and truck restoration, ensuring vehicles are reliable and perform great",
    "hours": "Mon-Fri 9AM-6PM",
    "services": [
      "Arabic-speaking Classic car restoration in Nebraska consultation",
      "Professional service",
      "Quality guarantee"
    ],
    "social_links": {}
  },
  {
    "name": "Mike's Classic Cars",
    "address": "9701 N 204th St, Elkhorn, NE 68022",
    "phone": "(402) 289-9310",
    "rating": 4.8,
    "reviews": 25,
    "website": "https://www.mikesclassic-cars.com/",
    "category": "Arabic-speaking Classic car restoration in Nebraska",
    "description": "Specializes in classic cars and trucks from 1975 and older, handling everything from oil changes to award-winning restorations. They emphasize quality and customer satisfaction",
    "hours": "Mon-Fri 9AM-6PM",
    "services": [
      "Arabic-speaking Classic car restoration in Nebraska consultation",
      "Professional service",
      "Quality guarantee"
    ],
    "social_links": {}
  },
  {
    "name": "Classic Automobile Restoration & Service",
    "address": "5520 S 24th St, Omaha, NE 68107",
    "phone": "(402) 731-0400",
    "rating": 4.0,
    "reviews": 25,
    "website": "https://www.bbb.org/us/ne/omaha/profile/car-restorations/classic-automobile-restoration-service-0674-90003720",
    "category": "Arabic-speaking Classic car restoration in Nebraska",
    "description": "Provides antique and classic car restoration, automotive body, paint, and interior repair and maintenance services. They have a high rating from the Better Business Bureau",
    "hours": "Mon-Fri 9AM-6PM",
    "services": [
      "Arabic-speaking Classic car restoration in Nebraska consultation",
      "Professional service",
      "Quality guarantee"
    ],
    "social_links": {}
  },
  {
    "name": "Restore A Muscle Car",
    "address": "1001 N 16th St, Omaha, NE 68102",
    "phone": "(402) 465-5756",
    "rating": 4.9,
    "reviews": 25,
    "website": "https://www.restoreamusclecar.com/",
    "category": "Arabic-speaking Classic car restoration in Nebraska",
    "description": "The Midwest's top one-stop facility for collector cars, offering restoration, sales, and consignment services. They are a dynamic, team-oriented group at the forefront of the industry",
    "hours": "Mon-Fri 9AM-6PM",
    "services": [
      "Arabic-speaking Classic car restoration in Nebraska consultation",
      "Professional service",
      "Quality guarantee"
    ],
    "social_links": {}
  },
  {
    "name": "Custom Auto Body & Restoration",
    "address": "1202 S 24th St, Omaha, NE 68108",
    "phone": "(402) 342-3020",
    "rating": 4.8,
    "reviews": 25,
    "website": "https://www.customautobodyomaha.com/",
    "category": "Arabic-speaking Classic car restoration in Nebraska",
    "description": "Offers a wide range of auto body services, including classic car restoration, collision repair, and custom paint jobs, with a focus on quality craftsmanship and customer satisfaction",
    "hours": "Mon-Fri 9AM-6PM",
    "services": [
      "Arabic-speaking Classic car restoration in Nebraska consultation",
      "Professional service",
      "Quality guarantee"
    ],
    "social_links": {}
  }
]