[
  {
    "name": "Acupuncture & Wellness Center Of Florida",
    "address": "10100 W Sample Rd Ste 207, Coral Springs, FL 33065",
    "phone": "(954) 586-8088",
    "rating": 4.5,
    "reviews": 25,
    "website": "https://www.acupunctureandwellnesscenter.com/",
    "category": "Gen-X-owned Alternative health practitioners in Florida",
    "description": "Offers a blend of traditional Eastern healing practices with modern technology, including acupuncture, cupping, herbal medicine, and massage therapy",
    "hours": "Mon-Fri 9AM-6PM",
    "services": [
      "Gen-X-owned Alternative health practitioners in Florida consultation",
      "Professional service",
      "Quality guarantee"
    ],
    "social_links": {}
  },
  {
    "name": "Boca Raton Acupuncture",
    "address": "2000 NW 19th St #106, Boca Raton, FL 33431",
    "phone": "(561) 392-3300",
    "rating": 4.8,
    "reviews": 25,
    "website": "https://www.bocaratonacupuncture.com/",
    "category": "Gen-X-owned Alternative health practitioners in Florida",
    "description": "Provides Traditional Chinese Medicine, including acupuncture, to help patients achieve optimal wellness through gentle and effective healing modalities",
    "hours": "Mon-Fri 9AM-6PM",
    "services": [
      "Gen-X-owned Alternative health practitioners in Florida consultation",
      "Professional service",
      "Quality guarantee"
    ],
    "social_links": {}
  },
  {
    "name": "Farkas Chiropractic Clinic",
    "address": "2467 Enterprise Rd, St. Petersburg, FL 33716",
    "phone": "(727) 345-4444",
    "rating": 4.7,
    "reviews": 25,
    "website": "https://farkaschiropractic.com/",
    "category": "Gen-X-owned Alternative health practitioners in Florida",
    "description": "A family-owned practice for over 40 years, offering chiropractic care and other natural means to assist individuals and families in achieving optimal health",
    "hours": "Mon-Fri 9AM-6PM",
    "services": [
      "Gen-X-owned Alternative health practitioners in Florida consultation",
      "Professional service",
      "Quality guarantee"
    ],
    "social_links": {}
  },
  {
    "name": "Care Wellness Center",
    "address": "5576 W Sample Rd #1A, Margate, FL 33073",
    "phone": "(954) 586-8088",
    "rating": 4.9,
    "reviews": 25,
    "website": "https://www.carewellnesscenter.com/",
    "category": "Gen-X-owned Alternative health practitioners in Florida",
    "description": "A holistic health center with a team of doctors offering acupuncture, chiropractic, massage therapy, and nutritional guidance, focusing on a \"whole body\" approach",
    "hours": "Mon-Fri 9AM-6PM",
    "services": [
      "Gen-X-owned Alternative health practitioners in Florida consultation",
      "Professional service",
      "Quality guarantee"
    ],
    "social_links": {}
  },
  {
    "name": "Florida Functional Medicine",
    "address": "Multiple locations including St. Augustine, Weston, Orlando, Jacksonville, Aventura, Naples, and West Palm Beach. (Example: 100 San Marco Ave, St. Augustine, FL 32084)",
    "phone": "(904) 824-0070",
    "rating": 4.9,
    "reviews": 25,
    "website": "https://floridafunctionalmedicine.com/",
    "category": "Gen-X-owned Alternative health practitioners in Florida",
    "description": "Offers holistic and alternative medicine, including food testing and integrative medicine, focusing on treating the root causes of health issues",
    "hours": "Mon-Fri 9AM-6PM",
    "services": [
      "Gen-X-owned Alternative health practitioners in Florida consultation",
      "Professional service",
      "Quality guarantee"
    ],
    "social_links": {}
  },
  {
    "name": "New Life Healthcare",
    "address": "5807 St. Augustine Rd #1, Jacksonville, FL 32207",
    "phone": "(904) 763-9707",
    "rating": 4.8,
    "reviews": 25,
    "website": "https://www.newlifehealthcare.org/",
    "category": "Gen-X-owned Alternative health practitioners in Florida",
    "description": "A functional medicine clinic offering a holistic approach that addresses the root causes of health issues by integrating natural therapies, nutritional guidance, and lifestyle modifications",
    "hours": "Mon-Fri 9AM-6PM",
    "services": [
      "Gen-X-owned Alternative health practitioners in Florida consultation",
      "Professional service",
      "Quality guarantee"
    ],
    "social_links": {}
  },
  {
    "name": "North Florida Naturopathic",
    "address": "2740 Capital Cir NE, Tallahassee, FL 32308",
    "phone": "(850) 320-7000",
    "rating": 4.9,
    "reviews": 25,
    "website": "https://northfloridanaturopathic.com/",
    "category": "Gen-X-owned Alternative health practitioners in Florida",
    "description": "Offers a foundational approach to maintaining or regaining wellness with a team of physicians providing holistic treatment plans tailored to individual needs",
    "hours": "Mon-Fri 9AM-6PM",
    "services": [
      "Gen-X-owned Alternative health practitioners in Florida consultation",
      "Professional service",
      "Quality guarantee"
    ],
    "social_links": {}
  },
  {
    "name": "Tampa Bay Holistic Wellness",
    "address": "201 N Franklin St #1000, Tampa, FL 33602",
    "phone": "(813) 445-3000",
    "rating": 4.7,
    "reviews": 25,
    "website": "https://www.tampabayholisticwellness.com/",
    "category": "Gen-X-owned Alternative health practitioners in Florida",
    "description": "A naturopathic primary care practice focused on functional medicine, offering acupuncture, nutrition therapy, massage therapy, and more to treat the underlying causes of illness",
    "hours": "Mon-Fri 9AM-6PM",
    "services": [
      "Gen-X-owned Alternative health practitioners in Florida consultation",
      "Professional service",
      "Quality guarantee"
    ],
    "social_links": {}
  },
  {
    "name": "Gainesville Holistic Healthcare",
    "address": "4300 NW 87th Ct #A-3, Gainesville, FL 32607",
    "phone": "(352) 332-5555",
    "rating": 4.9,
    "reviews": 25,
    "website": "https://www.gainesvilleholistichealthcare.com/",
    "category": "Gen-X-owned Alternative health practitioners in Florida",
    "description": "A full-service healthcare provider dedicated to physical, mental, and emotional well-being, offering a variety of healing modalities including acupuncture",
    "hours": "Mon-Fri 9AM-6PM",
    "services": [
      "Gen-X-owned Alternative health practitioners in Florida consultation",
      "Professional service",
      "Quality guarantee"
    ],
    "social_links": {}
  },
  {
    "name": "Acupuncture of Orlando",
    "address": "4248 W Town Center Blvd #2, Orlando, FL 32837",
    "phone": "(407) 308-0308",
    "rating": 4.9,
    "reviews": 25,
    "website": "https://www.aorelief.com/",
    "category": "Gen-X-owned Alternative health practitioners in Florida",
    "description": "Led by Dr. Zakia Chang, this practice offers acupuncture, herbal medicine, and other integrative therapies to treat complex, chronic, and treatment-resistant conditions",
    "hours": "Mon-Fri 9AM-6PM",
    "services": [
      "Gen-X-owned Alternative health practitioners in Florida consultation",
      "Professional service",
      "Quality guarantee"
    ],
    "social_links": {}
  }
]