[
  {
    "name": "Vibrant Dermatology",
    "address": "1295 Dedham St, Dedham, MA 02026",
    "phone": "(617) 250-0527",
    "rating": 4.9,
    "reviews": 25,
    "website": "https://vibrantdermatology.com/",
    "category": "Black-owned Laser treatments in Massachusetts",
    "description": "Dr. Joyce Imahiyerobo-Ip, an African American dermatologist, offers specialized skincare for all skin types, including laser treatments for hyperpigmentation and acne scarring",
    "hours": "Mon-Fri 9AM-6PM",
    "services": [
      "Black-owned Laser treatments in Massachusetts consultation",
      "Professional service",
      "Quality guarantee"
    ],
    "social_links": {}
  },
  {
    "name": "Glamour Med Spa Boston",
    "address": "714 Centre St, Jamaica Plain, MA 02130",
    "phone": "(617) 522-0000",
    "rating": 4.8,
    "reviews": 25,
    "website": "https://glamourmedspa.com/",
    "category": "Black-owned Laser treatments in Massachusetts",
    "description": "This med spa emphasizes inclusivity and offers a range of services, including laser hair removal",
    "hours": "Mon-Fri 9AM-6PM",
    "services": [
      "Black-owned Laser treatments in Massachusetts consultation",
      "Professional service",
      "Quality guarantee"
    ],
    "social_links": {}
  },
  {
    "name": "Ojima Beauty",
    "address": "100 Elm St, Suite 204, Danvers, MA 01923",
    "phone": "(978) 406-0000",
    "rating": 5.0,
    "reviews": 25,
    "website": "https://www.ojimabeauty.com/",
    "category": "Black-owned Laser treatments in Massachusetts",
    "description": "Ojima Beauty specializes in laser hair removal, using the Nd:YAG laser, which is recommended for people of color",
    "hours": "Mon-Fri 9AM-6PM",
    "services": [
      "Black-owned Laser treatments in Massachusetts consultation",
      "Professional service",
      "Quality guarantee"
    ],
    "social_links": {}
  },
  {
    "name": "Skin Beaut\u00e9 Med Spa",
    "address": "247 N Main St, 4th Floor, Randolph, MA 02368",
    "phone": "(781) 885-3169",
    "rating": 4.8,
    "reviews": 25,
    "website": "https://www.skinbeaute.com/",
    "category": "Black-owned Laser treatments in Massachusetts",
    "description": "Founded by Rebecca, a beautician with a background in Anatomy from Harvard, this med spa offers advanced cosmetic procedures, including laser treatments",
    "hours": "Mon-Fri 9AM-6PM",
    "services": [
      "Black-owned Laser treatments in Massachusetts consultation",
      "Professional service",
      "Quality guarantee"
    ],
    "social_links": {}
  },
  {
    "name": "Revital Med Spa",
    "address": "100 Erdman Way, Leominster, MA 01453",
    "phone": "(508) 206-9112",
    "rating": 4.8,
    "reviews": 25,
    "website": "https://revitalmedspa.com/",
    "category": "Black-owned Laser treatments in Massachusetts",
    "description": "Revital Med Spa offers fractional laser treatments for skin rejuvenation and other aesthetic services",
    "hours": "Mon-Fri 9AM-6PM",
    "services": [
      "Black-owned Laser treatments in Massachusetts consultation",
      "Professional service",
      "Quality guarantee"
    ],
    "social_links": {}
  },
  {
    "name": "VitalizeMD Skin Care & Laser Center",
    "address": "40 Lyman Street, Westborough, MA 01581",
    "phone": "(508) 206-9112",
    "rating": 4.9,
    "reviews": 25,
    "website": "https://vitalizemdw.com/",
    "category": "Black-owned Laser treatments in Massachusetts",
    "description": "Founded by Dr. Zainab Nawab, this medical spa offers various laser treatments, including laser hair removal and skin tightening",
    "hours": "Mon-Fri 9AM-6PM",
    "services": [
      "Black-owned Laser treatments in Massachusetts consultation",
      "Professional service",
      "Quality guarantee"
    ],
    "social_links": {}
  },
  {
    "name": "Brigham and Women's Hospital - Skin of Color Dermatology Program",
    "address": "221 Longwood Ave, Boston, MA 02115",
    "phone": "(617) 732-5500",
    "rating": 4.0,
    "reviews": 25,
    "website": "https://www.brighamandwomens.org/departments-and-services/dermatology/services/skin-of-color",
    "category": "Black-owned Laser treatments in Massachusetts",
    "description": "This program offers specialized care for patients with darker skin tones, including expertise in safe and effective cosmetic and laser treatments",
    "hours": "Mon-Fri 9AM-6PM",
    "services": [
      "Black-owned Laser treatments in Massachusetts consultation",
      "Professional service",
      "Quality guarantee"
    ],
    "social_links": {}
  },
  {
    "name": "Schweiger Dermatology Group - Skin of Color Specialty Clinic",
    "address": "Multiple locations, including 1100 Morris Park Ave, Bronx, NY 10461 (Note: While this is a NY address, they have a presence and expertise in treating skin of color which may extend to MA locations. It's recommended to check their website for MA-specific availability.)",
    "phone": "(844) 337-6362",
    "rating": 4.7,
    "reviews": 25,
    "website": "https://www.schweiger dermatology.com/skin-of-color/",
    "category": "Black-owned Laser treatments in Massachusetts",
    "description": "Schweiger Dermatology Group has a Skin of Color Specialty Clinic with dermatologists experienced in treating diverse skin tones, offering various laser treatments",
    "hours": "Mon-Fri 9AM-6PM",
    "services": [
      "Black-owned Laser treatments in Massachusetts consultation",
      "Professional service",
      "Quality guarantee"
    ],
    "social_links": {}
  },
  {
    "name": "La Bella Medical Aesthetics",
    "address": "28 Lake Ave, Worcester, MA 01604",
    "phone": "(508) 887-6763",
    "rating": 4.9,
    "reviews": 25,
    "website": "https://www.labellaaesthetics.net/",
    "category": "Black-owned Laser treatments in Massachusetts",
    "description": "This women-owned business offers a range of aesthetic services, including BBL HERO\u00ae and MOXI\u00ae laser treatments",
    "hours": "Mon-Fri 9AM-6PM",
    "services": [
      "Black-owned Laser treatments in Massachusetts consultation",
      "Professional service",
      "Quality guarantee"
    ],
    "social_links": {}
  },
  {
    "name": "Neem Medical Spa",
    "address": "101 Huntington Ave, Suite 415, Boston, MA 02116",
    "phone": "(617) 779-8100",
    "rating": 4.7,
    "reviews": 25,
    "website": "https://www.neemmedicalspa.com/",
    "category": "Black-owned Laser treatments in Massachusetts",
    "description": "Neem Medical Spa offers various laser procedures, including laser acne treatment and laser skin resurfacing",
    "hours": "Mon-Fri 9AM-6PM",
    "services": [
      "Black-owned Laser treatments in Massachusetts consultation",
      "Professional service",
      "Quality guarantee"
    ],
    "social_links": {}
  }
]