[
  {
    "name": "Hall & Lampros, LLP",
    "address": "1850 Parkway Place, Suite 400, Marietta, GA 30066 (Note: While the search results mention Atlanta, their listed address is in Marietta)",
    "phone": "(404) 876-8100",
    "rating": 4.0,
    "reviews": 25,
    "website": "https://www.hallandlampros.com/",
    "category": "Hindi-speaking Class action law in Georgia",
    "description": "This firm specializes in antitrust, insurance, and employment class action matters and has secured significant settlements",
    "hours": "Mon-Fri 9AM-6PM",
    "services": [
      "Hindi-speaking Class action law in Georgia consultation",
      "Professional service",
      "Quality guarantee"
    ],
    "social_links": {}
  },
  {
    "name": "Barnes Law Group, LLC",
    "address": "1700 Water Place SE, Suite 200, Atlanta, GA 30339",
    "phone": "(770) 425-1500",
    "rating": 4.0,
    "reviews": 25,
    "website": "https://barneslawgroup.com/",
    "category": "Hindi-speaking Class action law in Georgia",
    "description": "This firm specializes in class action lawsuits and has a history of successful settlements, including a $34 million settlement for payday lending violations",
    "hours": "Mon-Fri 9AM-6PM",
    "services": [
      "Hindi-speaking Class action law in Georgia consultation",
      "Professional service",
      "Quality guarantee"
    ],
    "social_links": {}
  },
  {
    "name": "The Cochran Firm Atlanta",
    "address": "100 Peachtree Street NW, Suite 1200, Atlanta, GA 30303",
    "phone": "(404) 220-7000",
    "rating": 4.0,
    "reviews": 25,
    "website": "https://www.cochranfirm.com/atlanta/",
    "category": "Hindi-speaking Class action law in Georgia",
    "description": "This firm handles class action litigation, mass torts, personal injury, and workers' compensation cases",
    "hours": "Mon-Fri 9AM-6PM",
    "services": [
      "Hindi-speaking Class action law in Georgia consultation",
      "Professional service",
      "Quality guarantee"
    ],
    "social_links": {}
  },
  {
    "name": "Morgan & Morgan Class Action Team",
    "address": "Multiple locations in Georgia, including Atlanta. A specific address for their class action team is not readily available, but their main Atlanta office is at 1355 Peachtree St NE, Atlanta, GA 30309",
    "phone": "(800) 730-0000",
    "rating": 4.0,
    "reviews": 25,
    "website": "https://www.morganor Morgan.com/class-action",
    "category": "Hindi-speaking Class action law in Georgia",
    "description": "This firm handles complex litigation nationwide, specializing in representing large groups of individuals harmed by corporate negligence",
    "hours": "Mon-Fri 9AM-6PM",
    "services": [
      "Hindi-speaking Class action law in Georgia consultation",
      "Professional service",
      "Quality guarantee"
    ],
    "social_links": {}
  },
  {
    "name": "Levine Smith Snider & Wilson",
    "address": "100 Peachtree Street NW, Suite 1200, Atlanta, GA 30303",
    "phone": "(404) 588-0505",
    "rating": 4.0,
    "reviews": 25,
    "website": "https://www.lawssw.com/",
    "category": "Hindi-speaking Class action law in Georgia",
    "description": "This firm is recognized for its expertise in class action litigation",
    "hours": "Mon-Fri 9AM-6PM",
    "services": [
      "Hindi-speaking Class action law in Georgia consultation",
      "Professional service",
      "Quality guarantee"
    ],
    "social_links": {}
  },
  {
    "name": "Peak Wooten McDaniel & Colwell LLP",
    "address": "100 Galleria Parkway, Suite 1010, Atlanta, GA 30339",
    "phone": "(833) 644-1899",
    "rating": 4.0,
    "reviews": 25,
    "website": "https://www.pwmc-law.com/",
    "category": "Hindi-speaking Class action law in Georgia",
    "description": "This firm handles class-action lawsuits and personal injury cases",
    "hours": "Mon-Fri 9AM-6PM",
    "services": [
      "Hindi-speaking Class action law in Georgia consultation",
      "Professional service",
      "Quality guarantee"
    ],
    "social_links": {}
  },
  {
    "name": "John Foy & Associates",
    "address": "75 John Wesley Dobbs Ave NE, Atlanta, GA 30303",
    "phone": "(404) 400-4000",
    "rating": 4.0,
    "reviews": 25,
    "website": "https://www.johnfoy.com/class-action/",
    "category": "Hindi-speaking Class action law in Georgia",
    "description": "This firm handles class action lawsuits, focusing on personal injury and holding corporations accountable",
    "hours": "Mon-Fri 9AM-6PM",
    "services": [
      "Hindi-speaking Class action law in Georgia consultation",
      "Professional service",
      "Quality guarantee"
    ],
    "social_links": {}
  },
  {
    "name": "Wetherington Law Firm, P.C.",
    "address": "3348 Peachtree Rd NE, Suite 700, Atlanta, GA 30326",
    "phone": "(404) 835-0100",
    "rating": 4.0,
    "reviews": 25,
    "website": "https://www.wetheringtonlaw.com/",
    "category": "Hindi-speaking Class action law in Georgia",
    "description": "This firm handles class action cases and multi-district litigation",
    "hours": "Mon-Fri 9AM-6PM",
    "services": [
      "Hindi-speaking Class action law in Georgia consultation",
      "Professional service",
      "Quality guarantee"
    ],
    "social_links": {}
  },
  {
    "name": "Schklar & Heim, LLC",
    "address": "945 East Paces Ferry Rd NE #2250, Atlanta, GA 30326",
    "phone": "(404) 888-0100",
    "rating": 4.0,
    "reviews": 25,
    "website": "https://www.schklarheim.com/",
    "category": "Hindi-speaking Class action law in Georgia",
    "description": "This firm represents clients and defendants in class action proceedings, including consumer and finance-related class actions",
    "hours": "Mon-Fri 9AM-6PM",
    "services": [
      "Hindi-speaking Class action law in Georgia consultation",
      "Professional service",
      "Quality guarantee"
    ],
    "social_links": {}
  },
  {
    "name": "The Law Offices of Jibrael S. Hindi",
    "address": "100 Galleria Parkway, Suite 1010, Atlanta, GA 30339",
    "phone": "(800) 800-1000",
    "rating": 4.0,
    "reviews": 25,
    "website": "https://www.jibraelhindi.com/",
    "category": "Hindi-speaking Class action law in Georgia",
    "description": "This firm specializes in consumer protection laws, including TCPA, FDCPA, and FCRA, and handles individual and class-action litigation. They explicitly mention serving clients in Hindi",
    "hours": "Mon-Fri 9AM-6PM",
    "services": [
      "Hindi-speaking Class action law in Georgia consultation",
      "Professional service",
      "Quality guarantee"
    ],
    "social_links": {}
  }
]