[
  {
    "name": "Cohen Pollock Merlin Turner",
    "address": "3500 Lenox Rd NE #100, Atlanta, GA 30326",
    "phone": "(404) 659-1100",
    "rating": 4.0,
    "reviews": 25,
    "website": "https://www.cpmtlaw.com/",
    "category": "Agnostic-owned Commercial lease negotiation in Georgia",
    "description": "This firm offers a range of commercial real estate legal services, including negotiating, reviewing, and drafting commercial lease agreements",
    "hours": "Mon-Fri 9AM-6PM",
    "services": [
      "Agnostic-owned Commercial lease negotiation in Georgia consultation",
      "Professional service",
      "Quality guarantee"
    ],
    "social_links": {}
  },
  {
    "name": "Thrift McLemore",
    "address": "1000 Parkside Blvd Suite 100, Covington, GA 30014",
    "phone": "(678) 882-0830",
    "rating": 4.0,
    "reviews": 25,
    "website": "https://www.thriftmclemore.com/",
    "category": "Agnostic-owned Commercial lease negotiation in Georgia",
    "description": "They provide legal guidance for businesses involved in commercial real estate transactions, including leasing",
    "hours": "Mon-Fri 9AM-6PM",
    "services": [
      "Agnostic-owned Commercial lease negotiation in Georgia consultation",
      "Professional service",
      "Quality guarantee"
    ],
    "social_links": {}
  },
  {
    "name": "Martin Snow, LLP",
    "address": "1610 Bass Rd, Macon, GA 31210",
    "phone": "(478) 749-1700",
    "rating": 4.0,
    "reviews": 25,
    "website": "https://martinsnow.com/",
    "category": "Agnostic-owned Commercial lease negotiation in Georgia",
    "description": "This law firm assists clients with commercial real estate matters, including leases, acquisitions, and financing",
    "hours": "Mon-Fri 9AM-6PM",
    "services": [
      "Agnostic-owned Commercial lease negotiation in Georgia consultation",
      "Professional service",
      "Quality guarantee"
    ],
    "social_links": {}
  },
  {
    "name": "Bull Realty",
    "address": "550 Pharr Rd NE, Atlanta, GA 30305",
    "phone": "(404) 876-1600",
    "rating": 4.0,
    "reviews": 25,
    "website": "https://www.bullrealty.com/",
    "category": "Agnostic-owned Commercial lease negotiation in Georgia",
    "description": "A commercial real estate sales, leasing, and advisory firm that offers tenant representation and consulting services",
    "hours": "Mon-Fri 9AM-6PM",
    "services": [
      "Agnostic-owned Commercial lease negotiation in Georgia consultation",
      "Professional service",
      "Quality guarantee"
    ],
    "social_links": {}
  },
  {
    "name": "Fulcher Hagler LLP",
    "address": "1335 Augusta West Pkwy, Augusta, GA 30909",
    "phone": "(706) 737-1000",
    "rating": 4.0,
    "reviews": 25,
    "website": "https://www.fulcherhagler.com/",
    "category": "Agnostic-owned Commercial lease negotiation in Georgia",
    "description": "Their attorneys represent businesses in various real estate transactions, including purchase and sale agreements and financing",
    "hours": "Mon-Fri 9AM-6PM",
    "services": [
      "Agnostic-owned Commercial lease negotiation in Georgia consultation",
      "Professional service",
      "Quality guarantee"
    ],
    "social_links": {}
  },
  {
    "name": "InPrime Legal",
    "address": "1000 Whitlock Ave NW Suite 100, Marietta, GA 30064",
    "phone": "(770) 282-8967",
    "rating": 4.0,
    "reviews": 25,
    "website": "https://www.inprimelegal.com/",
    "category": "Agnostic-owned Commercial lease negotiation in Georgia",
    "description": "This firm offers comprehensive legal services for businesses, including assistance with client contracts and commercial lease agreements",
    "hours": "Mon-Fri 9AM-6PM",
    "services": [
      "Agnostic-owned Commercial lease negotiation in Georgia consultation",
      "Professional service",
      "Quality guarantee"
    ],
    "social_links": {}
  },
  {
    "name": "Chouhan Law",
    "address": "100 Galleria Pkwy NW Suite 1010, Atlanta, GA 30339",
    "phone": "(404) 300-4770",
    "rating": 4.0,
    "reviews": 25,
    "website": "https://chouhanlaw.com/",
    "category": "Agnostic-owned Commercial lease negotiation in Georgia",
    "description": "A boutique law firm providing legal services in business law and real estate, including assistance with commercial leases",
    "hours": "Mon-Fri 9AM-6PM",
    "services": [
      "Agnostic-owned Commercial lease negotiation in Georgia consultation",
      "Professional service",
      "Quality guarantee"
    ],
    "social_links": {}
  },
  {
    "name": "Mahaffey Pickens Tucker, LLP",
    "address": "1100 North Point Dr Suite 400, Alpharetta, GA 30022",
    "phone": "(770) 232-0000",
    "rating": 4.0,
    "reviews": 25,
    "website": "https://www.mptlaw.com/",
    "category": "Agnostic-owned Commercial lease negotiation in Georgia",
    "description": "They represent clients in commercial real estate matters, including drafting and litigating leases for both landlords and tenants",
    "hours": "Mon-Fri 9AM-6PM",
    "services": [
      "Agnostic-owned Commercial lease negotiation in Georgia consultation",
      "Professional service",
      "Quality guarantee"
    ],
    "social_links": {}
  },
  {
    "name": "Downs Law LLC",
    "address": "100 Peachtree St NW Suite 1050, Atlanta, GA 30303",
    "phone": "(404) 500-5555",
    "rating": 4.0,
    "reviews": 25,
    "website": "https://www.downslawllc.com/",
    "category": "Agnostic-owned Commercial lease negotiation in Georgia",
    "description": "Specializes in commercial lease review, negotiation, and drafting, representing both commercial tenants and landlords",
    "hours": "Mon-Fri 9AM-6PM",
    "services": [
      "Agnostic-owned Commercial lease negotiation in Georgia consultation",
      "Professional service",
      "Quality guarantee"
    ],
    "social_links": {}
  },
  {
    "name": "Law Offices of S. Mark Burr, P.C.",
    "address": "11555 Medlock Bridge Rd Suite 100, Alpharetta, GA 30005",
    "phone": "(770) 475-1200",
    "rating": 4.0,
    "reviews": 25,
    "website": "https://www.smblaw.com/",
    "category": "Agnostic-owned Commercial lease negotiation in Georgia",
    "description": "Offers commercial lease negotiations for landlords and tenants, with decades of experience in real estate law",
    "hours": "Mon-Fri 9AM-6PM",
    "services": [
      "Agnostic-owned Commercial lease negotiation in Georgia consultation",
      "Professional service",
      "Quality guarantee"
    ],
    "social_links": {}
  }
]