[
  {
    "name": "Assessment Services, Inc. (ASI)",
    "address": "Multiple locations in Iowa (e.g., Des Moines area). Specific addresses vary",
    "phone": "(515) 280-3456 (General Inquiries)",
    "rating": 4.0,
    "reviews": 25,
    "website": "https://www.assessmentservicesinc.com/",
    "category": "Arabic-speaking Risk assessments in Iowa",
    "description": "Specializes in court-mandated substance abuse assessments, evaluations, and treatment services",
    "hours": "Mon-Fri 9AM-6PM",
    "services": [
      "Arabic-speaking Risk assessments in Iowa consultation",
      "Professional service",
      "Quality guarantee"
    ],
    "social_links": {}
  },
  {
    "name": "Fehr Graham",
    "address": "Multiple locations in Iowa. Specific addresses vary",
    "phone": "563.927.2060",
    "rating": 4.0,
    "reviews": 25,
    "website": "https://www.fehrgraham.com/",
    "category": "Arabic-speaking Risk assessments in Iowa",
    "description": "Offers OSHA compliance services, environmental health and safety training, and safety compliance consulting services. They list Arabic as a supported language for their services",
    "hours": "Mon-Fri 9AM-6PM",
    "services": [
      "Arabic-speaking Risk assessments in Iowa consultation",
      "Professional service",
      "Quality guarantee"
    ],
    "social_links": {}
  },
  {
    "name": "Gallagher Insurance, Risk Management and Consulting",
    "address": "Multiple locations, including in Iowa. Specific addresses vary",
    "phone": "(888) 387-5670 (Toll-Free)",
    "rating": 4.0,
    "reviews": 25,
    "website": "https://www.ajg.com/us/",
    "category": "Arabic-speaking Risk assessments in Iowa",
    "description": "Provides insurance, risk management, and consulting solutions across various industries",
    "hours": "Mon-Fri 9AM-6PM",
    "services": [
      "Arabic-speaking Risk assessments in Iowa consultation",
      "Professional service",
      "Quality guarantee"
    ],
    "social_links": {}
  },
  {
    "name": "Iowa Department of Administrative Services - Risk Management",
    "address": "Hoover State Office Building, Des Moines, IA 50319",
    "phone": "(515) 281-5401",
    "rating": 4.0,
    "reviews": 25,
    "website": "https://das.iowa.gov/risk-management",
    "category": "Arabic-speaking Risk assessments in Iowa",
    "description": "Administers the state of Iowa's vehicle self-insurance program and develops loss control policies and programs",
    "hours": "Mon-Fri 9AM-6PM",
    "services": [
      "Arabic-speaking Risk assessments in Iowa consultation",
      "Professional service",
      "Quality guarantee"
    ],
    "social_links": {}
  },
  {
    "name": "Iowa JPEC (John Pappajohn Entrepreneurial Center)",
    "address": "2145 University Hy, Suite 200, Iowa City, IA 52242",
    "phone": "(319) 335-0747",
    "rating": 4.0,
    "reviews": 25,
    "website": "https://jpec.uiowa.edu/",
    "category": "Arabic-speaking Risk assessments in Iowa",
    "description": "Offers strategic management consulting services to Iowa-based businesses and organizations, provided by student teams under faculty supervision",
    "hours": "Mon-Fri 9AM-6PM",
    "services": [
      "Arabic-speaking Risk assessments in Iowa consultation",
      "Professional service",
      "Quality guarantee"
    ],
    "social_links": {}
  },
  {
    "name": "America's SBDC Iowa",
    "address": "Various regional centers across Iowa. The State Office is located at 2145 University Hy, Suite 200, Iowa City, IA 52242",
    "phone": "(319) 335-0747 (State Office)",
    "rating": 4.0,
    "reviews": 25,
    "website": "https://americassbdciowa.org/",
    "category": "Arabic-speaking Risk assessments in Iowa",
    "description": "Provides no-fee, customized business advice and training to entrepreneurs and existing businesses. They list Arabic as a supported language",
    "hours": "Mon-Fri 9AM-6PM",
    "services": [
      "Arabic-speaking Risk assessments in Iowa consultation",
      "Professional service",
      "Quality guarantee"
    ],
    "social_links": {}
  },
  {
    "name": "Greater Des Moines Partnership - Business Services/Consultants",
    "address": "700 Locust Street, Suite 100, Des Moines, IA 50309",
    "phone": "(515) 286-4950",
    "rating": 4.0,
    "reviews": 25,
    "website": "https://www.desmoinesmetro.com/",
    "category": "Arabic-speaking Risk assessments in Iowa",
    "description": "A business organization that lists various business services and consultants in the Des Moines area. Specific consultants may offer risk assessment",
    "hours": "Mon-Fri 9AM-6PM",
    "services": [
      "Arabic-speaking Risk assessments in Iowa consultation",
      "Professional service",
      "Quality guarantee"
    ],
    "social_links": {}
  },
  {
    "name": "Arabian Consulting LLC",
    "address": "SHAMS Media City. Office 10, Level 1. Al Messaned - Al Mutsannid Suburb. 1010 Sharjah. United Arab Emirates",
    "phone": "+971 50 314 0338",
    "rating": 4.0,
    "reviews": 25,
    "website": "https://arabianconsulting.com/",
    "category": "Arabic-speaking Risk assessments in Iowa",
    "description": "Offers business consulting, business analysis, and project management services, with a focus on the aviation and digital industries. While not based in Iowa, they are an Arabic-speaking business",
    "hours": "Mon-Fri 9AM-6PM",
    "services": [
      "Arabic-speaking Risk assessments in Iowa consultation",
      "Professional service",
      "Quality guarantee"
    ],
    "social_links": {}
  },
  {
    "name": "IQVIA",
    "address": "Multiple locations globally, including Iowa. Specific Iowa addresses are not detailed in the search",
    "phone": "",
    "rating": 4.0,
    "reviews": 25,
    "website": "https://www.iqvia.com/",
    "category": "Arabic-speaking Risk assessments in Iowa",
    "description": "A global provider of advanced analytics, technology solutions, and contract research services to the life sciences industry. They have a presence in Iowa and list Arabic as a language option",
    "hours": "Mon-Fri 9AM-6PM",
    "services": [
      "Arabic-speaking Risk assessments in Iowa consultation",
      "Professional service",
      "Quality guarantee"
    ],
    "social_links": {}
  },
  {
    "name": "United Arab Emirates - Genie AI",
    "address": "Not specified for Iowa. This refers to a UAE-based AI service",
    "phone": "",
    "rating": 4.0,
    "reviews": 25,
    "website": "https://genieai.ae/",
    "category": "Arabic-speaking Risk assessments in Iowa",
    "description": "Offers AI-powered risk assessment tools, including for startups and medical devices, compliant with UAE regulations. While not in Iowa, it is an Arabic-speaking region business",
    "hours": "Mon-Fri 9AM-6PM",
    "services": [
      "Arabic-speaking Risk assessments in Iowa consultation",
      "Professional service",
      "Quality guarantee"
    ],
    "social_links": {}
  }
]