[
  {
    "name": "Mattie's Soul Food Bar and Lounge",
    "address": "Not publicly listed, but located in Denver, Colorado",
    "phone": "",
    "rating": 4.0,
    "reviews": 25,
    "website": "https://www.google.com/maps/search/Mattie's+Soul+Food+Bar+and+Lounge+in+Colorado",
    "category": "Black-owned Specialty restaurants in Colorado",
    "description": "This Denver-based establishment offers soul food cuisine and is noted for its community events",
    "hours": "Mon-Fri 9AM-6PM",
    "services": [
      "Black-owned Specialty restaurants in Colorado consultation",
      "Professional service",
      "Quality guarantee"
    ],
    "social_links": {}
  },
  {
    "name": "TK's Surf and Turf Kitchen",
    "address": "10890 E Dartmouth Ave #13, Aurora, CO 80014",
    "phone": "",
    "rating": 4.0,
    "reviews": 25,
    "website": "https://www.google.com/maps/search/TK's+Surf+and+Turf+Kitchen+in+Colorado",
    "category": "Black-owned Specialty restaurants in Colorado",
    "description": "As Denver's first Black-owned and family-operated seafood restaurant, TK's Surf and Turf Kitchen is known for its \"secret sauce\" and visually appealing dishes",
    "hours": "Mon-Fri 9AM-6PM",
    "services": [
      "Black-owned Specialty restaurants in Colorado consultation",
      "Professional service",
      "Quality guarantee"
    ],
    "social_links": {}
  },
  {
    "name": "Welton Street Cafe",
    "address": "2883 Welton St, Denver, CO 80205",
    "phone": "(303) 296-6602",
    "rating": 4.0,
    "reviews": 25,
    "website": "https://www.google.com/maps/search/Welton+Street+Cafe+in+Colorado",
    "category": "Black-owned Specialty restaurants in Colorado",
    "description": "A historic, family-owned soul food staple in Denver's Five Points neighborhood, offering Southern-style cooking with a Caribbean twist",
    "hours": "Mon-Fri 9AM-6PM",
    "services": [
      "Black-owned Specialty restaurants in Colorado consultation",
      "Professional service",
      "Quality guarantee"
    ],
    "social_links": {}
  },
  {
    "name": "The Blazing Chicken Shack",
    "address": "5560 E 33rd Ave, Denver, CO 80207",
    "phone": "(303) 355-5448",
    "rating": 4.0,
    "reviews": 25,
    "website": "https://www.google.com/maps/search/The+Blazing+Chicken+Shack+in+Colorado",
    "category": "Black-owned Specialty restaurants in Colorado",
    "description": "This restaurant serves soul food and Southern American cuisine",
    "hours": "Mon-Fri 9AM-6PM",
    "services": [
      "Black-owned Specialty restaurants in Colorado consultation",
      "Professional service",
      "Quality guarantee"
    ],
    "social_links": {}
  },
  {
    "name": "Q's Quisine",
    "address": "5428 S Parker Rd, Aurora, CO 80015",
    "phone": "(720) 541-6444",
    "rating": 4.0,
    "reviews": 25,
    "website": "https://www.google.com/maps/search/Q's+Quisine+in+Colorado",
    "category": "Black-owned Specialty restaurants in Colorado",
    "description": "Q's Quisine offers a variety of dishes, fitting into the soul food and Southern American culinary category",
    "hours": "Mon-Fri 9AM-6PM",
    "services": [
      "Black-owned Specialty restaurants in Colorado consultation",
      "Professional service",
      "Quality guarantee"
    ],
    "social_links": {}
  },
  {
    "name": "Randall's",
    "address": "3349 York St, Denver, CO 80205",
    "phone": "(720) 583-0473",
    "rating": 4.0,
    "reviews": 25,
    "website": "https://www.google.com/maps/search/Randall's+in+Colorado",
    "category": "Black-owned Specialty restaurants in Colorado",
    "description": "Randall's is a Black-owned business offering Southern food and live music",
    "hours": "Mon-Fri 9AM-6PM",
    "services": [
      "Black-owned Specialty restaurants in Colorado consultation",
      "Professional service",
      "Quality guarantee"
    ],
    "social_links": {}
  },
  {
    "name": "Jabo's Bar-Be-Q",
    "address": "9682 E Arapahoe Rd, Greenwood Village, CO 80112",
    "phone": "(303) 799-4432",
    "rating": 4.0,
    "reviews": 25,
    "website": "https://www.google.com/maps/search/Jabo's+Bar-Be-Q+in+Colorado",
    "category": "Black-owned Specialty restaurants in Colorado",
    "description": "This establishment serves Louisiana pit-smoked barbecue with various sauce flavors",
    "hours": "Mon-Fri 9AM-6PM",
    "services": [
      "Black-owned Specialty restaurants in Colorado consultation",
      "Professional service",
      "Quality guarantee"
    ],
    "social_links": {}
  },
  {
    "name": "Genna Rae's Wings & More",
    "address": "1819 E. 28th Ave., Denver, CO 80205",
    "phone": "(720) 287-3523",
    "rating": 4.0,
    "reviews": 25,
    "website": "https://www.google.com/maps/search/Genna+Rae's+Wings+&+More+in+Colorado",
    "category": "Black-owned Specialty restaurants in Colorado",
    "description": "Genna Rae's specializes in soul food, offering wings, sandwiches, and desserts for takeout",
    "hours": "Mon-Fri 9AM-6PM",
    "services": [
      "Black-owned Specialty restaurants in Colorado consultation",
      "Professional service",
      "Quality guarantee"
    ],
    "social_links": {}
  },
  {
    "name": "African Grill and Bar",
    "address": "955 S. Kipling Parkway, Lakewood, CO 80226",
    "phone": "(303) 985-4497",
    "rating": 4.0,
    "reviews": 25,
    "website": "https://www.google.com/maps/search/African+Grill+and+Bar+in+Colorado",
    "category": "Black-owned Specialty restaurants in Colorado",
    "description": "This family-run business offers unique food and culture from the continent of Africa",
    "hours": "Mon-Fri 9AM-6PM",
    "services": [
      "Black-owned Specialty restaurants in Colorado consultation",
      "Professional service",
      "Quality guarantee"
    ],
    "social_links": {}
  },
  {
    "name": "Jessie's Smokin' NOLA LLC",
    "address": "7422 S. University Blvd., Centennial, CO 80122",
    "phone": "(303) 537-4574",
    "rating": 4.0,
    "reviews": 25,
    "website": "https://www.google.com/maps/search/Jessie's+Smokin'+NOLA+LLC+in+Colorado",
    "category": "Black-owned Specialty restaurants in Colorado",
    "description": "Jessie's Smokin' NOLA LLC serves authentic New Orleans cuisine, including fried seafood, jambalaya, and desserts, with patio dining and takeout options",
    "hours": "Mon-Fri 9AM-6PM",
    "services": [
      "Black-owned Specialty restaurants in Colorado consultation",
      "Professional service",
      "Quality guarantee"
    ],
    "social_links": {}
  }
]