[
  {
    "name": "Flex HR",
    "address": "7950 E Maplewood Ave, Greenwood Village, CO 80111",
    "phone": "(303) 577-9500",
    "rating": 4.0,
    "reviews": 25,
    "website": "https://www.flexhr.com/",
    "category": "Chinese-speaking Recruitment support in Colorado",
    "description": "Flex HR is a human resources outsourcing and consulting solutions company that provides customized HR services to businesses in Denver, Colorado",
    "hours": "Mon-Fri 9AM-6PM",
    "services": [
      "Chinese-speaking Recruitment support in Colorado consultation",
      "Professional service",
      "Quality guarantee"
    ],
    "social_links": {}
  },
  {
    "name": "People Partner HR Consulting",
    "address": "1525 Blake St #200, Denver, CO 80202",
    "phone": "(720) 773-9000",
    "rating": 4.0,
    "reviews": 25,
    "website": "https://peoplepartnerhr.com/",
    "category": "Chinese-speaking Recruitment support in Colorado",
    "description": "People Partner HR Consulting in Denver specializes in human resource management and consulting, offering services to improve company resources and management",
    "hours": "Mon-Fri 9AM-6PM",
    "services": [
      "Chinese-speaking Recruitment support in Colorado consultation",
      "Professional service",
      "Quality guarantee"
    ],
    "social_links": {}
  },
  {
    "name": "LEVATA Human Performance",
    "address": "1624 Market St, Denver, CO 80202",
    "phone": "(303) 557-1170",
    "rating": 4.0,
    "reviews": 25,
    "website": "https://levatahp.com/",
    "category": "Chinese-speaking Recruitment support in Colorado",
    "description": "LEVATA Human Performance is a consulting firm dedicated to enhancing human performance and organizational effectiveness, offering services like executive coaching and HR strategy consulting",
    "hours": "Mon-Fri 9AM-6PM",
    "services": [
      "Chinese-speaking Recruitment support in Colorado consultation",
      "Professional service",
      "Quality guarantee"
    ],
    "social_links": {}
  },
  {
    "name": "Turning the Corner HR",
    "address": "700 17th St, Denver, CO 80202",
    "phone": "(303) 520-0705",
    "rating": 4.0,
    "reviews": 25,
    "website": "https://turningthecornerhr.com/",
    "category": "Chinese-speaking Recruitment support in Colorado",
    "description": "Turning the Corner HR is a family-owned human resources consulting firm specializing in customized HR solutions for small to mid-sized businesses",
    "hours": "Mon-Fri 9AM-6PM",
    "services": [
      "Chinese-speaking Recruitment support in Colorado consultation",
      "Professional service",
      "Quality guarantee"
    ],
    "social_links": {}
  },
  {
    "name": "Scion Staffing",
    "address": "1660 S Albion St Suite 100, Denver, CO 80222",
    "phone": "(303) 870-4500",
    "rating": 4.0,
    "reviews": 25,
    "website": "https://www.scionstaffing.com/",
    "category": "Chinese-speaking Recruitment support in Colorado",
    "description": "Scion Staffing is an award-winning staffing agency and executive search firm providing temporary staffing, contract-to-hire, and direct-hire services",
    "hours": "Mon-Fri 9AM-6PM",
    "services": [
      "Chinese-speaking Recruitment support in Colorado consultation",
      "Professional service",
      "Quality guarantee"
    ],
    "social_links": {}
  },
  {
    "name": "Insight Global",
    "address": "600 17th St #2000, Denver, CO 80202",
    "phone": "(303) 290-1100",
    "rating": 4.0,
    "reviews": 25,
    "website": "https://www.insightglobal.com/",
    "category": "Chinese-speaking Recruitment support in Colorado",
    "description": "Insight Global is a global professional services and staffing agency connecting businesses and job seekers across various industries",
    "hours": "Mon-Fri 9AM-6PM",
    "services": [
      "Chinese-speaking Recruitment support in Colorado consultation",
      "Professional service",
      "Quality guarantee"
    ],
    "social_links": {}
  },
  {
    "name": "Summit One Source",
    "address": "7950 E Maplewood Ave, Greenwood Village, CO 80111",
    "phone": "(303) 771-0707",
    "rating": 4.0,
    "reviews": 25,
    "website": "https://summitonesource.com/",
    "category": "Chinese-speaking Recruitment support in Colorado",
    "description": "Summit One Source provides a comprehensive range of workforce management solutions, including HR consulting, payroll services, and compliance technology",
    "hours": "Mon-Fri 9AM-6PM",
    "services": [
      "Chinese-speaking Recruitment support in Colorado consultation",
      "Professional service",
      "Quality guarantee"
    ],
    "social_links": {}
  },
  {
    "name": "PayTech",
    "address": "7950 E Maplewood Ave, Greenwood Village, CO 80111",
    "phone": "(303) 771-0707",
    "rating": 4.0,
    "reviews": 25,
    "website": "https://www.paytech.com/",
    "category": "Chinese-speaking Recruitment support in Colorado",
    "description": "PayTech specializes in Human Capital Management (HCM) and payroll services, assisting businesses with payroll systems, tax compliance, and year-end support",
    "hours": "Mon-Fri 9AM-6PM",
    "services": [
      "Chinese-speaking Recruitment support in Colorado consultation",
      "Professional service",
      "Quality guarantee"
    ],
    "social_links": {}
  },
  {
    "name": "Talent to Team",
    "address": "2440 Canyon Blvd, Boulder, CO 80302",
    "phone": "(720) 677-9511",
    "rating": 4.0,
    "reviews": 25,
    "website": "https://talento team.com/",
    "category": "Chinese-speaking Recruitment support in Colorado",
    "description": "Talent to Team offers fractional HR services, focusing on HR strategies, operations management, and project-based support",
    "hours": "Mon-Fri 9AM-6PM",
    "services": [
      "Chinese-speaking Recruitment support in Colorado consultation",
      "Professional service",
      "Quality guarantee"
    ],
    "social_links": {}
  },
  {
    "name": "CPS HR Consulting",
    "address": "600 17th St #2000, Denver, CO 80202",
    "phone": "(303) 290-1100",
    "rating": 4.0,
    "reviews": 25,
    "website": "https://www.cpshr.us/",
    "category": "Chinese-speaking Recruitment support in Colorado",
    "description": "CPS HR Consulting delivers integrated HR solutions tailored to government and nonprofit clients, with expertise in HR strategy and compliance",
    "hours": "Mon-Fri 9AM-6PM",
    "services": [
      "Chinese-speaking Recruitment support in Colorado consultation",
      "Professional service",
      "Quality guarantee"
    ],
    "social_links": {}
  }
]