[
  {
    "name": "American Imports Auto Repair",
    "address": "1300 W Mequon Rd, Mequon, WI 53092",
    "phone": "(262) 251-7200",
    "rating": 4.8,
    "reviews": 25,
    "website": "https://www.americanimportsauto.com/",
    "category": "Chinese-American-owned Alternator repair in Wisconsin",
    "description": "Specializes in Asian and domestic vehicles, offering a full range of auto repair services including alternator repair",
    "hours": "Mon-Fri 9AM-6PM",
    "services": [
      "Chinese-American-owned Alternator repair in Wisconsin consultation",
      "Professional service",
      "Quality guarantee"
    ],
    "social_links": {}
  },
  {
    "name": "Finicki Auto Electric",
    "address": "2701 Advance Rd, Madison, WI 53704",
    "phone": "(608) 243-8730",
    "rating": 4.7,
    "reviews": 25,
    "website": "https://www.finicki.com/",
    "category": "Chinese-American-owned Alternator repair in Wisconsin",
    "description": "Madison's only specialist in rebuilding starters and alternators, serving a wide range of vehicles and applications",
    "hours": "Mon-Fri 9AM-6PM",
    "services": [
      "Chinese-American-owned Alternator repair in Wisconsin consultation",
      "Professional service",
      "Quality guarantee"
    ],
    "social_links": {}
  },
  {
    "name": "Auto Safety Center",
    "address": "3700 W Washington St, West Bend, WI 53095",
    "phone": "(262) 338-1212",
    "rating": 4.7,
    "reviews": 25,
    "website": "https://www.autosafetycenter.com/",
    "category": "Chinese-American-owned Alternator repair in Wisconsin",
    "description": "Family-owned and operated auto repair center offering alternator repair and service since 1965",
    "hours": "Mon-Fri 9AM-6PM",
    "services": [
      "Chinese-American-owned Alternator repair in Wisconsin consultation",
      "Professional service",
      "Quality guarantee"
    ],
    "social_links": {}
  },
  {
    "name": "Kaestner Auto Electric",
    "address": "111 N East Ave, Waukesha, WI 53186",
    "phone": "(262) 547-9600",
    "rating": 4.6,
    "reviews": 25,
    "website": "https://www.kaestnerautoelectric.com/",
    "category": "Chinese-American-owned Alternator repair in Wisconsin",
    "description": "Repairs and rebuilds alternators and starters for all types of vehicles, serving Southeastern Wisconsin since 1919",
    "hours": "Mon-Fri 9AM-6PM",
    "services": [
      "Chinese-American-owned Alternator repair in Wisconsin consultation",
      "Professional service",
      "Quality guarantee"
    ],
    "social_links": {}
  },
  {
    "name": "Hopson Automotive",
    "address": "W241S4165 Pine Hollow Ct, Waukesha, WI 53189",
    "phone": "(262) 226-8483",
    "rating": 4.9,
    "reviews": 25,
    "website": "https://hopsonautomotive.com/",
    "category": "Chinese-American-owned Alternator repair in Wisconsin",
    "description": "Offers expert alternator service and repair to keep your car's electrical system dependable",
    "hours": "Mon-Fri 9AM-6PM",
    "services": [
      "Chinese-American-owned Alternator repair in Wisconsin consultation",
      "Professional service",
      "Quality guarantee"
    ],
    "social_links": {}
  },
  {
    "name": "Van Wyk Auto",
    "address": "1521 N 13th St, Sheboygan, WI 53081",
    "phone": "(920) 208-7699",
    "rating": 4.7,
    "reviews": 25,
    "website": "https://www.vanwykauto.com/",
    "category": "Chinese-American-owned Alternator repair in Wisconsin",
    "description": "Premier destination for reliable battery, starter, and alternator repair, utilizing advanced diagnostic equipment",
    "hours": "Mon-Fri 9AM-6PM",
    "services": [
      "Chinese-American-owned Alternator repair in Wisconsin consultation",
      "Professional service",
      "Quality guarantee"
    ],
    "social_links": {}
  },
  {
    "name": "Manyo Motors",
    "address": "6030 W Forest Home Ave, Milwaukee, WI 53220",
    "phone": "(414) 312-8611",
    "rating": 4.8,
    "reviews": 25,
    "website": "https://manyomotors.com/",
    "category": "Chinese-American-owned Alternator repair in Wisconsin",
    "description": "Specializes in Asian vehicle repairs, offering a full range of services including electrical system diagnostics and repair",
    "hours": "Mon-Fri 9AM-6PM",
    "services": [
      "Chinese-American-owned Alternator repair in Wisconsin consultation",
      "Professional service",
      "Quality guarantee"
    ],
    "social_links": {}
  },
  {
    "name": "Riteway Automotive",
    "address": "711 N 13th St, Sheboygan, WI 53081",
    "phone": "(920) 451-0270",
    "rating": 4.7,
    "reviews": 25,
    "website": "https://www.ritewayautomotive.com/",
    "category": "Chinese-American-owned Alternator repair in Wisconsin",
    "description": "Full-service auto repair and maintenance facility specializing in Asian vehicles, including electrical system services",
    "hours": "Mon-Fri 9AM-6PM",
    "services": [
      "Chinese-American-owned Alternator repair in Wisconsin consultation",
      "Professional service",
      "Quality guarantee"
    ],
    "social_links": {}
  },
  {
    "name": "B Towne Auto Service",
    "address": "457 Falcon Ridge Dr, Burlington, WI 53105",
    "phone": "(262) 767-9007",
    "rating": 4.8,
    "reviews": 25,
    "website": "https://www.btowneautoservice.com/",
    "category": "Chinese-American-owned Alternator repair in Wisconsin",
    "description": "Specializes in Asian vehicle repairs, providing comprehensive services including electrical system diagnostics and repair",
    "hours": "Mon-Fri 9AM-6PM",
    "services": [
      "Chinese-American-owned Alternator repair in Wisconsin consultation",
      "Professional service",
      "Quality guarantee"
    ],
    "social_links": {}
  },
  {
    "name": "Alpine Auto Electric",
    "address": "1010 1st Ave, Monroe, WI 53566",
    "phone": "(608) 325-3111",
    "rating": 4.8,
    "reviews": 25,
    "website": "https://www.alpineautoelectric.com/",
    "category": "Chinese-American-owned Alternator repair in Wisconsin",
    "description": "Established in 1999, specializing in rebuilding starters, alternators, and generators for various applications",
    "hours": "Mon-Fri 9AM-6PM",
    "services": [
      "Chinese-American-owned Alternator repair in Wisconsin consultation",
      "Professional service",
      "Quality guarantee"
    ],
    "social_links": {}
  }
]