[
  {
    "name": "Supporting Strategies | Kansas City",
    "address": "7300 College Blvd, Suite 200, Overland Park, KS 66210",
    "phone": "(913) 341-0000",
    "rating": 4.0,
    "reviews": 25,
    "website": "https://www.supportingsstrategies.com/locations/kansas-city/",
    "category": "Bengali-speaking Bookkeeping in Kansas",
    "description": "Provides outsourced bookkeeping and operational support services",
    "hours": "Mon-Fri 9AM-6PM",
    "services": [
      "Bengali-speaking Bookkeeping in Kansas consultation",
      "Professional service",
      "Quality guarantee"
    ],
    "social_links": {}
  },
  {
    "name": "Cook CPA",
    "address": "200 E 5th St N, Wichita, KS 67202",
    "phone": "(316) 636-5999",
    "rating": 4.0,
    "reviews": 25,
    "website": "https://cookcpa.com/",
    "category": "Bengali-speaking Bookkeeping in Kansas",
    "description": "Offers small business accounting services including taxes, bookkeeping, and payroll",
    "hours": "Mon-Fri 9AM-6PM",
    "services": [
      "Bengali-speaking Bookkeeping in Kansas consultation",
      "Professional service",
      "Quality guarantee"
    ],
    "social_links": {}
  },
  {
    "name": "Reller & Company CPA, PC",
    "address": "11011 W 75th St, Shawnee Mission, KS 66214",
    "phone": "(913) 432-0000",
    "rating": 4.0,
    "reviews": 25,
    "website": "https://www.rellercpa.com/",
    "category": "Bengali-speaking Bookkeeping in Kansas",
    "description": "Provides small business accounting services to help businesses take financial control",
    "hours": "Mon-Fri 9AM-6PM",
    "services": [
      "Bengali-speaking Bookkeeping in Kansas consultation",
      "Professional service",
      "Quality guarantee"
    ],
    "social_links": {}
  },
  {
    "name": "Broadbent Bookkeeping Services",
    "address": "10000 W 75th St, Merriam, KS 66203",
    "phone": "(913) 730-0000",
    "rating": 4.0,
    "reviews": 25,
    "website": "https://broadbentbookkeeping.com/",
    "category": "Bengali-speaking Bookkeeping in Kansas",
    "description": "Offers bookkeeping services throughout the Greater Kansas City Area",
    "hours": "Mon-Fri 9AM-6PM",
    "services": [
      "Bengali-speaking Bookkeeping in Kansas consultation",
      "Professional service",
      "Quality guarantee"
    ],
    "social_links": {}
  },
  {
    "name": "Prime Accounting",
    "address": "10000 W 75th St, Merriam, KS 66203",
    "phone": "(913) 730-0000",
    "rating": 4.0,
    "reviews": 25,
    "website": "https://primeaccountingkc.com/",
    "category": "Bengali-speaking Bookkeeping in Kansas",
    "description": "Provides expert accounting and bookkeeping services in Kansas City",
    "hours": "Mon-Fri 9AM-6PM",
    "services": [
      "Bengali-speaking Bookkeeping in Kansas consultation",
      "Professional service",
      "Quality guarantee"
    ],
    "social_links": {}
  },
  {
    "name": "Cornerstone CPA, LLC",
    "address": "7300 College Blvd, Suite 200, Overland Park, KS 66210",
    "phone": "(913) 432-4200",
    "rating": 4.0,
    "reviews": 25,
    "website": "https://cornerstonecpa.com/",
    "category": "Bengali-speaking Bookkeeping in Kansas",
    "description": "A public accounting firm offering accounting, tax strategy, and client advisory services",
    "hours": "Mon-Fri 9AM-6PM",
    "services": [
      "Bengali-speaking Bookkeeping in Kansas consultation",
      "Professional service",
      "Quality guarantee"
    ],
    "social_links": {}
  },
  {
    "name": "Sweeney Bookkeeping LLC",
    "address": "120 S Main St, Wichita, KS 67202",
    "phone": "(316) 201-0000",
    "rating": 4.0,
    "reviews": 25,
    "website": "https://sweeneybookkeeping.com/",
    "category": "Bengali-speaking Bookkeeping in Kansas",
    "description": "Focuses on bookkeeping services for businesses in Wichita and nationwide",
    "hours": "Mon-Fri 9AM-6PM",
    "services": [
      "Bengali-speaking Bookkeeping in Kansas consultation",
      "Professional service",
      "Quality guarantee"
    ],
    "social_links": {}
  },
  {
    "name": "Dunham Bookkeeping Services",
    "address": "7300 College Blvd, Suite 200, Overland Park, KS 66210",
    "phone": "(913) 432-0000",
    "rating": 4.0,
    "reviews": 25,
    "website": "https://dunhambookkeeping.com/",
    "category": "Bengali-speaking Bookkeeping in Kansas",
    "description": "Offers stress-free, affordable bookkeeping and tax services for small businesses and nonprofits",
    "hours": "Mon-Fri 9AM-6PM",
    "services": [
      "Bengali-speaking Bookkeeping in Kansas consultation",
      "Professional service",
      "Quality guarantee"
    ],
    "social_links": {}
  },
  {
    "name": "Ainsworth Accounting & Tax Services",
    "address": "8801 Long, Lenexa, KS 66215",
    "phone": "(913) 912-9991",
    "rating": 4.0,
    "reviews": 25,
    "website": "https://ainsworthaccounting.com/",
    "category": "Bengali-speaking Bookkeeping in Kansas",
    "description": "A CPA firm in Lenexa, Kansas, serving the Kansas City area with accounting and tax services",
    "hours": "Mon-Fri 9AM-6PM",
    "services": [
      "Bengali-speaking Bookkeeping in Kansas consultation",
      "Professional service",
      "Quality guarantee"
    ],
    "social_links": {}
  },
  {
    "name": "Kittrell & Klaskin, LLC",
    "address": "200 E 5th St N, Wichita, KS 67202",
    "phone": "(316) 636-5999",
    "rating": 4.0,
    "reviews": 25,
    "website": "https://kittrellklaskin.com/",
    "category": "Bengali-speaking Bookkeeping in Kansas",
    "description": "Offers accounting services for small businesses, including tax preparation and payroll assistance",
    "hours": "Mon-Fri 9AM-6PM",
    "services": [
      "Bengali-speaking Bookkeeping in Kansas consultation",
      "Professional service",
      "Quality guarantee"
    ],
    "social_links": {}
  }
]