[
  {
    "name": "Hunton Andrews Kurth LLP",
    "address": "Multiple locations, including Richmond and Tysons, VA",
    "phone": "(757) 640-5300 (Norfolk office)",
    "rating": 4.0,
    "reviews": 25,
    "website": "https://winston.com/en/locations/richmond.html",
    "category": "Bengali-speaking Mergers and Acquisitions law in Virginia",
    "description": "A global law firm with a strong presence in Virginia, handling complex transactional, litigation, and regulatory matters. They are known for their work in various industries and for representing major businesses",
    "hours": "Mon-Fri 9AM-6PM",
    "services": [
      "Bengali-speaking Mergers and Acquisitions law in Virginia consultation",
      "Professional service",
      "Quality guarantee"
    ],
    "social_links": {}
  },
  {
    "name": "McGuireWoods LLP",
    "address": "Multiple locations, including Richmond, VA",
    "phone": "(804) 775-1166 (Richmond office)",
    "rating": 4.0,
    "reviews": 25,
    "website": "https://www.mcguirewoods.com/locations/richmond",
    "category": "Bengali-speaking Mergers and Acquisitions law in Virginia",
    "description": "A preeminent firm with deep roots in Richmond, regularly handling complex M&A transactions and providing day-to-day business advice",
    "hours": "Mon-Fri 9AM-6PM",
    "services": [
      "Bengali-speaking Mergers and Acquisitions law in Virginia consultation",
      "Professional service",
      "Quality guarantee"
    ],
    "social_links": {}
  },
  {
    "name": "DLA Piper LLP (US)",
    "address": "Multiple locations, including Reston, VA",
    "phone": "(703) 773-4000 (Reston office)",
    "rating": 4.0,
    "reviews": 25,
    "website": "https://www.dlapiper.com/en/us/locations/reston/",
    "category": "Bengali-speaking Mergers and Acquisitions law in Virginia",
    "description": "A large global law firm with a wide-reaching practice acting for technology and emerging businesses in domestic and cross-border corporate and transactional matters",
    "hours": "Mon-Fri 9AM-6PM",
    "services": [
      "Bengali-speaking Mergers and Acquisitions law in Virginia consultation",
      "Professional service",
      "Quality guarantee"
    ],
    "social_links": {}
  },
  {
    "name": "Holland & Knight LLP",
    "address": "Multiple locations, including Tysons, VA",
    "phone": "(703) 720-8600 (Tysons office)",
    "rating": 4.0,
    "reviews": 25,
    "website": "https://www.hklaw.com/en/locations/tysons-virginia/",
    "category": "Bengali-speaking Mergers and Acquisitions law in Virginia",
    "description": "A global law firm known for its practical approach and personalized solutions, with a strong corporate and M&A practice",
    "hours": "Mon-Fri 9AM-6PM",
    "services": [
      "Bengali-speaking Mergers and Acquisitions law in Virginia consultation",
      "Professional service",
      "Quality guarantee"
    ],
    "social_links": {}
  },
  {
    "name": "Greenberg Traurig, LLP",
    "address": "Multiple locations, including McLean, VA",
    "phone": "(703) 749-1300 (McLean office)",
    "rating": 4.0,
    "reviews": 25,
    "website": "https://www.gtlaw.com/en/locations/mclean-virginia",
    "category": "Bengali-speaking Mergers and Acquisitions law in Virginia",
    "description": "A global law firm with an established corporate practice frequently advising public and private companies on strategic transactions, including M&A",
    "hours": "Mon-Fri 9AM-6PM",
    "services": [
      "Bengali-speaking Mergers and Acquisitions law in Virginia consultation",
      "Professional service",
      "Quality guarantee"
    ],
    "social_links": {}
  },
  {
    "name": "Cooley LLP",
    "address": "Not explicitly listed for Virginia, but has a strong national presence in M&A",
    "phone": "",
    "rating": 4.0,
    "reviews": 25,
    "website": "https://www.cooley.com/",
    "category": "Bengali-speaking Mergers and Acquisitions law in Virginia",
    "description": "Known for its market-leading practice excelling in venture capital financing and growth equity transactions, also handling M&A",
    "hours": "Mon-Fri 9AM-6PM",
    "services": [
      "Bengali-speaking Mergers and Acquisitions law in Virginia consultation",
      "Professional service",
      "Quality guarantee"
    ],
    "social_links": {}
  },
  {
    "name": "Shulman Rogers",
    "address": "Potomac, MD (serves VA clients)",
    "phone": "(301) 230-5200",
    "rating": 4.0,
    "reviews": 25,
    "website": "https://www.shulmanrogers.com/",
    "category": "Bengali-speaking Mergers and Acquisitions law in Virginia",
    "description": "Offers experienced M&A attorneys for public and private entities, with a strong track record in M&A transactions",
    "hours": "Mon-Fri 9AM-6PM",
    "services": [
      "Bengali-speaking Mergers and Acquisitions law in Virginia consultation",
      "Professional service",
      "Quality guarantee"
    ],
    "social_links": {}
  },
  {
    "name": "Williams Mullen",
    "address": "Multiple locations, including Richmond, VA",
    "phone": "(804) 697-2000 (Richmond office)",
    "rating": 4.0,
    "reviews": 25,
    "website": "https://www.williamsmullen.com/",
    "category": "Bengali-speaking Mergers and Acquisitions law in Virginia",
    "description": "Houses a notable team well-versed in M&A, corporate restructurings, and buyouts, with a strong track record for publicly traded companies",
    "hours": "Mon-Fri 9AM-6PM",
    "services": [
      "Bengali-speaking Mergers and Acquisitions law in Virginia consultation",
      "Professional service",
      "Quality guarantee"
    ],
    "social_links": {}
  },
  {
    "name": "Hirschler",
    "address": "Multiple locations, including Richmond, VA",
    "phone": "(804) 697-3600 (Richmond office)",
    "rating": 4.0,
    "reviews": 25,
    "website": "https://www.hirschler.com/",
    "category": "Bengali-speaking Mergers and Acquisitions law in Virginia",
    "description": "Has a broad midmarket-focused corporate practice recommended for its M&A work, with a core focus on private company and middle-market transactions",
    "hours": "Mon-Fri 9AM-6PM",
    "services": [
      "Bengali-speaking Mergers and Acquisitions law in Virginia consultation",
      "Professional service",
      "Quality guarantee"
    ],
    "social_links": {}
  },
  {
    "name": "Goodman Allen Donnelly",
    "address": "Richmond, VA",
    "phone": "(804) 698-2500",
    "rating": 4.0,
    "reviews": 25,
    "website": "https://www.goodmanallen.com/",
    "category": "Bengali-speaking Mergers and Acquisitions law in Virginia",
    "description": "Richmond M&A attorneys knowledgeable in all areas of M&A and general acquisitions law, including leveraged buyouts and company reorganizations",
    "hours": "Mon-Fri 9AM-6PM",
    "services": [
      "Bengali-speaking Mergers and Acquisitions law in Virginia consultation",
      "Professional service",
      "Quality guarantee"
    ],
    "social_links": {}
  }
]