[
  {
    "name": "5W Public Relations",
    "address": "60 Madison Ave., New York, NY 10010",
    "phone": "(212) 994-4070",
    "rating": 4.5,
    "reviews": 25,
    "website": "https://www.5wpr.com/",
    "category": "Arabic-speaking Public relations in New-York",
    "description": "A full-service PR agency with a global reach, working with a diverse range of clients",
    "hours": "Mon-Fri 9AM-6PM",
    "services": [
      "Arabic-speaking Public relations in New-York consultation",
      "Professional service",
      "Quality guarantee"
    ],
    "social_links": {}
  },
  {
    "name": "Crenshaw Communications",
    "address": "150 E 52nd St, New York, NY 10022",
    "phone": "(212) 365-2600",
    "rating": 4.8,
    "reviews": 25,
    "website": "https://crenshawcomm.com/",
    "category": "Arabic-speaking Public relations in New-York",
    "description": "A leading public relations firm known for its creative business communications, with a focus on technology and consumer products",
    "hours": "Mon-Fri 9AM-6PM",
    "services": [
      "Arabic-speaking Public relations in New-York consultation",
      "Professional service",
      "Quality guarantee"
    ],
    "social_links": {}
  },
  {
    "name": "Channel V Media",
    "address": "112 W 34th St, New York, NY 10120",
    "phone": "(646) 770-7177",
    "rating": 5.0,
    "reviews": 25,
    "website": "https://channelvmedia.com/",
    "category": "Arabic-speaking Public relations in New-York",
    "description": "A premier public relations firm specializing in corporate communications and media relations, known for innovative approaches",
    "hours": "Mon-Fri 9AM-6PM",
    "services": [
      "Arabic-speaking Public relations in New-York consultation",
      "Professional service",
      "Quality guarantee"
    ],
    "social_links": {}
  },
  {
    "name": "RLM PR",
    "address": "150 E 52nd St, New York, NY 10022",
    "phone": "(212) 534-7171",
    "rating": 4.0,
    "reviews": 25,
    "website": "https://rlmpr.com/",
    "category": "Arabic-speaking Public relations in New-York",
    "description": "A New York City-based PR firm focused on creating news and driving results through a relentless approach",
    "hours": "Mon-Fri 9AM-6PM",
    "services": [
      "Arabic-speaking Public relations in New-York consultation",
      "Professional service",
      "Quality guarantee"
    ],
    "social_links": {}
  },
  {
    "name": "Magrino Public Relations",
    "address": "150 E 52nd St, 10th Fl, New York, NY 10022",
    "phone": "(212) 219-0100",
    "rating": 4.0,
    "reviews": 25,
    "website": "https://www.magrinopr.com/",
    "category": "Arabic-speaking Public relations in New-York",
    "description": "A full-channel communications agency specializing in lifestyle branding and strategic communications",
    "hours": "Mon-Fri 9AM-6PM",
    "services": [
      "Arabic-speaking Public relations in New-York consultation",
      "Professional service",
      "Quality guarantee"
    ],
    "social_links": {}
  },
  {
    "name": "BPM-PR Firm",
    "address": "112 W 34th St, New York, NY 10120",
    "phone": "(646) 770-7177",
    "rating": 4.0,
    "reviews": 25,
    "website": "https://bpm-pr.com/",
    "category": "Arabic-speaking Public relations in New-York",
    "description": "A top-tier public relations agency known for generating earned media and strategic brand storytelling",
    "hours": "Mon-Fri 9AM-6PM",
    "services": [
      "Arabic-speaking Public relations in New-York consultation",
      "Professional service",
      "Quality guarantee"
    ],
    "social_links": {}
  },
  {
    "name": "Puder PR",
    "address": "112 W 34th St, New York, NY 10120",
    "phone": "(212) 584-7545",
    "rating": 4.0,
    "reviews": 25,
    "website": "https://www.puderpr.com/",
    "category": "Arabic-speaking Public relations in New-York",
    "description": "A full-service public relations and advertising firm offering media, marketing, branding, and communications services with a global reach",
    "hours": "Mon-Fri 9AM-6PM",
    "services": [
      "Arabic-speaking Public relations in New-York consultation",
      "Professional service",
      "Quality guarantee"
    ],
    "social_links": {}
  },
  {
    "name": "Ruder Finn",
    "address": "120 Park Ave, New York, NY 10017",
    "phone": "(212) 583-2743",
    "rating": 4.0,
    "reviews": 25,
    "website": "https://www.ruderfinn.com/",
    "category": "Arabic-speaking Public relations in New-York",
    "description": "A global PR firm with expertise in healthcare and technology, known for media relations and thought leadership",
    "hours": "Mon-Fri 9AM-6PM",
    "services": [
      "Arabic-speaking Public relations in New-York consultation",
      "Professional service",
      "Quality guarantee"
    ],
    "social_links": {}
  },
  {
    "name": "Allison+Partners",
    "address": "120 W 45th St, New York, NY 10036",
    "phone": "(212) 681-1400",
    "rating": 4.0,
    "reviews": 25,
    "website": "https://www.allisonpr.com/",
    "category": "Arabic-speaking Public relations in New-York",
    "description": "A global PR agency excelling at creative storytelling and brand voice, with a blend of global and local expertise",
    "hours": "Mon-Fri 9AM-6PM",
    "services": [
      "Arabic-speaking Public relations in New-York consultation",
      "Professional service",
      "Quality guarantee"
    ],
    "social_links": {}
  },
  {
    "name": "Workhouse",
    "address": "112 W 34th St, Suite 1100, New York, NY 10120",
    "phone": "(212) 645-2400",
    "rating": 4.0,
    "reviews": 25,
    "website": "https://workhousepr.com/",
    "category": "Arabic-speaking Public relations in New-York",
    "description": "A PR agency focused on crafting campaigns that resonate across cultures and connecting brands with global aspirations",
    "hours": "Mon-Fri 9AM-6PM",
    "services": [
      "Arabic-speaking Public relations in New-York consultation",
      "Professional service",
      "Quality guarantee"
    ],
    "social_links": {}
  }
]