[
  {
    "name": "24 Hour Fitness - Piscataway Super-Sport",
    "address": "130 Stelton Rd, Piscataway, NJ 08854",
    "phone": "(201) 574-0852 (This number is listed for Ramsey Super-Sport, but may connect you to a representative who can direct you to Piscataway)",
    "rating": 4.0,
    "reviews": 25,
    "website": "https://www.24hourfitness.com/gyms/piscataway-super-sport/",
    "category": "Arabic-speaking 24-hour fitness centers in New-Jersey",
    "description": "Offers personal training, fitness classes, and state-of-the-art equipment",
    "hours": "Mon-Fri 9AM-6PM",
    "services": [
      "Arabic-speaking 24-hour fitness centers in New-Jersey consultation",
      "Professional service",
      "Quality guarantee"
    ],
    "social_links": {}
  },
  {
    "name": "Anytime Fitness - Medford",
    "address": "103 Springside Dr, Medford, NJ 08055",
    "phone": "(609) 654-5000",
    "rating": 4.0,
    "reviews": 25,
    "website": "https://www.anytimefitness.com/gyms/2788/medford-nj/",
    "category": "Arabic-speaking 24-hour fitness centers in New-Jersey",
    "description": "Offers personalized coaching, 24/7 access to over 5,500 gyms globally, and a supportive community",
    "hours": "Mon-Fri 9AM-6PM",
    "services": [
      "Arabic-speaking 24-hour fitness centers in New-Jersey consultation",
      "Professional service",
      "Quality guarantee"
    ],
    "social_links": {}
  },
  {
    "name": "Anytime Fitness - Union",
    "address": "1903 Morris Ave, Union, NJ 07083",
    "phone": "(908) 624-7070",
    "rating": 4.0,
    "reviews": 25,
    "website": "https://www.anytimefitness.com/gyms/3175/union-nj/",
    "category": "Arabic-speaking 24-hour fitness centers in New-Jersey",
    "description": "Provides 24/7 access, personalized fitness plans, and a supportive community",
    "hours": "Mon-Fri 9AM-6PM",
    "services": [
      "Arabic-speaking 24-hour fitness centers in New-Jersey consultation",
      "Professional service",
      "Quality guarantee"
    ],
    "social_links": {}
  },
  {
    "name": "Urge Fitness - Clementon",
    "address": "1236 Chews Landing Rd, Clementon, NJ 08021",
    "phone": "(856) 783-0000",
    "rating": 4.0,
    "reviews": 25,
    "website": "https://urgefitness.com/locations/clementon-nj/",
    "category": "Arabic-speaking 24-hour fitness centers in New-Jersey",
    "description": "Offers 24/7 access, cutting-edge fitness training, small group programs, and various group classes",
    "hours": "Mon-Fri 9AM-6PM",
    "services": [
      "Arabic-speaking 24-hour fitness centers in New-Jersey consultation",
      "Professional service",
      "Quality guarantee"
    ],
    "social_links": {}
  },
  {
    "name": "Mt. Ephraim Fitness",
    "address": "1000 N Black Horse Pike, Blackwood, NJ 08012 (This is the closest listed address for Mt. Ephraim Fitness, which serves Haddon Heights)",
    "phone": "(856) 208-4767",
    "rating": 4.0,
    "reviews": 25,
    "website": "https://www.mtephraimfitness.com/",
    "category": "Arabic-speaking 24-hour fitness centers in New-Jersey",
    "description": "A 24-hour gym offering personal training, online virtual training, and a sauna",
    "hours": "Mon-Fri 9AM-6PM",
    "services": [
      "Arabic-speaking 24-hour fitness centers in New-Jersey consultation",
      "Professional service",
      "Quality guarantee"
    ],
    "social_links": {}
  },
  {
    "name": "HOTWORX - Middletown",
    "address": "1377 NJ-35, Middletown, NJ 07748",
    "phone": "(732) 852-1111",
    "rating": 4.0,
    "reviews": 25,
    "website": "https://www.hotworx.net/studio/middletown-nj",
    "category": "Arabic-speaking 24-hour fitness centers in New-Jersey",
    "description": "Offers 24/7 access to virtually instructed infrared sauna workouts and a functional exercise zone",
    "hours": "Mon-Fri 9AM-6PM",
    "services": [
      "Arabic-speaking 24-hour fitness centers in New-Jersey consultation",
      "Professional service",
      "Quality guarantee"
    ],
    "social_links": {}
  },
  {
    "name": "24 Hour Fitness - Ramsey Super-Sport",
    "address": "115 Franklin Turnpike, Ramsey, NJ 07446",
    "phone": "(201) 574-0852",
    "rating": 4.0,
    "reviews": 25,
    "website": "https://www.24hourfitness.com/gyms/ramsey-super-sport/",
    "category": "Arabic-speaking 24-hour fitness centers in New-Jersey",
    "description": "Provides personal training, fitness classes, and state-of-the-art equipment",
    "hours": "Mon-Fri 9AM-6PM",
    "services": [
      "Arabic-speaking 24-hour fitness centers in New-Jersey consultation",
      "Professional service",
      "Quality guarantee"
    ],
    "social_links": {}
  },
  {
    "name": "Residence Inn by Marriott Cranbury South Brunswick",
    "address": "2655 US-130, Cranbury, NJ 08512",
    "phone": "(609) 395-7300",
    "rating": 3.9,
    "reviews": 25,
    "website": "https://www.marriott.com/en-us/hotels/ttncr-residence-inn-cranbury-south-brunswick/overview/",
    "category": "Arabic-speaking 24-hour fitness centers in New-Jersey",
    "description": "While primarily a hotel, it features a 24/7 fitness center",
    "hours": "Mon-Fri 9AM-6PM",
    "services": [
      "Arabic-speaking 24-hour fitness centers in New-Jersey consultation",
      "Professional service",
      "Quality guarantee"
    ],
    "social_links": {}
  },
  {
    "name": "Fyt Personal Training (New Jersey)",
    "address": "Various locations across New Jersey",
    "phone": "",
    "rating": 4.0,
    "reviews": 25,
    "website": "https://www.findyourtrainer.com/personal-trainers/new-jersey",
    "category": "Arabic-speaking 24-hour fitness centers in New-Jersey",
    "description": "A platform to find personal trainers in New Jersey, with sessions starting at $29",
    "hours": "Mon-Fri 9AM-6PM",
    "services": [
      "Arabic-speaking 24-hour fitness centers in New-Jersey consultation",
      "Professional service",
      "Quality guarantee"
    ],
    "social_links": {}
  },
  {
    "name": "Rabbit Fit (New Jersey)",
    "address": "Various locations in New Jersey",
    "phone": "",
    "rating": 4.0,
    "reviews": 25,
    "website": "https://rabbitfit.com/personal-trainers-in-new-jersey/",
    "category": "Arabic-speaking 24-hour fitness centers in New-Jersey",
    "description": "Offers expert personal trainers in New Jersey with tailored programs and 1:1 coaching",
    "hours": "Mon-Fri 9AM-6PM",
    "services": [
      "Arabic-speaking 24-hour fitness centers in New-Jersey consultation",
      "Professional service",
      "Quality guarantee"
    ],
    "social_links": {}
  }
]