[
  {
    "name": "Alabama Center for Oral Surgery & Dental Implants",
    "address": "1427 W Main St, Dothan, AL 36301",
    "phone": "(334) 793-0737",
    "rating": 4.0,
    "reviews": 25,
    "website": "https://www.alabamaoralsurgery.com/",
    "category": "Christian-owned Dental implants in Alabama",
    "description": "Offers expert care in dental implants, wisdom teeth removal, bone grafting, and full-arch restoration",
    "hours": "Mon-Fri 9AM-6PM",
    "services": [
      "Christian-owned Dental implants in Alabama consultation",
      "Professional service",
      "Quality guarantee"
    ],
    "social_links": {}
  },
  {
    "name": "Bay Area Oral Surgery",
    "address": "1010 N. Baylen Street, Suite 100, Mobile, AL 36604",
    "phone": "(251) 344-6191",
    "rating": 4.0,
    "reviews": 25,
    "website": "https://www.bayareaoralsurgery.com/",
    "category": "Christian-owned Dental implants in Alabama",
    "description": "Specializes in All-on-4 dental implants and other restorative solutions for missing teeth",
    "hours": "Mon-Fri 9AM-6PM",
    "services": [
      "Christian-owned Dental implants in Alabama consultation",
      "Professional service",
      "Quality guarantee"
    ],
    "social_links": {}
  },
  {
    "name": "Birmingham Dental Implant Studio",
    "address": "5024 Pinnacle Square, Suite 116, Birmingham, AL 35235",
    "phone": "(205) 539-5045",
    "rating": 4.0,
    "reviews": 25,
    "website": "https://www.bhamdentalimplants.com/",
    "category": "Christian-owned Dental implants in Alabama",
    "description": "Offers affordable dental implants with a focus on in-house procedures for quality and cost-effectiveness",
    "hours": "Mon-Fri 9AM-6PM",
    "services": [
      "Christian-owned Dental implants in Alabama consultation",
      "Professional service",
      "Quality guarantee"
    ],
    "social_links": {}
  },
  {
    "name": "Bluff Park Dental",
    "address": "567 Shades Crest Rd SW, Hoover, AL 35226",
    "phone": "(205) 822-7822",
    "rating": 4.0,
    "reviews": 25,
    "website": "https://www.bluffparkdental.com/",
    "category": "Christian-owned Dental implants in Alabama",
    "description": "Specializes in dental implants for a permanent, natural-looking solution to restore smiles and confidence, offering bone grafting if needed",
    "hours": "Mon-Fri 9AM-6PM",
    "services": [
      "Christian-owned Dental implants in Alabama consultation",
      "Professional service",
      "Quality guarantee"
    ],
    "social_links": {}
  },
  {
    "name": "Divine Smiles Cosmetic and Implant Dentistry",
    "address": "3140 Overton Rd, Mountain Brook, AL 35223",
    "phone": "(205) 927-0047",
    "rating": 4.0,
    "reviews": 25,
    "website": "https://www.divinesmilesal.com/",
    "category": "Christian-owned Dental implants in Alabama",
    "description": "Offers advanced cosmetic and implant dentistry with a personalized experience rooted in Christian values",
    "hours": "Mon-Fri 9AM-6PM",
    "services": [
      "Christian-owned Dental implants in Alabama consultation",
      "Professional service",
      "Quality guarantee"
    ],
    "social_links": {}
  },
  {
    "name": "Dothan Smiles Dentistry",
    "address": "3005 Fortner St, Dothan, AL 36305",
    "phone": "(334) 793-0737",
    "rating": 4.0,
    "reviews": 25,
    "website": "https://www.dothansmiles.com/",
    "category": "Christian-owned Dental implants in Alabama",
    "description": "Provides expert dental implant care using advanced technology like 3D imaging and offers options including All-on-X and bone grafting",
    "hours": "Mon-Fri 9AM-6PM",
    "services": [
      "Christian-owned Dental implants in Alabama consultation",
      "Professional service",
      "Quality guarantee"
    ],
    "social_links": {}
  },
  {
    "name": "Flint River Dental",
    "address": "2130 Winchester Rd NE Suite D, Huntsville, AL 35811",
    "phone": "(256) 269-2954",
    "rating": 4.0,
    "reviews": 25,
    "website": "https://www.flintriverdental.com/",
    "category": "Christian-owned Dental implants in Alabama",
    "description": "Offers state-of-the-art dental implants, considered the gold standard for tooth replacement, providing a permanent solution",
    "hours": "Mon-Fri 9AM-6PM",
    "services": [
      "Christian-owned Dental implants in Alabama consultation",
      "Professional service",
      "Quality guarantee"
    ],
    "social_links": {}
  },
  {
    "name": "Hollon Dental",
    "address": "2004 Airport Blvd, Mobile, AL 36606",
    "phone": "(251) 479-7100",
    "rating": 4.0,
    "reviews": 25,
    "website": "https://www.hollondental.com/",
    "category": "Christian-owned Dental implants in Alabama",
    "description": "Offers advanced options in dental implants for replacing missing teeth, utilizing the latest technology for a fully digital workflow",
    "hours": "Mon-Fri 9AM-6PM",
    "services": [
      "Christian-owned Dental implants in Alabama consultation",
      "Professional service",
      "Quality guarantee"
    ],
    "social_links": {}
  },
  {
    "name": "Innovation Family Dental",
    "address": "1702 E University Dr, Auburn, AL 36830",
    "phone": "(334) 821-5291",
    "rating": 4.0,
    "reviews": 25,
    "website": "https://www.innovationfamilydental.com/",
    "category": "Christian-owned Dental implants in Alabama",
    "description": "A local dental practice offering general and cosmetic dentistry, including implants, with a focus on personalized care",
    "hours": "Mon-Fri 9AM-6PM",
    "services": [
      "Christian-owned Dental implants in Alabama consultation",
      "Professional service",
      "Quality guarantee"
    ],
    "social_links": {}
  },
  {
    "name": "Koplon Implant & Family Dentistry",
    "address": "1005 W Grand Ave, Gadsden, AL 35901",
    "phone": "(256) 680-3497",
    "rating": 4.0,
    "reviews": 25,
    "website": "https://www.koplon.com/",
    "category": "Christian-owned Dental implants in Alabama",
    "description": "Specializes in cosmetic restoration and dental implants, offering services like All-on-4 and Teeth in a Day procedures",
    "hours": "Mon-Fri 9AM-6PM",
    "services": [
      "Christian-owned Dental implants in Alabama consultation",
      "Professional service",
      "Quality guarantee"
    ],
    "social_links": {}
  }
]