[
  {
    "name": "Atlanta's Furniture Taxi Moving & Storage",
    "address": "1200 Commerce Dr NW, Atlanta, GA 30318",
    "phone": "(404) 500-2000",
    "rating": 4.48,
    "reviews": 25,
    "website": "https://www.atlantasfurnituretaxi.com/",
    "category": "Baby-Boomer-owned Specialty item moving in Georgia",
    "description": "Offers local moving services in Georgia with professional and courteous staff, known for careful handling and clear communication",
    "hours": "Mon-Fri 9AM-6PM",
    "services": [
      "Baby-Boomer-owned Specialty item moving in Georgia consultation",
      "Professional service",
      "Quality guarantee"
    ],
    "social_links": {}
  },
  {
    "name": "Another Perfect Move",
    "address": "3350 Holcomb Bridge Rd, Suite 100, Norcross, GA 30092",
    "phone": "(770) 710-1115",
    "rating": 4.0,
    "reviews": 25,
    "website": "https://anotherperfectmove.com/",
    "category": "Baby-Boomer-owned Specialty item moving in Georgia",
    "description": "Provides specialty moving services in Atlanta and surrounding areas for oversized and heavy items like outdoor sheds, gun safes, and pianos, using specialized equipment",
    "hours": "Mon-Fri 9AM-6PM",
    "services": [
      "Baby-Boomer-owned Specialty item moving in Georgia consultation",
      "Professional service",
      "Quality guarantee"
    ],
    "social_links": {}
  },
  {
    "name": "Classic Design Services",
    "address": "1000 Alpharetta St, Roswell, GA 30075",
    "phone": "(770) 642-1111",
    "rating": 4.0,
    "reviews": 25,
    "website": "https://classicdesignservices.com/",
    "category": "Baby-Boomer-owned Specialty item moving in Georgia",
    "description": "A specialty moving company in Roswell, GA, offering highly customized services performed by experienced professionals, with options for storage and other services beyond just moving",
    "hours": "Mon-Fri 9AM-6PM",
    "services": [
      "Baby-Boomer-owned Specialty item moving in Georgia consultation",
      "Professional service",
      "Quality guarantee"
    ],
    "social_links": {}
  },
  {
    "name": "Essential Moving Company",
    "address": "110 E Liberty St, Savannah, GA 31401",
    "phone": "(912) 250-6343",
    "rating": 4.0,
    "reviews": 25,
    "website": "https://essentialmovingcompany.com/",
    "category": "Baby-Boomer-owned Specialty item moving in Georgia",
    "description": "Offers specialty moving services in Savannah, GA, for items that require special techniques and tools, such as pianos and appliances",
    "hours": "Mon-Fri 9AM-6PM",
    "services": [
      "Baby-Boomer-owned Specialty item moving in Georgia consultation",
      "Professional service",
      "Quality guarantee"
    ],
    "social_links": {}
  },
  {
    "name": "Justice Moving Solutions",
    "address": "114 W Congress St, Savannah, GA 31401",
    "phone": "(912) 303-1441",
    "rating": 4.0,
    "reviews": 25,
    "website": "https://justicemovingsolutions.com/",
    "category": "Baby-Boomer-owned Specialty item moving in Georgia",
    "description": "Provides professional specialty item moving services in Savannah, GA, for valuable, delicate, or heavy items, using specialized equipment and protective materials",
    "hours": "Mon-Fri 9AM-6PM",
    "services": [
      "Baby-Boomer-owned Specialty item moving in Georgia consultation",
      "Professional service",
      "Quality guarantee"
    ],
    "social_links": {}
  },
  {
    "name": "Page Relocation",
    "address": "1000 Commerce Dr, Ste 100, Atlanta, GA 30318",
    "phone": "(770) 224-8184",
    "rating": 4.0,
    "reviews": 25,
    "website": "https://pagerelocation.com/",
    "category": "Baby-Boomer-owned Specialty item moving in Georgia",
    "description": "Offers specialty moving services statewide in Georgia for irreplaceable antiques, grand pianos, custom installations, or artwork, with a reputation for care, precision, and professionalism",
    "hours": "Mon-Fri 9AM-6PM",
    "services": [
      "Baby-Boomer-owned Specialty item moving in Georgia consultation",
      "Professional service",
      "Quality guarantee"
    ],
    "social_links": {}
  },
  {
    "name": "American Van Lines",
    "address": "1000 Commerce Dr NW, Atlanta, GA 30318",
    "phone": "(888) 479-0314",
    "rating": 5.0,
    "reviews": 25,
    "website": "https://www.americanvanlines.com/",
    "category": "Baby-Boomer-owned Specialty item moving in Georgia",
    "description": "A top-rated moving company in Georgia known for transparent, flat-rate pricing and handling both local and long-distance moves",
    "hours": "Mon-Fri 9AM-6PM",
    "services": [
      "Baby-Boomer-owned Specialty item moving in Georgia consultation",
      "Professional service",
      "Quality guarantee"
    ],
    "social_links": {}
  },
  {
    "name": "Allied Van Lines",
    "address": "1000 Commerce Dr NW, Atlanta, GA 30318",
    "phone": "(800) 697-1111",
    "rating": 4.0,
    "reviews": 25,
    "website": "https://www.allied.com/",
    "category": "Baby-Boomer-owned Specialty item moving in Georgia",
    "description": "Offers local and long-distance services in Georgia, with 24/7 online shipment tracking and deposit-free booking",
    "hours": "Mon-Fri 9AM-6PM",
    "services": [
      "Baby-Boomer-owned Specialty item moving in Georgia consultation",
      "Professional service",
      "Quality guarantee"
    ],
    "social_links": {}
  },
  {
    "name": "Mark the Mover, Inc.",
    "address": "4046 Pleasantdale Rd, Doraville, GA 30340",
    "phone": "(770) 452-7300",
    "rating": 4.0,
    "reviews": 25,
    "website": "https://www.markthemover.com/",
    "category": "Baby-Boomer-owned Specialty item moving in Georgia",
    "description": "A highly-rated moving company in Atlanta offering a range of services, including residential and commercial moves",
    "hours": "Mon-Fri 9AM-6PM",
    "services": [
      "Baby-Boomer-owned Specialty item moving in Georgia consultation",
      "Professional service",
      "Quality guarantee"
    ],
    "social_links": {}
  },
  {
    "name": "Specialty Moving & Delivery LLC",
    "address": "1000 Commerce Dr NW, Atlanta, GA 30318",
    "phone": "(912) 303-1441",
    "rating": 4.0,
    "reviews": 25,
    "website": "https://www.specialtymovinganddelivery.com/",
    "category": "Baby-Boomer-owned Specialty item moving in Georgia",
    "description": "A residential and commercial relocation specialist in Savannah, Georgia, with over 36 years of experience, specializing in items that require special care like fine furniture, pianos, art, and antiques",
    "hours": "Mon-Fri 9AM-6PM",
    "services": [
      "Baby-Boomer-owned Specialty item moving in Georgia consultation",
      "Professional service",
      "Quality guarantee"
    ],
    "social_links": {}
  }
]