[
  {
    "name": "Truck Authority - Omaha",
    "address": "11268 Richland Drive, Omaha, NE 68138",
    "phone": "(402) 505-5333",
    "rating": 4.8,
    "reviews": 25,
    "website": "https://www.truckauthorityomaha.com/",
    "category": "Mexican-American-owned Bed liner installation in Nebraska",
    "description": "Offers a wide range of truck accessories, including bedliners, undercoating, suspension, and drivetrain services. They also provide protective coating solutions for commercial and industrial applications",
    "hours": "Mon-Fri 9AM-6PM",
    "services": [
      "Mexican-American-owned Bed liner installation in Nebraska consultation",
      "Professional service",
      "Quality guarantee"
    ],
    "social_links": {}
  },
  {
    "name": "MC Customs Truck Accessories",
    "address": "6520 N 56th St Ste 5, Lincoln, NE 68504",
    "phone": "(402) 438-0000",
    "rating": 4.7,
    "reviews": 25,
    "website": "https://mccustoms.com/",
    "category": "Mexican-American-owned Bed liner installation in Nebraska",
    "description": "Specializes in truck accessories in Lincoln, NE, including sales and installation of lift kits, bed liners, wheels, tires, and more for trucks, SUVs, and Jeeps",
    "hours": "Mon-Fri 9AM-6PM",
    "services": [
      "Mexican-American-owned Bed liner installation in Nebraska consultation",
      "Professional service",
      "Quality guarantee"
    ],
    "social_links": {}
  },
  {
    "name": "Truck Authority - Lincoln",
    "address": "7200 S 13th St, Lincoln, NE 68512",
    "phone": "(402) 420-0333",
    "rating": 4.5,
    "reviews": 25,
    "website": "https://www.truckauthoritylincoln.com/",
    "category": "Mexican-American-owned Bed liner installation in Nebraska",
    "description": "A local leader in truck accessories in Lincoln, NE, specializing in spray-on bedliners, tonneau covers, and undercoating. They offer a lifetime warranty on most products",
    "hours": "Mon-Fri 9AM-6PM",
    "services": [
      "Mexican-American-owned Bed liner installation in Nebraska consultation",
      "Professional service",
      "Quality guarantee"
    ],
    "social_links": {}
  },
  {
    "name": "Sharp Image",
    "address": "1101 Fort Crook Rd N, Bellevue, NE 68005",
    "phone": "(402) 292-0000",
    "rating": 4.9,
    "reviews": 25,
    "website": "https://sharpimageonline.com/",
    "category": "Mexican-American-owned Bed liner installation in Nebraska",
    "description": "Provides expertly installed bed liners designed to safeguard truck beds from scratches, dents, and wear, enhancing both protection and appearance. They offer custom solutions for various truck models",
    "hours": "Mon-Fri 9AM-6PM",
    "services": [
      "Mexican-American-owned Bed liner installation in Nebraska consultation",
      "Professional service",
      "Quality guarantee"
    ],
    "social_links": {}
  },
  {
    "name": "Ultimate Truck Off Road",
    "address": "13202 S 370 Hwy, Omaha, NE 68137",
    "phone": "(402) 895-9100",
    "rating": 4.7,
    "reviews": 25,
    "website": "https://ultimatetruckoffroad.com/",
    "category": "Mexican-American-owned Bed liner installation in Nebraska",
    "description": "Omaha's largest and longest-running 4x4 parts and accessory business, offering customization for trucks, Jeeps, and SUVs, including bed liners",
    "hours": "Mon-Fri 9AM-6PM",
    "services": [
      "Mexican-American-owned Bed liner installation in Nebraska consultation",
      "Professional service",
      "Quality guarantee"
    ],
    "social_links": {}
  },
  {
    "name": "TORC Motorsports",
    "address": "1202 S 72nd St, Omaha, NE 68124",
    "phone": "(402) 934-7000",
    "rating": 4.8,
    "reviews": 25,
    "website": "https://torcmotorsports.com/",
    "category": "Mexican-American-owned Bed liner installation in Nebraska",
    "description": "Offers restoration and customization services for specialty vehicles, including auto body restoration and custom builds. While not exclusively bed liners, they are a comprehensive auto customization shop",
    "hours": "Mon-Fri 9AM-6PM",
    "services": [
      "Mexican-American-owned Bed liner installation in Nebraska consultation",
      "Professional service",
      "Quality guarantee"
    ],
    "social_links": {}
  },
  {
    "name": "Mr. Tintz",
    "address": "3325 S 66th Ave, Omaha, NE 68106",
    "phone": "(402) 399-9292",
    "rating": 4.6,
    "reviews": 25,
    "website": "https://mrtintz.com/",
    "category": "Mexican-American-owned Bed liner installation in Nebraska",
    "description": "Provides professionally-applied spray-on bed liners up to 1/4 inch thick to prevent damage to truck beds. They also offer a military discount",
    "hours": "Mon-Fri 9AM-6PM",
    "services": [
      "Mexican-American-owned Bed liner installation in Nebraska consultation",
      "Professional service",
      "Quality guarantee"
    ],
    "social_links": {}
  },
  {
    "name": "Autographix",
    "address": "10711 Chandler Rd, Suite 300, La Vista, NE 68128",
    "phone": "(531) 359-0000",
    "rating": 4.9,
    "reviews": 25,
    "website": "https://autographixomaha.com/",
    "category": "Mexican-American-owned Bed liner installation in Nebraska",
    "description": "Offers vehicle upgrades and customization, including window tinting, clear bras, auto wraps, and accessories. They provide a comprehensive vehicle customization experience",
    "hours": "Mon-Fri 9AM-6PM",
    "services": [
      "Mexican-American-owned Bed liner installation in Nebraska consultation",
      "Professional service",
      "Quality guarantee"
    ],
    "social_links": {}
  },
  {
    "name": "Patriot Liner (The Dent Popper Inc.)",
    "address": "2215 W 5th St, Kearney, NE 68845",
    "phone": "(308) 234-2444",
    "rating": 4.8,
    "reviews": 25,
    "website": "https://www.dentpopper.com/",
    "category": "Mexican-American-owned Bed liner installation in Nebraska",
    "description": "Specializes in spray-on bedliners, lift kits, truck bed covers, and truck accessories. They are a family-owned business with a nationwide lifetime warranty on truck beds",
    "hours": "Mon-Fri 9AM-6PM",
    "services": [
      "Mexican-American-owned Bed liner installation in Nebraska consultation",
      "Professional service",
      "Quality guarantee"
    ],
    "social_links": {}
  },
  {
    "name": "ReNu Your Auto (Mil+Spec Liner)",
    "address": "1030 N 21st St, Lincoln, NE 68503",
    "phone": "(402) 833-3858",
    "rating": 4.7,
    "reviews": 25,
    "website": "https://renuryourauto.com/",
    "category": "Mexican-American-owned Bed liner installation in Nebraska",
    "description": "Offers Mil+Spec Liner spray-on truck bedliners designed to guard and protect vehicles from various types of wear and tear. They also provide auto detailing and body repair services",
    "hours": "Mon-Fri 9AM-6PM",
    "services": [
      "Mexican-American-owned Bed liner installation in Nebraska consultation",
      "Professional service",
      "Quality guarantee"
    ],
    "social_links": {}
  }
]