[
  {
    "name": "Audio Zoo",
    "address": "4388 Mercer University Dr, Macon, GA 31206",
    "phone": "(478) 477-4321",
    "rating": 4.0,
    "reviews": 25,
    "website": "https://www.audiozooinc.com/",
    "category": "Chinese-speaking Remote start in Georgia",
    "description": "Offers remote start and security systems for vehicles",
    "hours": "Mon-Fri 9AM-6PM",
    "services": [
      "Chinese-speaking Remote start in Georgia consultation",
      "Professional service",
      "Quality guarantee"
    ],
    "social_links": {}
  },
  {
    "name": "Precision Audio & Tint",
    "address": "1019 E Shotwell St, Bainbridge, GA 39819",
    "phone": "(229) 246-1111",
    "rating": 4.0,
    "reviews": 25,
    "website": "https://www.precisionaudioandtint.com/",
    "category": "Chinese-speaking Remote start in Georgia",
    "description": "Specializes in remote car starters, security features, and smartphone control",
    "hours": "Mon-Fri 9AM-6PM",
    "services": [
      "Chinese-speaking Remote start in Georgia consultation",
      "Professional service",
      "Quality guarantee"
    ],
    "social_links": {}
  },
  {
    "name": "Tint World (Alpharetta)",
    "address": "11770 Haynes Bridge Rd, Alpharetta, GA 30009",
    "phone": "(770) 674-1111",
    "rating": 4.0,
    "reviews": 25,
    "website": "https://www.tintworld.com/locations/alpharetta-ga-11770-haynes-bridge-rd/",
    "category": "Chinese-speaking Remote start in Georgia",
    "description": "Offers remote start installations, alarms, and other automotive styling services",
    "hours": "Mon-Fri 9AM-6PM",
    "services": [
      "Chinese-speaking Remote start in Georgia consultation",
      "Professional service",
      "Quality guarantee"
    ],
    "social_links": {}
  },
  {
    "name": "Tint World (Cumming)",
    "address": "1545 Bethelview Rd, Ste 101, Cumming, GA 30040",
    "phone": "(678) 614-7872",
    "rating": 4.0,
    "reviews": 25,
    "website": "https://www.tintworld.com/locations/cumming-ga-1545-bethelview-rd/",
    "category": "Chinese-speaking Remote start in Georgia",
    "description": "Provides car alarm and vehicle security products, including remote car starters",
    "hours": "Mon-Fri 9AM-6PM",
    "services": [
      "Chinese-speaking Remote start in Georgia consultation",
      "Professional service",
      "Quality guarantee"
    ],
    "social_links": {}
  },
  {
    "name": "Model Electronics",
    "address": "165 Route 17, Paramus, NJ 07652 (Note: This appears to be a New Jersey address, but the search results mention Georgia in context of remote start services.)",
    "phone": "(201) 961-1717",
    "rating": 4.0,
    "reviews": 25,
    "website": "https://modelelectronics.com/",
    "category": "Chinese-speaking Remote start in Georgia",
    "description": "Specializes in car remote starts, security, and car alarms",
    "hours": "Mon-Fri 9AM-6PM",
    "services": [
      "Chinese-speaking Remote start in Georgia consultation",
      "Professional service",
      "Quality guarantee"
    ],
    "social_links": {}
  },
  {
    "name": "Tint World (Gainesville)",
    "address": "1015 Dawsonville Hwy, Gainesville, GA 30501",
    "phone": "(770) 532-1111",
    "rating": 4.0,
    "reviews": 25,
    "website": "https://www.tintworld.com/locations/gainesville-ga-1015-dawsonville-hwy/",
    "category": "Chinese-speaking Remote start in Georgia",
    "description": "Offers remote start installation services and other automotive customization",
    "hours": "Mon-Fri 9AM-6PM",
    "services": [
      "Chinese-speaking Remote start in Georgia consultation",
      "Professional service",
      "Quality guarantee"
    ],
    "social_links": {}
  },
  {
    "name": "Tint World (Newnan)",
    "address": "3655 GA-34, Newnan, GA 30265",
    "phone": "(470) 722-1111",
    "rating": 4.0,
    "reviews": 25,
    "website": "https://www.tintworld.com/locations/newnan-ga-3655-ga-34/",
    "category": "Chinese-speaking Remote start in Georgia",
    "description": "Provides expert remote start installation services for vehicles",
    "hours": "Mon-Fri 9AM-6PM",
    "services": [
      "Chinese-speaking Remote start in Georgia consultation",
      "Professional service",
      "Quality guarantee"
    ],
    "social_links": {}
  },
  {
    "name": "SoundProof Custom Car Audio",
    "address": "4670 Atlanta Rd SE, Smyrna, GA 30080",
    "phone": "(770) 435-5500",
    "rating": 4.0,
    "reviews": 25,
    "website": "https://www.soundproofinc.com/",
    "category": "Chinese-speaking Remote start in Georgia",
    "description": "Offers remote start, car alarm installation, and other car audio services",
    "hours": "Mon-Fri 9AM-6PM",
    "services": [
      "Chinese-speaking Remote start in Georgia consultation",
      "Professional service",
      "Quality guarantee"
    ],
    "social_links": {}
  },
  {
    "name": "X-Treem Automotive & Tinting",
    "address": "405 S Main St, Statesboro, GA 30458",
    "phone": "(912) 764-8468",
    "rating": 4.0,
    "reviews": 25,
    "website": "https://www.xtreemautomotive.com/",
    "category": "Chinese-speaking Remote start in Georgia",
    "description": "Premier provider of remote start and security systems in Southeast Georgia",
    "hours": "Mon-Fri 9AM-6PM",
    "services": [
      "Chinese-speaking Remote start in Georgia consultation",
      "Professional service",
      "Quality guarantee"
    ],
    "social_links": {}
  },
  {
    "name": "Tint World (Lawrenceville)",
    "address": "2100 Riverside Pkwy, Ste 105, Lawrenceville, GA 30043",
    "phone": "(770) 277-1111",
    "rating": 4.0,
    "reviews": 25,
    "website": "https://www.tintworld.com/locations/lawrenceville-ga-2100-riverside-pkwy/",
    "category": "Chinese-speaking Remote start in Georgia",
    "description": "Offers Compustar car alarm and security systems, including remote start",
    "hours": "Mon-Fri 9AM-6PM",
    "services": [
      "Chinese-speaking Remote start in Georgia consultation",
      "Professional service",
      "Quality guarantee"
    ],
    "social_links": {}
  }
]