[
  {
    "name": "AC&M Group",
    "address": "10120 Park Central Place, Suite 200, Charlotte, NC 28210",
    "phone": "(704) 374-7200",
    "rating": 4.0,
    "reviews": 25,
    "website": "https://www.acmgroup.tv/",
    "category": "Central-American-owned Public relations in North-Carolina",
    "description": "A full-service marketing agency specializing in culturally relevant campaigns for diverse consumer segments, with a strong focus on the Hispanic market",
    "hours": "Mon-Fri 9AM-6PM",
    "services": [
      "Central-American-owned Public relations in North-Carolina consultation",
      "Professional service",
      "Quality guarantee"
    ],
    "social_links": {}
  },
  {
    "name": "Twin Minds Media",
    "address": "Information not available (operates in US Hispanic and Latin American markets)",
    "phone": "",
    "rating": 4.0,
    "reviews": 25,
    "website": "https://www.twinmindsmedia.com/",
    "category": "Central-American-owned Public relations in North-Carolina",
    "description": "A Latina-founded boutique PR and communications agency serving clients in the US Hispanic and Latin American markets",
    "hours": "Mon-Fri 9AM-6PM",
    "services": [
      "Central-American-owned Public relations in North-Carolina consultation",
      "Professional service",
      "Quality guarantee"
    ],
    "social_links": {}
  },
  {
    "name": "LEPR Agency",
    "address": "1111 E. Morehead St., Suite 120, Charlotte, NC 28204",
    "phone": "(704) 517-0100",
    "rating": 4.0,
    "reviews": 25,
    "website": "https://lepragency.com/",
    "category": "Central-American-owned Public relations in North-Carolina",
    "description": "A Black-owned PR firm specializing in strategic public relations and crisis communications, with a focus on diversity and inclusion",
    "hours": "Mon-Fri 9AM-6PM",
    "services": [
      "Central-American-owned Public relations in North-Carolina consultation",
      "Professional service",
      "Quality guarantee"
    ],
    "social_links": {}
  },
  {
    "name": "S&A Communications",
    "address": "4000 Wake Forest Rd, Suite 500, Raleigh, NC 27609",
    "phone": "(919) 782-7700",
    "rating": 4.0,
    "reviews": 25,
    "website": "https://www.sacommunications.com/",
    "category": "Central-American-owned Public relations in North-Carolina",
    "description": "An award-winning, full-service integrated marketing communications firm with over 35 years of experience in North Carolina",
    "hours": "Mon-Fri 9AM-6PM",
    "services": [
      "Central-American-owned Public relations in North-Carolina consultation",
      "Professional service",
      "Quality guarantee"
    ],
    "social_links": {}
  },
  {
    "name": "Eckel & Vaughan",
    "address": "4321 Lassiter Mill Rd, Suite 200, Raleigh, NC 27609",
    "phone": "(919) 872-0700",
    "rating": 4.0,
    "reviews": 25,
    "website": "https://eckelvaughan.com/",
    "category": "Central-American-owned Public relations in North-Carolina",
    "description": "A full-service strategic communications agency specializing in public affairs, public relations, and marketing",
    "hours": "Mon-Fri 9AM-6PM",
    "services": [
      "Central-American-owned Public relations in North-Carolina consultation",
      "Professional service",
      "Quality guarantee"
    ],
    "social_links": {}
  },
  {
    "name": "919 Marketing",
    "address": "4009 Wake Forest Rd, Suite 101, Raleigh, NC 27609",
    "phone": "(919) 459-5240",
    "rating": 5.0,
    "reviews": 25,
    "website": "https://www.919marketing.com/",
    "category": "Central-American-owned Public relations in North-Carolina",
    "description": "A public relations firm specializing in media relations and press work, known for delivering impactful media coverage",
    "hours": "Mon-Fri 9AM-6PM",
    "services": [
      "Central-American-owned Public relations in North-Carolina consultation",
      "Professional service",
      "Quality guarantee"
    ],
    "social_links": {}
  },
  {
    "name": "Oak & State",
    "address": "333 Fayetteville St, Suite 100, Raleigh, NC 27601",
    "phone": "(919) 800-0300",
    "rating": 4.0,
    "reviews": 25,
    "website": "https://oakandstate.com/",
    "category": "Central-American-owned Public relations in North-Carolina",
    "description": "A full-service communications and public relations company assisting businesses in telling their story through various communication avenues",
    "hours": "Mon-Fri 9AM-6PM",
    "services": [
      "Central-American-owned Public relations in North-Carolina consultation",
      "Professional service",
      "Quality guarantee"
    ],
    "social_links": {}
  },
  {
    "name": "McKeeman Communications",
    "address": "4000 Wake Forest Rd, Suite 500, Raleigh, NC 27609",
    "phone": "(919) 696-7239",
    "rating": 4.0,
    "reviews": 25,
    "website": "https://mckeemancommunications.com/",
    "category": "Central-American-owned Public relations in North-Carolina",
    "description": "An integrated public relations and communications agency specializing in reputation management, marketing, and crisis communications",
    "hours": "Mon-Fri 9AM-6PM",
    "services": [
      "Central-American-owned Public relations in North-Carolina consultation",
      "Professional service",
      "Quality guarantee"
    ],
    "social_links": {}
  },
  {
    "name": "Largemouth Communications",
    "address": "333 Fayetteville St, Suite 100, Raleigh, NC 27601",
    "phone": "(919) 800-0300",
    "rating": 4.0,
    "reviews": 25,
    "website": "https://largemouthcom.com/",
    "category": "Central-American-owned Public relations in North-Carolina",
    "description": "A North Carolina public relations firm focused on helping companies capture market attention through effective communication strategies",
    "hours": "Mon-Fri 9AM-6PM",
    "services": [
      "Central-American-owned Public relations in North-Carolina consultation",
      "Professional service",
      "Quality guarantee"
    ],
    "social_links": {}
  },
  {
    "name": "l\u016bquire",
    "address": "10120 Park Central Place, Suite 200, Charlotte, NC 28210",
    "phone": "(704) 971-9000",
    "rating": 4.0,
    "reviews": 25,
    "website": "https://luquire.com/",
    "category": "Central-American-owned Public relations in North-Carolina",
    "description": "An independent, integrated, full-service marketing agency offering public relations, advertising, and marketing solutions",
    "hours": "Mon-Fri 9AM-6PM",
    "services": [
      "Central-American-owned Public relations in North-Carolina consultation",
      "Professional service",
      "Quality guarantee"
    ],
    "social_links": {}
  }
]