[
  {
    "name": "Hayden Construction Co.",
    "address": "1000 Triplett St, Owensboro, KY 42303",
    "phone": "(270) 684-7221",
    "rating": 4.0,
    "reviews": 25,
    "website": "http://www.haydenconstruction.com/",
    "category": "Buddhist-owned Construction helpers in Kentucky",
    "description": "A full-service general contractor for commercial projects, offering services from planning to completion",
    "hours": "Mon-Fri 9AM-6PM",
    "services": [
      "Buddhist-owned Construction helpers in Kentucky consultation",
      "Professional service",
      "Quality guarantee"
    ],
    "social_links": {}
  },
  {
    "name": "Brett Construction",
    "address": "1030 Nandino Blvd, Lexington, KY 40511",
    "phone": "(859) 233-3333",
    "rating": 4.0,
    "reviews": 25,
    "website": "http://www.brettconstruction.com/",
    "category": "Buddhist-owned Construction helpers in Kentucky",
    "description": "A full-service contracting company specializing in design/build construction projects, structural steel, and pre-engineered buildings",
    "hours": "Mon-Fri 9AM-6PM",
    "services": [
      "Buddhist-owned Construction helpers in Kentucky consultation",
      "Professional service",
      "Quality guarantee"
    ],
    "social_links": {}
  },
  {
    "name": "Long Construction Management",
    "address": "1040 Nandino Blvd, Lexington, KY 40511",
    "phone": "(859) 254-7777",
    "rating": 4.0,
    "reviews": 25,
    "website": "http://www.longconstruction.com/",
    "category": "Buddhist-owned Construction helpers in Kentucky",
    "description": "A full-service construction company, general contractor, design-builder, and construction manager",
    "hours": "Mon-Fri 9AM-6PM",
    "services": [
      "Buddhist-owned Construction helpers in Kentucky consultation",
      "Professional service",
      "Quality guarantee"
    ],
    "social_links": {}
  },
  {
    "name": "Chapman Construction and Concrete Inc.",
    "address": "2100 Triplett St, Owensboro, KY 42303",
    "phone": "(270) 903-6829",
    "rating": 4.0,
    "reviews": 25,
    "website": "http://chapmanconstructionky.com/",
    "category": "Buddhist-owned Construction helpers in Kentucky",
    "description": "Specializes in concrete services, providing quality craftsmanship and reliable service",
    "hours": "Mon-Fri 9AM-6PM",
    "services": [
      "Buddhist-owned Construction helpers in Kentucky consultation",
      "Professional service",
      "Quality guarantee"
    ],
    "social_links": {}
  },
  {
    "name": "Woodbine Construction",
    "address": "1040 Dupont Sq, Louisville, KY 40207",
    "phone": "(502) 895-0200",
    "rating": 4.0,
    "reviews": 25,
    "website": "http://www.woodbineconstruction.com/",
    "category": "Buddhist-owned Construction helpers in Kentucky",
    "description": "A commercial general contractor serving the Louisville, Kentucky area, with services in design, construction management, and customer service",
    "hours": "Mon-Fri 9AM-6PM",
    "services": [
      "Buddhist-owned Construction helpers in Kentucky consultation",
      "Professional service",
      "Quality guarantee"
    ],
    "social_links": {}
  },
  {
    "name": "B&R Construction",
    "address": "1345 Old Frankfort Pike, Lexington, KY 40504",
    "phone": "(859) 254-0111",
    "rating": 4.0,
    "reviews": 25,
    "website": "http://www.brconstructionky.com/",
    "category": "Buddhist-owned Construction helpers in Kentucky",
    "description": "A general contractor and construction management company specializing in commercial and industrial construction and renovations",
    "hours": "Mon-Fri 9AM-6PM",
    "services": [
      "Buddhist-owned Construction helpers in Kentucky consultation",
      "Professional service",
      "Quality guarantee"
    ],
    "social_links": {}
  },
  {
    "name": "Stewart Construction",
    "address": "1090 Nicholasville Rd, Lexington, KY 40503",
    "phone": "(859) 695-2500",
    "rating": 4.0,
    "reviews": 25,
    "website": "http://stewartconstructionky.com/",
    "category": "Buddhist-owned Construction helpers in Kentucky",
    "description": "A commercial and residential construction company offering new home construction, commercial remodeling, and more",
    "hours": "Mon-Fri 9AM-6PM",
    "services": [
      "Buddhist-owned Construction helpers in Kentucky consultation",
      "Professional service",
      "Quality guarantee"
    ],
    "social_links": {}
  },
  {
    "name": "RLM Construction",
    "address": "11100 Westport Rd, Louisville, KY 40245",
    "phone": "(502) 245-0000",
    "rating": 4.0,
    "reviews": 25,
    "website": "http://www.rlmconstruction.com/",
    "category": "Buddhist-owned Construction helpers in Kentucky",
    "description": "A full-service general contractor with in-house architectural services and extensive Design/Build experience",
    "hours": "Mon-Fri 9AM-6PM",
    "services": [
      "Buddhist-owned Construction helpers in Kentucky consultation",
      "Professional service",
      "Quality guarantee"
    ],
    "social_links": {}
  },
  {
    "name": "Messer Construction Co.",
    "address": "10100 Westport Rd, Louisville, KY 40245",
    "phone": "(502) 426-7171",
    "rating": 4.0,
    "reviews": 25,
    "website": "http://www.messer.com/",
    "category": "Buddhist-owned Construction helpers in Kentucky",
    "description": "A construction company specializing in commercial construction throughout the Midwest and Southeast, ranked as the #1 contractor in Kentucky by ENR",
    "hours": "Mon-Fri 9AM-6PM",
    "services": [
      "Buddhist-owned Construction helpers in Kentucky consultation",
      "Professional service",
      "Quality guarantee"
    ],
    "social_links": {}
  },
  {
    "name": "Carrera Construction",
    "address": "1010 Madison Ave, Covington, KY 41011",
    "phone": "(859) 431-0000",
    "rating": 4.0,
    "reviews": 25,
    "website": "http://www.carreraconstruction.com/",
    "category": "Buddhist-owned Construction helpers in Kentucky",
    "description": "Delivers commercial and industrial construction services to business owners, brokers, and developers",
    "hours": "Mon-Fri 9AM-6PM",
    "services": [
      "Buddhist-owned Construction helpers in Kentucky consultation",
      "Professional service",
      "Quality guarantee"
    ],
    "social_links": {}
  }
]