[
  {
    "name": "Village Dermatology Houston",
    "address": "2425 Rice Blvd, Houston, TX 77005",
    "phone": "(713) 850-0220",
    "rating": 4.0,
    "reviews": 25,
    "website": "https://www.villagedermatologyhouston.com/",
    "category": "Bengali-speaking Acne treatments in Texas",
    "description": "Offers comprehensive acne treatment for patients of all ages, including prescription topical or oral medications, skincare products, and in-office procedures",
    "hours": "Mon-Fri 9AM-6PM",
    "services": [
      "Bengali-speaking Acne treatments in Texas consultation",
      "Professional service",
      "Quality guarantee"
    ],
    "social_links": {}
  },
  {
    "name": "Skin Joy Dermatology",
    "address": "9015 Mountain Ridge Drive, Suite 200, Austin, TX 78759",
    "phone": "(512) 312-7552",
    "rating": 4.0,
    "reviews": 25,
    "website": "https://www.natureofskinatx.com/",
    "category": "Bengali-speaking Acne treatments in Texas",
    "description": "Dr. Saya Obayan specializes in treating chronic acne and develops personalized treatment plans",
    "hours": "Mon-Fri 9AM-6PM",
    "services": [
      "Bengali-speaking Acne treatments in Texas consultation",
      "Professional service",
      "Quality guarantee"
    ],
    "social_links": {}
  },
  {
    "name": "Dallas Dermatology Partners",
    "address": "8333 Douglas Ave #100, Dallas, TX 75225",
    "phone": "(214) 631-7546",
    "rating": 4.0,
    "reviews": 25,
    "website": "https://www.dallasdermpartners.com/",
    "category": "Bengali-speaking Acne treatments in Texas",
    "description": "Offers a range of acne treatments, including chemical peels, microneedling, and laser resurfacing for acne scars. Dr. Sonya Jagwani is a dermatologist at this practice who has received positive patient reviews for her acne treatment",
    "hours": "Mon-Fri 9AM-6PM",
    "services": [
      "Bengali-speaking Acne treatments in Texas consultation",
      "Professional service",
      "Quality guarantee"
    ],
    "social_links": {}
  },
  {
    "name": "Dermatology & Laser Surgery Center",
    "address": "1700 Post Oak Blvd #600, Houston, TX 77056",
    "phone": "(713) 900-3900",
    "rating": 4.0,
    "reviews": 25,
    "website": "https://www.dermatologyandlasersurgery.com/",
    "category": "Bengali-speaking Acne treatments in Texas",
    "description": "Provides comprehensive acne treatment for patients of all ethnicities and ages, with a focus on ethnic skin care",
    "hours": "Mon-Fri 9AM-6PM",
    "services": [
      "Bengali-speaking Acne treatments in Texas consultation",
      "Professional service",
      "Quality guarantee"
    ],
    "social_links": {}
  },
  {
    "name": "Bellaire Dermatology",
    "address": "5420 Dashwood Dr, Bellaire, TX 77401",
    "phone": "(713) 661-4383",
    "rating": 4.0,
    "reviews": 25,
    "website": "https://www.bellairedermatology.com/",
    "category": "Bengali-speaking Acne treatments in Texas",
    "description": "Offers a wide range of dermatological treatments, including acne and acne scar treatments, laser therapies, and more",
    "hours": "Mon-Fri 9AM-6PM",
    "services": [
      "Bengali-speaking Acne treatments in Texas consultation",
      "Professional service",
      "Quality guarantee"
    ],
    "social_links": {}
  },
  {
    "name": "RFSA Dermatology",
    "address": "11110 West Ave, San Antonio, TX 78213",
    "phone": "(210) 615-7171",
    "rating": 4.0,
    "reviews": 25,
    "website": "https://www.rfsa.com/",
    "category": "Bengali-speaking Acne treatments in Texas",
    "description": "Offers bespoke skincare plans for acne and other conditions, with a focus on understanding underlying causes and building personalized care plans",
    "hours": "Mon-Fri 9AM-6PM",
    "services": [
      "Bengali-speaking Acne treatments in Texas consultation",
      "Professional service",
      "Quality guarantee"
    ],
    "social_links": {}
  },
  {
    "name": "Stone Oak Dermatology",
    "address": "1401 E Sonterra Blvd #350, San Antonio, TX 78258",
    "phone": "(210) 494-0504",
    "rating": 4.0,
    "reviews": 25,
    "website": "https://www.stoneoakdermatology.com/",
    "category": "Bengali-speaking Acne treatments in Texas",
    "description": "Provides expert acne treatment with a range of options including prescription medications and laser therapy. Dr. Linda J. Banta is a board-certified dermatologist at this practice",
    "hours": "Mon-Fri 9AM-6PM",
    "services": [
      "Bengali-speaking Acne treatments in Texas consultation",
      "Professional service",
      "Quality guarantee"
    ],
    "social_links": {}
  },
  {
    "name": "Sonterra Dermatology",
    "address": "17700 I-10 West, Suite 200, San Antonio, TX 78256",
    "phone": "(210) 255-5000",
    "rating": 4.0,
    "reviews": 25,
    "website": "https://www.sonterradermatology.com/",
    "category": "Bengali-speaking Acne treatments in Texas",
    "description": "Offers various treatment options for acne, including prescription ointments, oral antibiotics, and laser treatments. Dr. Annabelle L. Garcia and Dr. Metzinger are dermatologists at this practice",
    "hours": "Mon-Fri 9AM-6PM",
    "services": [
      "Bengali-speaking Acne treatments in Texas consultation",
      "Professional service",
      "Quality guarantee"
    ],
    "social_links": {}
  },
  {
    "name": "U.S. Dermatology Partners",
    "address": "Multiple locations including Dallas, Plano, and Carrollton. For Dallas: 5310 Harvest Hill Rd. #130, Dallas, TX 75230",
    "phone": "(214) 919-3150 (Dallas location)",
    "rating": 4.0,
    "reviews": 25,
    "website": "https://www.usdermatologypartners.com/",
    "category": "Bengali-speaking Acne treatments in Texas",
    "description": "Dr. Amreen Sitabkhan practices here and offers medical, surgical, and cosmetic dermatology, including acne treatment",
    "hours": "Mon-Fri 9AM-6PM",
    "services": [
      "Bengali-speaking Acne treatments in Texas consultation",
      "Professional service",
      "Quality guarantee"
    ],
    "social_links": {}
  },
  {
    "name": "Humble Dermatology",
    "address": "18980 North Memorial Drive, Suite 200, Humble, TX 77338",
    "phone": "(281) 707-6400",
    "rating": 4.0,
    "reviews": 25,
    "website": "https://www.humble-dermatology.com/",
    "category": "Bengali-speaking Acne treatments in Texas",
    "description": "Offers a range of services including acne treatment, cosmetic dermatology, and treatments for various skin conditions",
    "hours": "Mon-Fri 9AM-6PM",
    "services": [
      "Bengali-speaking Acne treatments in Texas consultation",
      "Professional service",
      "Quality guarantee"
    ],
    "social_links": {}
  }
]