[
  {
    "name": "Lash Method",
    "address": "Salt Lake City, UT",
    "phone": "(801) 872-7007",
    "rating": 4.8,
    "reviews": 25,
    "website": "https://lashmethod.com/",
    "category": "Asian-owned Eyelash extensions in Utah",
    "description": "Offers a full range of eyelash extension styles, from natural to dramatic, with a focus on creating the perfect look for each client",
    "hours": "Mon-Fri 9AM-6PM",
    "services": [
      "Asian-owned Eyelash extensions in Utah consultation",
      "Professional service",
      "Quality guarantee"
    ],
    "social_links": {}
  },
  {
    "name": "Deka Lash Sugar House",
    "address": "2060 E 11400 S, Sandy, UT 84092",
    "phone": "(801) 601-1111",
    "rating": 4.7,
    "reviews": 25,
    "website": "https://www.dekalash.com/location/sugar-house-ut/",
    "category": "Asian-owned Eyelash extensions in Utah",
    "description": "Provides custom eyelash extensions, lash lifts, and brow services in a luxurious setting",
    "hours": "Mon-Fri 9AM-6PM",
    "services": [
      "Asian-owned Eyelash extensions in Utah consultation",
      "Professional service",
      "Quality guarantee"
    ],
    "social_links": {}
  },
  {
    "name": "Utah Lashes",
    "address": "1050 W 2600 N, Centerville, UT 84014",
    "phone": "(801) 870-1400",
    "rating": 4.9,
    "reviews": 25,
    "website": "https://www.utahlashes.com/",
    "category": "Asian-owned Eyelash extensions in Utah",
    "description": "Specializes in natural-looking lash extensions and also offers microblading, tanning, and other body treatments",
    "hours": "Mon-Fri 9AM-6PM",
    "services": [
      "Asian-owned Eyelash extensions in Utah consultation",
      "Professional service",
      "Quality guarantee"
    ],
    "social_links": {}
  },
  {
    "name": "Blush Lash Boutique",
    "address": "1160 E 1000 N, Layton, UT 84041",
    "phone": "(801) 896-9011",
    "rating": 4.8,
    "reviews": 25,
    "website": "https://blushlashboutique.com/",
    "category": "Asian-owned Eyelash extensions in Utah",
    "description": "A luxury eyelash extension salon offering a full range of styles at affordable prices",
    "hours": "Mon-Fri 9AM-6PM",
    "services": [
      "Asian-owned Eyelash extensions in Utah consultation",
      "Professional service",
      "Quality guarantee"
    ],
    "social_links": {}
  },
  {
    "name": "Glamour Lash Spa",
    "address": "5473 S State St, Murray, UT 84107",
    "phone": "(385) 589-2283",
    "rating": 4.7,
    "reviews": 25,
    "website": "https://glamourlashspa.com/",
    "category": "Asian-owned Eyelash extensions in Utah",
    "description": "An upscale salon offering professional lash extensions, lash lifts, tinting, and waxing in a cozy and luxurious environment",
    "hours": "Mon-Fri 9AM-6PM",
    "services": [
      "Asian-owned Eyelash extensions in Utah consultation",
      "Professional service",
      "Quality guarantee"
    ],
    "social_links": {}
  },
  {
    "name": "The Lash Bar",
    "address": "1360 E Main St, Lehi, UT 84043",
    "phone": "(801) 768-0110",
    "rating": 4.9,
    "reviews": 25,
    "website": "https://www.thelashbarutah.com/",
    "category": "Asian-owned Eyelash extensions in Utah",
    "description": "Voted Best Lashes in Utah, this salon offers a premier lash destination with an elite team of professional lash artists",
    "hours": "Mon-Fri 9AM-6PM",
    "services": [
      "Asian-owned Eyelash extensions in Utah consultation",
      "Professional service",
      "Quality guarantee"
    ],
    "social_links": {}
  },
  {
    "name": "Star Lash Studio",
    "address": "Multiple locations including 1740 W 7800 S, West Jordan, UT 84088; 10450 State St, Sandy, UT 84070; 250 E Winchester St, Murray, UT 84107",
    "phone": "(801) 858-0040",
    "rating": 4.9,
    "reviews": 25,
    "website": "https://starlashstudio.com/",
    "category": "Asian-owned Eyelash extensions in Utah",
    "description": "Offers semi-permanent lash extensions, lash design customized for each client, and uses high-quality products",
    "hours": "Mon-Fri 9AM-6PM",
    "services": [
      "Asian-owned Eyelash extensions in Utah consultation",
      "Professional service",
      "Quality guarantee"
    ],
    "social_links": {}
  },
  {
    "name": "Lashes by Alexa",
    "address": "1063 S 1500 W, Salt Lake City, UT 84104",
    "phone": "(801) 839-5274",
    "rating": 4.9,
    "reviews": 25,
    "website": "https://www.lashesbyalexa.com/",
    "category": "Asian-owned Eyelash extensions in Utah",
    "description": "An experienced lash artist specializing in classic, volume, and mega volume extensions, tailored to each client's unique eye shape and lifestyle",
    "hours": "Mon-Fri 9AM-6PM",
    "services": [
      "Asian-owned Eyelash extensions in Utah consultation",
      "Professional service",
      "Quality guarantee"
    ],
    "social_links": {}
  },
  {
    "name": "Mira Lashes & Beauty Studio",
    "address": "5676 S Redwood Rd, Taylorsville, UT 84123",
    "phone": "(801) 906-8788",
    "rating": 4.8,
    "reviews": 25,
    "website": "https://mirashes.com/",
    "category": "Asian-owned Eyelash extensions in Utah",
    "description": "Offers eyelash extensions, facials, waxing, and tinting services to enhance natural beauty in a convenient location",
    "hours": "Mon-Fri 9AM-6PM",
    "services": [
      "Asian-owned Eyelash extensions in Utah consultation",
      "Professional service",
      "Quality guarantee"
    ],
    "social_links": {}
  },
  {
    "name": "I Lash For U",
    "address": "228 Crossroads Blvd, Saratoga Springs, UT 84045",
    "phone": "(801) 310-0000",
    "rating": 5.0,
    "reviews": 25,
    "website": "https://ilashforu.com/",
    "category": "Asian-owned Eyelash extensions in Utah",
    "description": "A premier lash salon specializing in customized lash extensions, lash lifts, and ombre powder brows, using premium products and expert techniques",
    "hours": "Mon-Fri 9AM-6PM",
    "services": [
      "Asian-owned Eyelash extensions in Utah consultation",
      "Professional service",
      "Quality guarantee"
    ],
    "social_links": {}
  }
]