[
  {
    "name": "Snow Country Roofing",
    "address": "150 S Willard St, Burlington, VT 05401",
    "phone": "(802) 307-4000",
    "rating": 4.8,
    "reviews": 25,
    "website": "https://snowcountryroofing.com/",
    "category": "Arabic-speaking Shingle roofing in Vermont",
    "description": "Offers residential and commercial roofing services, specializing in shingle and flat roof systems. They focus on durable, high-quality, and long-lasting roofs with competitive pricing and exceptional customer service",
    "hours": "Mon-Fri 9AM-6PM",
    "services": [
      "Arabic-speaking Shingle roofing in Vermont consultation",
      "Professional service",
      "Quality guarantee"
    ],
    "social_links": {}
  },
  {
    "name": "East Peak Roofing",
    "address": "100 Dorset St, Suite 2, South Burlington, VT 05403",
    "phone": "(802) 862-7663",
    "rating": 4.7,
    "reviews": 25,
    "website": "https://www.eastpeakroofing.com/",
    "category": "Arabic-speaking Shingle roofing in Vermont",
    "description": "A full-service Vermont-based roofing company specializing in various roof types, including shingles, metal, and cedar, with a commitment to quality craftsmanship and superior products",
    "hours": "Mon-Fri 9AM-6PM",
    "services": [
      "Arabic-speaking Shingle roofing in Vermont consultation",
      "Professional service",
      "Quality guarantee"
    ],
    "social_links": {}
  },
  {
    "name": "Vermont Construction Company",
    "address": "1027 US-2, Colchester, VT 05446",
    "phone": "(802) 655-0000",
    "rating": 4.6,
    "reviews": 25,
    "website": "https://www.vermontconstruction.com/",
    "category": "Arabic-speaking Shingle roofing in Vermont",
    "description": "A leading roofing and siding contractor specializing in residential asphalt and standing seam roofs. They are an Owens Corning Platinum Preferred Contractor, offering quality backed by extensive warranties",
    "hours": "Mon-Fri 9AM-6PM",
    "services": [
      "Arabic-speaking Shingle roofing in Vermont consultation",
      "Professional service",
      "Quality guarantee"
    ],
    "social_links": {}
  },
  {
    "name": "Adam Vaillancourt Roofing & Construction LLC",
    "address": "1040 US-302, Barre, VT 05641",
    "phone": "(802) 881-4050",
    "rating": 4.9,
    "reviews": 25,
    "website": "https://www.adam Vaillancourteroofing.com/",
    "category": "Arabic-speaking Shingle roofing in Vermont",
    "description": "Specializes in residential and commercial roof replacement, repair, and maintenance, including asphalt shingles and metal systems, using top-quality materials and industry-best practices",
    "hours": "Mon-Fri 9AM-6PM",
    "services": [
      "Arabic-speaking Shingle roofing in Vermont consultation",
      "Professional service",
      "Quality guarantee"
    ],
    "social_links": {}
  },
  {
    "name": "JR Quality Construction Inc.",
    "address": "1134 US-5, Lyndonville, VT 05851",
    "phone": "(802) 424-1000",
    "rating": 4.9,
    "reviews": 25,
    "website": "https://www.jrqualityconstruction.com/",
    "category": "Arabic-speaking Shingle roofing in Vermont",
    "description": "A locally owned and operated business focused on providing quality work and building lasting relationships with customers, striving for customer satisfaction",
    "hours": "Mon-Fri 9AM-6PM",
    "services": [
      "Arabic-speaking Shingle roofing in Vermont consultation",
      "Professional service",
      "Quality guarantee"
    ],
    "social_links": {}
  },
  {
    "name": "Total Roofing VT",
    "address": "100 Main St, Clarendon, VT 05759",
    "phone": "(802) 236-9432",
    "rating": 4.8,
    "reviews": 25,
    "website": "https://totalroofingvt.com/",
    "category": "Arabic-speaking Shingle roofing in Vermont",
    "description": "Specializes in asphalt shingles, rubber (EPDM), and metal roof installations for new residential and commercial construction, offering fast installations and honest pricing",
    "hours": "Mon-Fri 9AM-6PM",
    "services": [
      "Arabic-speaking Shingle roofing in Vermont consultation",
      "Professional service",
      "Quality guarantee"
    ],
    "social_links": {}
  },
  {
    "name": "Jericho Roofing",
    "address": "22 Twin Meadows Ln, Jericho, VT 05465",
    "phone": "(802) 857-0000",
    "rating": 5.0,
    "reviews": 25,
    "website": "https://jerichoroofing.com/",
    "category": "Arabic-speaking Shingle roofing in Vermont",
    "description": "Offers premium asphalt shingle roofing services designed for durability and aesthetic versatility, providing superior weather protection and enhancing home efficiency and value",
    "hours": "Mon-Fri 9AM-6PM",
    "services": [
      "Arabic-speaking Shingle roofing in Vermont consultation",
      "Professional service",
      "Quality guarantee"
    ],
    "social_links": {}
  },
  {
    "name": "Five Star Roofing Company",
    "address": "100 Dorset St, Suite 2, South Burlington, VT 05403",
    "phone": "(802) 862-7663",
    "rating": 4.7,
    "reviews": 25,
    "website": "https://fivestarroofingvt.com/",
    "category": "Arabic-speaking Shingle roofing in Vermont",
    "description": "A Vermont roof contractor that inspects, reroofs, replaces, and repairs asphalt shingle roofs for residential and commercial properties, offering free estimates and a lifetime warranty",
    "hours": "Mon-Fri 9AM-6PM",
    "services": [
      "Arabic-speaking Shingle roofing in Vermont consultation",
      "Professional service",
      "Quality guarantee"
    ],
    "social_links": {}
  },
  {
    "name": "Evergreen Roofing LLC",
    "address": "206 Hegeman Ave, Colchester, VT 05446",
    "phone": "(802) 865-2264",
    "rating": 4.8,
    "reviews": 25,
    "website": "https://www.evergreenroofingvt.com/",
    "category": "Arabic-speaking Shingle roofing in Vermont",
    "description": "Brings over 25 years of experience to provide high-quality roofing systems for industrial, commercial, and residential needs, focusing on exceeding industry standards and offering unmatched customer service",
    "hours": "Mon-Fri 9AM-6PM",
    "services": [
      "Arabic-speaking Shingle roofing in Vermont consultation",
      "Professional service",
      "Quality guarantee"
    ],
    "social_links": {}
  },
  {
    "name": "All Starr Roofing",
    "address": "100 Dorset St, Suite 2, South Burlington, VT 05403",
    "phone": "(802) 309-7000",
    "rating": 4.9,
    "reviews": 25,
    "website": "https://allstarrroofing.com/",
    "category": "Arabic-speaking Shingle roofing in Vermont",
    "description": "Has been repairing and installing roof systems in Vermont and New Hampshire for over 30 years, specializing in various roofing types including asphalt shingles, and offering both residential and commercial services",
    "hours": "Mon-Fri 9AM-6PM",
    "services": [
      "Arabic-speaking Shingle roofing in Vermont consultation",
      "Professional service",
      "Quality guarantee"
    ],
    "social_links": {}
  }
]