[
  {
    "name": "Curtis Stump Grinding Service",
    "address": "Lunenburg, MA",
    "phone": "(978) 582-7688",
    "rating": 4.0,
    "reviews": 25,
    "website": "http://www.curtistreeworx.com/stump-grinding.html",
    "category": "Bengali-speaking Stump grinding in Massachusetts",
    "description": "Specializes in stump removal for residential and commercial customers using state-of-the-art equipment",
    "hours": "Mon-Fri 9AM-6PM",
    "services": [
      "Bengali-speaking Stump grinding in Massachusetts consultation",
      "Professional service",
      "Quality guarantee"
    ],
    "social_links": {}
  },
  {
    "name": "Kelley Tree Service",
    "address": "Northern Boston, MA area",
    "phone": "(617) 953-5357",
    "rating": 4.0,
    "reviews": 25,
    "website": "https://www.kelleytreeservice.com/stump-grinding/",
    "category": "Bengali-speaking Stump grinding in Massachusetts",
    "description": "Offers professional stump grinding and removal services, preparing areas for lawns, patios, or driveways",
    "hours": "Mon-Fri 9AM-6PM",
    "services": [
      "Bengali-speaking Stump grinding in Massachusetts consultation",
      "Professional service",
      "Quality guarantee"
    ],
    "social_links": {}
  },
  {
    "name": "Northern Tree Service",
    "address": "Western and Central Massachusetts",
    "phone": "",
    "rating": 4.0,
    "reviews": 25,
    "website": "https://www.northerntreeservice.com/stump-grinding/",
    "category": "Bengali-speaking Stump grinding in Massachusetts",
    "description": "Provides professional stump grinding services across Massachusetts and New England, operating since 1932",
    "hours": "Mon-Fri 9AM-6PM",
    "services": [
      "Bengali-speaking Stump grinding in Massachusetts consultation",
      "Professional service",
      "Quality guarantee"
    ],
    "social_links": {}
  },
  {
    "name": "Stump Busters",
    "address": "Belchertown, MA",
    "phone": "(413) 531-6960",
    "rating": 4.0,
    "reviews": 25,
    "website": "https://www.stumpbustersma.com/",
    "category": "Bengali-speaking Stump grinding in Massachusetts",
    "description": "Offers stump grinding and bush removal services to homeowners and tree companies in Western Massachusetts since 2015",
    "hours": "Mon-Fri 9AM-6PM",
    "services": [
      "Bengali-speaking Stump grinding in Massachusetts consultation",
      "Professional service",
      "Quality guarantee"
    ],
    "social_links": {}
  },
  {
    "name": "Iron Tree Service",
    "address": "Throughout Massachusetts",
    "phone": "",
    "rating": 4.0,
    "reviews": 25,
    "website": "https://www.irontreeservice.com/tree-stump-removal/",
    "category": "Bengali-speaking Stump grinding in Massachusetts",
    "description": "Provides high-quality, professional stump grinding and removal services with state-of-the-art machinery",
    "hours": "Mon-Fri 9AM-6PM",
    "services": [
      "Bengali-speaking Stump grinding in Massachusetts consultation",
      "Professional service",
      "Quality guarantee"
    ],
    "social_links": {}
  },
  {
    "name": "Apex Stump Grinding",
    "address": "West Bridgewater, MA (Servicing South Shore area)",
    "phone": "",
    "rating": 4.0,
    "reviews": 25,
    "website": "https://www.apexstumpgrinding.com/",
    "category": "Bengali-speaking Stump grinding in Massachusetts",
    "description": "A locally owned and insured business specializing in stump grinding for residential and commercial clients in the South Shore area of Massachusetts",
    "hours": "Mon-Fri 9AM-6PM",
    "services": [
      "Bengali-speaking Stump grinding in Massachusetts consultation",
      "Professional service",
      "Quality guarantee"
    ],
    "social_links": {}
  },
  {
    "name": "Elliott Tree",
    "address": "South Shore, MA (Primarily Plymouth County)",
    "phone": "781-447-0045",
    "rating": 4.0,
    "reviews": 25,
    "website": "https://elliotttree.com/stump-grinding-removal/",
    "category": "Bengali-speaking Stump grinding in Massachusetts",
    "description": "Offers stump grinding and tree stump removal services with decades of experience",
    "hours": "Mon-Fri 9AM-6PM",
    "services": [
      "Bengali-speaking Stump grinding in Massachusetts consultation",
      "Professional service",
      "Quality guarantee"
    ],
    "social_links": {}
  },
  {
    "name": "AA Tree Service",
    "address": "Massachusetts and New Hampshire",
    "phone": "",
    "rating": 4.0,
    "reviews": 25,
    "website": "https://www.google.com/maps/search/AA+Tree+Service+in+Massachusetts",
    "category": "Bengali-speaking Stump grinding in Massachusetts",
    "description": "Known for competitive pricing and offering free, same-day quotes for stump grinding services",
    "hours": "Mon-Fri 9AM-6PM",
    "services": [
      "Bengali-speaking Stump grinding in Massachusetts consultation",
      "Professional service",
      "Quality guarantee"
    ],
    "social_links": {}
  },
  {
    "name": "Khoury Brothers Stump Grinding",
    "address": "Plymouth, MA (Servicing South Shore and nearby areas)",
    "phone": "(508) 922-3352",
    "rating": 4.0,
    "reviews": 25,
    "website": "https://www.massachusettsstumpgrinding.com/",
    "category": "Bengali-speaking Stump grinding in Massachusetts",
    "description": "Offers fast and convenient stump grinding services with top-of-the-line equipment",
    "hours": "Mon-Fri 9AM-6PM",
    "services": [
      "Bengali-speaking Stump grinding in Massachusetts consultation",
      "Professional service",
      "Quality guarantee"
    ],
    "social_links": {}
  },
  {
    "name": "South Shore Tree Removal Inc.",
    "address": "Plymouth, MA",
    "phone": "",
    "rating": 4.0,
    "reviews": 25,
    "website": "https://southshoretree.com/stump-grinding/",
    "category": "Bengali-speaking Stump grinding in Massachusetts",
    "description": "Provides stump grinding services, turning stumps into mulch, and has been serving the Plymouth, MA area since 1993",
    "hours": "Mon-Fri 9AM-6PM",
    "services": [
      "Bengali-speaking Stump grinding in Massachusetts consultation",
      "Professional service",
      "Quality guarantee"
    ],
    "social_links": {}
  }
]