[
  {
    "name": "Asian Counseling and Referral Service (ACRS)",
    "address": "3639 Martin Luther King Jr. Way S, Seattle, WA 98144",
    "phone": "(206) 695-7600",
    "rating": 4.0,
    "reviews": 25,
    "website": "https://www.acrs.org/",
    "category": "Asian-owned ESL instruction in Washington",
    "description": "Offers free ESL classes and citizenship preparation for immigrants and refugees, with a focus on supporting Asian, Native Hawaiian, Pacific Islander, and other immigrant and refugee communities",
    "hours": "Mon-Fri 9AM-6PM",
    "services": [
      "Asian-owned ESL instruction in Washington consultation",
      "Professional service",
      "Quality guarantee"
    ],
    "social_links": {}
  },
  {
    "name": "Chinese Information and Service Center (CISC)",
    "address": "611 South Lane Street, Seattle, WA 98104",
    "phone": "(206) 624-5633",
    "rating": 4.0,
    "reviews": 25,
    "website": "https://cisc-seattle.org/",
    "category": "Asian-owned ESL instruction in Washington",
    "description": "Provides transition programs, including ESL classes, to help non-English speakers navigate American culture",
    "hours": "Mon-Fri 9AM-6PM",
    "services": [
      "Asian-owned ESL instruction in Washington consultation",
      "Professional service",
      "Quality guarantee"
    ],
    "social_links": {}
  },
  {
    "name": "Bel-Red Bilingual Academy",
    "address": "1400 156th Ave SE, Bellevue, WA 98007",
    "phone": "(425) 643-5555",
    "rating": 4.0,
    "reviews": 25,
    "website": "https://www.belred.org/",
    "category": "Asian-owned ESL instruction in Washington",
    "description": "An English-Chinese bilingual school offering a strong academic foundation and preparing gifted children for higher education",
    "hours": "Mon-Fri 9AM-6PM",
    "services": [
      "Asian-owned ESL instruction in Washington consultation",
      "Professional service",
      "Quality guarantee"
    ],
    "social_links": {}
  },
  {
    "name": "Asia Pacific Language School (APLS)",
    "address": "14230 NE 20th St, Bellevue, WA 98007",
    "phone": "(425) 641-0700",
    "rating": 4.0,
    "reviews": 25,
    "website": "https://apls.org/",
    "category": "Asian-owned ESL instruction in Washington",
    "description": "Offers Chinese and Japanese language classes, preschool programs, and tutoring, aiming to create a continuous learning environment for second language acquisition",
    "hours": "Mon-Fri 9AM-6PM",
    "services": [
      "Asian-owned ESL instruction in Washington consultation",
      "Professional service",
      "Quality guarantee"
    ],
    "social_links": {}
  },
  {
    "name": "Washington Academy of Languages (WAL)",
    "address": "1000 1st Ave, Seattle, WA 98104",
    "phone": "(206) 443-9242",
    "rating": 4.0,
    "reviews": 25,
    "website": "https://www.wal.edu/",
    "category": "Asian-owned ESL instruction in Washington",
    "description": "Offers Intensive English Language Programs and custom study programs for students from various countries, located in downtown Seattle",
    "hours": "Mon-Fri 9AM-6PM",
    "services": [
      "Asian-owned ESL instruction in Washington consultation",
      "Professional service",
      "Quality guarantee"
    ],
    "social_links": {}
  },
  {
    "name": "East/West ESL Tutoring, Inc.",
    "address": "5601 220th Ave SE, Issaquah, WA 98027 (Office location, classes may be held elsewhere)",
    "phone": "(206) 660-1996",
    "rating": 4.0,
    "reviews": 25,
    "website": "https://www.eastwestesl.com/",
    "category": "Asian-owned ESL instruction in Washington",
    "description": "Provides private instruction and corporate contracts for English as a second language, specializing in conversation, pronunciation, and cultural orientation",
    "hours": "Mon-Fri 9AM-6PM",
    "services": [
      "Asian-owned ESL instruction in Washington consultation",
      "Professional service",
      "Quality guarantee"
    ],
    "social_links": {}
  },
  {
    "name": "Refugee & Immigrant Services Northwest (RISNW)",
    "address": "Multiple locations, including offices in Snohomish, Skagit, and Whatcom counties. (Specific ESL class locations may vary, often in partnership with community colleges)",
    "phone": "(425) 670-8999 (General Inquiries)",
    "rating": 4.0,
    "reviews": 25,
    "website": "https://www.risnw.org/",
    "category": "Asian-owned ESL instruction in Washington",
    "description": "Offers employment, training, and ESL services targeting refugees and immigrants, often in partnership with local community colleges",
    "hours": "Mon-Fri 9AM-6PM",
    "services": [
      "Asian-owned ESL instruction in Washington consultation",
      "Professional service",
      "Quality guarantee"
    ],
    "social_links": {}
  },
  {
    "name": "Clark College",
    "address": "1933 Fort Vancouver Way, Vancouver, WA 98663",
    "phone": "(360) 992-2741 (Transitional Studies)",
    "rating": 4.0,
    "reviews": 25,
    "website": "https://www.clark.edu/academics/transitional-studies/esl/",
    "category": "Asian-owned ESL instruction in Washington",
    "description": "Offers ESL classes for adult immigrants and refugees, focusing on communication skills and technology, with tuition assistance available",
    "hours": "Mon-Fri 9AM-6PM",
    "services": [
      "Asian-owned ESL instruction in Washington consultation",
      "Professional service",
      "Quality guarantee"
    ],
    "social_links": {}
  },
  {
    "name": "Tacoma Area Literacy Council (TALC)",
    "address": "425 S Yakima Ave, Tacoma, WA 98402",
    "phone": "(253) 572-6500",
    "rating": 4.0,
    "reviews": 25,
    "website": "https://tacomaliteracy.org/",
    "category": "Asian-owned ESL instruction in Washington",
    "description": "Provides free ESL tutoring and classes for basic English speaking, reading, writing, and citizenship test preparation",
    "hours": "Mon-Fri 9AM-6PM",
    "services": [
      "Asian-owned ESL instruction in Washington consultation",
      "Professional service",
      "Quality guarantee"
    ],
    "social_links": {}
  },
  {
    "name": "Korean American Center (King Sejong Institute)",
    "address": "13010 NE 126th Pl, Vancouver, WA 98682 (Online classes available)",
    "phone": "(360) 334-5000",
    "rating": 4.0,
    "reviews": 25,
    "website": "https://kacwa.org/",
    "category": "Asian-owned ESL instruction in Washington",
    "description": "Offers WASC-accredited and King Sejong Institute-certified Korean language classes for all ages, including online options for beginners",
    "hours": "Mon-Fri 9AM-6PM",
    "services": [
      "Asian-owned ESL instruction in Washington consultation",
      "Professional service",
      "Quality guarantee"
    ],
    "social_links": {}
  }
]