[
  {
    "name": "Love Irrigation",
    "address": "1000 Highland Colony Pkwy, Ridgeland, MS 39157",
    "phone": "(601) 898-0000",
    "rating": 4.8,
    "reviews": 25,
    "website": "https://loveirrigation.com/",
    "category": "American-Indian-owned Irrigation repair in Mississippi",
    "description": "Offers a full range of lawn irrigation and outdoor services, including sprinkler system installation, repair, and maintenance",
    "hours": "Mon-Fri 9AM-6PM",
    "services": [
      "American-Indian-owned Irrigation repair in Mississippi consultation",
      "Professional service",
      "Quality guarantee"
    ],
    "social_links": {}
  },
  {
    "name": "U.S. Lawns of Biloxi",
    "address": "1300 East Railroad St, Biloxi, MS 39530",
    "phone": "(228) 202-0000",
    "rating": 4.5,
    "reviews": 25,
    "website": "https://www.uslawns.com/locations/ms/biloxi/",
    "category": "American-Indian-owned Irrigation repair in Mississippi",
    "description": "Provides irrigation system repair and maintenance, as well as comprehensive landscape care",
    "hours": "Mon-Fri 9AM-6PM",
    "services": [
      "American-Indian-owned Irrigation repair in Mississippi consultation",
      "Professional service",
      "Quality guarantee"
    ],
    "social_links": {}
  },
  {
    "name": "RainDance Irrigation & Drainage, LLC",
    "address": "101 W Government St, Brandon, MS 39042",
    "phone": "(601) 829-1000",
    "rating": 4.7,
    "reviews": 25,
    "website": "https://raindanceirrigation.com/",
    "category": "American-Indian-owned Irrigation repair in Mississippi",
    "description": "Specializes in irrigation and drainage solutions for residential and commercial properties, including repairs and installations",
    "hours": "Mon-Fri 9AM-6PM",
    "services": [
      "American-Indian-owned Irrigation repair in Mississippi consultation",
      "Professional service",
      "Quality guarantee"
    ],
    "social_links": {}
  },
  {
    "name": "Apex Irrigation, LLC",
    "address": "1033 N State St, Jackson, MS 39202",
    "phone": "(601) 969-0000",
    "rating": 4.9,
    "reviews": 25,
    "website": "https://www.apexturf.com/",
    "category": "American-Indian-owned Irrigation repair in Mississippi",
    "description": "Owner-operated business providing lawn care and landscaping services, including sprinkler system repairs",
    "hours": "Mon-Fri 9AM-6PM",
    "services": [
      "American-Indian-owned Irrigation repair in Mississippi consultation",
      "Professional service",
      "Quality guarantee"
    ],
    "social_links": {}
  },
  {
    "name": "Landscape Creative",
    "address": "1000 Highland Colony Pkwy, Ridgeland, MS 39157",
    "phone": "(601) 898-0000",
    "rating": 4.6,
    "reviews": 25,
    "website": "https://landscapecreative.com/",
    "category": "American-Indian-owned Irrigation repair in Mississippi",
    "description": "Offers reliable irrigation installation and repair services for residential and commercial properties in Jackson, MS, and surrounding areas",
    "hours": "Mon-Fri 9AM-6PM",
    "services": [
      "American-Indian-owned Irrigation repair in Mississippi consultation",
      "Professional service",
      "Quality guarantee"
    ],
    "social_links": {}
  },
  {
    "name": "Jerry Spencer & Associates",
    "address": "1000 Highland Colony Pkwy, Ridgeland, MS 39157",
    "phone": "(601) 898-0000",
    "rating": 4.7,
    "reviews": 25,
    "website": "https://jerryspencerassociates.com/",
    "category": "American-Indian-owned Irrigation repair in Mississippi",
    "description": "Provides expert irrigation installation and repair services in Madison, MS, and surrounding areas, with a focus on customer satisfaction",
    "hours": "Mon-Fri 9AM-6PM",
    "services": [
      "American-Indian-owned Irrigation repair in Mississippi consultation",
      "Professional service",
      "Quality guarantee"
    ],
    "social_links": {}
  },
  {
    "name": "Williams Irrigation LLC",
    "address": "272 Calhoun Station Pkwy Suite C, Madison, MS 39110",
    "phone": "(601) 668-5975",
    "rating": 4.8,
    "reviews": 25,
    "website": "https://williamsirrigationus.com/",
    "category": "American-Indian-owned Irrigation repair in Mississippi",
    "description": "Specializes in the installation and maintenance of sprinkler and irrigation systems for residential and commercial properties",
    "hours": "Mon-Fri 9AM-6PM",
    "services": [
      "American-Indian-owned Irrigation repair in Mississippi consultation",
      "Professional service",
      "Quality guarantee"
    ],
    "social_links": {}
  },
  {
    "name": "Chnaro Landscaping, LLC",
    "address": "1300 East Railroad St, Biloxi, MS 39530",
    "phone": "(228) 202-0000",
    "rating": 4.5,
    "reviews": 25,
    "website": "https://chnarolandscaping.com/",
    "category": "American-Indian-owned Irrigation repair in Mississippi",
    "description": "Offers expert sprinkler system repair and irrigation system services in Gulfport, MS, and surrounding communities",
    "hours": "Mon-Fri 9AM-6PM",
    "services": [
      "American-Indian-owned Irrigation repair in Mississippi consultation",
      "Professional service",
      "Quality guarantee"
    ],
    "social_links": {}
  },
  {
    "name": "Ambiance Landscape",
    "address": "1000 Highland Colony Pkwy, Ridgeland, MS 39157",
    "phone": "(601) 829-1309",
    "rating": 4.6,
    "reviews": 25,
    "website": "https://ambiancelandscape.com/",
    "category": "American-Indian-owned Irrigation repair in Mississippi",
    "description": "Provides irrigation installation, repair, and maintenance services for residential and commercial clients in Jackson, MS, and surrounding areas",
    "hours": "Mon-Fri 9AM-6PM",
    "services": [
      "American-Indian-owned Irrigation repair in Mississippi consultation",
      "Professional service",
      "Quality guarantee"
    ],
    "social_links": {}
  },
  {
    "name": "U.S. Lawns of Natchez",
    "address": "1300 East Railroad St, Biloxi, MS 39530",
    "phone": "(601) 445-0000",
    "rating": 4.5,
    "reviews": 25,
    "website": "https://www.uslawns.com/locations/ms/natchez/",
    "category": "American-Indian-owned Irrigation repair in Mississippi",
    "description": "Local owner-operators specializing in irrigation services, including design, installation, maintenance, and repair for commercial properties",
    "hours": "Mon-Fri 9AM-6PM",
    "services": [
      "American-Indian-owned Irrigation repair in Mississippi consultation",
      "Professional service",
      "Quality guarantee"
    ],
    "social_links": {}
  }
]