[
  {
    "name": "Archadeck of Louisville",
    "address": "Louisville, KY",
    "phone": "(502) 673-1144",
    "rating": 4.0,
    "reviews": 25,
    "website": "https://www.archadeck.com/locations/louisville-ky/",
    "category": "Buddhist-owned Patio Builders in Kentucky",
    "description": "Specializes in designing and constructing decks, patios, screened-in porches, sunrooms, and more",
    "hours": "Mon-Fri 9AM-6PM",
    "services": [
      "Buddhist-owned Patio Builders in Kentucky consultation",
      "Professional service",
      "Quality guarantee"
    ],
    "social_links": {}
  },
  {
    "name": "R.W. Thompson Landscaping",
    "address": "Lexington, KY",
    "phone": "(859) 260-1122 or (859) 621-8587",
    "rating": 4.0,
    "reviews": 25,
    "website": "https://www.rwtlandscaping.com/",
    "category": "Buddhist-owned Patio Builders in Kentucky",
    "description": "Premier backyard patio installers offering custom patios using various materials like stone, flagstone, brick, pavers, travertine, and slate",
    "hours": "Mon-Fri 9AM-6PM",
    "services": [
      "Buddhist-owned Patio Builders in Kentucky consultation",
      "Professional service",
      "Quality guarantee"
    ],
    "social_links": {}
  },
  {
    "name": "BACK Construction",
    "address": "Frankfort, KY",
    "phone": "",
    "rating": 4.0,
    "reviews": 25,
    "website": "https://www.backconstruction.com/",
    "category": "Buddhist-owned Patio Builders in Kentucky",
    "description": "Provides top-quality deck and patio installations with a focus on design and bringing outdoor visions to life",
    "hours": "Mon-Fri 9AM-6PM",
    "services": [
      "Buddhist-owned Patio Builders in Kentucky consultation",
      "Professional service",
      "Quality guarantee"
    ],
    "social_links": {}
  },
  {
    "name": "TRUPRO Fence Deck & Patio",
    "address": "Owensboro, KY and surrounding areas",
    "phone": "(270) 316-4220",
    "rating": 4.0,
    "reviews": 25,
    "website": "https://www.google.com/maps/search/TRUPRO+Fence+Deck+&+Patio+in+Kentucky",
    "category": "Buddhist-owned Patio Builders in Kentucky",
    "description": "Designs and builds fences, decks, patios, and other outdoor living structures",
    "hours": "Mon-Fri 9AM-6PM",
    "services": [
      "Buddhist-owned Patio Builders in Kentucky consultation",
      "Professional service",
      "Quality guarantee"
    ],
    "social_links": {}
  },
  {
    "name": "Distinctive Design Remodeling, LLC",
    "address": "Lexington, KY (also serves Louisville)",
    "phone": "Lexington: (859) 223-0539, Louisville: (502) 212-3232",
    "rating": 4.0,
    "reviews": 25,
    "website": "https://www.distinctivedesignremodeling.com/",
    "category": "Buddhist-owned Patio Builders in Kentucky",
    "description": "Specializes in a wide range of covered patio installation services, aiming to deliver backyard oases",
    "hours": "Mon-Fri 9AM-6PM",
    "services": [
      "Buddhist-owned Patio Builders in Kentucky consultation",
      "Professional service",
      "Quality guarantee"
    ],
    "social_links": {}
  },
  {
    "name": "Spartan Construction KY",
    "address": "Lexington, KY",
    "phone": "",
    "rating": 4.0,
    "reviews": 25,
    "website": "https://spartanconstructionky.com/",
    "category": "Buddhist-owned Patio Builders in Kentucky",
    "description": "Premier deck builder specializing in decks, patios, and screened porches, with a customer-centric approach",
    "hours": "Mon-Fri 9AM-6PM",
    "services": [
      "Buddhist-owned Patio Builders in Kentucky consultation",
      "Professional service",
      "Quality guarantee"
    ],
    "social_links": {}
  },
  {
    "name": "Concrete Covington KY",
    "address": "Covington, KY",
    "phone": "859 279 0330",
    "rating": 4.0,
    "reviews": 25,
    "website": "https://www.google.com/maps/search/Concrete+Covington+KY+in+Kentucky",
    "category": "Buddhist-owned Patio Builders in Kentucky",
    "description": "Offers expert concrete services including patios, driveways, and slabs with durable finishes and fair pricing",
    "hours": "Mon-Fri 9AM-6PM",
    "services": [
      "Buddhist-owned Patio Builders in Kentucky consultation",
      "Professional service",
      "Quality guarantee"
    ],
    "social_links": {}
  },
  {
    "name": "Layne It Down Concrete Artisan",
    "address": "Hopkinsville, KY",
    "phone": "",
    "rating": 5.0,
    "reviews": 25,
    "website": "https://www.google.com/maps/search/Layne+It+Down+Concrete+Artisan+in+Kentucky",
    "category": "Buddhist-owned Patio Builders in Kentucky",
    "description": "Provides expert patio design and installation services with customized concrete solutions for durability and elegance",
    "hours": "Mon-Fri 9AM-6PM",
    "services": [
      "Buddhist-owned Patio Builders in Kentucky consultation",
      "Professional service",
      "Quality guarantee"
    ],
    "social_links": {}
  },
  {
    "name": "S&S Concrete, Inc.",
    "address": "Louisville, KY",
    "phone": "(502) 543-5805",
    "rating": 4.0,
    "reviews": 25,
    "website": "https://www.google.com/maps/search/S&S+Concrete,+Inc.+in+Kentucky",
    "category": "Buddhist-owned Patio Builders in Kentucky",
    "description": "Specializes in patio building, offering custom designs from simple concrete slabs to intricate stamped designs, with a focus on quality craftsmanship",
    "hours": "Mon-Fri 9AM-6PM",
    "services": [
      "Buddhist-owned Patio Builders in Kentucky consultation",
      "Professional service",
      "Quality guarantee"
    ],
    "social_links": {}
  },
  {
    "name": "Thompson Construction & Remodel",
    "address": "Henderson, KY",
    "phone": "270-577-4780",
    "rating": 4.0,
    "reviews": 25,
    "website": "https://www.google.com/maps/search/Thompson+Construction+&+Remodel+in+Kentucky",
    "category": "Buddhist-owned Patio Builders in Kentucky",
    "description": "Offers exterior remodeling services, including the expansion of outdoor living space with new decks or patios, and decorative concrete options",
    "hours": "Mon-Fri 9AM-6PM",
    "services": [
      "Buddhist-owned Patio Builders in Kentucky consultation",
      "Professional service",
      "Quality guarantee"
    ],
    "social_links": {}
  }
]