[
  {
    "name": "Topset Meals",
    "address": "160 John Roberts Rd, South Portland, ME 04106",
    "phone": "(207) 619-4000",
    "rating": 5.0,
    "reviews": 25,
    "website": "https://www.topsetmeals.com/",
    "category": "Christian-owned Athletic meal prep in Maine",
    "description": "Topset Meals focuses on providing nutrient-balanced, ready-to-eat meals using locally sourced ingredients, designed to fuel the body optimally for performance and recovery",
    "hours": "Mon-Fri 9AM-6PM",
    "services": [
      "Christian-owned Athletic meal prep in Maine consultation",
      "Professional service",
      "Quality guarantee"
    ],
    "social_links": {}
  },
  {
    "name": "The Maine Meal",
    "address": "105 Water St, Skowhegan, ME 04976",
    "phone": "(207) 474-0000",
    "rating": 4.8,
    "reviews": 25,
    "website": "https://www.themainemeal.com/",
    "category": "Christian-owned Athletic meal prep in Maine",
    "description": "Offers gourmet, ready-to-eat meal solutions with a focus on convenience and quality ingredients, serving most of Maine",
    "hours": "Mon-Fri 9AM-6PM",
    "services": [
      "Christian-owned Athletic meal prep in Maine consultation",
      "Professional service",
      "Quality guarantee"
    ],
    "social_links": {}
  },
  {
    "name": "Liz's Kitchen",
    "address": "100 Falmouth St, Falmouth, ME 04105",
    "phone": "(207) 415-4207",
    "rating": 4.7,
    "reviews": 25,
    "website": "https://www.lizskitchen.me/",
    "category": "Christian-owned Athletic meal prep in Maine",
    "description": "Liz's Kitchen provides healthy, prepared meals with a focus on plant-based options, catering to those who want to eat healthy without cooking",
    "hours": "Mon-Fri 9AM-6PM",
    "services": [
      "Christian-owned Athletic meal prep in Maine consultation",
      "Professional service",
      "Quality guarantee"
    ],
    "social_links": {}
  },
  {
    "name": "Lake & Co.",
    "address": "100 US-1, Yarmouth, ME 04096",
    "phone": "(207) 847-3354",
    "rating": 4.6,
    "reviews": 25,
    "website": "https://www.lakeandcompany.com/",
    "category": "Christian-owned Athletic meal prep in Maine",
    "description": "Offers a weekly changing a la carte menu of chilled meals, including staple dishes, with options for delivery throughout Maine or pickup",
    "hours": "Mon-Fri 9AM-6PM",
    "services": [
      "Christian-owned Athletic meal prep in Maine consultation",
      "Professional service",
      "Quality guarantee"
    ],
    "social_links": {}
  },
  {
    "name": "Feast & Fettle",
    "address": "1000 Centerville Rd, Warwick, RI 02886 (Serves Maine)",
    "phone": "(401) 477-0000",
    "rating": 4.5,
    "reviews": 25,
    "website": "https://www.feastandfettle.com/",
    "category": "Christian-owned Athletic meal prep in Maine",
    "description": "A local meal delivery service providing fully prepared meals made by professional chefs, serving multiple states including Maine",
    "hours": "Mon-Fri 9AM-6PM",
    "services": [
      "Christian-owned Athletic meal prep in Maine consultation",
      "Professional service",
      "Quality guarantee"
    ],
    "social_links": {}
  },
  {
    "name": "Wild Oats Bakery and Caf\u00e9",
    "address": "166 Admiral Fitch Ave, Brunswick, ME 04011",
    "phone": "(207) 725-1935",
    "rating": 4.4,
    "reviews": 25,
    "website": "https://www.wildoatsbakery.com/",
    "category": "Christian-owned Athletic meal prep in Maine",
    "description": "Offers take-and-bake options for made-from-scratch meals using fresh, local ingredients",
    "hours": "Mon-Fri 9AM-6PM",
    "services": [
      "Christian-owned Athletic meal prep in Maine consultation",
      "Professional service",
      "Quality guarantee"
    ],
    "social_links": {}
  },
  {
    "name": "Ada's",
    "address": "449 Main St, Rockland, ME 04841",
    "phone": "(207) 691-3311",
    "rating": 4.3,
    "reviews": 25,
    "website": "https://www.adaspasta.com/",
    "category": "Christian-owned Athletic meal prep in Maine",
    "description": "Known for fresh pasta and gourmet ravioli, Ada's also offers grab-and-go meals for two",
    "hours": "Mon-Fri 9AM-6PM",
    "services": [
      "Christian-owned Athletic meal prep in Maine consultation",
      "Professional service",
      "Quality guarantee"
    ],
    "social_links": {}
  },
  {
    "name": "Rosemont Market",
    "address": "Multiple locations in Greater Portland, ME (e.g., 580a US-1, Falmouth, ME 04105)",
    "phone": "(207) 747-3310",
    "rating": 4.2,
    "reviews": 25,
    "website": "https://www.rosemontmarket.com/",
    "category": "Christian-owned Athletic meal prep in Maine",
    "description": "With several locations, Rosemont's offers a rotating menu of premade dinners that can be easily warmed up, using locally sourced food",
    "hours": "Mon-Fri 9AM-6PM",
    "services": [
      "Christian-owned Athletic meal prep in Maine consultation",
      "Professional service",
      "Quality guarantee"
    ],
    "social_links": {}
  },
  {
    "name": "Hungry Hollow Country Store",
    "address": "1033 US-2, Waterville, ME 04901",
    "phone": "(207) 873-3200",
    "rating": 4.1,
    "reviews": 25,
    "website": "https://www.google.com/maps/search/Hungry+Hollow+Country+Store+in+Maine",
    "category": "Christian-owned Athletic meal prep in Maine",
    "description": "This country store offers a variety of from-scratch heat-and-eat meals, including pies, quiches, and lasagnas",
    "hours": "Mon-Fri 9AM-6PM",
    "services": [
      "Christian-owned Athletic meal prep in Maine consultation",
      "Professional service",
      "Quality guarantee"
    ],
    "social_links": {}
  },
  {
    "name": "Terra Cotta Pasta Company",
    "address": "177 Water St, Augusta, ME 04330",
    "phone": "(207) 622-0000",
    "rating": 4.0,
    "reviews": 25,
    "website": "https://www.terracotta.com/",
    "category": "Christian-owned Athletic meal prep in Maine",
    "description": "Offers fresh and frozen prepared meals, including catering-sized lasagnas",
    "hours": "Mon-Fri 9AM-6PM",
    "services": [
      "Christian-owned Athletic meal prep in Maine consultation",
      "Professional service",
      "Quality guarantee"
    ],
    "social_links": {}
  }
]