[
  {
    "name": "Noble Bison Productions",
    "address": "1234 Broadway, Denver, CO 80203",
    "phone": "(303) 555-0123",
    "rating": 4.8,
    "reviews": 25,
    "website": "https://www.noblebison.com/",
    "category": "Chinese-speaking Video production in Colorado",
    "description": "A full-service Denver video production company offering a wide range of services from pre-production to post-production, including corporate videos, commercials, and films",
    "hours": "Mon-Fri 9AM-6PM",
    "services": [
      "Chinese-speaking Video production in Colorado consultation",
      "Professional service",
      "Quality guarantee"
    ],
    "social_links": {}
  },
  {
    "name": "Snowy Peak Films",
    "address": "5678 Cherry Creek Dr, Denver, CO 80209",
    "phone": "(303) 555-0145",
    "rating": 4.9,
    "reviews": 25,
    "website": "https://www.snowypeakfilms.com/",
    "category": "Chinese-speaking Video production in Colorado",
    "description": "Specializes in video production, videography, and post-production services, known for responsiveness and professionalism",
    "hours": "Mon-Fri 9AM-6PM",
    "services": [
      "Chinese-speaking Video production in Colorado consultation",
      "Professional service",
      "Quality guarantee"
    ],
    "social_links": {}
  },
  {
    "name": "Colorado Video Productions",
    "address": "901 15th St, Denver, CO 80202",
    "phone": "(303) 555-0167",
    "rating": 4.7,
    "reviews": 25,
    "website": "https://www.coloradovideoproductions.com/",
    "category": "Chinese-speaking Video production in Colorado",
    "description": "Offers cutting-edge video content blending AI technology with traditional production expertise, serving corporate and creative projects",
    "hours": "Mon-Fri 9AM-6PM",
    "services": [
      "Chinese-speaking Video production in Colorado consultation",
      "Professional service",
      "Quality guarantee"
    ],
    "social_links": {}
  },
  {
    "name": "Rocket House Pictures",
    "address": "1010 Lincoln St, Denver, CO 80203",
    "phone": "(303) 555-0189",
    "rating": 4.8,
    "reviews": 25,
    "website": "https://rockethousepictures.com/",
    "category": "Chinese-speaking Video production in Colorado",
    "description": "An award-winning Denver video production company creating inspiring films and videos for businesses and organizations",
    "hours": "Mon-Fri 9AM-6PM",
    "services": [
      "Chinese-speaking Video production in Colorado consultation",
      "Professional service",
      "Quality guarantee"
    ],
    "social_links": {}
  },
  {
    "name": "People Productions",
    "address": "123 Pearl St, Boulder, CO 80302",
    "phone": "(303) 555-0210",
    "rating": 4.6,
    "reviews": 25,
    "website": "https://www.peopleproductions.com/",
    "category": "Chinese-speaking Video production in Colorado",
    "description": "A full-service creative agency specializing in strategy, video production, and digital marketing, focusing on people-to-people connections",
    "hours": "Mon-Fri 9AM-6PM",
    "services": [
      "Chinese-speaking Video production in Colorado consultation",
      "Professional service",
      "Quality guarantee"
    ],
    "social_links": {}
  },
  {
    "name": "Telideo Productions, Inc.",
    "address": "4567 Elm St, Denver, CO 80205",
    "phone": "(303) 555-0232",
    "rating": 4.7,
    "reviews": 25,
    "website": "https://www.telideo.com/",
    "category": "Chinese-speaking Video production in Colorado",
    "description": "A Denver video marketing company specializing in original video and animated content for websites, advertising, and training",
    "hours": "Mon-Fri 9AM-6PM",
    "services": [
      "Chinese-speaking Video production in Colorado consultation",
      "Professional service",
      "Quality guarantee"
    ],
    "social_links": {}
  },
  {
    "name": "7 Wonders Cinema",
    "address": "789 Oak Ave, Denver, CO 80206",
    "phone": "(303) 555-0254",
    "rating": 4.9,
    "reviews": 25,
    "website": "https://www.7wonderscinema.com/",
    "category": "Chinese-speaking Video production in Colorado",
    "description": "A multimedia production company specializing in video production, post-production, and corporate video production, known for creativity and efficiency",
    "hours": "Mon-Fri 9AM-6PM",
    "services": [
      "Chinese-speaking Video production in Colorado consultation",
      "Professional service",
      "Quality guarantee"
    ],
    "social_links": {}
  },
  {
    "name": "Matter Communications",
    "address": "111 Maple Dr, Denver, CO 80207",
    "phone": "(303) 555-0276",
    "rating": 4.8,
    "reviews": 25,
    "website": "https://www.mattercommunications.com/",
    "category": "Chinese-speaking Video production in Colorado",
    "description": "Specializes in video production and editing, with expertise in corporate video production and storytelling, known for adaptability and high-quality output",
    "hours": "Mon-Fri 9AM-6PM",
    "services": [
      "Chinese-speaking Video production in Colorado consultation",
      "Professional service",
      "Quality guarantee"
    ],
    "social_links": {}
  },
  {
    "name": "Drop Media",
    "address": "222 Pine St, Denver, CO 80208",
    "phone": "(303) 555-0298",
    "rating": 4.7,
    "reviews": 25,
    "website": "https://www.dropmedia.com/",
    "category": "Chinese-speaking Video production in Colorado",
    "description": "A video production company renowned for expertise in film production, videography, and corporate video production, praised for professionalism and creativity",
    "hours": "Mon-Fri 9AM-6PM",
    "services": [
      "Chinese-speaking Video production in Colorado consultation",
      "Professional service",
      "Quality guarantee"
    ],
    "social_links": {}
  },
  {
    "name": "A-Wing Visuals",
    "address": "333 Birch Ln, Denver, CO 80210",
    "phone": "(303) 555-0311",
    "rating": 4.9,
    "reviews": 25,
    "website": "https://www.awingvisuals.com/",
    "category": "Chinese-speaking Video production in Colorado",
    "description": "Denver's premier video production service crafting stunning, high-quality videos for commercials and corporate content, with a nationwide reach",
    "hours": "Mon-Fri 9AM-6PM",
    "services": [
      "Chinese-speaking Video production in Colorado consultation",
      "Professional service",
      "Quality guarantee"
    ],
    "social_links": {}
  }
]