[
  {
    "name": "LeBlanc & Young",
    "address": "477 Congress St, Portland, ME 04101",
    "phone": "(207) 775-2000",
    "rating": 4.8,
    "reviews": 25,
    "website": "https://leblanc-young.com/",
    "category": "Bengali-speaking Estate planning in Maine",
    "description": "A boutique estate and tax law firm specializing in comprehensive estate planning services, crafting customized legal solutions for individuals and families",
    "hours": "Mon-Fri 9AM-6PM",
    "services": [
      "Bengali-speaking Estate planning in Maine consultation",
      "Professional service",
      "Quality guarantee"
    ],
    "social_links": {}
  },
  {
    "name": "Brennan & Rogers, PLLC",
    "address": "173 York St, York, ME 03909",
    "phone": "(207) 361-4680",
    "rating": 4.7,
    "reviews": 25,
    "website": "https://www.brennanrogers.com/",
    "category": "Bengali-speaking Estate planning in Maine",
    "description": "A family-owned law firm specializing in estate planning, elder law, probate, and Medicaid applications, serving clients in Maine and New Hampshire",
    "hours": "Mon-Fri 9AM-6PM",
    "services": [
      "Bengali-speaking Estate planning in Maine consultation",
      "Professional service",
      "Quality guarantee"
    ],
    "social_links": {}
  },
  {
    "name": "Skelton Taintor & Abbott",
    "address": "167 Poland Rd, Auburn, ME 04210",
    "phone": "(207) 784-3200",
    "rating": 4.6,
    "reviews": 25,
    "website": "https://www.sta-law.com/",
    "category": "Bengali-speaking Estate planning in Maine",
    "description": "Nationally recognized attorneys providing responsive and reasonably priced legal services for wills, trusts, estate and gift tax planning, and prenuptial agreements",
    "hours": "Mon-Fri 9AM-6PM",
    "services": [
      "Bengali-speaking Estate planning in Maine consultation",
      "Professional service",
      "Quality guarantee"
    ],
    "social_links": {}
  },
  {
    "name": "Shaheen & Gordon, P.A.",
    "address": "100 Middle St, Portland, ME 04101",
    "phone": "(800) 451-1002",
    "rating": 4.5,
    "reviews": 25,
    "website": "https://www.shaheengordon.com/",
    "category": "Bengali-speaking Estate planning in Maine",
    "description": "Offers strategic estate planning services, including probate and wills, to help clients protect assets, avoid probate, and preserve their estates",
    "hours": "Mon-Fri 9AM-6PM",
    "services": [
      "Bengali-speaking Estate planning in Maine consultation",
      "Professional service",
      "Quality guarantee"
    ],
    "social_links": {}
  },
  {
    "name": "Epstein & O'Donovan, LLP",
    "address": "477 Congress St, Suite 701, Portland, ME 04101",
    "phone": "(207) 774-5000",
    "rating": 4.8,
    "reviews": 25,
    "website": "https://www.epsteinodonovan.com/",
    "category": "Bengali-speaking Estate planning in Maine",
    "description": "A law firm wholly dedicated to trusts and estates, estate planning, probate, and trust administration, with over 100 years of combined experience",
    "hours": "Mon-Fri 9AM-6PM",
    "services": [
      "Bengali-speaking Estate planning in Maine consultation",
      "Professional service",
      "Quality guarantee"
    ],
    "social_links": {}
  },
  {
    "name": "Maine Elder Law Firm LLC",
    "address": "161 Main St, Bangor, ME 04401",
    "phone": "(207) 210-0000",
    "rating": 4.9,
    "reviews": 25,
    "website": "https://www.maineelderlaw.com/",
    "category": "Bengali-speaking Estate planning in Maine",
    "description": "Focuses exclusively on the legal needs of aging Mainers and people with disabilities, offering estate planning, MaineCare planning, and special needs trusts",
    "hours": "Mon-Fri 9AM-6PM",
    "services": [
      "Bengali-speaking Estate planning in Maine consultation",
      "Professional service",
      "Quality guarantee"
    ],
    "social_links": {}
  },
  {
    "name": "VBK Law Firm",
    "address": "161 Main St, Suite 201, Bangor, ME 04401",
    "phone": "(207) 947-4500",
    "rating": 4.7,
    "reviews": 25,
    "website": "https://www.vbklaw.com/",
    "category": "Bengali-speaking Estate planning in Maine",
    "description": "Provides comprehensive estate planning services, including wills, trusts, and tax planning strategies, with a personalized approach to meet individual needs",
    "hours": "Mon-Fri 9AM-6PM",
    "services": [
      "Bengali-speaking Estate planning in Maine consultation",
      "Professional service",
      "Quality guarantee"
    ],
    "social_links": {}
  },
  {
    "name": "Rudman Winchell",
    "address": "84 Harlow St, Bangor, ME 04401",
    "phone": "(207) 947-4500",
    "rating": 4.6,
    "reviews": 25,
    "website": "https://www.rudmanwinchell.com/",
    "category": "Bengali-speaking Estate planning in Maine",
    "description": "Offers estate planning and elder law services, focusing on securing financial futures and safeguarding families, with a compassionate and personalized approach",
    "hours": "Mon-Fri 9AM-6PM",
    "services": [
      "Bengali-speaking Estate planning in Maine consultation",
      "Professional service",
      "Quality guarantee"
    ],
    "social_links": {}
  },
  {
    "name": "Griffin & Jordan",
    "address": "207 State St, Bangor, ME 04401",
    "phone": "(207) 866-5500",
    "rating": 4.7,
    "reviews": 25,
    "website": "https://www.griffinandjordan.com/",
    "category": "Bengali-speaking Estate planning in Maine",
    "description": "Lawyers with over 90 years of combined experience serving the greater Bangor area, with significant experience in estate planning and real estate closings",
    "hours": "Mon-Fri 9AM-6PM",
    "services": [
      "Bengali-speaking Estate planning in Maine consultation",
      "Professional service",
      "Quality guarantee"
    ],
    "social_links": {}
  },
  {
    "name": "Litalien Law, PLLC",
    "address": "144 Center St, Biddeford, ME 04005",
    "phone": "(207) 286-4000",
    "rating": 4.8,
    "reviews": 25,
    "website": "https://www.litalienlaw.com/",
    "category": "Bengali-speaking Estate planning in Maine",
    "description": "Specializes in estate planning, real estate, probate, and business formation, offering personalized legal solutions with a client-first approach",
    "hours": "Mon-Fri 9AM-6PM",
    "services": [
      "Bengali-speaking Estate planning in Maine consultation",
      "Professional service",
      "Quality guarantee"
    ],
    "social_links": {}
  }
]