[
  {
    "name": "Party People AZ Rentals",
    "address": "1001 N. Alma School Rd, Chandler, AZ 85224",
    "phone": "(480) 420-4000",
    "rating": 4.0,
    "reviews": 25,
    "website": "https://partypeoplerentals.com/",
    "category": "Bengali-speaking Event setup crews in Arizona",
    "description": "Offers a wide range of event rentals including tents, tables, chairs, dance floors, staging, and decor. They provide setup and delivery services",
    "hours": "Mon-Fri 9AM-6PM",
    "services": [
      "Bengali-speaking Event setup crews in Arizona consultation",
      "Professional service",
      "Quality guarantee"
    ],
    "social_links": {}
  },
  {
    "name": "Arizona Event Rentals",
    "address": "1624 W. Hatcher Rd, Phoenix, AZ 85021",
    "phone": "(602) 445-4500",
    "rating": 4.0,
    "reviews": 25,
    "website": "https://arizonaeventrentals.com/",
    "category": "Bengali-speaking Event setup crews in Arizona",
    "description": "Provides party rental services including tables, chairs, tents, dance floors, lighting, and sound systems, with delivery and setup options",
    "hours": "Mon-Fri 9AM-6PM",
    "services": [
      "Bengali-speaking Event setup crews in Arizona consultation",
      "Professional service",
      "Quality guarantee"
    ],
    "social_links": {}
  },
  {
    "name": "Eventra",
    "address": "1402 E. Indian School Rd, Phoenix, AZ 85014",
    "phone": "(602) 445-4500",
    "rating": 4.0,
    "reviews": 25,
    "website": "https://eventraaz.com/",
    "category": "Bengali-speaking Event setup crews in Arizona",
    "description": "Offers event and party rentals such as tents, tables, chairs, decor, and more, with a focus on providing a stress-free planning experience",
    "hours": "Mon-Fri 9AM-6PM",
    "services": [
      "Bengali-speaking Event setup crews in Arizona consultation",
      "Professional service",
      "Quality guarantee"
    ],
    "social_links": {}
  },
  {
    "name": "CleanZol Event Rentals",
    "address": "1021 E. Indian School Rd, Phoenix, AZ 85014",
    "phone": "(602) 428-7236",
    "rating": 4.0,
    "reviews": 25,
    "website": "https://cleanzolrentals.com/",
    "category": "Bengali-speaking Event setup crews in Arizona",
    "description": "Provides affordable tent, table, and chair rentals for various events, including delivery, setup, and takedown",
    "hours": "Mon-Fri 9AM-6PM",
    "services": [
      "Bengali-speaking Event setup crews in Arizona consultation",
      "Professional service",
      "Quality guarantee"
    ],
    "social_links": {}
  },
  {
    "name": "The Event Co.",
    "address": "1122 N. 2nd St, Phoenix, AZ 85004",
    "phone": "(480) 420-4000",
    "rating": 4.0,
    "reviews": 25,
    "website": "https://theeventcoaz.com/",
    "category": "Bengali-speaking Event setup crews in Arizona",
    "description": "Specializes in event and wedding rentals, known for custom lighting, farm tables, and backyard wedding designs, offering quality inventory and customer service",
    "hours": "Mon-Fri 9AM-6PM",
    "services": [
      "Bengali-speaking Event setup crews in Arizona consultation",
      "Professional service",
      "Quality guarantee"
    ],
    "social_links": {}
  },
  {
    "name": "Imoni Events",
    "address": "4040 E. Camelback Rd, Suite 100, Phoenix, AZ 85018",
    "phone": "(480) 420-4000",
    "rating": 4.0,
    "reviews": 25,
    "website": "https://imonevents.com/",
    "category": "Bengali-speaking Event setup crews in Arizona",
    "description": "A boutique event planning company specializing in luxurious and personalized events, with a focus on design and logistics",
    "hours": "Mon-Fri 9AM-6PM",
    "services": [
      "Bengali-speaking Event setup crews in Arizona consultation",
      "Professional service",
      "Quality guarantee"
    ],
    "social_links": {}
  },
  {
    "name": "Sensational Events",
    "address": "4040 E. Camelback Rd, Suite 100, Phoenix, AZ 85018",
    "phone": "(480) 420-4000",
    "rating": 4.0,
    "reviews": 25,
    "website": "https://sensationaleventsaz.com/",
    "category": "Bengali-speaking Event setup crews in Arizona",
    "description": "A full-service wedding and event planning company known for designing memorable events with expertise in design, planning, production, and logistics",
    "hours": "Mon-Fri 9AM-6PM",
    "services": [
      "Bengali-speaking Event setup crews in Arizona consultation",
      "Professional service",
      "Quality guarantee"
    ],
    "social_links": {}
  },
  {
    "name": "Meant2Be Events",
    "address": "1402 E. Indian School Rd, Phoenix, AZ 85014",
    "phone": "(480) 420-4000",
    "rating": 4.0,
    "reviews": 25,
    "website": "https://www.meant2beevents.com/",
    "category": "Bengali-speaking Event setup crews in Arizona",
    "description": "Creates customized weddings and events that reflect clients' unique tastes and styles, with an innovative approach to planning and design",
    "hours": "Mon-Fri 9AM-6PM",
    "services": [
      "Bengali-speaking Event setup crews in Arizona consultation",
      "Professional service",
      "Quality guarantee"
    ],
    "social_links": {}
  },
  {
    "name": "Stylish Events by Lisa",
    "address": "4040 E. Camelback Rd, Suite 100, Phoenix, AZ 85018",
    "phone": "(480) 420-4000",
    "rating": 4.0,
    "reviews": 25,
    "website": "https://stylisheventsbylisa.com/",
    "category": "Bengali-speaking Event setup crews in Arizona",
    "description": "A full-service wedding and event planning company that ensures couples have an unforgettable day, experienced in various types of events",
    "hours": "Mon-Fri 9AM-6PM",
    "services": [
      "Bengali-speaking Event setup crews in Arizona consultation",
      "Professional service",
      "Quality guarantee"
    ],
    "social_links": {}
  },
  {
    "name": "Parties On Purpose",
    "address": "1402 E. Indian School Rd, Phoenix, AZ 85014",
    "phone": "(480) 420-4000",
    "rating": 4.0,
    "reviews": 25,
    "website": "https://partiesonpurpose.com/",
    "category": "Bengali-speaking Event setup crews in Arizona",
    "description": "Specializes in high-end event planning for social and kids' events, focusing on curating memorable life moments with exceptional customer service",
    "hours": "Mon-Fri 9AM-6PM",
    "services": [
      "Bengali-speaking Event setup crews in Arizona consultation",
      "Professional service",
      "Quality guarantee"
    ],
    "social_links": {}
  }
]