[
  {
    "name": "S Squared Automotive",
    "address": "4006 Vincent Station Dr, Owensboro, KY 42301",
    "phone": "(270) 570-8645",
    "rating": 5.0,
    "reviews": 25,
    "website": "https://www.google.com/maps/search/S+Squared+Automotive+in+Kentucky",
    "category": "Black-owned Auto body repair in Kentucky",
    "description": "Offers honest, high-quality auto repair, diagnostics, and maintenance in Owensboro, KY, servicing all vehicles",
    "hours": "Mon-Fri 9AM-6PM",
    "services": [
      "Black-owned Auto body repair in Kentucky consultation",
      "Professional service",
      "Quality guarantee"
    ],
    "social_links": {}
  },
  {
    "name": "David Toles Tire & Auto Pro",
    "address": "1348 Versailles Rd, Frankfort, KY 40601 and 515 Duncan Road, Frankfort, KY 40601",
    "phone": "",
    "rating": 4.0,
    "reviews": 25,
    "website": "https://www.google.com/maps/search/David+Toles+Tire+&+Auto+Pro+in+Kentucky",
    "category": "Black-owned Auto body repair in Kentucky",
    "description": "Full-service auto repair shop in Frankfort, KY, servicing all makes and models, and also offers tire sales",
    "hours": "Mon-Fri 9AM-6PM",
    "services": [
      "Black-owned Auto body repair in Kentucky consultation",
      "Professional service",
      "Quality guarantee"
    ],
    "social_links": {}
  },
  {
    "name": "Complete Automotive Repair",
    "address": "Not explicitly listed, but located in Lexington, KY",
    "phone": "859-268-8715",
    "rating": 4.0,
    "reviews": 25,
    "website": "https://www.google.com/maps/search/Complete+Automotive+Repair+in+Kentucky",
    "category": "Black-owned Auto body repair in Kentucky",
    "description": "Woman, veteran, and family-owned and operated since 1985, offering a 3-year, 36,000-mile nationwide warranty",
    "hours": "Mon-Fri 9AM-6PM",
    "services": [
      "Black-owned Auto body repair in Kentucky consultation",
      "Professional service",
      "Quality guarantee"
    ],
    "social_links": {}
  },
  {
    "name": "Elite Automotive",
    "address": "Not explicitly listed, but located in Covington, KY",
    "phone": "",
    "rating": 4.0,
    "reviews": 25,
    "website": "https://www.google.com/maps/search/Elite+Automotive+in+Kentucky",
    "category": "Black-owned Auto body repair in Kentucky",
    "description": "ASE-certified technicians offering top-notch auto repair, maintenance, diagnostics, and tire services",
    "hours": "Mon-Fri 9AM-6PM",
    "services": [
      "Black-owned Auto body repair in Kentucky consultation",
      "Professional service",
      "Quality guarantee"
    ],
    "social_links": {}
  },
  {
    "name": "My Guy Auto Repair",
    "address": "7525 INDUSTRIAL RD SUITE#C, Florence, KY 41042",
    "phone": "(859) 282-1601",
    "rating": 4.0,
    "reviews": 25,
    "website": "https://www.google.com/maps/search/My+Guy+Auto+Repair+in+Kentucky",
    "category": "Black-owned Auto body repair in Kentucky",
    "description": "Family-owned auto repair shop delivering honest and professional services in Florence, KY, and surrounding areas",
    "hours": "Mon-Fri 9AM-6PM",
    "services": [
      "Black-owned Auto body repair in Kentucky consultation",
      "Professional service",
      "Quality guarantee"
    ],
    "social_links": {}
  },
  {
    "name": "Ron's Auto Service",
    "address": "350 Four Mile Ave, Richmond, KY 40475",
    "phone": "(859) 624-8873",
    "rating": 4.0,
    "reviews": 25,
    "website": "https://www.google.com/maps/search/Ron's+Auto+Service+in+Kentucky",
    "category": "Black-owned Auto body repair in Kentucky",
    "description": "Locally owned business delivering honest and professional auto repair and maintenance services",
    "hours": "Mon-Fri 9AM-6PM",
    "services": [
      "Black-owned Auto body repair in Kentucky consultation",
      "Professional service",
      "Quality guarantee"
    ],
    "social_links": {}
  },
  {
    "name": "Sonny Dunn Body Shop Inc.",
    "address": "Not explicitly listed, but located in Frankfort, KY",
    "phone": "502-695-0884",
    "rating": 4.0,
    "reviews": 25,
    "website": "https://www.google.com/maps/search/Sonny+Dunn+Body+Shop+Inc.+in+Kentucky",
    "category": "Black-owned Auto body repair in Kentucky",
    "description": "Providing professional autobody repair services for over 60 years, family-owned and operated, offering services like dent repair, painting, and framework",
    "hours": "Mon-Fri 9AM-6PM",
    "services": [
      "Black-owned Auto body repair in Kentucky consultation",
      "Professional service",
      "Quality guarantee"
    ],
    "social_links": {}
  },
  {
    "name": "Limitless Auto & Diesel",
    "address": "Shop: 100 Commerce Blvd, Frankfort, KY 40601; Auto Sales: 1605 Versailles Road, Frankfort, KY 40601; Collision/Auto Body Repair: 100 Commerce Blvd, Frankfort, KY 40601",
    "phone": "(502) 871-5147 (Shop), (502) 382-3985 (Collision/Auto Body Repair)",
    "rating": 4.0,
    "reviews": 25,
    "website": "https://www.google.com/maps/search/Limitless+Auto+&+Diesel+in+Kentucky",
    "category": "Black-owned Auto body repair in Kentucky",
    "description": "Offers a wide range of maintenance and repair services for cars and trucks, including collision and auto body repair",
    "hours": "Mon-Fri 9AM-6PM",
    "services": [
      "Black-owned Auto body repair in Kentucky consultation",
      "Professional service",
      "Quality guarantee"
    ],
    "social_links": {}
  },
  {
    "name": "Jay Barkers Auto Repair Service",
    "address": "4350 Taylor Boulevard, Louisville, KY 40215",
    "phone": "502-363-9613",
    "rating": 4.0,
    "reviews": 25,
    "website": "https://www.google.com/maps/search/Jay+Barkers+Auto+Repair+Service+in+Kentucky",
    "category": "Black-owned Auto body repair in Kentucky",
    "description": "Premier car and truck repair services in Louisville, KY, specializing in services from AC repair to transmission services",
    "hours": "Mon-Fri 9AM-6PM",
    "services": [
      "Black-owned Auto body repair in Kentucky consultation",
      "Professional service",
      "Quality guarantee"
    ],
    "social_links": {}
  },
  {
    "name": "Mitch's Auto Repair",
    "address": "1253 Industry Rd Ste 120, Lexington, KY 40505",
    "phone": "859-254-6398",
    "rating": 4.0,
    "reviews": 25,
    "website": "https://www.google.com/maps/search/Mitch's+Auto+Repair+in+Kentucky",
    "category": "Black-owned Auto body repair in Kentucky",
    "description": "Premier car and truck repair services in Lexington, KY, specializing in services from AC repair to transmission services",
    "hours": "Mon-Fri 9AM-6PM",
    "services": [
      "Black-owned Auto body repair in Kentucky consultation",
      "Professional service",
      "Quality guarantee"
    ],
    "social_links": {}
  }
]