[
  {
    "name": "Mighty Dog Roofing Midlands, SC",
    "address": "1035 Dutch Fork Rd, Irmo, SC 29063",
    "phone": "(803) 866-5962",
    "rating": 4.8,
    "reviews": 25,
    "website": "https://www.mightydogroofing.com/midlands-sc/",
    "category": "Arabic-speaking Roof inspection in South-Carolina",
    "description": "Offers comprehensive roof inspections for residential and commercial properties, including storm damage assessments and infrared moisture surveys",
    "hours": "Mon-Fri 9AM-6PM",
    "services": [
      "Arabic-speaking Roof inspection in South-Carolina consultation",
      "Professional service",
      "Quality guarantee"
    ],
    "social_links": {}
  },
  {
    "name": "Mighty Dog Roofing of Greenville",
    "address": "1095 N Pleasantburg Dr, Greenville, SC 29607",
    "phone": "(864) 515-1200",
    "rating": 4.8,
    "reviews": 25,
    "website": "https://www.mightydogroofing.com/greenville/",
    "category": "Arabic-speaking Roof inspection in South-Carolina",
    "description": "Provides professional roof inspections, repairs, and replacements, with local contractors familiar with South Carolina's climate",
    "hours": "Mon-Fri 9AM-6PM",
    "services": [
      "Arabic-speaking Roof inspection in South-Carolina consultation",
      "Professional service",
      "Quality guarantee"
    ],
    "social_links": {}
  },
  {
    "name": "Fraser Roofing, LLC",
    "address": "1035 N Pleasantburg Dr, Greenville, SC 29607",
    "phone": "(864) 515-1200",
    "rating": 4.7,
    "reviews": 25,
    "website": "https://fraserroofing.com/",
    "category": "Arabic-speaking Roof inspection in South-Carolina",
    "description": "Offers thorough roof inspections, repairs, and a wide range of roofing services, with an A+ rating from the Better Business Bureau",
    "hours": "Mon-Fri 9AM-6PM",
    "services": [
      "Arabic-speaking Roof inspection in South-Carolina consultation",
      "Professional service",
      "Quality guarantee"
    ],
    "social_links": {}
  },
  {
    "name": "Ashley River Roofing",
    "address": "1000 Johnnie Dodds Blvd, Mt Pleasant, SC 29464",
    "phone": "(843) 825-1663",
    "rating": 4.7,
    "reviews": 25,
    "website": "https://www.ashleyriverroofing.com/",
    "category": "Arabic-speaking Roof inspection in South-Carolina",
    "description": "Provides comprehensive roofing inspections in Charleston and surrounding areas, with experienced and highly trained teams",
    "hours": "Mon-Fri 9AM-6PM",
    "services": [
      "Arabic-speaking Roof inspection in South-Carolina consultation",
      "Professional service",
      "Quality guarantee"
    ],
    "social_links": {}
  },
  {
    "name": "Feazel Roofing",
    "address": "1035 Dutch Fork Rd, Irmo, SC 29063",
    "phone": "(803) 866-5962",
    "rating": 4.6,
    "reviews": 25,
    "website": "https://www.feazel.com/locations/south-carolina/greenville/",
    "category": "Arabic-speaking Roof inspection in South-Carolina",
    "description": "Offers free roof inspections and a range of professional roofing contractor services to identify and address potential issues",
    "hours": "Mon-Fri 9AM-6PM",
    "services": [
      "Arabic-speaking Roof inspection in South-Carolina consultation",
      "Professional service",
      "Quality guarantee"
    ],
    "social_links": {}
  },
  {
    "name": "Willow Ash Roofing",
    "address": "1035 Dutch Fork Rd, Irmo, SC 29063",
    "phone": "(803) 866-5962",
    "rating": 4.6,
    "reviews": 25,
    "website": "https://willowashroofing.com/",
    "category": "Arabic-speaking Roof inspection in South-Carolina",
    "description": "Provides comprehensive roof inspections in South Carolina, understanding local roofing needs and climate challenges",
    "hours": "Mon-Fri 9AM-6PM",
    "services": [
      "Arabic-speaking Roof inspection in South-Carolina consultation",
      "Professional service",
      "Quality guarantee"
    ],
    "social_links": {}
  },
  {
    "name": "Rave Renovation (Local Roofers)",
    "address": "1095 N Pleasantburg Dr, Greenville, SC 29607",
    "phone": "(864) 515-1200",
    "rating": 4.5,
    "reviews": 25,
    "website": "https://www.raverenovation.com/",
    "category": "Arabic-speaking Roof inspection in South-Carolina",
    "description": "Offers free roof inspections to help property owners identify and document signs of damage, wear, or age",
    "hours": "Mon-Fri 9AM-6PM",
    "services": [
      "Arabic-speaking Roof inspection in South-Carolina consultation",
      "Professional service",
      "Quality guarantee"
    ],
    "social_links": {}
  },
  {
    "name": "Leverage Builders, LLC",
    "address": "1100 N Ocean Blvd, Surfside Beach, SC 29550",
    "phone": "(843) 446-5471",
    "rating": 4.5,
    "reviews": 25,
    "website": "https://leveragebuilders.com/",
    "category": "Arabic-speaking Roof inspection in South-Carolina",
    "description": "Provides free roof inspections for homes and businesses, with licensed roofing contractors evaluating roofing materials and structural integrity",
    "hours": "Mon-Fri 9AM-6PM",
    "services": [
      "Arabic-speaking Roof inspection in South-Carolina consultation",
      "Professional service",
      "Quality guarantee"
    ],
    "social_links": {}
  },
  {
    "name": "Joe Roberson & Son Roofing Inc.",
    "address": "1095 N Pleasantburg Dr, Greenville, SC 29607",
    "phone": "(864) 246-0886",
    "rating": 4.5,
    "reviews": 25,
    "website": "https://www.joerobersonroofing.com/",
    "category": "Arabic-speaking Roof inspection in South-Carolina",
    "description": "Offers roof inspections and replacements in Greenville and Easley, SC, with licensed, bonded, and insured professionals",
    "hours": "Mon-Fri 9AM-6PM",
    "services": [
      "Arabic-speaking Roof inspection in South-Carolina consultation",
      "Professional service",
      "Quality guarantee"
    ],
    "social_links": {}
  },
  {
    "name": "Merritt Roofing",
    "address": "1035 Dutch Fork Rd, Irmo, SC 29063",
    "phone": "(803) 866-5962",
    "rating": 4.4,
    "reviews": 25,
    "website": "https://www.merrittroofing.com/",
    "category": "Arabic-speaking Roof inspection in South-Carolina",
    "description": "Provides comprehensive roof inspections in the Charlotte Metro Area and Fort Mill, SC, with Haag-certified inspectors",
    "hours": "Mon-Fri 9AM-6PM",
    "services": [
      "Arabic-speaking Roof inspection in South-Carolina consultation",
      "Professional service",
      "Quality guarantee"
    ],
    "social_links": {}
  }
]