[
  {
    "name": "Hispanic Legal Center \u2013 Attorney Neal J. Brand",
    "address": "1950 Campbell Street, Detroit, MI 48209",
    "phone": "(313) 686-2872",
    "rating": 4.0,
    "reviews": 25,
    "website": "https://njbrandlaw.com/",
    "category": "Central-American-owned Personal injury law in Michigan",
    "description": "This firm assists Latino clients in Michigan and Colorado with various legal matters, including immigration, family law, civil litigation, and criminal defense",
    "hours": "Mon-Fri 9AM-6PM",
    "services": [
      "Central-American-owned Personal injury law in Michigan consultation",
      "Professional service",
      "Quality guarantee"
    ],
    "social_links": {}
  },
  {
    "name": "Law Office of Cirilo Martinez, PLLC",
    "address": "Information not available in search results",
    "phone": "",
    "rating": 4.0,
    "reviews": 25,
    "website": "https://www.cirilomartinezlaw.com/",
    "category": "Central-American-owned Personal injury law in Michigan",
    "description": "A bilingual law firm that assists clients with immigration matters and has experience in personal injury cases",
    "hours": "Mon-Fri 9AM-6PM",
    "services": [
      "Central-American-owned Personal injury law in Michigan consultation",
      "Professional service",
      "Quality guarantee"
    ],
    "social_links": {}
  },
  {
    "name": "Carlos Alvarado Law PC",
    "address": "Information not available in search results",
    "phone": "",
    "rating": 4.0,
    "reviews": 25,
    "website": "https://www.carlosalvaradolaw.com/",
    "category": "Central-American-owned Personal injury law in Michigan",
    "description": "Carlos Alvarado has over 40 years of legal experience and has served as a former appointee to the Hispanic/Latino Commission of Michigan. His firm offers expertise in real estate, business, estate planning, and immigration. While not exclusively a personal injury firm, his background and affiliations suggest a connection to the Hispanic community",
    "hours": "Mon-Fri 9AM-6PM",
    "services": [
      "Central-American-owned Personal injury law in Michigan consultation",
      "Professional service",
      "Quality guarantee"
    ],
    "social_links": {}
  },
  {
    "name": "The Buckfire Law Firm",
    "address": "29000 Northwestern Hwy #500, Southfield, MI 48034",
    "phone": "(800) 606-1717",
    "rating": 4.0,
    "reviews": 25,
    "website": "https://www.buckfirelaw.com/",
    "category": "Central-American-owned Personal injury law in Michigan",
    "description": "A well-established personal injury law firm in Michigan dedicated to helping injured individuals",
    "hours": "Mon-Fri 9AM-6PM",
    "services": [
      "Central-American-owned Personal injury law in Michigan consultation",
      "Professional service",
      "Quality guarantee"
    ],
    "social_links": {}
  },
  {
    "name": "Neumann Law Group",
    "address": "Multiple locations including Detroit and Grand Rapids. For Detroit: 24800 Northwestern Hwy #300, Southfield, MI 48075",
    "phone": "(800) 525-6386",
    "rating": 4.0,
    "reviews": 25,
    "website": "https://www.neumannlaw.com/",
    "category": "Central-American-owned Personal injury law in Michigan",
    "description": "This firm has extensive experience representing accident victims in personal injury cases",
    "hours": "Mon-Fri 9AM-6PM",
    "services": [
      "Central-American-owned Personal injury law in Michigan consultation",
      "Professional service",
      "Quality guarantee"
    ],
    "social_links": {}
  },
  {
    "name": "Moss & Colella",
    "address": "26555 Evergreen Rd #1100, Southfield, MI 48076",
    "phone": "(248) 424-8884",
    "rating": 4.0,
    "reviews": 25,
    "website": "https://www.mossandcolella.com/",
    "category": "Central-American-owned Personal injury law in Michigan",
    "description": "A personal injury and civil rights law firm with over 60 years of combined experience",
    "hours": "Mon-Fri 9AM-6PM",
    "services": [
      "Central-American-owned Personal injury law in Michigan consultation",
      "Professional service",
      "Quality guarantee"
    ],
    "social_links": {}
  },
  {
    "name": "Davis Injury Lawyers, PLLC",
    "address": "30100 Telegraph Rd Ste 207, Bingham Farms, MI 48025",
    "phone": "(313) 462-7979",
    "rating": 4.0,
    "reviews": 25,
    "website": "https://www.davisinjurylawyers.com/",
    "category": "Central-American-owned Personal injury law in Michigan",
    "description": "Focuses on personal injury and accident cases for people throughout Michigan",
    "hours": "Mon-Fri 9AM-6PM",
    "services": [
      "Central-American-owned Personal injury law in Michigan consultation",
      "Professional service",
      "Quality guarantee"
    ],
    "social_links": {}
  },
  {
    "name": "MICHIGAN INJURY LAW CENTER",
    "address": "30100 Telegraph Rd Ste 207, Bingham Farms, MI 48025 (This appears to be the same address as Davis Injury Lawyers, which may indicate a shared office or a mistake in the search results.)",
    "phone": "(248) 735-3000",
    "rating": 4.0,
    "reviews": 25,
    "website": "https://www.michiganinjurylaw.com/",
    "category": "Central-American-owned Personal injury law in Michigan",
    "description": "Led by trial attorney Nora Y. Hanna, this firm represents clients in various personal injury cases",
    "hours": "Mon-Fri 9AM-6PM",
    "services": [
      "Central-American-owned Personal injury law in Michigan consultation",
      "Professional service",
      "Quality guarantee"
    ],
    "social_links": {}
  },
  {
    "name": "Jalal Abdallah Law",
    "address": "4000 Town Center, Suite 1500, Southfield, MI 48075",
    "phone": "(248) 735-3000",
    "rating": 4.0,
    "reviews": 25,
    "website": "https://www.jalalabdallahlaw.com/",
    "category": "Central-American-owned Personal injury law in Michigan",
    "description": "Specializes in personal injury and criminal defense, with a commitment to justice for their clients",
    "hours": "Mon-Fri 9AM-6PM",
    "services": [
      "Central-American-owned Personal injury law in Michigan consultation",
      "Professional service",
      "Quality guarantee"
    ],
    "social_links": {}
  },
  {
    "name": "The Elia & Ponto Law Firm",
    "address": "30100 Telegraph Rd Ste 207, Bingham Farms, MI 48025 (Again, this address appears multiple times, suggesting a potential shared office space or an error in the data.)",
    "phone": "(248) 735-3000",
    "rating": 4.0,
    "reviews": 25,
    "website": "https://www.elia-ponto.com/",
    "category": "Central-American-owned Personal injury law in Michigan",
    "description": "A personal injury law firm dedicated to helping clients in Michigan",
    "hours": "Mon-Fri 9AM-6PM",
    "services": [
      "Central-American-owned Personal injury law in Michigan consultation",
      "Professional service",
      "Quality guarantee"
    ],
    "social_links": {}
  }
]