[
  {
    "name": "A.M. Peisch & Company, LLP",
    "address": "Multiple locations including 49 Wales Street, Rutland, VT 05701 and Water Tower Circle, Colchester, VT 05446",
    "phone": "(802) 773-8344 (Rutland), (802) 655-1000 (Colchester)",
    "rating": 4.0,
    "reviews": 25,
    "website": "https://www.ampeisch.com/",
    "category": "Baby-Boomer-owned External auditing in Vermont",
    "description": "A full-service tax, accounting, and business consulting firm with multiple offices across Vermont and New Hampshire, offering audit, review, and compilation services",
    "hours": "Mon-Fri 9AM-6PM",
    "services": [
      "Baby-Boomer-owned External auditing in Vermont consultation",
      "Professional service",
      "Quality guarantee"
    ],
    "social_links": {}
  },
  {
    "name": "Batchelder Associates, P.C.",
    "address": "1 Conti Circle, Barre, VT 05641",
    "phone": "(802) 476-9490",
    "rating": 4.0,
    "reviews": 25,
    "website": "https://www.batchelderassociates.com/",
    "category": "Baby-Boomer-owned External auditing in Vermont",
    "description": "Offers accounting, tax, audit, and CFO services, with a focus on audit preparedness and government services",
    "hours": "Mon-Fri 9AM-6PM",
    "services": [
      "Baby-Boomer-owned External auditing in Vermont consultation",
      "Professional service",
      "Quality guarantee"
    ],
    "social_links": {}
  },
  {
    "name": "JMM & Associates",
    "address": "118 Tilley Drive, Suite 202, Colchester, VT 05403",
    "phone": "(802) 655-1000",
    "rating": 4.0,
    "reviews": 25,
    "website": "https://www.jmmcpa.net/",
    "category": "Baby-Boomer-owned External auditing in Vermont",
    "description": "Provides a wide range of tax, audit, accounting, and consulting services, specializing in nonprofit organizations and offering three levels of assurance",
    "hours": "Mon-Fri 9AM-6PM",
    "services": [
      "Baby-Boomer-owned External auditing in Vermont consultation",
      "Professional service",
      "Quality guarantee"
    ],
    "social_links": {}
  },
  {
    "name": "Gallagher, Flynn & Company, LLP",
    "address": "55 Community Drive, Suite 401, South Burlington, VT 05403",
    "phone": "(802) 863-1000",
    "rating": 4.0,
    "reviews": 25,
    "website": "https://www.gfc.com/",
    "category": "Baby-Boomer-owned External auditing in Vermont",
    "description": "A full-service accounting and advisory firm offering audit, assurance, tax, and consulting services",
    "hours": "Mon-Fri 9AM-6PM",
    "services": [
      "Baby-Boomer-owned External auditing in Vermont consultation",
      "Professional service",
      "Quality guarantee"
    ],
    "social_links": {}
  },
  {
    "name": "Crowe Horwath LLP",
    "address": "40 Main Street, Suite 300, Burlington, VT 05401",
    "phone": "(802) 865-9300",
    "rating": 4.0,
    "reviews": 25,
    "website": "https://www.crowe.com/us/offices/burlington-vt",
    "category": "Baby-Boomer-owned External auditing in Vermont",
    "description": "Offers audit, tax, and advisory services, with a focus on various industries including insurance and healthcare",
    "hours": "Mon-Fri 9AM-6PM",
    "services": [
      "Baby-Boomer-owned External auditing in Vermont consultation",
      "Professional service",
      "Quality guarantee"
    ],
    "social_links": {}
  },
  {
    "name": "Davis & Hodgdon CPAs",
    "address": "Multiple locations including Burlington and Rutland, VT",
    "phone": "",
    "rating": 4.0,
    "reviews": 25,
    "website": "https://www.dh-cpa.com/",
    "category": "Baby-Boomer-owned External auditing in Vermont",
    "description": "A CPA firm offering tax planning, financial and investment planning, and client accounting services, with a focus on proactive strategies",
    "hours": "Mon-Fri 9AM-6PM",
    "services": [
      "Baby-Boomer-owned External auditing in Vermont consultation",
      "Professional service",
      "Quality guarantee"
    ],
    "social_links": {}
  },
  {
    "name": "Clear Accounting Firm",
    "address": "Multiple locations including Brattleboro, VT; Springfield, VT; and Rutland, VT",
    "phone": "",
    "rating": 4.0,
    "reviews": 25,
    "website": "https://www.clearaccounting.com/",
    "category": "Baby-Boomer-owned External auditing in Vermont",
    "description": "A full-service CPA firm providing accounting, bookkeeping, and tax services, with a client-centric approach and tailored strategies",
    "hours": "Mon-Fri 9AM-6PM",
    "services": [
      "Baby-Boomer-owned External auditing in Vermont consultation",
      "Professional service",
      "Quality guarantee"
    ],
    "social_links": {}
  },
  {
    "name": "Love, Cody & Company, CPAs",
    "address": "215 South Street, Bennington, VT 05201",
    "phone": "(802) 442-8174",
    "rating": 4.0,
    "reviews": 25,
    "website": "https://www.lovecodycpa.com/",
    "category": "Baby-Boomer-owned External auditing in Vermont",
    "description": "A full-service tax, accounting, and business consulting firm offering a blend of personal service and expertise",
    "hours": "Mon-Fri 9AM-6PM",
    "services": [
      "Baby-Boomer-owned External auditing in Vermont consultation",
      "Professional service",
      "Quality guarantee"
    ],
    "social_links": {}
  },
  {
    "name": "Sullivan Powers & Company, P.C.",
    "address": "Montpelier, VT",
    "phone": "",
    "rating": 4.0,
    "reviews": 25,
    "website": "https://www.spcpa.com/",
    "category": "Baby-Boomer-owned External auditing in Vermont",
    "description": "A CPA firm providing accounting, audit, and tax services with a mission to help clients achieve their goals through personal attention",
    "hours": "Mon-Fri 9AM-6PM",
    "services": [
      "Baby-Boomer-owned External auditing in Vermont consultation",
      "Professional service",
      "Quality guarantee"
    ],
    "social_links": {}
  },
  {
    "name": "McSoley McCoy & Co.",
    "address": "118 Tilley Drive, Suite 202, South Burlington, VT 05403",
    "phone": "(802) 862-1000",
    "rating": 4.0,
    "reviews": 25,
    "website": "https://www.mccoy-cpas.com/",
    "category": "Baby-Boomer-owned External auditing in Vermont",
    "description": "Offers common-sense tax and accounting solutions tailored to meet diverse client needs, including tax, accounting, and business consulting",
    "hours": "Mon-Fri 9AM-6PM",
    "services": [
      "Baby-Boomer-owned External auditing in Vermont consultation",
      "Professional service",
      "Quality guarantee"
    ],
    "social_links": {}
  }
]