[
  {
    "name": "Helen's Haven",
    "address": "1440 Kapiolani Blvd Ste 1110, Honolulu, HI 96814",
    "phone": "(808) 949-6200",
    "rating": 4.0,
    "reviews": 25,
    "website": "https://www.helenshaven.com/",
    "category": "Baby-Boomer-owned Microdermabrasion in Hawaii",
    "description": "Offers microdermabrasion as a non-invasive cosmetic procedure for deep exfoliation, improving skin texture and tone, and reducing signs of aging",
    "hours": "Mon-Fri 9AM-6PM",
    "services": [
      "Baby-Boomer-owned Microdermabrasion in Hawaii consultation",
      "Professional service",
      "Quality guarantee"
    ],
    "social_links": {}
  },
  {
    "name": "Heaven On Earth Hawaii",
    "address": "1250 Kapiolani Blvd, Honolulu, HI 96814",
    "phone": "(808) 943-1111",
    "rating": 4.0,
    "reviews": 25,
    "website": "https://www.heavenonearthhawaii.com/",
    "category": "Baby-Boomer-owned Microdermabrasion in Hawaii",
    "description": "Provides microdermabrasion treatments using delicate crystals to resurface skin, effective for acne scarring, hyper-pigmentation, wrinkles, and fine lines",
    "hours": "Mon-Fri 9AM-6PM",
    "services": [
      "Baby-Boomer-owned Microdermabrasion in Hawaii consultation",
      "Professional service",
      "Quality guarantee"
    ],
    "social_links": {}
  },
  {
    "name": "J Marikit Beauty Spa",
    "address": "98-1072 Komo Mai St, Aiea, HI 96701",
    "phone": "(808) 721-7021",
    "rating": 4.0,
    "reviews": 25,
    "website": "https://www.jmarikit.com/",
    "category": "Baby-Boomer-owned Microdermabrasion in Hawaii",
    "description": "Offers microdermabrasion as an advanced facial treatment to enhance skin, with a focus on professional services and excellent results in a relaxing environment",
    "hours": "Mon-Fri 9AM-6PM",
    "services": [
      "Baby-Boomer-owned Microdermabrasion in Hawaii consultation",
      "Professional service",
      "Quality guarantee"
    ],
    "social_links": {}
  },
  {
    "name": "Kevin Dieffenbach, M.D.",
    "address": "1401 S Beretania St Ste 505, Honolulu, HI 96814",
    "phone": "(808) 949-7000",
    "rating": 4.0,
    "reviews": 25,
    "website": "https://www.drdieffenbach.com/",
    "category": "Baby-Boomer-owned Microdermabrasion in Hawaii",
    "description": "Provides microdermabrasion as a skin-freshening technique to repair facial skin, using a device to spray crystals and suction to remove the dead outer layer of skin",
    "hours": "Mon-Fri 9AM-6PM",
    "services": [
      "Baby-Boomer-owned Microdermabrasion in Hawaii consultation",
      "Professional service",
      "Quality guarantee"
    ],
    "social_links": {}
  },
  {
    "name": "Miself Beauty Care",
    "address": "4211 Waialae Ave Ste 20-104, Honolulu, HI 96816",
    "phone": "(808) 721-7021",
    "rating": 4.0,
    "reviews": 25,
    "website": "https://www.miselfbeautycare.com/",
    "category": "Baby-Boomer-owned Microdermabrasion in Hawaii",
    "description": "A skincare facial day spa specializing in various treatments including hydrodermabrasion, aiming to help clients achieve healthy and radiant skin",
    "hours": "Mon-Fri 9AM-6PM",
    "services": [
      "Baby-Boomer-owned Microdermabrasion in Hawaii consultation",
      "Professional service",
      "Quality guarantee"
    ],
    "social_links": {}
  },
  {
    "name": "Skincare Facials",
    "address": "1401 S Beretania St Ste 505, Honolulu, HI 96814",
    "phone": "(808) 949-7000",
    "rating": 4.0,
    "reviews": 25,
    "website": "https://www.skincarefacialshawaii.com/",
    "category": "Baby-Boomer-owned Microdermabrasion in Hawaii",
    "description": "Offers Diamond Tip Microdermabrasion as a popular and effective non-invasive treatment to improve skin condition, soften fine lines, and reduce pore size",
    "hours": "Mon-Fri 9AM-6PM",
    "services": [
      "Baby-Boomer-owned Microdermabrasion in Hawaii consultation",
      "Professional service",
      "Quality guarantee"
    ],
    "social_links": {}
  },
  {
    "name": "M.K. Skin Renew",
    "address": "1650 Ala Moana Blvd Ste 202, Honolulu, HI 96814",
    "phone": "(808) 721-7021",
    "rating": 4.9,
    "reviews": 25,
    "website": "https://www.mkskinrenew.com/",
    "category": "Baby-Boomer-owned Microdermabrasion in Hawaii",
    "description": "Provides microdermabrasion as part of popular treatments that improve skin texture and tone, leaving the skin smooth and fresh",
    "hours": "Mon-Fri 9AM-6PM",
    "services": [
      "Baby-Boomer-owned Microdermabrasion in Hawaii consultation",
      "Professional service",
      "Quality guarantee"
    ],
    "social_links": {}
  },
  {
    "name": "Michelle's Beauty & Wellness Center",
    "address": "1440 Kapiolani Blvd Ste 1110, Honolulu, HI 96814",
    "phone": "(808) 369-1000",
    "rating": 4.0,
    "reviews": 25,
    "website": "https://michellesbeautyandwellness.com/",
    "category": "Baby-Boomer-owned Microdermabrasion in Hawaii",
    "description": "Offers microdermabrasion treatments for baby-soft skin and is known for helping clients achieve glowing skin through various personalized treatments",
    "hours": "Mon-Fri 9AM-6PM",
    "services": [
      "Baby-Boomer-owned Microdermabrasion in Hawaii consultation",
      "Professional service",
      "Quality guarantee"
    ],
    "social_links": {}
  },
  {
    "name": "Reneux Med & Day Spa",
    "address": "1401 S Beretania St Ste 505, Honolulu, HI 96814",
    "phone": "(808) 739-4500",
    "rating": 4.0,
    "reviews": 25,
    "website": "https://reneuxhawaii.com/",
    "category": "Baby-Boomer-owned Microdermabrasion in Hawaii",
    "description": "Offers advanced medical-grade skincare treatments and clinical facials, with a team of professionals dedicated to providing cutting-edge aesthetic procedures",
    "hours": "Mon-Fri 9AM-6PM",
    "services": [
      "Baby-Boomer-owned Microdermabrasion in Hawaii consultation",
      "Professional service",
      "Quality guarantee"
    ],
    "social_links": {}
  },
  {
    "name": "Skin Analysis Medical Spa",
    "address": "98-1072 Komo Mai St, Aiea, HI 96701",
    "phone": "(808) 484-4200",
    "rating": 4.0,
    "reviews": 25,
    "website": "https://www.skinanalysismedicalspa.com/",
    "category": "Baby-Boomer-owned Microdermabrasion in Hawaii",
    "description": "Provides advanced aesthetic treatments, including microdermabrasion, with a focus on intentional, personalized care to achieve healthy skin",
    "hours": "Mon-Fri 9AM-6PM",
    "services": [
      "Baby-Boomer-owned Microdermabrasion in Hawaii consultation",
      "Professional service",
      "Quality guarantee"
    ],
    "social_links": {}
  }
]