[
  {
    "name": "Nationwide",
    "address": "Multiple locations available. A general contact number is 1-877-On-Your-Side",
    "phone": "1-877-On-Your-Side",
    "rating": 4.0,
    "reviews": 25,
    "website": "https://www.nationwide.com/",
    "category": "American-Indian-owned Homeowners insurance in Delaware",
    "description": "Offers a variety of homeowners insurance policies with options for water backup, identity theft protection, and discounts",
    "hours": "Mon-Fri 9AM-6PM",
    "services": [
      "American-Indian-owned Homeowners insurance in Delaware consultation",
      "Professional service",
      "Quality guarantee"
    ],
    "social_links": {}
  },
  {
    "name": "Allstate",
    "address": "Multiple locations available. You can find a local agent on their website",
    "phone": "",
    "rating": 4.0,
    "reviews": 25,
    "website": "https://www.allstate.com/",
    "category": "American-Indian-owned Homeowners insurance in Delaware",
    "description": "Provides comprehensive coverage options, including dwelling, personal property, liability, and additional living expenses. Offers unique features like Claim RateGuard and Deductible Rewards",
    "hours": "Mon-Fri 9AM-6PM",
    "services": [
      "American-Indian-owned Homeowners insurance in Delaware consultation",
      "Professional service",
      "Quality guarantee"
    ],
    "social_links": {}
  },
  {
    "name": "GEICO",
    "address": "Multiple locations available",
    "phone": "1-800-207-4556",
    "rating": 4.0,
    "reviews": 25,
    "website": "https://www.geico.com/",
    "category": "American-Indian-owned Homeowners insurance in Delaware",
    "description": "Offers homeowners insurance with coverage for dwelling, personal property, and liability. Known for competitive rates and flexible options",
    "hours": "Mon-Fri 9AM-6PM",
    "services": [
      "American-Indian-owned Homeowners insurance in Delaware consultation",
      "Professional service",
      "Quality guarantee"
    ],
    "social_links": {}
  },
  {
    "name": "Progressive",
    "address": "Multiple locations available",
    "phone": "1-866-749-7436",
    "rating": 4.0,
    "reviews": 25,
    "website": "https://www.progressive.com/",
    "category": "American-Indian-owned Homeowners insurance in Delaware",
    "description": "Offers affordable homeowners insurance with various discounts available. Their HomeQuote Explorer\u00ae tool helps find suitable rates and coverage",
    "hours": "Mon-Fri 9AM-6PM",
    "services": [
      "American-Indian-owned Homeowners insurance in Delaware consultation",
      "Professional service",
      "Quality guarantee"
    ],
    "social_links": {}
  },
  {
    "name": "USAA",
    "address": "Primarily online and phone-based, with limited physical locations",
    "phone": "1-800-531-8722",
    "rating": 4.0,
    "reviews": 25,
    "website": "https://www.usaa.com/",
    "category": "American-Indian-owned Homeowners insurance in Delaware",
    "description": "Offers comprehensive coverage, including replacement cost for personal belongings. Membership is open to military members, veterans, and their families",
    "hours": "Mon-Fri 9AM-6PM",
    "services": [
      "American-Indian-owned Homeowners insurance in Delaware consultation",
      "Professional service",
      "Quality guarantee"
    ],
    "social_links": {}
  },
  {
    "name": "Chubb",
    "address": "Multiple locations available",
    "phone": "1-866-324-8221",
    "rating": 4.0,
    "reviews": 25,
    "website": "https://www.chubb.com/",
    "category": "American-Indian-owned Homeowners insurance in Delaware",
    "description": "Provides comprehensive coverage, including extended replacement cost and water damage coverage. Caters to high-value homes",
    "hours": "Mon-Fri 9AM-6PM",
    "services": [
      "American-Indian-owned Homeowners insurance in Delaware consultation",
      "Professional service",
      "Quality guarantee"
    ],
    "social_links": {}
  },
  {
    "name": "American Family Insurance",
    "address": "Multiple agents and locations across Delaware",
    "phone": "1-800-MYAMFAM (1-800-692-6326)",
    "rating": 4.0,
    "reviews": 25,
    "website": "https://www.amfam.com/",
    "category": "American-Indian-owned Homeowners insurance in Delaware",
    "description": "Offers a range of insurance products including auto, home, and life insurance. Known for bundling discounts and a user-friendly app",
    "hours": "Mon-Fri 9AM-6PM",
    "services": [
      "American-Indian-owned Homeowners insurance in Delaware consultation",
      "Professional service",
      "Quality guarantee"
    ],
    "social_links": {}
  },
  {
    "name": "AMERIND",
    "address": "Based in New Mexico, serves Native American communities nationally",
    "phone": "1-800-352-3496",
    "rating": 4.0,
    "reviews": 25,
    "website": "https://www.amerind.com/",
    "category": "American-Indian-owned Homeowners insurance in Delaware",
    "description": "A 100% Tribally owned insurance carrier offering homeowners and renters insurance specifically designed for the needs of Tribal Homeowners and Renters enrolled in federally recognized Tribes",
    "hours": "Mon-Fri 9AM-6PM",
    "services": [
      "American-Indian-owned Homeowners insurance in Delaware consultation",
      "Professional service",
      "Quality guarantee"
    ],
    "social_links": {}
  },
  {
    "name": "Tribal First",
    "address": "Operates nationally, serving tribal nations",
    "phone": "(800) 727-0052",
    "rating": 4.0,
    "reviews": 25,
    "website": "https://www.tribalfirst.com/",
    "category": "American-Indian-owned Homeowners insurance in Delaware",
    "description": "Provides insurance solutions tailored to the unique needs of tribal nations, with extensive knowledge of the cultural, economic, and environmental landscape",
    "hours": "Mon-Fri 9AM-6PM",
    "services": [
      "American-Indian-owned Homeowners insurance in Delaware consultation",
      "Professional service",
      "Quality guarantee"
    ],
    "social_links": {}
  },
  {
    "name": "Nanticoke Indian Tribe",
    "address": "26673 John J. Williams Highway, Millsboro, DE 19966 (Nanticoke Indian Museum)",
    "phone": "302-945-7022 or 302-945-3400",
    "rating": 4.0,
    "reviews": 25,
    "website": "https://www.nanticokeindians.org/",
    "category": "American-Indian-owned Homeowners insurance in Delaware",
    "description": "While not an insurance provider, the Nanticoke Indian Tribe is a significant Native American community in Delaware. They host events and have a museum, contributing to the cultural heritage of the region. They have also had business owners within the community who have supported local initiatives",
    "hours": "Mon-Fri 9AM-6PM",
    "services": [
      "American-Indian-owned Homeowners insurance in Delaware consultation",
      "Professional service",
      "Quality guarantee"
    ],
    "social_links": {}
  }
]