[
  {
    "name": "Rice Bowl Chinese Restaurant",
    "address": "1001 1st Ave NW, Mandan, ND 58554",
    "phone": "(701) 663-1960",
    "rating": 4.0,
    "reviews": 25,
    "website": "http://www.ricebowlchinese.com/",
    "category": "Chinese-American-owned Goal setting in North-Dakota",
    "description": "A family-owned Chinese restaurant serving traditional dishes. They offer dine-in, takeout, and delivery",
    "hours": "Mon-Fri 9AM-6PM",
    "services": [
      "Chinese-American-owned Goal setting in North-Dakota consultation",
      "Professional service",
      "Quality guarantee"
    ],
    "social_links": {}
  },
  {
    "name": "China Garden Restaurant",
    "address": "1110 N 19th St, Bismarck, ND 58501",
    "phone": "(701) 224-0698",
    "rating": 4.0,
    "reviews": 25,
    "website": "http://chinagardenbismarck.com/",
    "category": "Chinese-American-owned Goal setting in North-Dakota",
    "description": "Offers Chinese food for pickup in Bismarck, ND",
    "hours": "Mon-Fri 9AM-6PM",
    "services": [
      "Chinese-American-owned Goal setting in North-Dakota consultation",
      "Professional service",
      "Quality guarantee"
    ],
    "social_links": {}
  },
  {
    "name": "Giant Panda Chinese Restaurant",
    "address": "1331 Gateway Dr S, Fargo, ND 58103",
    "phone": "(701) 237-0777",
    "rating": 4.0,
    "reviews": 25,
    "website": "http://giantpandafargo.com/",
    "category": "Chinese-American-owned Goal setting in North-Dakota",
    "description": "A Chinese restaurant in Fargo that currently offers buffet service, with pickup and delivery to be available again soon",
    "hours": "Mon-Fri 9AM-6PM",
    "services": [
      "Chinese-American-owned Goal setting in North-Dakota consultation",
      "Professional service",
      "Quality guarantee"
    ],
    "social_links": {}
  },
  {
    "name": "Panda Express",
    "address": "1205 Brookside Ln, Bismarck, ND 58504",
    "phone": "(701) 223-2323",
    "rating": 4.0,
    "reviews": 25,
    "website": "https://www.pandaexpress.com/location/nd/bismarck/1205-brookside-ln",
    "category": "Chinese-American-owned Goal setting in North-Dakota",
    "description": "A fast-food chain serving American-Chinese cuisine, with dine-in, takeout, and delivery options",
    "hours": "Mon-Fri 9AM-6PM",
    "services": [
      "Chinese-American-owned Goal setting in North-Dakota consultation",
      "Professional service",
      "Quality guarantee"
    ],
    "social_links": {}
  },
  {
    "name": "China Express",
    "address": "205 W Main St, New Town, ND 58763",
    "phone": "(701) 628-2288",
    "rating": 4.0,
    "reviews": 25,
    "website": "http://chinaexpressnewtown.com/",
    "category": "Chinese-American-owned Goal setting in North-Dakota",
    "description": "Offers authentic and delicious Chinese food with online ordering for pickup",
    "hours": "Mon-Fri 9AM-6PM",
    "services": [
      "Chinese-American-owned Goal setting in North-Dakota consultation",
      "Professional service",
      "Quality guarantee"
    ],
    "social_links": {}
  },
  {
    "name": "Asian & American Market",
    "address": "3131 13th Ave S, Fargo, ND 58103",
    "phone": "(701) 234-0000",
    "rating": 4.0,
    "reviews": 25,
    "website": "https://www.google.com/maps/search/Asian+&+American+Market+North+Dakota",
    "category": "Chinese-American-owned Goal setting in North-Dakota",
    "description": "An international grocery store offering a wide range of Asian and American groceries, including fresh produce, spices, fish, and ramen",
    "hours": "Mon-Fri 9AM-6PM",
    "services": [
      "Chinese-American-owned Goal setting in North-Dakota consultation",
      "Professional service",
      "Quality guarantee"
    ],
    "social_links": {}
  },
  {
    "name": "Asian Gourmet Market Store",
    "address": "800 E Bowen Ave, Bismarck, ND 58504",
    "phone": "(701) 751-7464",
    "rating": 4.0,
    "reviews": 25,
    "website": "https://www.google.com/maps/search/Asian+Gourmet+Market+Store+North+Dakota",
    "category": "Chinese-American-owned Goal setting in North-Dakota",
    "description": "A market offering a wide selection of Asian and Indian groceries, including spices, sauces, noodles, and dishware",
    "hours": "Mon-Fri 9AM-6PM",
    "services": [
      "Chinese-American-owned Goal setting in North-Dakota consultation",
      "Professional service",
      "Quality guarantee"
    ],
    "social_links": {}
  },
  {
    "name": "Weee! (Online Asian Supermarket)",
    "address": "",
    "phone": "",
    "rating": 4.0,
    "reviews": 25,
    "website": "https://www.sayweee.com/",
    "category": "Chinese-American-owned Goal setting in North-Dakota",
    "description": "America's largest online Asian supermarket, offering delivery of various Asian groceries, including Chinese products",
    "hours": "Mon-Fri 9AM-6PM",
    "services": [
      "Chinese-American-owned Goal setting in North-Dakota consultation",
      "Professional service",
      "Quality guarantee"
    ],
    "social_links": {}
  },
  {
    "name": "United Chinese Americans Fargo-Moorhead (UCAFM)",
    "address": "Fargo, ND (Organization based in Fargo-Moorhead)",
    "phone": "",
    "rating": 4.0,
    "reviews": 25,
    "website": "http://www.ucafm.org/",
    "category": "Chinese-American-owned Goal setting in North-Dakota",
    "description": "A non-profit organization promoting fellowship among Chinese Americans, increasing awareness of Chinese arts and culture, and helping Chinese Americans integrate into the community",
    "hours": "Mon-Fri 9AM-6PM",
    "services": [
      "Chinese-American-owned Goal setting in North-Dakota consultation",
      "Professional service",
      "Quality guarantee"
    ],
    "social_links": {}
  },
  {
    "name": "North Dakota Asian-American Arts and Culture Initiative",
    "address": "Bismarck, ND (Nonprofit organization)",
    "phone": "",
    "rating": 4.0,
    "reviews": 25,
    "website": "https://ndaaaci.org/",
    "category": "Chinese-American-owned Goal setting in North-Dakota",
    "description": "A nonprofit organization dedicated to promoting and supporting Asian-American arts and culture in North Dakota through various events and partnerships",
    "hours": "Mon-Fri 9AM-6PM",
    "services": [
      "Chinese-American-owned Goal setting in North-Dakota consultation",
      "Professional service",
      "Quality guarantee"
    ],
    "social_links": {}
  }
]