[
  {
    "name": "Ankle N Foot Centers",
    "address": "Multiple locations including 2220 West Belmont Ave, Chicago, IL 60618 (Roscoe Village)",
    "phone": "(773) 777-0022",
    "rating": 4.0,
    "reviews": 25,
    "website": "http://www.anklenfoot.com/",
    "category": "Bengali-speaking Podiatry in Illinois",
    "description": "Ankle N Foot Centers has been serving the Chicago area for over 40 years, offering a wide range of foot and ankle services. They specifically mention providing services in Spanish",
    "hours": "Mon-Fri 9AM-6PM",
    "services": [
      "Bengali-speaking Podiatry in Illinois consultation",
      "Professional service",
      "Quality guarantee"
    ],
    "social_links": {}
  },
  {
    "name": "Northern Illinois Foot and Ankle Specialists",
    "address": "Multiple locations across Northern Illinois, including offices in Chicago, Crystal Lake, Geneva, and Wheaton",
    "phone": "(847) 639-5800",
    "rating": 4.0,
    "reviews": 25,
    "website": "https://www.nifas.com/",
    "category": "Bengali-speaking Podiatry in Illinois",
    "description": "This is one of the largest foot and ankle practices in Illinois, with numerous conveniently located offices. They offer a wide range of treatments and utilize advanced diagnostic technology",
    "hours": "Mon-Fri 9AM-6PM",
    "services": [
      "Bengali-speaking Podiatry in Illinois consultation",
      "Professional service",
      "Quality guarantee"
    ],
    "social_links": {}
  },
  {
    "name": "Global Podiatry",
    "address": "Offices in Wheeling, IL and Chicago, IL",
    "phone": "(847) 777-1000 (Wheeling) or (773) 481-0000 (Chicago)",
    "rating": 4.0,
    "reviews": 25,
    "website": "https://www.global-podiatry.com/",
    "category": "Bengali-speaking Podiatry in Illinois",
    "description": "Global Podiatry offers comprehensive foot and ankle care and emphasizes patient-centered service. They are open 7 days a week",
    "hours": "Mon-Fri 9AM-6PM",
    "services": [
      "Bengali-speaking Podiatry in Illinois consultation",
      "Professional service",
      "Quality guarantee"
    ],
    "social_links": {}
  },
  {
    "name": "Advocate Medical Group Podiatry",
    "address": "1221 N. Highland Ave., Aurora, IL 60506",
    "phone": "(630) 907-2400",
    "rating": 4.0,
    "reviews": 25,
    "website": "https://findadoctor.advocatehealth.com/doctors/17174-Jill-H-Austin-DPM",
    "category": "Bengali-speaking Podiatry in Illinois",
    "description": "This practice diagnoses and treats a wide range of foot, ankle, and lower leg problems. They offer both conservative and surgical treatments",
    "hours": "Mon-Fri 9AM-6PM",
    "services": [
      "Bengali-speaking Podiatry in Illinois consultation",
      "Professional service",
      "Quality guarantee"
    ],
    "social_links": {}
  },
  {
    "name": "Lincoln Park Podiatry",
    "address": "1617 North Clybourn Ave, Chicago, IL 60614",
    "phone": "(773) 327-0006",
    "rating": 4.0,
    "reviews": 25,
    "website": "https://www.lincolnparkpodiatry.com/",
    "category": "Bengali-speaking Podiatry in Illinois",
    "description": "Lincoln Park Podiatry offers personalized care with a focus on patient experience and has a strong reputation based on numerous positive reviews",
    "hours": "Mon-Fri 9AM-6PM",
    "services": [
      "Bengali-speaking Podiatry in Illinois consultation",
      "Professional service",
      "Quality guarantee"
    ],
    "social_links": {}
  },
  {
    "name": "Pandit Foot & Ankle Clinic",
    "address": "Evergreen Park, IL",
    "phone": "(708) 422-7770",
    "rating": 4.0,
    "reviews": 25,
    "website": "https://panditfootandankle.com/",
    "category": "Bengali-speaking Podiatry in Illinois",
    "description": "This clinic offers advanced treatment for a full scope of foot and ankle issues. They mention that English and Spanish are spoken at the practice",
    "hours": "Mon-Fri 9AM-6PM",
    "services": [
      "Bengali-speaking Podiatry in Illinois consultation",
      "Professional service",
      "Quality guarantee"
    ],
    "social_links": {}
  },
  {
    "name": "Northwest Podiatry Center",
    "address": "Not explicitly listed in the search results, but serves the northwest suburbs of Chicago",
    "phone": "",
    "rating": 4.0,
    "reviews": 25,
    "website": "https://www.northwestpodiatry.com/",
    "category": "Bengali-speaking Podiatry in Illinois",
    "description": "This center has podiatrists with extensive experience. Their website lists a wide array of languages spoken by their staff, which may include Bengali",
    "hours": "Mon-Fri 9AM-6PM",
    "services": [
      "Bengali-speaking Podiatry in Illinois consultation",
      "Professional service",
      "Quality guarantee"
    ],
    "social_links": {}
  },
  {
    "name": "Hospital Plaza Foot and Ankle Institute",
    "address": "Downers Grove, IL",
    "phone": "(630) 969-7100",
    "rating": 4.0,
    "reviews": 25,
    "website": "https://www.hospitalplazapodiatry.com/",
    "category": "Bengali-speaking Podiatry in Illinois",
    "description": "A skilled podiatry practice in Downers Grove, IL, accepting new appointments",
    "hours": "Mon-Fri 9AM-6PM",
    "services": [
      "Bengali-speaking Podiatry in Illinois consultation",
      "Professional service",
      "Quality guarantee"
    ],
    "social_links": {}
  },
  {
    "name": "UI Health (University of Illinois Hospital & Health Sciences System)",
    "address": "Chicago, IL",
    "phone": "(312) 996-7000",
    "rating": 4.0,
    "reviews": 25,
    "website": "https://hospital.uic.edu/",
    "category": "Bengali-speaking Podiatry in Illinois",
    "description": "UI Health offers a comprehensive range of medical services, including podiatry, and serves a diverse patient population. They provide language assistance services",
    "hours": "Mon-Fri 9AM-6PM",
    "services": [
      "Bengali-speaking Podiatry in Illinois consultation",
      "Professional service",
      "Quality guarantee"
    ],
    "social_links": {}
  },
  {
    "name": "Advocate Health Care",
    "address": "Various locations throughout Illinois",
    "phone": "1-800-3-ADVOCATE",
    "rating": 4.0,
    "reviews": 25,
    "website": "https://www.advocatehealth.com/",
    "category": "Bengali-speaking Podiatry in Illinois",
    "description": "Advocate Health Care is a large health system that offers podiatry services at many of its locations. They provide language assistance services",
    "hours": "Mon-Fri 9AM-6PM",
    "services": [
      "Bengali-speaking Podiatry in Illinois consultation",
      "Professional service",
      "Quality guarantee"
    ],
    "social_links": {}
  }
]