[
  {
    "name": "Atria West 86",
    "address": "333 West 86th Street, New York, NY 10024",
    "phone": "(212) 787-7700",
    "rating": 4.0,
    "reviews": 25,
    "website": "https://www.atriaseniorliving.com/communities/atria-west-86/",
    "category": "Central-American-owned Assisted living facilities in New-York",
    "description": "An elegant senior living facility offering assisted living services with a resort-style setting and Art Deco-inspired architecture",
    "hours": "Mon-Fri 9AM-6PM",
    "services": [
      "Central-American-owned Assisted living facilities in New-York consultation",
      "Professional service",
      "Quality guarantee"
    ],
    "social_links": {}
  },
  {
    "name": "The Bristal at York Avenue",
    "address": "1622-1632 York Avenue, NY, NY 10028",
    "phone": "(646) 740-0000",
    "rating": 4.0,
    "reviews": 25,
    "website": "https://www.thebristal.com/locations/york-avenue/",
    "category": "Central-American-owned Assisted living facilities in New-York",
    "description": "An upscale senior living community offering assisted living, independent living, and memory care, combining a home-like feel with an urban setting",
    "hours": "Mon-Fri 9AM-6PM",
    "services": [
      "Central-American-owned Assisted living facilities in New-York consultation",
      "Professional service",
      "Quality guarantee"
    ],
    "social_links": {}
  },
  {
    "name": "Coterie Hudson Yards",
    "address": "505 West 35th Street, New York, NY 10001",
    "phone": "(855) 738-0720",
    "rating": 4.5,
    "reviews": 25,
    "website": "https://www.coterie-living.com/coterie-hudson-yards/",
    "category": "Central-American-owned Assisted living facilities in New-York",
    "description": "A luxurious retirement community offering comprehensive care options, including independent living, assisted living, and memory care, with sophisticated residences and resort-style amenities",
    "hours": "Mon-Fri 9AM-6PM",
    "services": [
      "Central-American-owned Assisted living facilities in New-York consultation",
      "Professional service",
      "Quality guarantee"
    ],
    "social_links": {}
  },
  {
    "name": "Sunrise at East 56th",
    "address": "139 East 56th Street, New York, NY 10022",
    "phone": "(212) 758-8000",
    "rating": 4.2,
    "reviews": 25,
    "website": "https://www.sunriseseniorliving.com/communities/sunrise-at-east-56th/",
    "category": "Central-American-owned Assisted living facilities in New-York",
    "description": "A renowned assisted living community known for its empathetic and professional care, delicious food, and a variety of activities",
    "hours": "Mon-Fri 9AM-6PM",
    "services": [
      "Central-American-owned Assisted living facilities in New-York consultation",
      "Professional service",
      "Quality guarantee"
    ],
    "social_links": {}
  },
  {
    "name": "The Apsley by Sunrise",
    "address": "2330 Broadway, New York, NY 10024",
    "phone": "(212) 787-7700",
    "rating": 4.0,
    "reviews": 25,
    "website": "https://www.sunriseseniorliving.com/communities/the-apsley-by-sunrise/",
    "category": "Central-American-owned Assisted living facilities in New-York",
    "description": "A new 19-story building with interiors designed by Champalimaud, offering assisted living and memory care in a setting that captures the spirit of the Upper West Side",
    "hours": "Mon-Fri 9AM-6PM",
    "services": [
      "Central-American-owned Assisted living facilities in New-York consultation",
      "Professional service",
      "Quality guarantee"
    ],
    "social_links": {}
  },
  {
    "name": "Carnegie East House",
    "address": "167 East 71st Street, New York, NY 10021",
    "phone": "(212) 879-0400",
    "rating": 4.0,
    "reviews": 25,
    "website": "https://www.carnegie-east.org/",
    "category": "Central-American-owned Assisted living facilities in New-York",
    "description": "A not-for-profit assisted living community offering tailored care with hotel-like amenities, a secure environment, and a person-centered approach",
    "hours": "Mon-Fri 9AM-6PM",
    "services": [
      "Central-American-owned Assisted living facilities in New-York consultation",
      "Professional service",
      "Quality guarantee"
    ],
    "social_links": {}
  },
  {
    "name": "Castle Senior Living at Forest Hills",
    "address": "108-25 Horace Harding Expressway, Forest Hills, NY 11368",
    "phone": "(718) 261-7700",
    "rating": 4.0,
    "reviews": 25,
    "website": "https://www.castleseniorliving.com/forest-hills/",
    "category": "Central-American-owned Assisted living facilities in New-York",
    "description": "A senior living community that provides comfort, with residents loving the activities and staff treating them with respect and patience",
    "hours": "Mon-Fri 9AM-6PM",
    "services": [
      "Central-American-owned Assisted living facilities in New-York consultation",
      "Professional service",
      "Quality guarantee"
    ],
    "social_links": {}
  },
  {
    "name": "The Waterford on the Bay",
    "address": "7300 Shore Road, Brooklyn, NY 11209",
    "phone": "(718) 748-7200",
    "rating": 4.0,
    "reviews": 25,
    "website": "https://www.waterfordestates.com/",
    "category": "Central-American-owned Assisted living facilities in New-York",
    "description": "Provides assisted living services in an upscale, hotel-like environment on Brooklyn's waterfront, offering beautiful views and concierge assistance",
    "hours": "Mon-Fri 9AM-6PM",
    "services": [
      "Central-American-owned Assisted living facilities in New-York consultation",
      "Professional service",
      "Quality guarantee"
    ],
    "social_links": {}
  },
  {
    "name": "Signature Senior Living",
    "address": "631 Foster Avenue, Brooklyn, NY 11230",
    "phone": "(718) 434-0100",
    "rating": 4.0,
    "reviews": 25,
    "website": "https://signatureseniorliving.com/",
    "category": "Central-American-owned Assisted living facilities in New-York",
    "description": "An extravagant assisted living facility with a hotel-like atmosphere, devoted to promoting independence and offering recreational activities",
    "hours": "Mon-Fri 9AM-6PM",
    "services": [
      "Central-American-owned Assisted living facilities in New-York consultation",
      "Professional service",
      "Quality guarantee"
    ],
    "social_links": {}
  },
  {
    "name": "All American Assisted Living at Coram",
    "address": "170 Middle Country Road, Coram, NY 11727",
    "phone": "(631) 698-7000",
    "rating": 4.0,
    "reviews": 25,
    "website": "https://www.allamericanassistedliving.com/locations/coram/",
    "category": "Central-American-owned Assisted living facilities in New-York",
    "description": "Offers personalized assisted living, memory care, and respite care with a focus on comfort, care, and community, providing 24/7 support",
    "hours": "Mon-Fri 9AM-6PM",
    "services": [
      "Central-American-owned Assisted living facilities in New-York consultation",
      "Professional service",
      "Quality guarantee"
    ],
    "social_links": {}
  }
]