[
  {
    "name": "Mr. Handyman",
    "address": "Multiple locations in Idaho, including Boise and Meridian",
    "phone": "(208) 995-6457 (Boise) / (208) 887-9999 (Meridian)",
    "rating": 4.0,
    "reviews": 25,
    "website": "https://www.mrhandyman.com/",
    "category": "Central-American-owned Handyman services in Idaho",
    "description": "Offers a wide range of home repair, maintenance, and improvement services",
    "hours": "Mon-Fri 9AM-6PM",
    "services": [
      "Central-American-owned Handyman services in Idaho consultation",
      "Professional service",
      "Quality guarantee"
    ],
    "social_links": {}
  },
  {
    "name": "Ace Handyman Services",
    "address": "Multiple locations including Idaho Falls, Meridian, and Twin Falls",
    "phone": "(208) 757-5888 (Idaho Falls/Rexburg) / (208) 504-1235 (Meridian/Boise)",
    "rating": 4.0,
    "reviews": 25,
    "website": "https://www.acehandymanservices.com/",
    "category": "Central-American-owned Handyman services in Idaho",
    "description": "Provides professional handyman services for home repairs, renovations, and installations",
    "hours": "Mon-Fri 9AM-6PM",
    "services": [
      "Central-American-owned Handyman services in Idaho consultation",
      "Professional service",
      "Quality guarantee"
    ],
    "social_links": {}
  },
  {
    "name": "My Treasure Valley Handyman",
    "address": "Meridian, ID",
    "phone": "(208) 584-1452",
    "rating": 4.0,
    "reviews": 25,
    "website": "https://mytreasurevalleyhandyman.com/",
    "category": "Central-American-owned Handyman services in Idaho",
    "description": "Offers general home repair and maintenance, installation services, and renovations",
    "hours": "Mon-Fri 9AM-6PM",
    "services": [
      "Central-American-owned Handyman services in Idaho consultation",
      "Professional service",
      "Quality guarantee"
    ],
    "social_links": {}
  },
  {
    "name": "Ron's Helping Hand",
    "address": "Caldwell, ID",
    "phone": "",
    "rating": 4.0,
    "reviews": 25,
    "website": "https://ronshelpinghand.com/",
    "category": "Central-American-owned Handyman services in Idaho",
    "description": "Provides full-service remodeling and handyman services with 20 years of experience",
    "hours": "Mon-Fri 9AM-6PM",
    "services": [
      "Central-American-owned Handyman services in Idaho consultation",
      "Professional service",
      "Quality guarantee"
    ],
    "social_links": {}
  },
  {
    "name": "A1 Handyman",
    "address": "Boise, ID",
    "phone": "(208) 995-6457",
    "rating": 4.0,
    "reviews": 25,
    "website": "https://a1handyman.com/",
    "category": "Central-American-owned Handyman services in Idaho",
    "description": "Offers trusted handyman services for home repairs, remodeling, and installations",
    "hours": "Mon-Fri 9AM-6PM",
    "services": [
      "Central-American-owned Handyman services in Idaho consultation",
      "Professional service",
      "Quality guarantee"
    ],
    "social_links": {}
  },
  {
    "name": "1A2C Handyman",
    "address": "Boise - Nampa, ID",
    "phone": "(208) 850-9030",
    "rating": 4.0,
    "reviews": 25,
    "website": "https://1a2chandyman.com/",
    "category": "Central-American-owned Handyman services in Idaho",
    "description": "Provides professional building maintenance, minor electrical and plumbing repairs, and more",
    "hours": "Mon-Fri 9AM-6PM",
    "services": [
      "Central-American-owned Handyman services in Idaho consultation",
      "Professional service",
      "Quality guarantee"
    ],
    "social_links": {}
  },
  {
    "name": "Preferred Home Services",
    "address": "Twin Falls, ID",
    "phone": "(208) 506-9004",
    "rating": 4.0,
    "reviews": 25,
    "website": "https://preferredhomeservices.info/",
    "category": "Central-American-owned Handyman services in Idaho",
    "description": "Offers handyman services for home repairs and renovations, with 24-hour emergency services available",
    "hours": "Mon-Fri 9AM-6PM",
    "services": [
      "Central-American-owned Handyman services in Idaho consultation",
      "Professional service",
      "Quality guarantee"
    ],
    "social_links": {}
  },
  {
    "name": "East Idaho Handyman",
    "address": "Idaho Falls, ID",
    "phone": "",
    "rating": 4.0,
    "reviews": 25,
    "website": "https://eastidahohandyman.com/",
    "category": "Central-American-owned Handyman services in Idaho",
    "description": "Provides professional, courteous, and affordable home repair services in the Idaho Falls area",
    "hours": "Mon-Fri 9AM-6PM",
    "services": [
      "Central-American-owned Handyman services in Idaho consultation",
      "Professional service",
      "Quality guarantee"
    ],
    "social_links": {}
  },
  {
    "name": "SAW Handyman Services LLC",
    "address": "Rexburg, ID",
    "phone": "(208) 270-4482",
    "rating": 4.0,
    "reviews": 25,
    "website": "https://sawhandymanservices.com/",
    "category": "Central-American-owned Handyman services in Idaho",
    "description": "Offers top-notch handyman services including painting, repairs, renovations, and installations",
    "hours": "Mon-Fri 9AM-6PM",
    "services": [
      "Central-American-owned Handyman services in Idaho consultation",
      "Professional service",
      "Quality guarantee"
    ],
    "social_links": {}
  },
  {
    "name": "Bearded Hammer",
    "address": "Meridian, ID",
    "phone": "",
    "rating": 4.0,
    "reviews": 25,
    "website": "https://beardedhammer.com/",
    "category": "Central-American-owned Handyman services in Idaho",
    "description": "A licensed and insured handyman and journeyman plumber service",
    "hours": "Mon-Fri 9AM-6PM",
    "services": [
      "Central-American-owned Handyman services in Idaho consultation",
      "Professional service",
      "Quality guarantee"
    ],
    "social_links": {}
  }
]