[
  {
    "name": "Mr. Brake",
    "address": "3210 S. Highland Dr., Las Vegas, NV 89109",
    "phone": "(702) 873-7018",
    "rating": 4.7,
    "reviews": 25,
    "website": "http://www.mrbrakelv.com/",
    "category": "Alaska-Native-owned Brake pad replacement in Nevada",
    "description": "Specializes in brake systems for domestic and foreign vehicles, offering services like brake pad replacement, ABS system repair, and suspension work",
    "hours": "Mon-Fri 9AM-6PM",
    "services": [
      "Alaska-Native-owned Brake pad replacement in Nevada consultation",
      "Professional service",
      "Quality guarantee"
    ],
    "social_links": {}
  },
  {
    "name": "Eurotek Tuning",
    "address": "7060 W. Sahara Ave., Las Vegas, NV 89117",
    "phone": "(702) 897-0252",
    "rating": 4.7,
    "reviews": 25,
    "website": "https://www.eurotektuning.com/",
    "category": "Alaska-Native-owned Brake pad replacement in Nevada",
    "description": "Offers brake pad replacement and other brake services for various makes and models, emphasizing high-quality products and customer service",
    "hours": "Mon-Fri 9AM-6PM",
    "services": [
      "Alaska-Native-owned Brake pad replacement in Nevada consultation",
      "Professional service",
      "Quality guarantee"
    ],
    "social_links": {}
  },
  {
    "name": "Auto Repair by Boktor Motors",
    "address": "7450 W. Sahara Ave., Las Vegas, NV 89117",
    "phone": "(702) 886-5060",
    "rating": 4.8,
    "reviews": 25,
    "website": "https://vegasautorepairs.com/",
    "category": "Alaska-Native-owned Brake pad replacement in Nevada",
    "description": "Provides expert brake pad replacement and full brake system inspections for all makes and models, including luxury vehicles",
    "hours": "Mon-Fri 9AM-6PM",
    "services": [
      "Alaska-Native-owned Brake pad replacement in Nevada consultation",
      "Professional service",
      "Quality guarantee"
    ],
    "social_links": {}
  },
  {
    "name": "German Motors",
    "address": "3030 S. Highland Dr., Las Vegas, NV 89109",
    "phone": "(702) 696-0880",
    "rating": 4.8,
    "reviews": 25,
    "website": "https://www.germanmotorslv.com/",
    "category": "Alaska-Native-owned Brake pad replacement in Nevada",
    "description": "A trusted shop for brake repair and maintenance since 1982, offering services like brake pad and shoe replacement, rotor services, and ABS diagnostics",
    "hours": "Mon-Fri 9AM-6PM",
    "services": [
      "Alaska-Native-owned Brake pad replacement in Nevada consultation",
      "Professional service",
      "Quality guarantee"
    ],
    "social_links": {}
  },
  {
    "name": "AutoNation Toyota Las Vegas",
    "address": "1450 Auto Mall Dr., Las Vegas, NV 89102",
    "phone": "(702) 475-5000",
    "rating": 4.5,
    "reviews": 25,
    "website": "https://www.autonationtoyotalasvegas.com/",
    "category": "Alaska-Native-owned Brake pad replacement in Nevada",
    "description": "Offers brake replacement and inspection services, with technicians who can find the right brake pads for various vehicles",
    "hours": "Mon-Fri 9AM-6PM",
    "services": [
      "Alaska-Native-owned Brake pad replacement in Nevada consultation",
      "Professional service",
      "Quality guarantee"
    ],
    "social_links": {}
  },
  {
    "name": "Exclusive Automotive Repair",
    "address": "7470 W. Sahara Ave., Las Vegas, NV 89117",
    "phone": "(702) 749-0011",
    "rating": 4.9,
    "reviews": 25,
    "website": "https://www.exclusiveautorepair.com/",
    "category": "Alaska-Native-owned Brake pad replacement in Nevada",
    "description": "Provides comprehensive auto repair services, including brake work, with a focus on honesty, reliability, and excellent customer service",
    "hours": "Mon-Fri 9AM-6PM",
    "services": [
      "Alaska-Native-owned Brake pad replacement in Nevada consultation",
      "Professional service",
      "Quality guarantee"
    ],
    "social_links": {}
  },
  {
    "name": "Atlas Automotive",
    "address": "3630 W. Post Rd., Suite 110, Las Vegas, NV 89118",
    "phone": "(702) 724-0007",
    "rating": 4.9,
    "reviews": 25,
    "website": "https://www.atlasautomotivelv.com/",
    "category": "Alaska-Native-owned Brake pad replacement in Nevada",
    "description": "A family-owned business offering a full range of auto repair services, including brake and suspension repairs, with a commitment to honest and high-quality service",
    "hours": "Mon-Fri 9AM-6PM",
    "services": [
      "Alaska-Native-owned Brake pad replacement in Nevada consultation",
      "Professional service",
      "Quality guarantee"
    ],
    "social_links": {}
  },
  {
    "name": "Aloha Automotive Service & Repair",
    "address": "1441 W. Warm Springs Rd., Henderson, NV 89014",
    "phone": "(702) 869-2886",
    "rating": 4.9,
    "reviews": 25,
    "website": "https://alohaautomotiveservice.com/",
    "category": "Alaska-Native-owned Brake pad replacement in Nevada",
    "description": "A full-service automotive shop with ASE-certified technicians offering repairs for all makes and models, including brake services",
    "hours": "Mon-Fri 9AM-6PM",
    "services": [
      "Alaska-Native-owned Brake pad replacement in Nevada consultation",
      "Professional service",
      "Quality guarantee"
    ],
    "social_links": {}
  },
  {
    "name": "Rebel Automotive",
    "address": "975 American Pacific Dr., Ste 105, Henderson, NV 89014",
    "phone": "(702) 834-8134",
    "rating": 4.9,
    "reviews": 25,
    "website": "https://rebelautomotive.com/",
    "category": "Alaska-Native-owned Brake pad replacement in Nevada",
    "description": "Offers a full range of auto repair services, including premium brake replacement, with a focus on quality and professional service",
    "hours": "Mon-Fri 9AM-6PM",
    "services": [
      "Alaska-Native-owned Brake pad replacement in Nevada consultation",
      "Professional service",
      "Quality guarantee"
    ],
    "social_links": {}
  },
  {
    "name": "Nevada Auto Repair",
    "address": "2951 N. Deer Run Road, Carson City, NV 89701",
    "phone": "(775) 841-2828",
    "rating": 4.7,
    "reviews": 25,
    "website": "https://www.nevadaautorepair.com/",
    "category": "Alaska-Native-owned Brake pad replacement in Nevada",
    "description": "Provides a variety of auto repair services, including brake repair, for residents of Carson City and surrounding areas",
    "hours": "Mon-Fri 9AM-6PM",
    "services": [
      "Alaska-Native-owned Brake pad replacement in Nevada consultation",
      "Professional service",
      "Quality guarantee"
    ],
    "social_links": {}
  }
]