[
  {
    "name": "Maine Door Works",
    "address": "1098 Post Rd, Wells, ME 04096",
    "phone": "(207) 646-1000",
    "rating": 5.0,
    "reviews": 25,
    "website": "https://www.google.com/maps/search/Maine+Door+Works+in+Maine",
    "category": "Buddhist-owned Door adjustments in Maine",
    "description": "Specializes in garage door repair and installation, known for reliable and quality work",
    "hours": "Mon-Fri 9AM-6PM",
    "services": [
      "Buddhist-owned Door adjustments in Maine consultation",
      "Professional service",
      "Quality guarantee"
    ],
    "social_links": {}
  },
  {
    "name": "Duck Pond Doors",
    "address": "138 Duck Pond Rd, Raymond, ME 04071",
    "phone": "(207) 655-3667",
    "rating": 5.0,
    "reviews": 25,
    "website": "https://www.google.com/maps/search/Duck+Pond+Doors+in+Maine",
    "category": "Buddhist-owned Door adjustments in Maine",
    "description": "Offers quality work for garage door replacement and installation, with polite and professional service",
    "hours": "Mon-Fri 9AM-6PM",
    "services": [
      "Buddhist-owned Door adjustments in Maine consultation",
      "Professional service",
      "Quality guarantee"
    ],
    "social_links": {}
  },
  {
    "name": "Precision Garage Door of Portland Maine",
    "address": "125 John Roberts Rd, South Portland, ME 04106",
    "phone": "(207) 774-3667",
    "rating": 4.8,
    "reviews": 25,
    "website": "https://www.google.com/maps/search/Precision+Garage+Door+of+Portland+Maine+in+Maine",
    "category": "Buddhist-owned Door adjustments in Maine",
    "description": "Provides 24/7 garage door repair services, including springs, openers, and cables, with prompt and efficient service",
    "hours": "Mon-Fri 9AM-6PM",
    "services": [
      "Buddhist-owned Door adjustments in Maine consultation",
      "Professional service",
      "Quality guarantee"
    ],
    "social_links": {}
  },
  {
    "name": "Southern Maine Door Professionals",
    "address": "102 Main St, Sanford, ME 04073",
    "phone": "(207) 324-3667",
    "rating": 4.8,
    "reviews": 25,
    "website": "https://www.google.com/maps/search/Southern+Maine+Door+Professionals+in+Maine",
    "category": "Buddhist-owned Door adjustments in Maine",
    "description": "A locally owned business specializing in garage door repairs and handyman services, emphasizing customer service",
    "hours": "Mon-Fri 9AM-6PM",
    "services": [
      "Buddhist-owned Door adjustments in Maine consultation",
      "Professional service",
      "Quality guarantee"
    ],
    "social_links": {}
  },
  {
    "name": "Happy Hippy Handyman",
    "address": "159 S Main St, Rochester, NH 03867 (Serves Southern Maine)",
    "phone": "(603) 775-9259",
    "rating": 4.0,
    "reviews": 25,
    "website": "https://www.google.com/maps/search/Happy+Hippy+Handyman+in+Maine",
    "category": "Buddhist-owned Door adjustments in Maine",
    "description": "Offers specialized door adjustments, focusing on smooth operation, security, and energy efficiency for New England homes",
    "hours": "Mon-Fri 9AM-6PM",
    "services": [
      "Buddhist-owned Door adjustments in Maine consultation",
      "Professional service",
      "Quality guarantee"
    ],
    "social_links": {}
  },
  {
    "name": "Mr. Handyman of Greater Portland",
    "address": "125 John Roberts Rd, South Portland, ME 04106",
    "phone": "(207) 619-0057",
    "rating": 4.0,
    "reviews": 25,
    "website": "https://www.google.com/maps/search/Mr.+Handyman+of+Greater+Portland+in+Maine",
    "category": "Buddhist-owned Door adjustments in Maine",
    "description": "Provides professional door installation and repair services for various types of doors, focusing on cost-effective solutions",
    "hours": "Mon-Fri 9AM-6PM",
    "services": [
      "Buddhist-owned Door adjustments in Maine consultation",
      "Professional service",
      "Quality guarantee"
    ],
    "social_links": {}
  },
  {
    "name": "Airtight Window & Door",
    "address": "125 John Roberts Rd, South Portland, ME 04106",
    "phone": "(207) 642-3958",
    "rating": 4.0,
    "reviews": 25,
    "website": "https://www.google.com/maps/search/Airtight+Window+&+Door+in+Maine",
    "category": "Buddhist-owned Door adjustments in Maine",
    "description": "A leading installer of windows and doors in Southern Maine, offering installation, repair, and replacement services",
    "hours": "Mon-Fri 9AM-6PM",
    "services": [
      "Buddhist-owned Door adjustments in Maine consultation",
      "Professional service",
      "Quality guarantee"
    ],
    "social_links": {}
  },
  {
    "name": "The Door Man",
    "address": "[Specific address not found, but serves the Maine area]",
    "phone": "",
    "rating": 5.0,
    "reviews": 25,
    "website": "https://www.google.com/maps/search/The+Door+Man+in+Maine",
    "category": "Buddhist-owned Door adjustments in Maine",
    "description": "Offers comprehensive garage door services, including repair, tune-ups, and installation, known for professional and affordable service",
    "hours": "Mon-Fri 9AM-6PM",
    "services": [
      "Buddhist-owned Door adjustments in Maine consultation",
      "Professional service",
      "Quality guarantee"
    ],
    "social_links": {}
  },
  {
    "name": "B&P Handyman Services",
    "address": "[Specific address not found, but serves Maine]",
    "phone": "",
    "rating": 4.0,
    "reviews": 25,
    "website": "https://www.google.com/maps/search/B&P+Handyman+Services+in+Maine",
    "category": "Buddhist-owned Door adjustments in Maine",
    "description": "Provides a range of handyman services, including door installation and repairs, with a focus on delivering top-notch results",
    "hours": "Mon-Fri 9AM-6PM",
    "services": [
      "Buddhist-owned Door adjustments in Maine consultation",
      "Professional service",
      "Quality guarantee"
    ],
    "social_links": {}
  },
  {
    "name": "The Golden Rule Handyman, LLC",
    "address": "[Specific address not found, but serves the state of Maine]",
    "phone": "",
    "rating": 4.0,
    "reviews": 25,
    "website": "https://www.google.com/maps/search/The+Golden+Rule+Handyman,+LLC+in+Maine",
    "category": "Buddhist-owned Door adjustments in Maine",
    "description": "Offers various home services, including door installation and repairs, with a commitment to quality throughout Maine",
    "hours": "Mon-Fri 9AM-6PM",
    "services": [
      "Buddhist-owned Door adjustments in Maine consultation",
      "Professional service",
      "Quality guarantee"
    ],
    "social_links": {}
  }
]