[
  {
    "name": "Elite Auto Repair",
    "address": "1015 E North St, Rapid City, SD 57701",
    "phone": "(605) 348-3777",
    "rating": 4.7,
    "reviews": 25,
    "website": "https://www.eliteautorepair.com/",
    "category": "Arabic-speaking Auto electrical in South-Dakota",
    "description": "Offers complete auto electrical repair, including battery installation, alternator repair, and starter repair, using advanced diagnostics",
    "hours": "Mon-Fri 9AM-6PM",
    "services": [
      "Arabic-speaking Auto electrical in South-Dakota consultation",
      "Professional service",
      "Quality guarantee"
    ],
    "social_links": {}
  },
  {
    "name": "12th Street Auto Care Center",
    "address": "1201 W 12th St, Sioux Falls, SD 57104",
    "phone": "(605) 336-0450",
    "rating": 4.7,
    "reviews": 25,
    "website": "https://www.12thstreetauto.com/",
    "category": "Arabic-speaking Auto electrical in South-Dakota",
    "description": "Provides a wide range of repair services for auto electrical systems, including door locks, cruise control, and ignition switches, using advanced diagnostic equipment",
    "hours": "Mon-Fri 9AM-6PM",
    "services": [
      "Arabic-speaking Auto electrical in South-Dakota consultation",
      "Professional service",
      "Quality guarantee"
    ],
    "social_links": {}
  },
  {
    "name": "SoDak AutoHaus",
    "address": "1015 E North St, Rapid City, SD 57701",
    "phone": "(605) 716-1160",
    "rating": 4.0,
    "reviews": 25,
    "website": "https://sodakautohaus.com/",
    "category": "Arabic-speaking Auto electrical in South-Dakota",
    "description": "Specializes in electrical repair, diagnosing faulty alternators, replacing wiring, and fixing power accessories with state-of-the-art equipment",
    "hours": "Mon-Fri 9AM-6PM",
    "services": [
      "Arabic-speaking Auto electrical in South-Dakota consultation",
      "Professional service",
      "Quality guarantee"
    ],
    "social_links": {}
  },
  {
    "name": "Lincoln Repair",
    "address": "1016 N Main St, Aberdeen, SD 57401",
    "phone": "(605) 225-0000",
    "rating": 4.0,
    "reviews": 25,
    "website": "https://lincolnrepair.com/",
    "category": "Arabic-speaking Auto electrical in South-Dakota",
    "description": "Offers accurate and reliable electrical diagnostic services for various electrical issues, using precise testing tools and up-to-date knowledge",
    "hours": "Mon-Fri 9AM-6PM",
    "services": [
      "Arabic-speaking Auto electrical in South-Dakota consultation",
      "Professional service",
      "Quality guarantee"
    ],
    "social_links": {}
  },
  {
    "name": "Dakota Battery and Electric",
    "address": "1015 E North St, Rapid City, SD 57701",
    "phone": "(605) 343-5500",
    "rating": 4.0,
    "reviews": 25,
    "website": "https://www.dakotabatteryandelectric.com/",
    "category": "Arabic-speaking Auto electrical in South-Dakota",
    "description": "Experts in vehicle electrical components, specializing in alternators, motors, radios, and emergency vehicles",
    "hours": "Mon-Fri 9AM-6PM",
    "services": [
      "Arabic-speaking Auto electrical in South-Dakota consultation",
      "Professional service",
      "Quality guarantee"
    ],
    "social_links": {}
  },
  {
    "name": "Belly Brothers Auto Tech",
    "address": "1015 E North St, Rapid City, SD 57701",
    "phone": "(605) 342-7777",
    "rating": 4.0,
    "reviews": 25,
    "website": "https://bellybrothersautotech.com/",
    "category": "Arabic-speaking Auto electrical in South-Dakota",
    "description": "Technicians can handle any type of automotive electrical service, from alternators to power windows, ensuring electrical systems operate properly",
    "hours": "Mon-Fri 9AM-6PM",
    "services": [
      "Arabic-speaking Auto electrical in South-Dakota consultation",
      "Professional service",
      "Quality guarantee"
    ],
    "social_links": {}
  },
  {
    "name": "Ultimate Automotive",
    "address": "1400 E 77th Street, Sioux Falls, SD 57108 (also 3209 South Marion Road, Sioux Falls, SD 57106)",
    "phone": "(605) 367-9088 (for E 77th St location) and (605) 371-2760 (for S Marion Rd location)",
    "rating": 4.0,
    "reviews": 25,
    "website": "https://www.ultimateautosf.com/",
    "category": "Arabic-speaking Auto electrical in South-Dakota",
    "description": "Experts in diagnosing and repairing electrical and electronic system failures, including locating shorts, grounds, and open circuits, and repairing wiring harnesses",
    "hours": "Mon-Fri 9AM-6PM",
    "services": [
      "Arabic-speaking Auto electrical in South-Dakota consultation",
      "Professional service",
      "Quality guarantee"
    ],
    "social_links": {}
  },
  {
    "name": "GP Auto Inc.",
    "address": "515 32nd Ave, Brookings, SD 57006",
    "phone": "(605) 697-7859",
    "rating": 4.0,
    "reviews": 25,
    "website": "https://gpautoinc.com/",
    "category": "Arabic-speaking Auto electrical in South-Dakota",
    "description": "Diagnoses and repairs electrical and electronic system problems, including issues with headlights, turn signals, and power accessories",
    "hours": "Mon-Fri 9AM-6PM",
    "services": [
      "Arabic-speaking Auto electrical in South-Dakota consultation",
      "Professional service",
      "Quality guarantee"
    ],
    "social_links": {}
  },
  {
    "name": "Service Plus, Inc.",
    "address": "511 4th St, Watertown, SD 57201",
    "phone": "(605) 882-3236",
    "rating": 4.0,
    "reviews": 25,
    "website": "https://www.servicepluswatertown.com/",
    "category": "Arabic-speaking Auto electrical in South-Dakota",
    "description": "Experts in diagnosing and repairing electrical and electronic system failures, including issues with lighting, power accessories, and wiring",
    "hours": "Mon-Fri 9AM-6PM",
    "services": [
      "Arabic-speaking Auto electrical in South-Dakota consultation",
      "Professional service",
      "Quality guarantee"
    ],
    "social_links": {}
  },
  {
    "name": "Electric Eel Garage",
    "address": "111 4th Ave SE, Aberdeen, SD 57401",
    "phone": "(605) 216-1099",
    "rating": 4.0,
    "reviews": 25,
    "website": "https://www.electriceelgarage.com/",
    "category": "Arabic-speaking Auto electrical in South-Dakota",
    "description": "Aberdeen's standard for Automotive Technology Repair, using specialized high-tech tools to keep vehicles running properly, including electrical systems",
    "hours": "Mon-Fri 9AM-6PM",
    "services": [
      "Arabic-speaking Auto electrical in South-Dakota consultation",
      "Professional service",
      "Quality guarantee"
    ],
    "social_links": {}
  }
]