[
  {
    "name": "Humphries Family Dental",
    "address": "2207 21st Ave S, Nashville, TN 37212",
    "phone": "(615) 383-0880",
    "rating": 4.7,
    "reviews": 25,
    "website": "https://www.humphriesfamilydental.com/",
    "category": "Arabic-speaking Teeth whitening in Tennessee",
    "description": "Offers professional teeth whitening services, including in-office treatments and take-home trays. They emphasize safe, effective, and customized solutions",
    "hours": "Mon-Fri 9AM-6PM",
    "services": [
      "Arabic-speaking Teeth whitening in Tennessee consultation",
      "Professional service",
      "Quality guarantee"
    ],
    "social_links": {}
  },
  {
    "name": "Dental Haus Germantown",
    "address": "1401 5th Ave N, Nashville, TN 37208",
    "phone": "(615) 645-3356",
    "rating": 4.9,
    "reviews": 25,
    "website": "https://www.dentalhaus.com/",
    "category": "Arabic-speaking Teeth whitening in Tennessee",
    "description": "Provides a boutique dental experience with tailored teeth whitening options, including in-office and take-home treatments. They have over 500 5-star Google reviews",
    "hours": "Mon-Fri 9AM-6PM",
    "services": [
      "Arabic-speaking Teeth whitening in Tennessee consultation",
      "Professional service",
      "Quality guarantee"
    ],
    "social_links": {}
  },
  {
    "name": "Haley E. Schmitt, DDS",
    "address": "750 Old Hickory Blvd #100, Brentwood, TN 37027",
    "phone": "(615) 373-0883",
    "rating": 4.8,
    "reviews": 25,
    "website": "https://www.haleyeschmittdds.com/",
    "category": "Arabic-speaking Teeth whitening in Tennessee",
    "description": "Offers a variety of teeth whitening options such as Zoom!, K\u00f6R, and custom whitening trays, catering to individual needs and goals, including for sensitive teeth",
    "hours": "Mon-Fri 9AM-6PM",
    "services": [
      "Arabic-speaking Teeth whitening in Tennessee consultation",
      "Professional service",
      "Quality guarantee"
    ],
    "social_links": {}
  },
  {
    "name": "Winwood Dental",
    "address": "1250 Winwood Dr, Lebanon, TN 37087",
    "phone": "(615) 453-8900",
    "rating": 4.7,
    "reviews": 25,
    "website": "https://www.winwooddental.com/",
    "category": "Arabic-speaking Teeth whitening in Tennessee",
    "description": "Provides professional teeth whitening in Lebanon, TN, with both in-office treatments for quick results and take-home kits for gradual whitening",
    "hours": "Mon-Fri 9AM-6PM",
    "services": [
      "Arabic-speaking Teeth whitening in Tennessee consultation",
      "Professional service",
      "Quality guarantee"
    ],
    "social_links": {}
  },
  {
    "name": "Sullivan Dental Partners",
    "address": "2000 Richard Jones Rd #200, Nashville, TN 37215",
    "phone": "(615) 385-3514",
    "rating": 4.8,
    "reviews": 25,
    "website": "https://www.sullivandentalpartners.com/",
    "category": "Arabic-speaking Teeth whitening in Tennessee",
    "description": "Offers professional teeth whitening, including in-office and custom take-home kits, as part of their comprehensive cosmetic dentistry services",
    "hours": "Mon-Fri 9AM-6PM",
    "services": [
      "Arabic-speaking Teeth whitening in Tennessee consultation",
      "Professional service",
      "Quality guarantee"
    ],
    "social_links": {}
  },
  {
    "name": "Lebanon Family & Cosmetic Dentistry",
    "address": "1407 W Main St, Lebanon, TN 37087",
    "phone": "(615) 444-0440",
    "rating": 4.7,
    "reviews": 25,
    "website": "https://www.lebanonfamilydentistry.com/",
    "category": "Arabic-speaking Teeth whitening in Tennessee",
    "description": "Offers teeth whitening services, including Philips Zoom! take-home kits and DayWhite options, to help patients achieve a brighter smile",
    "hours": "Mon-Fri 9AM-6PM",
    "services": [
      "Arabic-speaking Teeth whitening in Tennessee consultation",
      "Professional service",
      "Quality guarantee"
    ],
    "social_links": {}
  },
  {
    "name": "Germantown Cosmetic and Family Dentistry",
    "address": "7725 Poplar Pike, Germantown, TN 38138",
    "phone": "(901) 347-3527",
    "rating": 4.8,
    "reviews": 25,
    "website": "https://www.germantowncosmeticdentistry.com/",
    "category": "Arabic-speaking Teeth whitening in Tennessee",
    "description": "Provides cosmetic dentistry services including teeth whitening, dental implants, and porcelain veneers",
    "hours": "Mon-Fri 9AM-6PM",
    "services": [
      "Arabic-speaking Teeth whitening in Tennessee consultation",
      "Professional service",
      "Quality guarantee"
    ],
    "social_links": {}
  },
  {
    "name": "Nations Dental Studio",
    "address": "1075 Old Hickory Blvd, Nashville, TN 37115",
    "phone": "(615) 933-5800",
    "rating": 4.9,
    "reviews": 25,
    "website": "https://www.nationsdentalstudio.com/",
    "category": "Arabic-speaking Teeth whitening in Tennessee",
    "description": "Offers professional in-office teeth whitening for fast, dramatic results, utilizing clinically proven whitening compounds",
    "hours": "Mon-Fri 9AM-6PM",
    "services": [
      "Arabic-speaking Teeth whitening in Tennessee consultation",
      "Professional service",
      "Quality guarantee"
    ],
    "social_links": {}
  },
  {
    "name": "Richland Creek Family Dentistry",
    "address": "7033 Old Harding Rd, Nashville, TN 37221",
    "phone": "(615) 646-5045",
    "rating": 4.7,
    "reviews": 25,
    "website": "https://www.richlandcreekdentistry.com/",
    "category": "Arabic-speaking Teeth whitening in Tennessee",
    "description": "Provides teeth whitening services as part of their preventive and cosmetic dentistry offerings to help alleviate stains and discoloration",
    "hours": "Mon-Fri 9AM-6PM",
    "services": [
      "Arabic-speaking Teeth whitening in Tennessee consultation",
      "Professional service",
      "Quality guarantee"
    ],
    "social_links": {}
  },
  {
    "name": "Smile On Nashville",
    "address": "2000 Richard Jones Rd #120, Nashville, TN 37215",
    "phone": "(615) 647-1111",
    "rating": 4.9,
    "reviews": 25,
    "website": "https://www.smileonnashville.com/",
    "category": "Arabic-speaking Teeth whitening in Tennessee",
    "description": "Offers professional teeth whitening with both in-office and take-home options, focusing on creating tailored solutions for each patient's smile",
    "hours": "Mon-Fri 9AM-6PM",
    "services": [
      "Arabic-speaking Teeth whitening in Tennessee consultation",
      "Professional service",
      "Quality guarantee"
    ],
    "social_links": {}
  }
]