[
  {
    "name": "Catholic Charities of Jackson, Lenawee and Hillsdale Counties",
    "address": "3425 Francis St, Jackson, MI 49203 (and other locations)",
    "phone": "(517) 782-2551",
    "rating": 4.0,
    "reviews": 25,
    "website": "https://catholiccharitiesjlhc.org/",
    "category": "Catholic-owned Office cleaning in Michigan",
    "description": "Offers various social services, including personal needs items and cleaning products for those in need",
    "hours": "Mon-Fri 9AM-6PM",
    "services": [
      "Catholic-owned Office cleaning in Michigan consultation",
      "Professional service",
      "Quality guarantee"
    ],
    "social_links": {}
  },
  {
    "name": "Catholic Charities of Shiawassee & Genesee Counties",
    "address": "901 Chippewa Street, Flint, MI 48503 (and other locations)",
    "phone": "(810) 232-9950",
    "rating": 4.0,
    "reviews": 25,
    "website": "http://ccsgc.org/",
    "category": "Catholic-owned Office cleaning in Michigan",
    "description": "Provides a range of human services, including assistance with basic needs",
    "hours": "Mon-Fri 9AM-6PM",
    "services": [
      "Catholic-owned Office cleaning in Michigan consultation",
      "Professional service",
      "Quality guarantee"
    ],
    "social_links": {}
  },
  {
    "name": "Catholic Charities of Southeast Michigan",
    "address": "24445 Northwestern Hwy., Suite 200, Southfield, MI 48075 (and other locations)",
    "phone": "(855) 882-2736",
    "rating": 4.0,
    "reviews": 25,
    "website": "https://ccsem.org/",
    "category": "Catholic-owned Office cleaning in Michigan",
    "description": "Offers various programs including senior outreach, which may involve household supplies",
    "hours": "Mon-Fri 9AM-6PM",
    "services": [
      "Catholic-owned Office cleaning in Michigan consultation",
      "Professional service",
      "Quality guarantee"
    ],
    "social_links": {}
  },
  {
    "name": "Catholic Charities West Michigan",
    "address": "1720 Park St, Muskegon, MI (and other locations)",
    "phone": "(231) 722-3333 (general inquiry number for Muskegon)",
    "rating": 4.0,
    "reviews": 25,
    "website": "https://www.ccwestmi.org/",
    "category": "Catholic-owned Office cleaning in Michigan",
    "description": "Provides a wide array of social services and programs",
    "hours": "Mon-Fri 9AM-6PM",
    "services": [
      "Catholic-owned Office cleaning in Michigan consultation",
      "Professional service",
      "Quality guarantee"
    ],
    "social_links": {}
  },
  {
    "name": "Catholic Social Services of Washtenaw County",
    "address": "4925 Packard St, Ann Arbor, MI 48108",
    "phone": "(734) 971-9781",
    "rating": 4.0,
    "reviews": 25,
    "website": "https://ccwcwashtenaw.org/",
    "category": "Catholic-owned Office cleaning in Michigan",
    "description": "Offers various services to individuals and families",
    "hours": "Mon-Fri 9AM-6PM",
    "services": [
      "Catholic-owned Office cleaning in Michigan consultation",
      "Professional service",
      "Quality guarantee"
    ],
    "social_links": {}
  },
  {
    "name": "Catholic Human Services of Northern Michigan",
    "address": "1000 Hastings Street, Traverse City, MI 49686 (and other locations)",
    "phone": "(231) 947-8110",
    "rating": 4.0,
    "reviews": 25,
    "website": "https://www.catholichumanservices.org/",
    "category": "Catholic-owned Office cleaning in Michigan",
    "description": "Provides social, emotional, and spiritual support across 21 counties in Northern Michigan",
    "hours": "Mon-Fri 9AM-6PM",
    "services": [
      "Catholic-owned Office cleaning in Michigan consultation",
      "Professional service",
      "Quality guarantee"
    ],
    "social_links": {}
  },
  {
    "name": "Diocese of Lansing",
    "address": "215 N Washington Sq, Lansing, MI 48933",
    "phone": "(517) 342-2450",
    "rating": 4.0,
    "reviews": 25,
    "website": "https://www.dioceseoflansing.org/",
    "category": "Catholic-owned Office cleaning in Michigan",
    "description": "The administrative center for Catholic churches in the Lansing Diocese, which oversees various Catholic Charities organizations",
    "hours": "Mon-Fri 9AM-6PM",
    "services": [
      "Catholic-owned Office cleaning in Michigan consultation",
      "Professional service",
      "Quality guarantee"
    ],
    "social_links": {}
  }
]