[
  {
    "name": "Kamaaina Movers, LLC",
    "address": "Honolulu, HI (Specific address not publicly listed, but serves the Honolulu area)",
    "phone": "(808) 201-6622",
    "rating": 4.5,
    "reviews": 25,
    "website": "https://kamaainamovers.com/",
    "category": "American-Indian-owned Local moving in Hawaii",
    "description": "Offers professional residential and commercial moving services, packing, and unpacking in Honolulu",
    "hours": "Mon-Fri 9AM-6PM",
    "services": [
      "American-Indian-owned Local moving in Hawaii consultation",
      "Professional service",
      "Quality guarantee"
    ],
    "social_links": {}
  },
  {
    "name": "Kamaaina Movers",
    "address": "Honolulu, HI (Specific address not publicly listed, but serves the Honolulu area)",
    "phone": "(808) 275-7155",
    "rating": 4.7,
    "reviews": 25,
    "website": "https://kamaainamovers.net/",
    "category": "American-Indian-owned Local moving in Hawaii",
    "description": "Provides affordable and reliable residential and commercial moving services with no hidden charges",
    "hours": "Mon-Fri 9AM-6PM",
    "services": [
      "American-Indian-owned Local moving in Hawaii consultation",
      "Professional service",
      "Quality guarantee"
    ],
    "social_links": {}
  },
  {
    "name": "Coleman Hawaii Movers",
    "address": "Multiple locations including Kapolei and Hilo. (Specific addresses vary by location)",
    "phone": "(808) 784-7105 (Hilo) / (808) 670-1644 (Kapolei)",
    "rating": 4.6,
    "reviews": 25,
    "website": "https://www.colemanhawaii.com/",
    "category": "American-Indian-owned Local moving in Hawaii",
    "description": "Offers local, long-distance, and international relocation services for households and businesses across Hawaii",
    "hours": "Mon-Fri 9AM-6PM",
    "services": [
      "American-Indian-owned Local moving in Hawaii consultation",
      "Professional service",
      "Quality guarantee"
    ],
    "social_links": {}
  },
  {
    "name": "Mana Movers",
    "address": "Serves the entire island of O\u02bbahu. (Specific address not publicly listed)",
    "phone": "(808) 427-0000",
    "rating": 4.9,
    "reviews": 25,
    "website": "https://www.manamovers.com/",
    "category": "American-Indian-owned Local moving in Hawaii",
    "description": "A locally owned and operated moving company focused on providing stress-free, reliable, and affordable full-service moves across O\u02bbahu with aloha",
    "hours": "Mon-Fri 9AM-6PM",
    "services": [
      "American-Indian-owned Local moving in Hawaii consultation",
      "Professional service",
      "Quality guarantee"
    ],
    "social_links": {}
  },
  {
    "name": "Island Movers, Inc.",
    "address": "PO Box 17865, Honolulu, HI 96817 (Main office)",
    "phone": "(808) 832-4000",
    "rating": 4.4,
    "reviews": 25,
    "website": "https://www.islandmovers.com/",
    "category": "American-Indian-owned Local moving in Hawaii",
    "description": "Provides moving, storage, freight forwarding, and convention services across Hawaii and internationally",
    "hours": "Mon-Fri 9AM-6PM",
    "services": [
      "American-Indian-owned Local moving in Hawaii consultation",
      "Professional service",
      "Quality guarantee"
    ],
    "social_links": {}
  },
  {
    "name": "Royal Hawaiian Movers",
    "address": "Multiple locations including Oahu, Maui, Kauai, and Kona. (Specific addresses vary by location)",
    "phone": "(808) 832-4000 (Oahu) / (808) 329-0507 (Kona)",
    "rating": 4.8,
    "reviews": 25,
    "website": "https://royalhawaiianmovers.com/",
    "category": "American-Indian-owned Local moving in Hawaii",
    "description": "The largest transportation and moving company in Hawaii, offering local, long-distance, and international moves with locations on all major islands",
    "hours": "Mon-Fri 9AM-6PM",
    "services": [
      "American-Indian-owned Local moving in Hawaii consultation",
      "Professional service",
      "Quality guarantee"
    ],
    "social_links": {}
  },
  {
    "name": "Pack Mule Moving and Delivery LLC",
    "address": "Located in the Kapaa Quarry Industrial Complex, Kailua, HI. (Specific address not publicly listed)",
    "phone": "(808) 351-3778",
    "rating": 4.7,
    "reviews": 25,
    "website": "https://www.packmulemoving.com/",
    "category": "American-Indian-owned Local moving in Hawaii",
    "description": "Offers reliable household and commercial moving and delivery services on Oahu, including furniture assembly and installation",
    "hours": "Mon-Fri 9AM-6PM",
    "services": [
      "American-Indian-owned Local moving in Hawaii consultation",
      "Professional service",
      "Quality guarantee"
    ],
    "social_links": {}
  },
  {
    "name": "Maika\u02bbi Moving & Delivery Services LLC",
    "address": "Serves the entire island of Oahu. (Specific address not publicly listed)",
    "phone": "(808) 900-8811",
    "rating": 4.9,
    "reviews": 25,
    "website": "https://www.maikai-moving.com/",
    "category": "American-Indian-owned Local moving in Hawaii",
    "description": "Specializes in small to medium moving needs on Oahu, offering fast, professional, and affordable moving assistance with fixed rates",
    "hours": "Mon-Fri 9AM-6PM",
    "services": [
      "American-Indian-owned Local moving in Hawaii consultation",
      "Professional service",
      "Quality guarantee"
    ],
    "social_links": {}
  },
  {
    "name": "M. Dyer Global (Maui Moving Company)",
    "address": "Maui, HI (Specific address not publicly listed, but serves Maui)",
    "phone": "(808) 456-4200",
    "rating": 4.5,
    "reviews": 25,
    "website": "https://www.mdyerglobal.com/",
    "category": "American-Indian-owned Local moving in Hawaii",
    "description": "A premier Maui moving company with over 45 years of experience providing local, interstate, and international moving services",
    "hours": "Mon-Fri 9AM-6PM",
    "services": [
      "American-Indian-owned Local moving in Hawaii consultation",
      "Professional service",
      "Quality guarantee"
    ],
    "social_links": {}
  },
  {
    "name": "Kauai Movers LLC",
    "address": "Kapaa, HI (Specific address not publicly listed, but serves Kauai)",
    "phone": "(808) 652-4000",
    "rating": 4.8,
    "reviews": 25,
    "website": "https://kauaimovers.com/",
    "category": "American-Indian-owned Local moving in Hawaii",
    "description": "Offers local moving services on Kauai, specializing in container loading and unloading, with a focus on providing a stress-free moving experience",
    "hours": "Mon-Fri 9AM-6PM",
    "services": [
      "American-Indian-owned Local moving in Hawaii consultation",
      "Professional service",
      "Quality guarantee"
    ],
    "social_links": {}
  }
]