[
  {
    "name": "BT Web Group",
    "address": "111 Old Frankfort Pike, Lexington, KY 40507",
    "phone": "(859) 554-4424",
    "rating": 4.0,
    "reviews": 25,
    "website": "https://www.btwebgroup.com/",
    "category": "American-Indian-owned CRM setup in Kentucky",
    "description": "Offers custom CRM software solutions, setup, integration, training, and ongoing support",
    "hours": "Mon-Fri 9AM-6PM",
    "services": [
      "American-Indian-owned CRM setup in Kentucky consultation",
      "Professional service",
      "Quality guarantee"
    ],
    "social_links": {}
  },
  {
    "name": "Traffick Media",
    "address": "100 E. Main Street, Suite 1400, Louisville, KY 40202",
    "phone": "(502) 400-1000",
    "rating": 4.9,
    "reviews": 25,
    "website": "https://traffickmedia.com/",
    "category": "American-Indian-owned CRM setup in Kentucky",
    "description": "Provides comprehensive CRM and marketing automation services, including setup for platforms like HubSpot, Zoho, and Salesforce, lead scoring, and pipeline optimization",
    "hours": "Mon-Fri 9AM-6PM",
    "services": [
      "American-Indian-owned CRM setup in Kentucky consultation",
      "Professional service",
      "Quality guarantee"
    ],
    "social_links": {}
  },
  {
    "name": "V-Soft Consulting Group",
    "address": "400 W Market St, Suite 200, Louisville, KY 40202",
    "phone": "(502) 792-8404",
    "rating": 4.0,
    "reviews": 25,
    "website": "https://www.vsoftconsulting.com/",
    "category": "American-Indian-owned CRM setup in Kentucky",
    "description": "A technology staffing and solutions company that offers IT services, including software development and potentially CRM implementation",
    "hours": "Mon-Fri 9AM-6PM",
    "services": [
      "American-Indian-owned CRM setup in Kentucky consultation",
      "Professional service",
      "Quality guarantee"
    ],
    "social_links": {}
  },
  {
    "name": "Intelligent IT",
    "address": "101 Prosperous Pl, Lexington, KY 40509",
    "phone": "(859) 219-0440",
    "rating": 4.0,
    "reviews": 25,
    "website": "https://intelligent-it.com/",
    "category": "American-Indian-owned CRM setup in Kentucky",
    "description": "Offers technology consulting and managed IT services, which can include CRM strategy and implementation",
    "hours": "Mon-Fri 9AM-6PM",
    "services": [
      "American-Indian-owned CRM setup in Kentucky consultation",
      "Professional service",
      "Quality guarantee"
    ],
    "social_links": {}
  },
  {
    "name": "Thoroughbred Solutions",
    "address": "101 Old Frankfort Pike, Lexington, KY 40507",
    "phone": "(859) 554-4424",
    "rating": 4.0,
    "reviews": 25,
    "website": "https://www.thoroughbredsolutions.com/",
    "category": "American-Indian-owned CRM setup in Kentucky",
    "description": "A strategic IT solutions provider specializing in managed IT services, which can encompass CRM setup and management",
    "hours": "Mon-Fri 9AM-6PM",
    "services": [
      "American-Indian-owned CRM setup in Kentucky consultation",
      "Professional service",
      "Quality guarantee"
    ],
    "social_links": {}
  },
  {
    "name": "MMB IT Solutions",
    "address": "Not specified in search results",
    "phone": "",
    "rating": 4.0,
    "reviews": 25,
    "website": "https://www.google.com/maps/search/MMB+IT+Solutions+in+Kentucky",
    "category": "American-Indian-owned CRM setup in Kentucky",
    "description": "Offers custom, cloud-based, user-friendly, and cost-effective CRM software solutions tailored for small businesses",
    "hours": "Mon-Fri 9AM-6PM",
    "services": [
      "American-Indian-owned CRM setup in Kentucky consultation",
      "Professional service",
      "Quality guarantee"
    ],
    "social_links": {}
  },
  {
    "name": "Blackink IT",
    "address": "1000 Dupont Rd, Louisville, KY 40207",
    "phone": "(502) 585-5000",
    "rating": 5.0,
    "reviews": 25,
    "website": "https://www.blackinkit.com/",
    "category": "American-Indian-owned CRM setup in Kentucky",
    "description": "An IT service provider that offers managed services, cybersecurity, and IT consulting, which can include CRM strategy and implementation",
    "hours": "Mon-Fri 9AM-6PM",
    "services": [
      "American-Indian-owned CRM setup in Kentucky consultation",
      "Professional service",
      "Quality guarantee"
    ],
    "social_links": {}
  },
  {
    "name": "Mirazon",
    "address": "1000 Dupont Rd, Suite 100, Louisville, KY 40207",
    "phone": "(502) 245-0440",
    "rating": 5.0,
    "reviews": 25,
    "website": "https://www.mirazon.com/",
    "category": "American-Indian-owned CRM setup in Kentucky",
    "description": "Specializes in managed IT, network services, and technological infrastructure upgrades, which can involve CRM system integration",
    "hours": "Mon-Fri 9AM-6PM",
    "services": [
      "American-Indian-owned CRM setup in Kentucky consultation",
      "Professional service",
      "Quality guarantee"
    ],
    "social_links": {}
  },
  {
    "name": "Uinno",
    "address": "Not specified in search results",
    "phone": "",
    "rating": 5.0,
    "reviews": 25,
    "website": "https://uinno.com/",
    "category": "American-Indian-owned CRM setup in Kentucky",
    "description": "Offers custom software development and AI development, which can include CRM solutions",
    "hours": "Mon-Fri 9AM-6PM",
    "services": [
      "American-Indian-owned CRM setup in Kentucky consultation",
      "Professional service",
      "Quality guarantee"
    ],
    "social_links": {}
  },
  {
    "name": "BetterWorld Technology",
    "address": "Not specified in search results",
    "phone": "",
    "rating": 4.0,
    "reviews": 25,
    "website": "https://www.betterworldtechnology.com/",
    "category": "American-Indian-owned CRM setup in Kentucky",
    "description": "A managed services provider offering comprehensive IT solutions, including server management and cybersecurity, which can extend to CRM support",
    "hours": "Mon-Fri 9AM-6PM",
    "services": [
      "American-Indian-owned CRM setup in Kentucky consultation",
      "Professional service",
      "Quality guarantee"
    ],
    "social_links": {}
  }
]