[
  {
    "name": "Aura Health & Spa",
    "address": "851 S Main St, Plymouth, MI 48170",
    "phone": "(734) 245-9990",
    "rating": 4.0,
    "reviews": 25,
    "website": "https://www.myauraspa.com/",
    "category": "Asian-owned Medical spas in Michigan",
    "description": "Offers a range of aesthetic and wellness services, including injectables, facials, laser hair removal, and IV therapy",
    "hours": "Mon-Fri 9AM-6PM",
    "services": [
      "Asian-owned Medical spas in Michigan consultation",
      "Professional service",
      "Quality guarantee"
    ],
    "social_links": {}
  },
  {
    "name": "Bloom MedSpa",
    "address": "Multiple locations, including Dearborn, MI",
    "phone": "(248) 988-0812 (Dearborn)",
    "rating": 4.0,
    "reviews": 25,
    "website": "https://bloommedspa.com/",
    "category": "Asian-owned Medical spas in Michigan",
    "description": "Provides advanced laser treatments, injectables, PDO thread lifts, and IV hydration therapy",
    "hours": "Mon-Fri 9AM-6PM",
    "services": [
      "Asian-owned Medical spas in Michigan consultation",
      "Professional service",
      "Quality guarantee"
    ],
    "social_links": {}
  },
  {
    "name": "Elysian Aesthetics & Wellness",
    "address": "Multiple locations, including West Bloomfield, MI",
    "phone": "",
    "rating": 4.0,
    "reviews": 25,
    "website": "https://elysianaesthetics.com/",
    "category": "Asian-owned Medical spas in Michigan",
    "description": "A comprehensive medical spa offering treatments like Botox, laser therapies, and injectables, with a focus on enhancing natural beauty",
    "hours": "Mon-Fri 9AM-6PM",
    "services": [
      "Asian-owned Medical spas in Michigan consultation",
      "Professional service",
      "Quality guarantee"
    ],
    "social_links": {}
  },
  {
    "name": "Elysian Aesthetics Spa LLC",
    "address": "Information not available",
    "phone": "",
    "rating": 4.0,
    "reviews": 25,
    "website": "https://www.elysianaesthetics.com/",
    "category": "Asian-owned Medical spas in Michigan",
    "description": "Offers IPL & Laser Hair Removal and other aesthetic treatments with a focus on achieving a peaceful and perfect appearance",
    "hours": "Mon-Fri 9AM-6PM",
    "services": [
      "Asian-owned Medical spas in Michigan consultation",
      "Professional service",
      "Quality guarantee"
    ],
    "social_links": {}
  },
  {
    "name": "Evolution Medical Spa",
    "address": "51850 Dequindre Road Suite 3, Shelby Township, MI 48316",
    "phone": "(586) 739-2300",
    "rating": 4.0,
    "reviews": 25,
    "website": "https://evolutionmedspa.com/",
    "category": "Asian-owned Medical spas in Michigan",
    "description": "Offers a variety of non-invasive services, non-surgical procedures, and retail products for skin rejuvenation",
    "hours": "Mon-Fri 9AM-6PM",
    "services": [
      "Asian-owned Medical spas in Michigan consultation",
      "Professional service",
      "Quality guarantee"
    ],
    "social_links": {}
  },
  {
    "name": "I AM Medical Spas and Laser Center",
    "address": "Troy, MI",
    "phone": "",
    "rating": 4.0,
    "reviews": 25,
    "website": "https://www.iammedicalspa.com/",
    "category": "Asian-owned Medical spas in Michigan",
    "description": "Specializes in Korean Beauty treatments, offering services like Botox, Juvederm, laser treatments, and skin facials",
    "hours": "Mon-Fri 9AM-6PM",
    "services": [
      "Asian-owned Medical spas in Michigan consultation",
      "Professional service",
      "Quality guarantee"
    ],
    "social_links": {}
  },
  {
    "name": "Naturally You Med Spa",
    "address": "3824 M-139, St. Joseph, MI",
    "phone": "",
    "rating": 4.0,
    "reviews": 25,
    "website": "https://www.naturallyoumedspa.com/",
    "category": "Asian-owned Medical spas in Michigan",
    "description": "Offers non-surgical solutions to rejuvenate and restore a youthful appearance, with personalized care from master injectors and aestheticians",
    "hours": "Mon-Fri 9AM-6PM",
    "services": [
      "Asian-owned Medical spas in Michigan consultation",
      "Professional service",
      "Quality guarantee"
    ],
    "social_links": {}
  },
  {
    "name": "Pure Seoul Aesthetics",
    "address": "950 E Maple rd Ste L10, Birmingham, MI 48009",
    "phone": "(248) 988-0812",
    "rating": 4.0,
    "reviews": 25,
    "website": "https://pureseoulaesthetics.com/",
    "category": "Asian-owned Medical spas in Michigan",
    "description": "Specializes in Korean beauty treatments, offering Botox, filler, PRF EZ gel, and microneedling",
    "hours": "Mon-Fri 9AM-6PM",
    "services": [
      "Asian-owned Medical spas in Michigan consultation",
      "Professional service",
      "Quality guarantee"
    ],
    "social_links": {}
  },
  {
    "name": "Reinvent You Med Spa",
    "address": "Davison, MI",
    "phone": "",
    "rating": 4.0,
    "reviews": 25,
    "website": "https://reinventyumedspa.com/",
    "category": "Asian-owned Medical spas in Michigan",
    "description": "Offers Botox, vitamin injections, and IV infusions with a focus on matching outer beauty to inner beauty",
    "hours": "Mon-Fri 9AM-6PM",
    "services": [
      "Asian-owned Medical spas in Michigan consultation",
      "Professional service",
      "Quality guarantee"
    ],
    "social_links": {}
  },
  {
    "name": "Revive Medical Spa",
    "address": "Multiple locations, including Detroit and Farmington Hills, MI",
    "phone": "(248) 254-3246 (Farmington Hills)",
    "rating": 4.0,
    "reviews": 25,
    "website": "https://revivemedicalspa.com/",
    "category": "Asian-owned Medical spas in Michigan",
    "description": "Provides aesthetic treatments such as Botox, dermal fillers, laser hair removal, and facials",
    "hours": "Mon-Fri 9AM-6PM",
    "services": [
      "Asian-owned Medical spas in Michigan consultation",
      "Professional service",
      "Quality guarantee"
    ],
    "social_links": {}
  }
]