[
  {
    "name": "Legacy Martial Arts and Fitness",
    "address": "8110 Mt. Holly-Huntersville Road, Charlotte, NC 28216",
    "phone": "(704) 450-4676",
    "rating": 4.0,
    "reviews": 25,
    "website": "https://www.legacymartialartsandfitness.com/",
    "category": "Black-owned Taekwondo in North-Carolina",
    "description": "Offers mixed martial arts, self-defense, and personal training for ages 3 and up",
    "hours": "Mon-Fri 9AM-6PM",
    "services": [
      "Black-owned Taekwondo in North-Carolina consultation",
      "Professional service",
      "Quality guarantee"
    ],
    "social_links": {}
  },
  {
    "name": "Brown's Heroes Martial Arts",
    "address": "601 N. Eastern Blvd., Fayetteville, NC 28301",
    "phone": "(910) 484-0005",
    "rating": 4.0,
    "reviews": 25,
    "website": "https://brownsherosmartialarts.com/",
    "category": "Black-owned Taekwondo in North-Carolina",
    "description": "Offers Taekwondo and Krav Maga, with a focus on leadership and self-defense for all ages",
    "hours": "Mon-Fri 9AM-6PM",
    "services": [
      "Black-owned Taekwondo in North-Carolina consultation",
      "Professional service",
      "Quality guarantee"
    ],
    "social_links": {}
  },
  {
    "name": "Black Belt World",
    "address": "300 Black Belt World Drive, Knightdale, NC 27545",
    "phone": "(919) 217-1555",
    "rating": 4.0,
    "reviews": 25,
    "website": "https://www.blackbeltworld.com/",
    "category": "Black-owned Taekwondo in North-Carolina",
    "description": "Provides Taekwondo lessons for families and children, focusing on physical and mental development",
    "hours": "Mon-Fri 9AM-6PM",
    "services": [
      "Black-owned Taekwondo in North-Carolina consultation",
      "Professional service",
      "Quality guarantee"
    ],
    "social_links": {}
  },
  {
    "name": "Greensboro Black Belt Academy",
    "address": "Multiple locations including Hayes-Taylor Memorial YMCA, Ragsdale Family YMCA, and Spears Family YMCA in Greensboro, NC",
    "phone": "(336) 272-2131",
    "rating": 4.0,
    "reviews": 25,
    "website": "https://greensboroblackbelt.com/",
    "category": "Black-owned Taekwondo in North-Carolina",
    "description": "Offers Tae Kwon Do classes for the entire family, focusing on physical, mental, and social benefits",
    "hours": "Mon-Fri 9AM-6PM",
    "services": [
      "Black-owned Taekwondo in North-Carolina consultation",
      "Professional service",
      "Quality guarantee"
    ],
    "social_links": {}
  },
  {
    "name": "Young Yu Taekwondo",
    "address": "4107 Romaine Street, Greensboro, NC 27407",
    "phone": "(336) 292-1430",
    "rating": 4.0,
    "reviews": 25,
    "website": "https://www.youngyutaekwondo.com/",
    "category": "Black-owned Taekwondo in North-Carolina",
    "description": "Offers Taekwondo training with a focus on attitude, focus, and self-respect for students of all ages",
    "hours": "Mon-Fri 9AM-6PM",
    "services": [
      "Black-owned Taekwondo in North-Carolina consultation",
      "Professional service",
      "Quality guarantee"
    ],
    "social_links": {}
  },
  {
    "name": "Master Chang's Martial Arts",
    "address": "Multiple locations including Charlotte, Raleigh, Cary, Durham, and Chapel Hill, NC",
    "phone": "(704) 544-4613 (Ballantyne, Charlotte)",
    "rating": 4.0,
    "reviews": 25,
    "website": "https://www.masterchangsmartialarts.com/",
    "category": "Black-owned Taekwondo in North-Carolina",
    "description": "Provides Taekwondo programs for children, teens, and adults, emphasizing fitness and discipline",
    "hours": "Mon-Fri 9AM-6PM",
    "services": [
      "Black-owned Taekwondo in North-Carolina consultation",
      "Professional service",
      "Quality guarantee"
    ],
    "social_links": {}
  },
  {
    "name": "King Tiger Taekwondo",
    "address": "10001 Weddington Road, Concord, NC 28027",
    "phone": "(704) 992-6400",
    "rating": 4.0,
    "reviews": 25,
    "website": "https://kingtigertaekwondo.com/",
    "category": "Black-owned Taekwondo in North-Carolina",
    "description": "Specializes in teaching Taekwondo, self-defense, physical fitness, and life lessons",
    "hours": "Mon-Fri 9AM-6PM",
    "services": [
      "Black-owned Taekwondo in North-Carolina consultation",
      "Professional service",
      "Quality guarantee"
    ],
    "social_links": {}
  },
  {
    "name": "JMA Taekwondo",
    "address": "8200 Renaissance Parkway, Durham, NC 27713",
    "phone": "(919) 484-9199",
    "rating": 4.0,
    "reviews": 25,
    "website": "https://www.jmadurham.com/",
    "category": "Black-owned Taekwondo in North-Carolina",
    "description": "A family-owned Taekwondo school in Durham, NC, dedicated to providing high-standard martial arts training",
    "hours": "Mon-Fri 9AM-6PM",
    "services": [
      "Black-owned Taekwondo in North-Carolina consultation",
      "Professional service",
      "Quality guarantee"
    ],
    "social_links": {}
  },
  {
    "name": "K.S. Lee's Tae Kwon Do Carolina",
    "address": "101 Gathering Park Cir #103, Cary, NC 27519",
    "phone": "(919) 467-6355",
    "rating": 4.0,
    "reviews": 25,
    "website": "https://www.ksleetaekwondo.com/",
    "category": "Black-owned Taekwondo in North-Carolina",
    "description": "Offers Tae Kwon Do and Hap Ki Do training, focusing on conditioning the mind and body for self-defense and positive living",
    "hours": "Mon-Fri 9AM-6PM",
    "services": [
      "Black-owned Taekwondo in North-Carolina consultation",
      "Professional service",
      "Quality guarantee"
    ],
    "social_links": {}
  },
  {
    "name": "Elite Fire Taekwondo",
    "address": "7414 Creedmoor Rd, Raleigh, NC 27613",
    "phone": "(919) 435-4258",
    "rating": 4.0,
    "reviews": 25,
    "website": "https://elitefiretaekwondo.com/",
    "category": "Black-owned Taekwondo in North-Carolina",
    "description": "A family-owned school specializing in Taekwondo for all ages, focusing on character development and fitness",
    "hours": "Mon-Fri 9AM-6PM",
    "services": [
      "Black-owned Taekwondo in North-Carolina consultation",
      "Professional service",
      "Quality guarantee"
    ],
    "social_links": {}
  }
]