[
  {
    "name": "Brookdale Lafayette",
    "address": "215 West Farrel Road, Lafayette, LA 70508",
    "phone": "(888) 997-3898",
    "rating": 4.5,
    "reviews": 25,
    "website": "https://www.brookdale.com/en/communities/brookdale-lafayette.html",
    "category": "Chinese-speaking Memory care units in Louisiana",
    "description": "Offers memory care with a focus on individual needs and a caring staff",
    "hours": "Mon-Fri 9AM-6PM",
    "services": [
      "Chinese-speaking Memory care units in Louisiana consultation",
      "Professional service",
      "Quality guarantee"
    ],
    "social_links": {}
  },
  {
    "name": "The Blake at Lafayette",
    "address": "101 Kaliste Saloom Road, Lafayette, LA 70508",
    "phone": "(337) 456-1400",
    "rating": 4.6,
    "reviews": 25,
    "website": "https://www.theblake.com/communities/lafayette/",
    "category": "Chinese-speaking Memory care units in Louisiana",
    "description": "Provides quality of life care with caring staff members",
    "hours": "Mon-Fri 9AM-6PM",
    "services": [
      "Chinese-speaking Memory care units in Louisiana consultation",
      "Professional service",
      "Quality guarantee"
    ],
    "social_links": {}
  },
  {
    "name": "The Verandah Retirement Community",
    "address": "5847 Gray Market Drive, Lake Charles, LA 70605",
    "phone": "(337) 409-8335",
    "rating": 4.9,
    "reviews": 25,
    "website": "https://www.sunshineretirementliving.com/lake-charles-assisted-living-and-memory-care/",
    "category": "Chinese-speaking Memory care units in Louisiana",
    "description": "Offers memory care services with a focus on person-centered care based on Montessori principles",
    "hours": "Mon-Fri 9AM-6PM",
    "services": [
      "Chinese-speaking Memory care units in Louisiana consultation",
      "Professional service",
      "Quality guarantee"
    ],
    "social_links": {}
  },
  {
    "name": "Sage Oak Assisted Living and Memory Care of Lake Charles",
    "address": "4000 Nelson Road, Lake Charles, LA 70605",
    "phone": "(337) 602-6020",
    "rating": 4.7,
    "reviews": 25,
    "website": "https://sageoaklakecharles.com/",
    "category": "Chinese-speaking Memory care units in Louisiana",
    "description": "Provides a boutique memory care experience with a high staff-to-resident ratio and in-house nursing",
    "hours": "Mon-Fri 9AM-6PM",
    "services": [
      "Chinese-speaking Memory care units in Louisiana consultation",
      "Professional service",
      "Quality guarantee"
    ],
    "social_links": {}
  },
  {
    "name": "Peristyle Residences",
    "address": "Multiple locations in the Greater New Orleans area, including Maison Levie in Lafayette",
    "phone": "(504) 717-4000 (New Orleans)",
    "rating": 4.5,
    "reviews": 25,
    "website": "https://www.peristyleresidences.com/",
    "category": "Chinese-speaking Memory care units in Louisiana",
    "description": "Offers compassionate assisted living and memory care in residential settings with a higher caregiver-to-senior ratio",
    "hours": "Mon-Fri 9AM-6PM",
    "services": [
      "Chinese-speaking Memory care units in Louisiana consultation",
      "Professional service",
      "Quality guarantee"
    ],
    "social_links": {}
  },
  {
    "name": "The Claiborne at Baton Rouge",
    "address": "14500 Coursey Blvd, Baton Rouge, LA 70816",
    "phone": "(225) 452-2824",
    "rating": 4.7,
    "reviews": 25,
    "website": "https://www.theclaiborne.com/baton-rouge/",
    "category": "Chinese-speaking Memory care units in Louisiana",
    "description": "Provides specialized memory and dementia care with a program called Tempus, designed to meet residents on their own timeline",
    "hours": "Mon-Fri 9AM-6PM",
    "services": [
      "Chinese-speaking Memory care units in Louisiana consultation",
      "Professional service",
      "Quality guarantee"
    ],
    "social_links": {}
  },
  {
    "name": "The Pearl at Jamestown",
    "address": "10300 Jamestown Ave, Baton Rouge, LA 70816",
    "phone": "(225) 308-1100",
    "rating": 4.5,
    "reviews": 25,
    "website": "https://www.phoenixseniorliving.net/locations/louisiana/baton-rouge/the-pearl-at-jamestown/",
    "category": "Chinese-speaking Memory care units in Louisiana",
    "description": "Baton Rouge's only standalone community dedicated exclusively to memory care, offering a safe and caring environment",
    "hours": "Mon-Fri 9AM-6PM",
    "services": [
      "Chinese-speaking Memory care units in Louisiana consultation",
      "Professional service",
      "Quality guarantee"
    ],
    "social_links": {}
  },
  {
    "name": "Vista Shores Assisted Living",
    "address": "5958 St. Bernard Ave., New Orleans, LA 70122",
    "phone": "(504) 288-3737",
    "rating": 4.3,
    "reviews": 25,
    "website": "https://vistashores.com/",
    "category": "Chinese-speaking Memory care units in Louisiana",
    "description": "Offers assisted living and memory care with a highly-trained staff and specialized memory-strengthening programs",
    "hours": "Mon-Fri 9AM-6PM",
    "services": [
      "Chinese-speaking Memory care units in Louisiana consultation",
      "Professional service",
      "Quality guarantee"
    ],
    "social_links": {}
  },
  {
    "name": "The Suites at Algiers Point",
    "address": "301 Delaronde St, New Orleans, LA 70114",
    "phone": "(504) 309-4750",
    "rating": 4.2,
    "reviews": 25,
    "website": "https://www.thesuitesatalgierspoint.com/",
    "category": "Chinese-speaking Memory care units in Louisiana",
    "description": "A state-of-the-art community with 24-hour staff trained in memory care and programs to strengthen memory",
    "hours": "Mon-Fri 9AM-6PM",
    "services": [
      "Chinese-speaking Memory care units in Louisiana consultation",
      "Professional service",
      "Quality guarantee"
    ],
    "social_links": {}
  },
  {
    "name": "Montclair Park Assisted Living",
    "address": "9100 E Kings Hwy, Shreveport, LA 71105",
    "phone": "(318) 797-1114",
    "rating": 4.0,
    "reviews": 25,
    "website": "https://montclairpark.com/",
    "category": "Chinese-speaking Memory care units in Louisiana",
    "description": "A family-owned community offering personalized services for assisted living and memory care, committed to treating residents like family",
    "hours": "Mon-Fri 9AM-6PM",
    "services": [
      "Chinese-speaking Memory care units in Louisiana consultation",
      "Professional service",
      "Quality guarantee"
    ],
    "social_links": {}
  }
]