[
  {
    "name": "Above and Beyond Yoga and Salt Therapy",
    "address": "1000 Government St, Mobile, AL 36604",
    "phone": "(251) 433-9642",
    "rating": 4.9,
    "reviews": 25,
    "website": "http://www.aboveandbeyondyoga.com/",
    "category": "Central-American-owned Yin yoga in Alabama",
    "description": "Offers a variety of classes including Yin yoga, hot pilates, restorative, and more, along with salt therapy",
    "hours": "Mon-Fri 9AM-6PM",
    "services": [
      "Central-American-owned Yin yoga in Alabama consultation",
      "Professional service",
      "Quality guarantee"
    ],
    "social_links": {}
  },
  {
    "name": "Synergy Yoga and Pilates",
    "address": "3152 Old Shell Rd, Mobile, AL 36607",
    "phone": "(251) 473-1104",
    "rating": 4.7,
    "reviews": 25,
    "website": "https://www.synergyyogaandpilates.com/",
    "category": "Central-American-owned Yin yoga in Alabama",
    "description": "Provides a range of yoga and Pilates classes, including Yin yoga, with a focus on health and wellness",
    "hours": "Mon-Fri 9AM-6PM",
    "services": [
      "Central-American-owned Yin yoga in Alabama consultation",
      "Professional service",
      "Quality guarantee"
    ],
    "social_links": {}
  },
  {
    "name": "Kindred Yoga",
    "address": "2511 Old Shell Rd, Mobile, AL 36607",
    "phone": "(251) 378-2631",
    "rating": 4.8,
    "reviews": 25,
    "website": "https://www.kindredyogamobile.com/",
    "category": "Central-American-owned Yin yoga in Alabama",
    "description": "An inclusive yoga studio offering a blend of styles like Vinyasa, Katonah, and Hatha, with a focus on self-inquiry",
    "hours": "Mon-Fri 9AM-6PM",
    "services": [
      "Central-American-owned Yin yoga in Alabama consultation",
      "Professional service",
      "Quality guarantee"
    ],
    "social_links": {}
  },
  {
    "name": "Bandaloop Yoga and Wellness",
    "address": "2848 Zelda Rd, Montgomery, AL 36106",
    "phone": "(334) 356-7030",
    "rating": 4.7,
    "reviews": 25,
    "website": "https://www.bandaloopyoga.com/",
    "category": "Central-American-owned Yin yoga in Alabama",
    "description": "Offers various yoga classes including Yin, Vinyasa, and Power Yoga, aiming to uplift the community through mindfulness and fitness",
    "hours": "Mon-Fri 9AM-6PM",
    "services": [
      "Central-American-owned Yin yoga in Alabama consultation",
      "Professional service",
      "Quality guarantee"
    ],
    "social_links": {}
  },
  {
    "name": "Breezeville Yoga",
    "address": "2014 E 2nd St, Montgomery, AL 36106",
    "phone": "(334) 312-5427",
    "rating": 4.5,
    "reviews": 25,
    "website": "https://www.breezevilleyoga.com/",
    "category": "Central-American-owned Yin yoga in Alabama",
    "description": "Dedicated to strengthening the body and promoting well-being, offering a variety of yoga styles including Yin",
    "hours": "Mon-Fri 9AM-6PM",
    "services": [
      "Central-American-owned Yin yoga in Alabama consultation",
      "Professional service",
      "Quality guarantee"
    ],
    "social_links": {}
  },
  {
    "name": "Light on Yoga Fitness",
    "address": "4000 University Dr NW, Huntsville, AL 35816",
    "phone": "(256) 883-9642",
    "rating": 4.6,
    "reviews": 25,
    "website": "https://www.lightonyogafitness.com/",
    "category": "Central-American-owned Yin yoga in Alabama",
    "description": "Offers a range of yoga classes, including Yin yoga, with a focus on breathwork, meditation, and sound baths",
    "hours": "Mon-Fri 9AM-6PM",
    "services": [
      "Central-American-owned Yin yoga in Alabama consultation",
      "Professional service",
      "Quality guarantee"
    ],
    "social_links": {}
  },
  {
    "name": "Back in Balance Yoga Therapy",
    "address": "1000 Old Monrovia Rd NW, Suite 101, Huntsville, AL 35806",
    "phone": "(256) 650-7000",
    "rating": 5.0,
    "reviews": 25,
    "website": "https://www.backinbalanceyogat \u0645\u062e\u062a\u0644\u0641.com/",
    "category": "Central-American-owned Yin yoga in Alabama",
    "description": "Provides therapeutic, restorative, and accessible yoga for healing, with classes tailored to individual needs",
    "hours": "Mon-Fri 9AM-6PM",
    "services": [
      "Central-American-owned Yin yoga in Alabama consultation",
      "Professional service",
      "Quality guarantee"
    ],
    "social_links": {}
  },
  {
    "name": "Hot Yoga of Huntsville",
    "address": "326 Sutton Rd, Owens Cross Roads, AL 35763",
    "phone": "(256) 714-4226",
    "rating": 4.7,
    "reviews": 25,
    "website": "https://www.hotyogahuntsville.com/",
    "category": "Central-American-owned Yin yoga in Alabama",
    "description": "A hot yoga studio offering various classes including Vin2Yin, Vinyasa, and Yoga Flow, with a focus on community and a tranquil environment",
    "hours": "Mon-Fri 9AM-6PM",
    "services": [
      "Central-American-owned Yin yoga in Alabama consultation",
      "Professional service",
      "Quality guarantee"
    ],
    "social_links": {}
  },
  {
    "name": "U4IC Yoga",
    "address": "2926 Central Ave, Homewood, AL 35209",
    "phone": "(205) 407-0281",
    "rating": 4.9,
    "reviews": 25,
    "website": "https://www.u4icyoga.com/",
    "category": "Central-American-owned Yin yoga in Alabama",
    "description": "Offers a variety of yoga classes including Hot Vinyasa Flows, Sculpt Yoga, Yin, and Mat Pilates in a welcoming studio environment",
    "hours": "Mon-Fri 9AM-6PM",
    "services": [
      "Central-American-owned Yin yoga in Alabama consultation",
      "Professional service",
      "Quality guarantee"
    ],
    "social_links": {}
  },
  {
    "name": "creACTive Wellness Center & Cafe",
    "address": "200 1st Street South, Alabaster, Alabama, 35007",
    "phone": "(205) 621-2222",
    "rating": 5.0,
    "reviews": 25,
    "website": "https://www.creactivewellness.com/",
    "category": "Central-American-owned Yin yoga in Alabama",
    "description": "Offers Yin yoga classes described as \"Deep Release,\" targeting connective tissues and promoting mobility and mental quietude",
    "hours": "Mon-Fri 9AM-6PM",
    "services": [
      "Central-American-owned Yin yoga in Alabama consultation",
      "Professional service",
      "Quality guarantee"
    ],
    "social_links": {}
  }
]