[
  {
    "name": "Luxmore Grande Estate",
    "address": "16300 County Road 437, Sorrento, FL 32776",
    "phone": "(407) 751-1000",
    "rating": 4.0,
    "reviews": 25,
    "website": "https://www.luxmoregrande.com/",
    "category": "Black-owned Event space rentals in Florida",
    "description": "This family-owned estate sits on 5 acres of land on Lake Jessup, offering a luxurious setting with a dramatic staircase, spacious garden, and grand ballroom. It can accommodate up to 200 guests",
    "hours": "Mon-Fri 9AM-6PM",
    "services": [
      "Black-owned Event space rentals in Florida consultation",
      "Professional service",
      "Quality guarantee"
    ],
    "social_links": {}
  },
  {
    "name": "7th + Grove",
    "address": "1919 E 7th Ave, Tampa, FL 33605",
    "phone": "(813) 902-2532",
    "rating": 4.0,
    "reviews": 25,
    "website": "https://www.7thandgrove.com/",
    "category": "Black-owned Event space rentals in Florida",
    "description": "Known as the largest and most popular Black-owned venue in Tampa, 7th+Grove features two spaces: an elegant Lounge with a loft, bar, and stage, and a Restaurant Side with an open-concept kitchen and boutique bar. It can accommodate up to 350 guests",
    "hours": "Mon-Fri 9AM-6PM",
    "services": [
      "Black-owned Event space rentals in Florida consultation",
      "Professional service",
      "Quality guarantee"
    ],
    "social_links": {}
  },
  {
    "name": "The Urban",
    "address": "1000 NW 1st Ct, Miami, FL 33136",
    "phone": "",
    "rating": 4.0,
    "reviews": 25,
    "website": "https://www.google.com/maps/search/The+Urban+in+Florida",
    "category": "Black-owned Event space rentals in Florida",
    "description": "An outdoor venue space in Overtown, Miami, where art, music, culture, and community combine to create a memorable food market experience",
    "hours": "Mon-Fri 9AM-6PM",
    "services": [
      "Black-owned Event space rentals in Florida consultation",
      "Professional service",
      "Quality guarantee"
    ],
    "social_links": {}
  },
  {
    "name": "Venue Noire",
    "address": "3050 N Australian Ave, West Palm Beach, FL 33407",
    "phone": "(561) 619-0011",
    "rating": 4.0,
    "reviews": 25,
    "website": "https://www.venuenoire.com/",
    "category": "Black-owned Event space rentals in Florida",
    "description": "Venue Noire provides professional event venue rental services in Mangonia Park, Florida, aiming to transform common occurrences into extraordinary experiences for weddings, corporate gatherings, and reunions",
    "hours": "Mon-Fri 9AM-6PM",
    "services": [
      "Black-owned Event space rentals in Florida consultation",
      "Professional service",
      "Quality guarantee"
    ],
    "social_links": {}
  },
  {
    "name": "Community Empowerment Center (Urban League of Broward County)",
    "address": "560 NW 27th Ave, Fort Lauderdale, FL 33311",
    "phone": "(954) 584-0777",
    "rating": 4.0,
    "reviews": 25,
    "website": "https://www.ulbc.org/community-empowerment-center/",
    "category": "Black-owned Event space rentals in Florida",
    "description": "Located in the Historic Sistrunk neighborhood of Fort Lauderdale, this venue offers various spaces including a 4,000 sq. ft. banquet hall and a rooftop terrace, suitable for galas, banquets, weddings, and corporate events",
    "hours": "Mon-Fri 9AM-6PM",
    "services": [
      "Black-owned Event space rentals in Florida consultation",
      "Professional service",
      "Quality guarantee"
    ],
    "social_links": {}
  },
  {
    "name": "Memoirs Event Venue",
    "address": "Information not available in search results",
    "phone": "",
    "rating": 4.0,
    "reviews": 25,
    "website": "https://www.google.com/maps/search/Memoirs+Event+Venue+in+Florida",
    "category": "Black-owned Event space rentals in Florida",
    "description": "Listed as a Black-owned business in the Tampa Bay area",
    "hours": "Mon-Fri 9AM-6PM",
    "services": [
      "Black-owned Event space rentals in Florida consultation",
      "Professional service",
      "Quality guarantee"
    ],
    "social_links": {}
  },
  {
    "name": "Black Swan Venue",
    "address": "1010 W Lime St, Lakeland, FL 33805",
    "phone": "(863) 777-3565",
    "rating": 4.0,
    "reviews": 25,
    "website": "https://www.blackswanvenue.com/",
    "category": "Black-owned Event space rentals in Florida",
    "description": "This Lakeland event venue offers a flexible ballroom with a neutral black-and-white palette, suitable for weddings, corporate events, and family celebrations, accommodating up to 200 guests",
    "hours": "Mon-Fri 9AM-6PM",
    "services": [
      "Black-owned Event space rentals in Florida consultation",
      "Professional service",
      "Quality guarantee"
    ],
    "social_links": {}
  },
  {
    "name": "ACC Event Hall",
    "address": "1047 SW 34th Ave, Port St. Lucie, FL 34953",
    "phone": "(772) 204-4040",
    "rating": 4.0,
    "reviews": 25,
    "website": "https://acceventhall.com/",
    "category": "Black-owned Event space rentals in Florida",
    "description": "A premier event venue in Port St. Lucie, Florida, specializing in weddings, birthdays, and corporate events, offering all-inclusive packages and flexibility for vendor choices",
    "hours": "Mon-Fri 9AM-6PM",
    "services": [
      "Black-owned Event space rentals in Florida consultation",
      "Professional service",
      "Quality guarantee"
    ],
    "social_links": {}
  },
  {
    "name": "Exquisite Event Center",
    "address": "1073 SW 34th Ave, Port St. Lucie, FL 34953",
    "phone": "(772) 204-4040",
    "rating": 4.0,
    "reviews": 25,
    "website": "https://www.exquisiteeventcenter.com/",
    "category": "Black-owned Event space rentals in Florida",
    "description": "Located in Port St. Lucie, FL, this venue offers a stylish and flexible space for weddings, parties, and graduations, with services including venue rental, decor, and professional event coordination",
    "hours": "Mon-Fri 9AM-6PM",
    "services": [
      "Black-owned Event space rentals in Florida consultation",
      "Professional service",
      "Quality guarantee"
    ],
    "social_links": {}
  },
  {
    "name": "The Lark",
    "address": "15 W Duval St, Jacksonville, FL 32202",
    "phone": "(904) 419-0777",
    "rating": 4.0,
    "reviews": 25,
    "website": "https://thelarkjax.com/",
    "category": "Black-owned Event space rentals in Florida",
    "description": "A historic loft in downtown Jacksonville with over 4,000 sq. ft. of open event space, suitable for corporate meetings, workshops, private parties, and weddings",
    "hours": "Mon-Fri 9AM-6PM",
    "services": [
      "Black-owned Event space rentals in Florida consultation",
      "Professional service",
      "Quality guarantee"
    ],
    "social_links": {}
  }
]