[
  {
    "name": "Reflections Medspa & Wellness Center",
    "address": "3070 Old Rosebud Rd, Lexington, KY 40509",
    "phone": "(859) 422-2060",
    "rating": 4.0,
    "reviews": 25,
    "website": "http://www.reflectionsmedspa.com/",
    "category": "Bengali-speaking Fat reduction in Kentucky",
    "description": "Offers medspa services including CoolSculpting Elite and Emsculpt Neo for fat reduction and body contouring",
    "hours": "Mon-Fri 9AM-6PM",
    "services": [
      "Bengali-speaking Fat reduction in Kentucky consultation",
      "Professional service",
      "Quality guarantee"
    ],
    "social_links": {}
  },
  {
    "name": "Kentucky Skin Cancer Center",
    "address": "1775 Alysheba Way, Lexington, KY 40517",
    "phone": "(859) 273-7373",
    "rating": 4.0,
    "reviews": 25,
    "website": "http://www.skincancerky.com/",
    "category": "Bengali-speaking Fat reduction in Kentucky",
    "description": "Provides CoolSculpting for non-surgical fat reduction",
    "hours": "Mon-Fri 9AM-6PM",
    "services": [
      "Bengali-speaking Fat reduction in Kentucky consultation",
      "Professional service",
      "Quality guarantee"
    ],
    "social_links": {}
  },
  {
    "name": "Priv\u00e9 Med Spa",
    "address": "1031 Wellington Way, Suite 125, Lexington, KY 40513",
    "phone": "(859) 523-5893",
    "rating": 4.0,
    "reviews": 25,
    "website": "http://www.privemedspa.com/",
    "category": "Bengali-speaking Fat reduction in Kentucky",
    "description": "Specializes in CoolSculpting, described as the number one non-invasive, non-surgical fat reduction procedure",
    "hours": "Mon-Fri 9AM-6PM",
    "services": [
      "Bengali-speaking Fat reduction in Kentucky consultation",
      "Professional service",
      "Quality guarantee"
    ],
    "social_links": {}
  },
  {
    "name": "MediMorph",
    "address": "3070 Old Rosebud Rd, Suite 101, Lexington, KY 40509",
    "phone": "(859) 422-2060",
    "rating": 4.0,
    "reviews": 25,
    "website": "http://www.medimorph.com/",
    "category": "Bengali-speaking Fat reduction in Kentucky",
    "description": "An integrative aesthetics practice offering a holistic approach that includes minimally-invasive cosmetic procedures and weight loss treatments",
    "hours": "Mon-Fri 9AM-6PM",
    "services": [
      "Bengali-speaking Fat reduction in Kentucky consultation",
      "Professional service",
      "Quality guarantee"
    ],
    "social_links": {}
  },
  {
    "name": "Be You Medical Spa",
    "address": "1191 South Lake Dr, Prestonsburg, KY 41653",
    "phone": "(606) 207-8364",
    "rating": 4.0,
    "reviews": 25,
    "website": "http://www.beyoumedspa.com/",
    "category": "Bengali-speaking Fat reduction in Kentucky",
    "description": "Offers body contouring treatments like CoolSculpting Elite and KYBELLA for fat reduction",
    "hours": "Mon-Fri 9AM-6PM",
    "services": [
      "Bengali-speaking Fat reduction in Kentucky consultation",
      "Professional service",
      "Quality guarantee"
    ],
    "social_links": {}
  },
  {
    "name": "UpGlow Med Spa",
    "address": "185 East Brannon Rd, Versailles, KY 40383",
    "phone": "(859) 303-7143",
    "rating": 4.0,
    "reviews": 25,
    "website": "http://www.upglowmedspa.com/",
    "category": "Bengali-speaking Fat reduction in Kentucky",
    "description": "Offers weight loss options and other medical services, proclaiming to be the best way to lose belly fat using an integrative medicine approach",
    "hours": "Mon-Fri 9AM-6PM",
    "services": [
      "Bengali-speaking Fat reduction in Kentucky consultation",
      "Professional service",
      "Quality guarantee"
    ],
    "social_links": {}
  },
  {
    "name": "St. Claire Healthcare - Plastic & Reconstructive Surgery",
    "address": "222 Medical Circle, Morehead, KY 40351",
    "phone": "(606) 783-6500",
    "rating": 4.0,
    "reviews": 25,
    "website": "http://www.st-claire.org/services/plastic-reconstructive-surgery",
    "category": "Bengali-speaking Fat reduction in Kentucky",
    "description": "Offers body contouring procedures including liposuction for fat removal",
    "hours": "Mon-Fri 9AM-6PM",
    "services": [
      "Bengali-speaking Fat reduction in Kentucky consultation",
      "Professional service",
      "Quality guarantee"
    ],
    "social_links": {}
  },
  {
    "name": "Plastic Surgeons of Lexington",
    "address": "1775 Alysheba Way, Suite 100, Lexington, KY 40517",
    "phone": "(859) 273-5454",
    "rating": 4.0,
    "reviews": 25,
    "website": "http://www.plasticsurgeonsoflexington.com/",
    "category": "Bengali-speaking Fat reduction in Kentucky",
    "description": "Provides surgical and non-surgical procedures, including liposuction for stubborn fat bulges",
    "hours": "Mon-Fri 9AM-6PM",
    "services": [
      "Bengali-speaking Fat reduction in Kentucky consultation",
      "Professional service",
      "Quality guarantee"
    ],
    "social_links": {}
  },
  {
    "name": "CaloAesthetics\u00ae Plastic Surgery Center",
    "address": "1380 Dutchmans Ln #201, Louisville, KY 40205",
    "phone": "(502) 586-3288",
    "rating": 4.0,
    "reviews": 25,
    "website": "http://www.calo \u09ac\u09c8\u09b6\u09bf\u09b7\u09cd\u099f\u09cd\u09af.com/",
    "category": "Bengali-speaking Fat reduction in Kentucky",
    "description": "Offers advanced body contouring solutions, including liposuction, to reduce fatty deposits",
    "hours": "Mon-Fri 9AM-6PM",
    "services": [
      "Bengali-speaking Fat reduction in Kentucky consultation",
      "Professional service",
      "Quality guarantee"
    ],
    "social_links": {}
  },
  {
    "name": "Mizuguchi Plastic Surgery",
    "address": "1380 Dutchmans Ln #201, Louisville, KY 40205",
    "phone": "(502) 586-3288",
    "rating": 4.0,
    "reviews": 25,
    "website": "http://www.mizuguchiplasticsurgery.com/",
    "category": "Bengali-speaking Fat reduction in Kentucky",
    "description": "Offers post-weight loss procedures to contour the body and remove stubborn fat, including liposuction",
    "hours": "Mon-Fri 9AM-6PM",
    "services": [
      "Bengali-speaking Fat reduction in Kentucky consultation",
      "Professional service",
      "Quality guarantee"
    ],
    "social_links": {}
  }
]