[
  {
    "name": "Davenport Evans",
    "address": "206 W 14th St, Sioux Falls, SD 57104",
    "phone": "(605) 336-2880",
    "rating": 4.0,
    "reviews": 25,
    "website": "https://www.davenportevans.com/",
    "category": "Arabic-speaking Workers' compensation in South-Dakota",
    "description": "This firm has attorneys experienced in workers' compensation defense and administrative law",
    "hours": "Mon-Fri 9AM-6PM",
    "services": [
      "Arabic-speaking Workers' compensation in South-Dakota consultation",
      "Professional service",
      "Quality guarantee"
    ],
    "social_links": {}
  },
  {
    "name": "Christensen Law Office, PC",
    "address": "101 S. Main Ave, Suite 300, Sioux Falls, SD 57104",
    "phone": "(605) 206-5872",
    "rating": 4.0,
    "reviews": 25,
    "website": "https://www.christensenlaw.net/",
    "category": "Arabic-speaking Workers' compensation in South-Dakota",
    "description": "This law firm specializes in personal injury, workers' compensation, and disability cases",
    "hours": "Mon-Fri 9AM-6PM",
    "services": [
      "Arabic-speaking Workers' compensation in South-Dakota consultation",
      "Professional service",
      "Quality guarantee"
    ],
    "social_links": {}
  },
  {
    "name": "Beardsley, Jensen & Lee",
    "address": "715 Kansas City St, Rapid City, SD 57701",
    "phone": "(605) 777-7466",
    "rating": 4.0,
    "reviews": 25,
    "website": "https://www.bjllaw.com/",
    "category": "Arabic-speaking Workers' compensation in South-Dakota",
    "description": "They represent victims of negligence and have experience in workers' compensation claims",
    "hours": "Mon-Fri 9AM-6PM",
    "services": [
      "Arabic-speaking Workers' compensation in South-Dakota consultation",
      "Professional service",
      "Quality guarantee"
    ],
    "social_links": {}
  },
  {
    "name": "Bret Merkle - Law Office of Bret Merkle",
    "address": "5032 S Bur Oak Place, Ste 220, Sioux Falls, SD 57108",
    "phone": "(605) 339-1420",
    "rating": 4.0,
    "reviews": 25,
    "website": "https://bretmerkle.com/",
    "category": "Arabic-speaking Workers' compensation in South-Dakota",
    "description": "A workers' compensation attorney with 34 years of experience",
    "hours": "Mon-Fri 9AM-6PM",
    "services": [
      "Arabic-speaking Workers' compensation in South-Dakota consultation",
      "Professional service",
      "Quality guarantee"
    ],
    "social_links": {}
  },
  {
    "name": "Kristi Geisler Holm - Holm, Willis & Johnson, LLP",
    "address": "206 W 14th Street, P.O. Box 1030, Sioux Falls, SD 57101",
    "phone": "(605) 336-2880",
    "rating": 4.0,
    "reviews": 25,
    "website": "https://www.hwjlaw.com/",
    "category": "Arabic-speaking Workers' compensation in South-Dakota",
    "description": "Specializes in workers' compensation and employment law",
    "hours": "Mon-Fri 9AM-6PM",
    "services": [
      "Arabic-speaking Workers' compensation in South-Dakota consultation",
      "Professional service",
      "Quality guarantee"
    ],
    "social_links": {}
  },
  {
    "name": "Donald McCarty - McCarty Law Office",
    "address": "1820 Overlook Ridge Rd, Brookings, SD 57006",
    "phone": "(605) 690-0871",
    "rating": 4.0,
    "reviews": 25,
    "website": "https://mccarty.law/",
    "category": "Arabic-speaking Workers' compensation in South-Dakota",
    "description": "Handles workers' compensation, business, and personal injury cases",
    "hours": "Mon-Fri 9AM-6PM",
    "services": [
      "Arabic-speaking Workers' compensation in South-Dakota consultation",
      "Professional service",
      "Quality guarantee"
    ],
    "social_links": {}
  },
  {
    "name": "Justin T. Clarke - Davenport Evans",
    "address": "206 W 14th St, Sioux Falls, SD 57104",
    "phone": "(605) 336-2880",
    "rating": 4.0,
    "reviews": 25,
    "website": "https://www.davenportevans.com/",
    "category": "Arabic-speaking Workers' compensation in South-Dakota",
    "description": "Attorney specializing in workers' compensation and insurance defense",
    "hours": "Mon-Fri 9AM-6PM",
    "services": [
      "Arabic-speaking Workers' compensation in South-Dakota consultation",
      "Professional service",
      "Quality guarantee"
    ],
    "social_links": {}
  },
  {
    "name": "Gunderson, Palmer, Nelson, Ashmore LLP",
    "address": "401 Mt Rushmore Rd, Rapid City, SD 57701",
    "phone": "(605) 342-1075",
    "rating": 4.0,
    "reviews": 25,
    "website": "https://www.gpna.com/",
    "category": "Arabic-speaking Workers' compensation in South-Dakota",
    "description": "This firm has attorneys with experience in representing both employers and employees in workers' compensation actions",
    "hours": "Mon-Fri 9AM-6PM",
    "services": [
      "Arabic-speaking Workers' compensation in South-Dakota consultation",
      "Professional service",
      "Quality guarantee"
    ],
    "social_links": {}
  },
  {
    "name": "Morgan & Morgan",
    "address": "101 S. Main Ave, Suite 300, Sioux Falls, SD 57104",
    "phone": "(605) 334-4444",
    "rating": 4.0,
    "reviews": 25,
    "website": "https://www.forthepeople.com/",
    "category": "Arabic-speaking Workers' compensation in South-Dakota",
    "description": "A national firm that handles workers' compensation claims in South Dakota",
    "hours": "Mon-Fri 9AM-6PM",
    "services": [
      "Arabic-speaking Workers' compensation in South-Dakota consultation",
      "Professional service",
      "Quality guarantee"
    ],
    "social_links": {}
  },
  {
    "name": "East River Legal Services",
    "address": "111 W. 11th St, Sioux Falls, SD 57104",
    "phone": "(605) 336-0110",
    "rating": 4.0,
    "reviews": 25,
    "website": "http://erlservices.org/",
    "category": "Arabic-speaking Workers' compensation in South-Dakota",
    "description": "This is a non-profit organization that provides legal services to low-income residents in specific South Dakota counties. While their primary focus is not workers' compensation, they may be able to offer assistance or referrals",
    "hours": "Mon-Fri 9AM-6PM",
    "services": [
      "Arabic-speaking Workers' compensation in South-Dakota consultation",
      "Professional service",
      "Quality guarantee"
    ],
    "social_links": {}
  }
]