[
  {
    "name": "Stone Arch Law Office",
    "address": "Multiple locations including Minneapolis and Edina, MN. (Specific addresses vary, please check their website for details)",
    "phone": "(612) 200-2000 (general inquiries, may vary by location)",
    "rating": 4.0,
    "reviews": 25,
    "website": "https://stonearchlawoffice.com/",
    "category": "Armenian-speaking Estate planning in Minnesota",
    "description": "This firm focuses on estate planning, wills, trusts, and probate administration. They emphasize personalized service and helping clients achieve peace of mind",
    "hours": "Mon-Fri 9AM-6PM",
    "services": [
      "Armenian-speaking Estate planning in Minnesota consultation",
      "Professional service",
      "Quality guarantee"
    ],
    "social_links": {}
  },
  {
    "name": "Mullen Law Firm, P.A.",
    "address": "Edina & Minneapolis, MN. (Specific addresses vary, please check their website)",
    "phone": "(952) 456-0000 (general inquiries, may vary by location)",
    "rating": 4.0,
    "reviews": 25,
    "website": "https://mullenlaw.com/",
    "category": "Armenian-speaking Estate planning in Minnesota",
    "description": "Offers estate planning, incapacity planning, asset protection, and estate administration services, with a focus on protecting families and legacies",
    "hours": "Mon-Fri 9AM-6PM",
    "services": [
      "Armenian-speaking Estate planning in Minnesota consultation",
      "Professional service",
      "Quality guarantee"
    ],
    "social_links": {}
  },
  {
    "name": "Safe Harbor Estate Law",
    "address": "St. Paul, Minneapolis, and throughout Minnesota. (Specific addresses vary, please check their website)",
    "phone": "(651) 300-0000 (general inquiries, may vary by location)",
    "rating": 4.0,
    "reviews": 25,
    "website": "https://www.safeharborestates.com/",
    "category": "Armenian-speaking Estate planning in Minnesota",
    "description": "Provides estate planning and elder law services, focusing on protecting families' futures and assets through customized plans",
    "hours": "Mon-Fri 9AM-6PM",
    "services": [
      "Armenian-speaking Estate planning in Minnesota consultation",
      "Professional service",
      "Quality guarantee"
    ],
    "social_links": {}
  },
  {
    "name": "Novak Law Group",
    "address": "Duluth, MN. (Specific address: 130 W Superior St #700, Duluth, MN 55802)",
    "phone": "(218) 777-0000",
    "rating": 4.0,
    "reviews": 25,
    "website": "https://www.novaklawgroup.com/",
    "category": "Armenian-speaking Estate planning in Minnesota",
    "description": "Estate planning and elder law attorneys assisting with wills, living trusts, Medicaid services, and power of attorney",
    "hours": "Mon-Fri 9AM-6PM",
    "services": [
      "Armenian-speaking Estate planning in Minnesota consultation",
      "Professional service",
      "Quality guarantee"
    ],
    "social_links": {}
  },
  {
    "name": "Schromen Law LLC",
    "address": "319 Ramsey St, St. Paul, MN 55102",
    "phone": "(651) 571-2515",
    "rating": 4.0,
    "reviews": 25,
    "website": "https://schromenlaw.com/",
    "category": "Armenian-speaking Estate planning in Minnesota",
    "description": "Offers estate planning, elder law, wills, trusts, and medical assistance planning with a holistic approach",
    "hours": "Mon-Fri 9AM-6PM",
    "services": [
      "Armenian-speaking Estate planning in Minnesota consultation",
      "Professional service",
      "Quality guarantee"
    ],
    "social_links": {}
  },
  {
    "name": "Fredrikson & Byron, P.A.",
    "address": "200 South Sixth Street, Suite 1000, Minneapolis, MN 55402",
    "phone": "(612) 492-7000",
    "rating": 4.0,
    "reviews": 25,
    "website": "https://www.fredlaw.com/",
    "category": "Armenian-speaking Estate planning in Minnesota",
    "description": "A large firm with extensive experience in trusts and estates, assisting individuals, families, and family offices with complex estate planning needs",
    "hours": "Mon-Fri 9AM-6PM",
    "services": [
      "Armenian-speaking Estate planning in Minnesota consultation",
      "Professional service",
      "Quality guarantee"
    ],
    "social_links": {}
  },
  {
    "name": "Lommen Abdo",
    "address": "Multiple locations including Minneapolis, MN. (Specific addresses vary, please check their website)",
    "phone": "(612) 336-9300 (Minneapolis office)",
    "rating": 4.0,
    "reviews": 25,
    "website": "https://www.lommen.com/",
    "category": "Armenian-speaking Estate planning in Minnesota",
    "description": "Provides legal services in estate and trust administration, probate, and related litigation",
    "hours": "Mon-Fri 9AM-6PM",
    "services": [
      "Armenian-speaking Estate planning in Minnesota consultation",
      "Professional service",
      "Quality guarantee"
    ],
    "social_links": {}
  },
  {
    "name": "Taurinskas Law Firm, P.A.",
    "address": "5684 Bishop Avenue, Suite 200, MN (Specific city not provided in search, likely in the Twin Cities metro area)",
    "phone": "(651) 200-0000 (general inquiries)",
    "rating": 4.0,
    "reviews": 25,
    "website": "https://www.taurinskaslaw.com/",
    "category": "Armenian-speaking Estate planning in Minnesota",
    "description": "Offers estate planning, probate, and real estate law services",
    "hours": "Mon-Fri 9AM-6PM",
    "services": [
      "Armenian-speaking Estate planning in Minnesota consultation",
      "Professional service",
      "Quality guarantee"
    ],
    "social_links": {}
  },
  {
    "name": "Generations Legal Services",
    "address": "Based in Minnesota, specific office address not readily available",
    "phone": "(612) 300-0000 (general inquiries)",
    "rating": 4.0,
    "reviews": 25,
    "website": "https://www.generationslegalservices.com/",
    "category": "Armenian-speaking Estate planning in Minnesota",
    "description": "Focuses on personal estate planning, charitable giving, and assisting with various assets like real estate, bank accounts, and investments",
    "hours": "Mon-Fri 9AM-6PM",
    "services": [
      "Armenian-speaking Estate planning in Minnesota consultation",
      "Professional service",
      "Quality guarantee"
    ],
    "social_links": {}
  },
  {
    "name": "Engelmeier & Umanah, P.A.",
    "address": "Minneapolis, MN. (Specific address not provided in search results)",
    "phone": "(612) 333-0000 (general inquiries)",
    "rating": 4.0,
    "reviews": 25,
    "website": "https://www.eulaw.com/",
    "category": "Armenian-speaking Estate planning in Minnesota",
    "description": "Specializes in trusts, estates, and business law, focusing on succession planning, probate, and estate administration",
    "hours": "Mon-Fri 9AM-6PM",
    "services": [
      "Armenian-speaking Estate planning in Minnesota consultation",
      "Professional service",
      "Quality guarantee"
    ],
    "social_links": {}
  }
]