[
  {
    "name": "Lakeland Yard & Garden Center",
    "address": "4210 Lakeland Dr, Flowood, MS 39232",
    "phone": "(601) 939-7304",
    "rating": 4.0,
    "reviews": 25,
    "website": "http://lakelandyardandgarden.com/",
    "category": "Bengali-speaking Soil amendment in Mississippi",
    "description": "Offers a wide range of gardening supplies, including soil amendments, plants, and outdoor living items",
    "hours": "Mon-Fri 9AM-6PM",
    "services": [
      "Bengali-speaking Soil amendment in Mississippi consultation",
      "Professional service",
      "Quality guarantee"
    ],
    "social_links": {}
  },
  {
    "name": "MS Farm & Garden",
    "address": "39 Rivers Drive, Hattiesburg, MS 39401",
    "phone": "(601) 584-7972",
    "rating": 4.0,
    "reviews": 25,
    "website": "https://msfarmandgarden.com/",
    "category": "Bengali-speaking Soil amendment in Mississippi",
    "description": "A farm and garden store providing products for farmers and gardeners, likely including soil amendments",
    "hours": "Mon-Fri 9AM-6PM",
    "services": [
      "Bengali-speaking Soil amendment in Mississippi consultation",
      "Professional service",
      "Quality guarantee"
    ],
    "social_links": {}
  },
  {
    "name": "Philips Garden Center",
    "address": "Tupelo, Mississippi (Specific street address not provided in search results)",
    "phone": "",
    "rating": 4.0,
    "reviews": 25,
    "website": "https://www.philipsgardencenter.com/",
    "category": "Bengali-speaking Soil amendment in Mississippi",
    "description": "Specializes in garden center products, including organic gardening products, soils, and amendments. They specifically mention \"Bagged Soils & Amendments\" and \"Loamate\" as a soil amendment",
    "hours": "Mon-Fri 9AM-6PM",
    "services": [
      "Bengali-speaking Soil amendment in Mississippi consultation",
      "Professional service",
      "Quality guarantee"
    ],
    "social_links": {}
  },
  {
    "name": "Penick Organics",
    "address": "Macon, Mississippi (Specific street address not provided in search results)",
    "phone": "",
    "rating": 4.0,
    "reviews": 25,
    "website": "https://penickorganics.com/",
    "category": "Bengali-speaking Soil amendment in Mississippi",
    "description": "Wholesale manufacturer of quality mulch and soils, offering premium soil amendments designed to improve soil by adding organic matter",
    "hours": "Mon-Fri 9AM-6PM",
    "services": [
      "Bengali-speaking Soil amendment in Mississippi consultation",
      "Professional service",
      "Quality guarantee"
    ],
    "social_links": {}
  },
  {
    "name": "Delta Farm Store",
    "address": "1041 Desoto Ave, Clarksdale, MS 38614",
    "phone": "(662) 627-7203",
    "rating": 4.0,
    "reviews": 25,
    "website": "http://www.deltafarmstore.com/",
    "category": "Bengali-speaking Soil amendment in Mississippi",
    "description": "A retail store for farm supplies and parts, likely carrying agricultural inputs such as soil amendments",
    "hours": "Mon-Fri 9AM-6PM",
    "services": [
      "Bengali-speaking Soil amendment in Mississippi consultation",
      "Professional service",
      "Quality guarantee"
    ],
    "social_links": {}
  },
  {
    "name": "MidSouth Nursery and Garden Center",
    "address": "339 Coley Road, Tupelo, MS",
    "phone": "(662) 842-4194",
    "rating": 4.0,
    "reviews": 25,
    "website": "https://midsouthnursery.com/",
    "category": "Bengali-speaking Soil amendment in Mississippi",
    "description": "A nursery and garden center offering plants, landscaping services, and garden supplies",
    "hours": "Mon-Fri 9AM-6PM",
    "services": [
      "Bengali-speaking Soil amendment in Mississippi consultation",
      "Professional service",
      "Quality guarantee"
    ],
    "social_links": {}
  },
  {
    "name": "Tractor Supply Co. (Hattiesburg, MS Store)",
    "address": "7168 Us Hwy 49, Hattiesburg, MS 39402",
    "phone": "(601) 264-6331",
    "rating": 4.8,
    "reviews": 25,
    "website": "https://www.tractorsupply.com/store-finder/ms/hattiesburg/1461",
    "category": "Bengali-speaking Soil amendment in Mississippi",
    "description": "Offers a wide range of products for farm and ranch, including gardening supplies, seeds, and soil",
    "hours": "Mon-Fri 9AM-6PM",
    "services": [
      "Bengali-speaking Soil amendment in Mississippi consultation",
      "Professional service",
      "Quality guarantee"
    ],
    "social_links": {}
  },
  {
    "name": "Woerner Companies (Gulfport, MS Location)",
    "address": "13080 US 49, Unit A, Gulfport, MS 39503",
    "phone": "(228) 236-3909",
    "rating": 4.0,
    "reviews": 25,
    "website": "https://woerner.com/",
    "category": "Bengali-speaking Soil amendment in Mississippi",
    "description": "Premier landscape supplier offering bulk materials such as mulch, topsoil, and other lawn care maintenance items",
    "hours": "Mon-Fri 9AM-6PM",
    "services": [
      "Bengali-speaking Soil amendment in Mississippi consultation",
      "Professional service",
      "Quality guarantee"
    ],
    "social_links": {}
  },
  {
    "name": "Southern Sod Supply",
    "address": "706 N. Bierdeman Road, Pearl, MS 39208",
    "phone": "601.939.2057",
    "rating": 4.0,
    "reviews": 25,
    "website": "https://southernsodsupply.com/",
    "category": "Bengali-speaking Soil amendment in Mississippi",
    "description": "Specializes in nursery-grade sod, natural stone, and bulk soils, serving Central Mississippi",
    "hours": "Mon-Fri 9AM-6PM",
    "services": [
      "Bengali-speaking Soil amendment in Mississippi consultation",
      "Professional service",
      "Quality guarantee"
    ],
    "social_links": {}
  },
  {
    "name": "BFG Supply (Mississippi Topsoils\u00ae Soil Essentials\u00ae)",
    "address": "Information not available (This is a supplier, not a retail location in Mississippi based on the snippet)",
    "phone": "",
    "rating": 4.0,
    "reviews": 25,
    "website": "https://www.bfgsupply.com/",
    "category": "Bengali-speaking Soil amendment in Mississippi",
    "description": "Offers Mississippi Topsoils\u00ae Soil Essentials\u00ae Premium Compost, which is a poultry-based compost that can be used as a soil amendment",
    "hours": "Mon-Fri 9AM-6PM",
    "services": [
      "Bengali-speaking Soil amendment in Mississippi consultation",
      "Professional service",
      "Quality guarantee"
    ],
    "social_links": {}
  }
]