[
  {
    "name": "Richmond Moy Yat Kung Fu Academy",
    "address": "406 E. Main St, Richmond, VA 23219",
    "phone": "804-497-7555",
    "rating": 4.0,
    "reviews": 25,
    "website": "https://moyyat.com/richmond-va/",
    "category": "Atheist-owned Kung fu classes in Virginia",
    "description": "Offers group classes and private lessons in the Ving Tsun (Wing Chun) system for all ages, focusing on health, fitness, and self-defense",
    "hours": "Mon-Fri 9AM-6PM",
    "services": [
      "Atheist-owned Kung fu classes in Virginia consultation",
      "Professional service",
      "Quality guarantee"
    ],
    "social_links": {}
  },
  {
    "name": "Laughing Dragon Kung Fu",
    "address": "Charlottesville, VA (Specific address not provided in search results)",
    "phone": "",
    "rating": 4.0,
    "reviews": 25,
    "website": "https://www.laughingdragonkungfu.com/",
    "category": "Atheist-owned Kung fu classes in Virginia",
    "description": "Teaches traditional Chinese martial arts, including Southern Jow Ga kung fu, Northern Shaolin Mizong kung fu, and Yang style Tai Chi for children and adults",
    "hours": "Mon-Fri 9AM-6PM",
    "services": [
      "Atheist-owned Kung fu classes in Virginia consultation",
      "Professional service",
      "Quality guarantee"
    ],
    "social_links": {}
  },
  {
    "name": "Roanoke Kung Fu Association",
    "address": "2740 Franklin Rd SW, Suite 5, Roanoke, VA",
    "phone": "540-493-3285",
    "rating": 4.0,
    "reviews": 25,
    "website": "https://www.ewingchun.com/roanoke-kung-fu-association",
    "category": "Atheist-owned Kung fu classes in Virginia",
    "description": "Offers authentic Ving Tsun Kung Fu training, representing the Moy Yat family lineage, with classes for all levels",
    "hours": "Mon-Fri 9AM-6PM",
    "services": [
      "Atheist-owned Kung fu classes in Virginia consultation",
      "Professional service",
      "Quality guarantee"
    ],
    "social_links": {}
  },
  {
    "name": "Hung Gar Kung Fu In Fairfax (Discover Kung Fu)",
    "address": "Fairfax, VA 22030",
    "phone": "703-865-5566",
    "rating": 4.0,
    "reviews": 25,
    "website": "https://discoverkungfu.com/",
    "category": "Atheist-owned Kung fu classes in Virginia",
    "description": "Focuses on Hung Gar Kung Fu and Yang Tai Chi, offering elite private and semi-private small group classes for adults",
    "hours": "Mon-Fri 9AM-6PM",
    "services": [
      "Atheist-owned Kung fu classes in Virginia consultation",
      "Professional service",
      "Quality guarantee"
    ],
    "social_links": {}
  },
  {
    "name": "O-mei Wushu Kung Fu Center",
    "address": "Fairfax and Chantilly, VA (Specific addresses not provided in search results)",
    "phone": "",
    "rating": 4.0,
    "reviews": 25,
    "website": "https://www.omeiwushu.com/",
    "category": "Atheist-owned Kung fu classes in Virginia",
    "description": "A professional martial arts center teaching contemporary and traditional wushu styles, weapons, health qigong, and Tai Chi",
    "hours": "Mon-Fri 9AM-6PM",
    "services": [
      "Atheist-owned Kung fu classes in Virginia consultation",
      "Professional service",
      "Quality guarantee"
    ],
    "social_links": {}
  },
  {
    "name": "Shaolin Dragons",
    "address": "3336 Williamson RD, Roanoke, VA",
    "phone": "540-362-0188",
    "rating": 4.0,
    "reviews": 25,
    "website": "https://www.shaolindragons.com/",
    "category": "Atheist-owned Kung fu classes in Virginia",
    "description": "Offers Kung Fu and Tai Chi classes, emphasizing strength, flexibility, balance, and mental engagement",
    "hours": "Mon-Fri 9AM-6PM",
    "services": [
      "Atheist-owned Kung fu classes in Virginia consultation",
      "Professional service",
      "Quality guarantee"
    ],
    "social_links": {}
  },
  {
    "name": "WING CHUN KUNG FU \u2013 Sifu Gorden Lu",
    "address": "3878 Holland Rd, Virginia Beach, VA 23452",
    "phone": "757-761- (incomplete number in search results)",
    "rating": 4.0,
    "reviews": 25,
    "website": "https://www.usawingchun.com/",
    "category": "Atheist-owned Kung fu classes in Virginia",
    "description": "Teaches Wing Chun Kung Fu with an emphasis on practical techniques, efficiency, fitness, and self-defense",
    "hours": "Mon-Fri 9AM-6PM",
    "services": [
      "Atheist-owned Kung fu classes in Virginia consultation",
      "Professional service",
      "Quality guarantee"
    ],
    "social_links": {}
  },
  {
    "name": "East West Wing Chun Kung Fu Association, Central Virginia Branch",
    "address": "RVA Katana, 1909 W. Cary St, Richmond, VA 23220",
    "phone": "804-513-4408",
    "rating": 4.0,
    "reviews": 25,
    "website": "https://www.google.com/maps/search/East+West+Wing+Chun+Kung+Fu+Association,+Central+Virginia+Branch+in+Virginia",
    "category": "Atheist-owned Kung fu classes in Virginia",
    "description": "Offers Wing Chun classes on Mondays and Thursdays",
    "hours": "Mon-Fri 9AM-6PM",
    "services": [
      "Atheist-owned Kung fu classes in Virginia consultation",
      "Professional service",
      "Quality guarantee"
    ],
    "social_links": {}
  },
  {
    "name": "Tye's Kung Fu",
    "address": "Springfield, Northern Virginia (Specific address not provided in search results)",
    "phone": "",
    "rating": 4.0,
    "reviews": 25,
    "website": "https://tyeskungfu.com/",
    "category": "Atheist-owned Kung fu classes in Virginia",
    "description": "Offers instruction in Northern Shaolin/Northern Praying Mantis Kung Fu and Modern Arnis, available as private lessons or seminars",
    "hours": "Mon-Fri 9AM-6PM",
    "services": [
      "Atheist-owned Kung fu classes in Virginia consultation",
      "Professional service",
      "Quality guarantee"
    ],
    "social_links": {}
  },
  {
    "name": "Academy of Kung Fu (Richmond Henrico West End)",
    "address": "Gold's Gym Plaza shopping center on West Broad Street, Richmond, VA (Specific address not provided in search results)",
    "phone": "804-301-4181",
    "rating": 4.0,
    "reviews": 25,
    "website": "https://vakungfu.com/",
    "category": "Atheist-owned Kung fu classes in Virginia",
    "description": "Offers instruction in the Ving Tsun (Wing Chun) Kung Fu system for self-defense, health, and fitness, with group classes and private lessons for all ages",
    "hours": "Mon-Fri 9AM-6PM",
    "services": [
      "Atheist-owned Kung fu classes in Virginia consultation",
      "Professional service",
      "Quality guarantee"
    ],
    "social_links": {}
  }
]