[
  {
    "name": "Chinese",
    "address": "6409 n prospect ave , gladstone , mo 64119",
    "phone": "( 816 ) 455 - 9788",
    "rating": 4.0,
    "reviews": 15,
    "website": "https://www.hunangardenmo.com/",
    "category": "Chinese-speaking Garden bed preparation in Missouri",
    "hours": "Mon-Fri 9AM-6PM",
    "description": "any questions please call us . hunan garden | ( 816 ) 455 - 9788 6409 n prospect ave , gladstone , mo 64119.",
    "services": [
      "Chinese-speaking Garden bed preparation in Missouri consultation",
      "Professional service",
      "Quality guarantee"
    ],
    "social_links": {}
  },
  {
    "name": "Chinese",
    "address": "",
    "phone": "( 636 ) 220 - 7388",
    "rating": 4.2,
    "reviews": 20,
    "website": "https://www.chesterfieldchinagarden.com/",
    "category": "Chinese-speaking Garden bed preparation in Missouri",
    "hours": "Mon-Fri 9AM-6PM",
    "description": "any questions please call us . china garden | ( 636 ) 220 - 7388 229 lamp and lantern village , chesterfield , mo 63017.",
    "services": [
      "Chinese-speaking Garden bed preparation in Missouri consultation",
      "Professional service",
      "Quality guarantee"
    ],
    "social_links": {}
  },
  {
    "name": "china-garden",
    "address": "3420 clark lane , \n columbia , mo 65202",
    "phone": "573 - 814 - 0007",
    "rating": 4.4,
    "reviews": 25,
    "website": "https://www.chinagardenmo.com/contact",
    "category": "Chinese-speaking Garden bed preparation in Missouri",
    "hours": "Mon-Fri 9AM-6PM",
    "description": "contact 3420 clark lane , columbia , mo 65202 china gardenmo @ gmail . com tel : 573 - 814 - 0007 fax : 573 - 814 - 0456.",
    "services": [
      "Chinese-speaking Garden bed preparation in Missouri consultation",
      "Professional service",
      "Quality guarantee"
    ],
    "social_links": {}
  },
  {
    "name": "Chinese",
    "address": "1720 crete st # g , moberly , mo 65270",
    "phone": "( 660 ) 269 - 9800",
    "rating": 4.6,
    "reviews": 30,
    "website": "https://www.chinagardenmoberly.com/",
    "category": "Chinese-speaking Garden bed preparation in Missouri",
    "hours": "Mon-Fri 9AM-6PM",
    "description": "any questions please call us . china garden | ( 660 ) 269 - 9800 1720 crete st # g , moberly , mo 65270.",
    "services": [
      "Chinese-speaking Garden bed preparation in Missouri consultation",
      "Professional service",
      "Quality guarantee"
    ],
    "social_links": {}
  },
  {
    "name": "Chinese",
    "address": "1720 crete st , # g \n moberly , mo 65270",
    "phone": "( 660 ) 269 - 9800",
    "rating": 4.8,
    "reviews": 35,
    "website": "https://www.chinagardenmoberlymo.com/locationinfo",
    "category": "Chinese-speaking Garden bed preparation in Missouri",
    "hours": "Mon-Fri 9AM-6PM",
    "description": "china garden - moberly closed opens monday at 11:00 am location and hours china garden - moberly 1720 crete st , # g moberly , mo 65270 phone : ( 660 ) 269 - 9800 today 's hours ( monday...",
    "services": [
      "Chinese-speaking Garden bed preparation in Missouri consultation",
      "Professional service",
      "Quality guarantee"
    ],
    "social_links": {}
  },
  {
    "name": "Chinese",
    "address": "5900 spout springs rd # l 12 , flowery branch , ga 30542",
    "phone": "( 770 ) 965 - 1892",
    "rating": 4.0,
    "reviews": 40,
    "website": "https://www.chinagardenfb.com/",
    "category": "Chinese-speaking Garden bed preparation in Missouri",
    "hours": "Mon-Fri 9AM-6PM",
    "description": "any questions please call us . china garden | ( 770 ) 965 - 1892 5900 spout springs rd # l 12 , flowery branch , ga 30542.",
    "services": [
      "Chinese-speaking Garden bed preparation in Missouri consultation",
      "Professional service",
      "Quality guarantee"
    ],
    "social_links": {}
  },
  {
    "name": "Blue Springs, MO",
    "address": "27610 e wyatt road \n blue springs , mo 64014",
    "phone": "816 - 229 - 1277",
    "rating": 4.2,
    "reviews": 45,
    "website": "https://www.colonialgardenskc.com/colonial-gardens-contact-us",
    "category": "Chinese-speaking Garden bed preparation in Missouri",
    "hours": "Mon-Fri 9AM-6PM",
    "description": "need a cultivation conversation . let \u2019s connect .",
    "services": [
      "Chinese-speaking Garden bed preparation in Missouri consultation",
      "Professional service",
      "Quality guarantee"
    ],
    "social_links": {}
  },
  {
    "name": "Chinese",
    "address": "",
    "phone": "( 205 ) 678 - 2828",
    "rating": 4.4,
    "reviews": 50,
    "website": "https://www.chinagardenal.com/",
    "category": "Chinese-speaking Garden bed preparation in Missouri",
    "hours": "Mon-Fri 9AM-6PM",
    "description": "any questions please call us . china garden | ( 205 ) 678 - 2828 10569 old hwy 280 , chelsea , al 35043.",
    "services": [
      "Chinese-speaking Garden bed preparation in Missouri consultation",
      "Professional service",
      "Quality guarantee"
    ],
    "social_links": {}
  },
  {
    "name": "Summit Farms LLC",
    "address": "",
    "phone": "",
    "rating": 4.6,
    "reviews": 55,
    "website": "https://www.summitfarmsls.com/",
    "category": "Chinese-speaking Garden bed preparation in Missouri",
    "hours": "Mon-Fri 9AM-6PM",
    "description": "summit farms llc welcome installing a walkway , planting a garden , leveling your lawn . at summit farms llc , we have the bulk materials you need to get the job done .",
    "services": [
      "Chinese-speaking Garden bed preparation in Missouri consultation",
      "Professional service",
      "Quality guarantee"
    ],
    "social_links": {}
  },
  {
    "name": "Lawn Care, Spraying & Nursery Services",
    "address": "508 smith ave sikeston , mo 63801",
    "phone": "573 - 471 - 5674",
    "rating": 4.8,
    "reviews": 60,
    "website": "https://bizzellnursery.com",
    "category": "Chinese-speaking Garden bed preparation in Missouri",
    "hours": "Mon-Fri 9AM-6PM",
    "description": "508 smith ave sikeston , mo 63801 573 - 471 - 5674 info @ bizzell nursery . com for the perfect lawn it \u2019s better with bizzell serving southeast missouri with premium spraying , landscaping ...",
    "services": [
      "Chinese-speaking Garden bed preparation in Missouri consultation",
      "Professional service",
      "Quality guarantee"
    ],
    "social_links": {}
  }
]