[
  {
    "name": "Cosmetic Enhancement Center of New England",
    "address": "495 Forest Ave, Portland, ME 04101",
    "phone": "(207) 774-7170",
    "rating": 4.2,
    "reviews": 25,
    "website": "https://www.cecofne.com/",
    "category": "Buddhist-owned Botox injections in Maine",
    "description": "This center is noted as the #1 provider of Botox Cosmetic in Maine, with experienced providers offering natural-looking results",
    "hours": "Mon-Fri 9AM-6PM",
    "services": [
      "Buddhist-owned Botox injections in Maine consultation",
      "Professional service",
      "Quality guarantee"
    ],
    "social_links": {}
  },
  {
    "name": "Rejuvenations Medi Spa",
    "address": "231 US-1, Falmouth, ME 04105 (also has a South Portland location)",
    "phone": "(207) 887-9595",
    "rating": 4.0,
    "reviews": 25,
    "website": "https://rejuvenationsmedispa.com/",
    "category": "Buddhist-owned Botox injections in Maine",
    "description": "A leading medical spa in Maine since 2005, specializing in injectables like Botox, with advanced nurse injectors and personalized treatments",
    "hours": "Mon-Fri 9AM-6PM",
    "services": [
      "Buddhist-owned Botox injections in Maine consultation",
      "Professional service",
      "Quality guarantee"
    ],
    "social_links": {}
  },
  {
    "name": "Maine Aesthetic Medicine",
    "address": "17 Pleasant St, Portland, ME 04101",
    "phone": "(207) 619-7474",
    "rating": 4.0,
    "reviews": 25,
    "website": "https://www.maineaestheticmedicine.com/",
    "category": "Buddhist-owned Botox injections in Maine",
    "description": "Offers medical aesthetics and personalized patient care in a relaxing atmosphere, with skilled professionals providing advanced treatments",
    "hours": "Mon-Fri 9AM-6PM",
    "services": [
      "Buddhist-owned Botox injections in Maine consultation",
      "Professional service",
      "Quality guarantee"
    ],
    "social_links": {}
  },
  {
    "name": "207 LASER & Integrative MED",
    "address": "1220 Lisbon St, Lewiston, ME 04240",
    "phone": "(207) 200-6530",
    "rating": 4.0,
    "reviews": 25,
    "website": "https://www.207laser.com/",
    "category": "Buddhist-owned Botox injections in Maine",
    "description": "This family-run medical spa boasts extensive medical expertise and leading laser technology, with positive reviews for Botox and other treatments",
    "hours": "Mon-Fri 9AM-6PM",
    "services": [
      "Buddhist-owned Botox injections in Maine consultation",
      "Professional service",
      "Quality guarantee"
    ],
    "social_links": {}
  },
  {
    "name": "Rytualist",
    "address": "17 Pleasant St, Portland, ME 04101",
    "phone": "(207) 619-7474",
    "rating": 4.0,
    "reviews": 25,
    "website": "https://www.rytualist.com/",
    "category": "Buddhist-owned Botox injections in Maine",
    "description": "Focuses on neurotoxin treatments like Botox, emphasizing safe, effective, and natural-looking results personalized to each client",
    "hours": "Mon-Fri 9AM-6PM",
    "services": [
      "Buddhist-owned Botox injections in Maine consultation",
      "Professional service",
      "Quality guarantee"
    ],
    "social_links": {}
  },
  {
    "name": "Lotus Medical and Aesthetics LLC",
    "address": "147 Main St, Ellsworth, ME 04605 (also has a Calais location)",
    "phone": "(207) 412-0000",
    "rating": 4.0,
    "reviews": 25,
    "website": "https://www.lotusmedicalandaesthetics.com/",
    "category": "Buddhist-owned Botox injections in Maine",
    "description": "Offers medical-grade aesthetic services, including Botox and fillers, with a focus on enhancing natural beauty",
    "hours": "Mon-Fri 9AM-6PM",
    "services": [
      "Buddhist-owned Botox injections in Maine consultation",
      "Professional service",
      "Quality guarantee"
    ],
    "social_links": {}
  },
  {
    "name": "Holland Plastic Surgery + Aesthetics",
    "address": "133 US-1, Falmouth, ME 04105",
    "phone": "(207) 781-0158",
    "rating": 5.0,
    "reviews": 25,
    "website": "https://www.hollandplasticsurgery.com/",
    "category": "Buddhist-owned Botox injections in Maine",
    "description": "Provides a range of aesthetic services, including Botox, with highly positive patient feedback",
    "hours": "Mon-Fri 9AM-6PM",
    "services": [
      "Buddhist-owned Botox injections in Maine consultation",
      "Professional service",
      "Quality guarantee"
    ],
    "social_links": {}
  },
  {
    "name": "Maine Plastic Surgery Center and Spa",
    "address": "677 Forest Ave, Portland, ME 04101",
    "phone": "(207) 774-0059",
    "rating": 5.0,
    "reviews": 25,
    "website": "https://www.mainoplasticsurgery.com/",
    "category": "Buddhist-owned Botox injections in Maine",
    "description": "Offers cosmetic injectable treatments like Botox in a comfortable setting where advanced medical aesthetics and relaxation harmonize",
    "hours": "Mon-Fri 9AM-6PM",
    "services": [
      "Buddhist-owned Botox injections in Maine consultation",
      "Professional service",
      "Quality guarantee"
    ],
    "social_links": {}
  },
  {
    "name": "Bevara Med Spa",
    "address": "17 Pleasant St, Portland, ME 04101",
    "phone": "(207) 775-0000",
    "rating": 4.0,
    "reviews": 25,
    "website": "https://bevaramedspa.com/",
    "category": "Buddhist-owned Botox injections in Maine",
    "description": "This med spa focuses on preserving natural beauty with personalized routines of premium products and procedures, including cosmetic injectables",
    "hours": "Mon-Fri 9AM-6PM",
    "services": [
      "Buddhist-owned Botox injections in Maine consultation",
      "Professional service",
      "Quality guarantee"
    ],
    "social_links": {}
  },
  {
    "name": "Dermatology Associates",
    "address": "50 Sewall St, Portland, ME 04102",
    "phone": "(207) 774-0300",
    "rating": 4.0,
    "reviews": 25,
    "website": "https://www.dermassoc.com/",
    "category": "Buddhist-owned Botox injections in Maine",
    "description": "A dermatology clinic that offers various skin treatments. While specific Botox services are not detailed on their RateMDs profile, dermatologists often provide such treatments",
    "hours": "Mon-Fri 9AM-6PM",
    "services": [
      "Buddhist-owned Botox injections in Maine consultation",
      "Professional service",
      "Quality guarantee"
    ],
    "social_links": {}
  }
]