[
  {
    "name": "Asian Supermarket",
    "address": "1611 Opelika Rd, Opelika, AL 36801",
    "phone": "(334) 745-0088",
    "rating": 4.0,
    "reviews": 25,
    "website": "https://www.google.com/maps/search/Asian+Supermarket+in+Alabama",
    "category": "Asian-owned Terms of service creation in Alabama",
    "description": "A large Asian supermarket carrying a wide variety of international food items",
    "hours": "Mon-Fri 9AM-6PM",
    "services": [
      "Asian-owned Terms of service creation in Alabama consultation",
      "Professional service",
      "Quality guarantee"
    ],
    "social_links": {}
  },
  {
    "name": "Umami",
    "address": "2901 7th Ave S, Birmingham, AL 35233",
    "phone": "(205) 407-4070",
    "rating": 4.0,
    "reviews": 25,
    "website": "https://www.google.com/maps/search/Umami+in+Alabama",
    "category": "Asian-owned Terms of service creation in Alabama",
    "description": "Offers Asian-inspired cuisine and sushi in a locally loved setting",
    "hours": "Mon-Fri 9AM-6PM",
    "services": [
      "Asian-owned Terms of service creation in Alabama consultation",
      "Professional service",
      "Quality guarantee"
    ],
    "social_links": {}
  },
  {
    "name": "Happy Wok Asian Cuisine",
    "address": "1423 Gadsden Hwy #111, Birmingham, AL 35235",
    "phone": "(205) 537-1188",
    "rating": 4.0,
    "reviews": 25,
    "website": "https://www.google.com/maps/search/Happy+Wok+Asian+Cuisine+in+Alabama",
    "category": "Asian-owned Terms of service creation in Alabama",
    "description": "A Chinese and seafood restaurant known for its modern interpretation of classic dishes",
    "hours": "Mon-Fri 9AM-6PM",
    "services": [
      "Asian-owned Terms of service creation in Alabama consultation",
      "Professional service",
      "Quality guarantee"
    ],
    "social_links": {}
  },
  {
    "name": "Asia Bistro & Seafood",
    "address": "1627 E University Dr, Montgomery, AL 36117",
    "phone": "(334) 277-8888",
    "rating": 4.0,
    "reviews": 25,
    "website": "https://www.google.com/maps/search/Asia+Bistro+&+Seafood+in+Alabama",
    "category": "Asian-owned Terms of service creation in Alabama",
    "description": "Offers authentic and delicious Chinese and Asian cuisine with a variety of tastes",
    "hours": "Mon-Fri 9AM-6PM",
    "services": [
      "Asian-owned Terms of service creation in Alabama consultation",
      "Professional service",
      "Quality guarantee"
    ],
    "social_links": {}
  },
  {
    "name": "Sushime Asian Bistro",
    "address": "3011 University Dr NW, Huntsville, AL 35816",
    "phone": "(256) 881-1111",
    "rating": 4.0,
    "reviews": 25,
    "website": "https://www.google.com/maps/search/Sushime+Asian+Bistro+in+Alabama",
    "category": "Asian-owned Terms of service creation in Alabama",
    "description": "An Asian bistro with a unique flavor and cultural fusion, offering authentic Asian cuisine with a creative style",
    "hours": "Mon-Fri 9AM-6PM",
    "services": [
      "Asian-owned Terms of service creation in Alabama consultation",
      "Professional service",
      "Quality guarantee"
    ],
    "social_links": {}
  },
  {
    "name": "Asian Market",
    "address": "1910 Greensboro Ave, Tuscaloosa, AL 35401",
    "phone": "(205) 345-8005",
    "rating": 4.0,
    "reviews": 25,
    "website": "https://www.google.com/maps/search/Asian+Market+in+Alabama",
    "category": "Asian-owned Terms of service creation in Alabama",
    "description": "A local market offering various Asian goods",
    "hours": "Mon-Fri 9AM-6PM",
    "services": [
      "Asian-owned Terms of service creation in Alabama consultation",
      "Professional service",
      "Quality guarantee"
    ],
    "social_links": {}
  },
  {
    "name": "Super Oriental Market",
    "address": "243 W Valley Ave, Homewood, AL 35209",
    "phone": "(205) 945-9558",
    "rating": 4.0,
    "reviews": 25,
    "website": "https://www.google.com/maps/search/Super+Oriental+Market+in+Alabama",
    "category": "Asian-owned Terms of service creation in Alabama",
    "description": "A one-stop shop for oriental goods and cuisine",
    "hours": "Mon-Fri 9AM-6PM",
    "services": [
      "Asian-owned Terms of service creation in Alabama consultation",
      "Professional service",
      "Quality guarantee"
    ],
    "social_links": {}
  },
  {
    "name": "Bamboo On 2nd",
    "address": "2316 2nd Ave N, Birmingham, AL 35203",
    "phone": "(205) 202-4020",
    "rating": 4.0,
    "reviews": 25,
    "website": "https://www.google.com/maps/search/Bamboo+On+2nd+in+Alabama",
    "category": "Asian-owned Terms of service creation in Alabama",
    "description": "An Asian-inspired restaurant and bar serving Pan-Asian food",
    "hours": "Mon-Fri 9AM-6PM",
    "services": [
      "Asian-owned Terms of service creation in Alabama consultation",
      "Professional service",
      "Quality guarantee"
    ],
    "social_links": {}
  },
  {
    "name": "Weee! (Asian Grocery & Market)",
    "address": "(Online delivery to Birmingham, AL)",
    "phone": "(855) 999-9333",
    "rating": 4.0,
    "reviews": 25,
    "website": "https://www.sayweee.com/",
    "category": "Asian-owned Terms of service creation in Alabama",
    "description": "America's largest online Asian supermarket, offering delivery of favorite Asian groceries",
    "hours": "Mon-Fri 9AM-6PM",
    "services": [
      "Asian-owned Terms of service creation in Alabama consultation",
      "Professional service",
      "Quality guarantee"
    ],
    "social_links": {}
  },
  {
    "name": "Hometown Supermarket",
    "address": "1920 Green Springs Hwy, Birmingham, AL 35209",
    "phone": "(205) 945-9558",
    "rating": 4.0,
    "reviews": 25,
    "website": "https://www.google.com/maps/search/Hometown+Supermarket+in+Alabama",
    "category": "Asian-owned Terms of service creation in Alabama",
    "description": "A significant Asian market in Birmingham, offering a wide variety of goods and connected to Mr. Chen's restaurant",
    "hours": "Mon-Fri 9AM-6PM",
    "services": [
      "Asian-owned Terms of service creation in Alabama consultation",
      "Professional service",
      "Quality guarantee"
    ],
    "social_links": {}
  }
]