[
  {
    "name": "Anakarina Callejas - GreatFlorida Insurance\u00ae",
    "address": "9100 S Dadeland Blvd Suite 1500 Office 1560, Miami FL 33156",
    "phone": "(305) 515-5613",
    "rating": 5.0,
    "reviews": 25,
    "website": "https://www.greatflorida.com/agents/anakari-callejas/",
    "category": "Arabic-speaking Renters insurance in Florida",
    "description": "Offers comprehensive renters insurance with personalized service and competitive rates",
    "hours": "Mon-Fri 9AM-6PM",
    "services": [
      "Arabic-speaking Renters insurance in Florida consultation",
      "Professional service",
      "Quality guarantee"
    ],
    "social_links": {}
  },
  {
    "name": "Isaias Alcala - GreatFlorida Insurance\u00ae",
    "address": "655 South Main Street, Belle Glade FL 33430",
    "phone": "(561) 992-7755",
    "rating": 4.0,
    "reviews": 25,
    "website": "https://www.greatflorida.com/agents/isaias-alcala/",
    "category": "Arabic-speaking Renters insurance in Florida",
    "description": "Provides affordable renters insurance in Belle Glade, covering personal belongings and liability",
    "hours": "Mon-Fri 9AM-6PM",
    "services": [
      "Arabic-speaking Renters insurance in Florida consultation",
      "Professional service",
      "Quality guarantee"
    ],
    "social_links": {}
  },
  {
    "name": "Shirin Khorsandian - State Farm\u00ae",
    "address": "Wesley Chapel, FL (Specific address not provided in search results, but serves the area)",
    "phone": "(813) 971-6060",
    "rating": 4.0,
    "reviews": 25,
    "website": "https://www.statefarm.com/agent/us/fl/wesley-chapel/shirin-khorsandian-37f5b7",
    "category": "Arabic-speaking Renters insurance in Florida",
    "description": "Offers renters insurance and other insurance products with hassle-free assistance",
    "hours": "Mon-Fri 9AM-6PM",
    "services": [
      "Arabic-speaking Renters insurance in Florida consultation",
      "Professional service",
      "Quality guarantee"
    ],
    "social_links": {}
  },
  {
    "name": "GEICO Insurance Agency",
    "address": "Multiple locations throughout Florida (e.g., Orlando, Tallahassee, Miami)",
    "phone": "1-800-992-4473 (General inquiries)",
    "rating": 4.0,
    "reviews": 25,
    "website": "https://www.geico.com/renters-insurance/florida/",
    "category": "Arabic-speaking Renters insurance in Florida",
    "description": "Offers renters insurance with various discounts and additional coverage options",
    "hours": "Mon-Fri 9AM-6PM",
    "services": [
      "Arabic-speaking Renters insurance in Florida consultation",
      "Professional service",
      "Quality guarantee"
    ],
    "social_links": {}
  },
  {
    "name": "Nationwide",
    "address": "Available through agents across Florida",
    "phone": "1-877-669-6877",
    "rating": 4.0,
    "reviews": 25,
    "website": "https://www.nationwide.com/insurance/renters/florida/",
    "category": "Arabic-speaking Renters insurance in Florida",
    "description": "Offers a variety of coverage options, including add-ons for valuable items and flood damage",
    "hours": "Mon-Fri 9AM-6PM",
    "services": [
      "Arabic-speaking Renters insurance in Florida consultation",
      "Professional service",
      "Quality guarantee"
    ],
    "social_links": {}
  },
  {
    "name": "State Farm (General)",
    "address": "Numerous agents across Florida",
    "phone": "1-800-STATEFARM (1-800-782-8332)",
    "rating": 4.0,
    "reviews": 25,
    "website": "https://www.statefarm.com/",
    "category": "Arabic-speaking Renters insurance in Florida",
    "description": "A large insurer offering comprehensive renters insurance policies with optional coverage",
    "hours": "Mon-Fri 9AM-6PM",
    "services": [
      "Arabic-speaking Renters insurance in Florida consultation",
      "Professional service",
      "Quality guarantee"
    ],
    "social_links": {}
  },
  {
    "name": "Progressive Insurance",
    "address": "Available through independent agents across Florida",
    "phone": "1-800-PROGRESSIVE (1-800-776-4737)",
    "rating": 4.0,
    "reviews": 25,
    "website": "https://www.progressive.com/renters-insurance/florida/",
    "category": "Arabic-speaking Renters insurance in Florida",
    "description": "Offers low-cost renters insurance policies and works with independent agents who may speak various languages",
    "hours": "Mon-Fri 9AM-6PM",
    "services": [
      "Arabic-speaking Renters insurance in Florida consultation",
      "Professional service",
      "Quality guarantee"
    ],
    "social_links": {}
  },
  {
    "name": "Security First Insurance",
    "address": "Serves all of Florida",
    "phone": "1-877-559-5005",
    "rating": 4.0,
    "reviews": 25,
    "website": "https://www.securityfirstmarket.com/renters-insurance",
    "category": "Arabic-speaking Renters insurance in Florida",
    "description": "Provides HO4 renters insurance policies with replacement cost coverage and additional living expenses coverage",
    "hours": "Mon-Fri 9AM-6PM",
    "services": [
      "Arabic-speaking Renters insurance in Florida consultation",
      "Professional service",
      "Quality guarantee"
    ],
    "social_links": {}
  },
  {
    "name": "Turner Florida Insurance",
    "address": "Serves all of Florida",
    "phone": "(800) 874-7775",
    "rating": 4.0,
    "reviews": 25,
    "website": "https://turnerfloridainsurance.com/",
    "category": "Arabic-speaking Renters insurance in Florida",
    "description": "Compares trusted options for renters insurance and other types of insurance across the state",
    "hours": "Mon-Fri 9AM-6PM",
    "services": [
      "Arabic-speaking Renters insurance in Florida consultation",
      "Professional service",
      "Quality guarantee"
    ],
    "social_links": {}
  },
  {
    "name": "Bizaek.com",
    "address": "Online platform",
    "phone": "",
    "rating": 4.0,
    "reviews": 25,
    "website": "https://www.bizaek.com/",
    "category": "Arabic-speaking Renters insurance in Florida",
    "description": "A platform that connects individuals with Arabic-speaking insurance agents, which may include those specializing in renters insurance",
    "hours": "Mon-Fri 9AM-6PM",
    "services": [
      "Arabic-speaking Renters insurance in Florida consultation",
      "Professional service",
      "Quality guarantee"
    ],
    "social_links": {}
  }
]