[
  {
    "name": "uBreakiFix by Asurion - Idaho Falls",
    "address": "3175 S. 25th E., Suite 101, Idaho Falls, ID 83406",
    "phone": "(208) 522-4000",
    "rating": 4.7,
    "reviews": 25,
    "website": "https://www.ubreakifix.com/locations/idaho-falls-id",
    "category": "Bengali-speaking Tablet repair in Idaho",
    "description": "Offers repair services for a wide range of devices, including tablets, smartphones, and computers. They are an authorized repair provider for Samsung and Google",
    "hours": "Mon-Fri 9AM-6PM",
    "services": [
      "Bengali-speaking Tablet repair in Idaho consultation",
      "Professional service",
      "Quality guarantee"
    ],
    "social_links": {}
  },
  {
    "name": "uBreakiFix by Asurion - Nampa",
    "address": "16375 North Merchant Way, Nampa, ID 83687",
    "phone": "(208) 205-9550",
    "rating": 4.6,
    "reviews": 25,
    "website": "https://www.ubreakifix.com/locations/nampa-id",
    "category": "Bengali-speaking Tablet repair in Idaho",
    "description": "Provides professional repair services for tablets, smartphones, and computers, including Samsung and Google devices",
    "hours": "Mon-Fri 9AM-6PM",
    "services": [
      "Bengali-speaking Tablet repair in Idaho consultation",
      "Professional service",
      "Quality guarantee"
    ],
    "social_links": {}
  },
  {
    "name": "Batteries Plus - Idaho Falls",
    "address": "845 Pancheri Drive, Idaho Falls, ID 83402",
    "phone": "(208) 529-4333",
    "rating": 4.5,
    "reviews": 25,
    "website": "https://www.batteriesplus.com/store/id/idaho-falls/845-pancheri-dr",
    "category": "Bengali-speaking Tablet repair in Idaho",
    "description": "Offers repair services for smartphones, tablets, and other mobile devices, including screen replacements, battery replacements, and charging port repairs. They are an Apple Independent Repair Provider",
    "hours": "Mon-Fri 9AM-6PM",
    "services": [
      "Bengali-speaking Tablet repair in Idaho consultation",
      "Professional service",
      "Quality guarantee"
    ],
    "social_links": {}
  },
  {
    "name": "Batteries Plus - Pocatello",
    "address": "1021 Yellowstone Avenue, Pocatello, ID 83201",
    "phone": "(208) 232-0077",
    "rating": 4.4,
    "reviews": 25,
    "website": "https://www.batteriesplus.com/store/id/pocatello/1021-yellowstone-ave",
    "category": "Bengali-speaking Tablet repair in Idaho",
    "description": "Provides professional repair services for smartphones, tablets, and other mobile devices, including screen replacements, battery replacements, and charging port repairs. They are an Apple Independent Repair Provider",
    "hours": "Mon-Fri 9AM-6PM",
    "services": [
      "Bengali-speaking Tablet repair in Idaho consultation",
      "Professional service",
      "Quality guarantee"
    ],
    "social_links": {}
  },
  {
    "name": "CPR Cell Phone Repair Coeur d'Alene",
    "address": "120 N 3rd St, Coeur d'Alene, ID 83814",
    "phone": "(208) 667-0667",
    "rating": 4.6,
    "reviews": 25,
    "website": "https://www.cellphonerepair.com/coeur-dalene-id/",
    "category": "Bengali-speaking Tablet repair in Idaho",
    "description": "Offers fast and affordable device repairs for phones, tablets, laptops, and more, with a limited lifetime warranty on parts and labor",
    "hours": "Mon-Fri 9AM-6PM",
    "services": [
      "Bengali-speaking Tablet repair in Idaho consultation",
      "Professional service",
      "Quality guarantee"
    ],
    "social_links": {}
  },
  {
    "name": "CPR Cell Phone Repair Meridian - ID",
    "address": "118 E Fairview Ave, Meridian, ID 83646",
    "phone": "(208) 621-2525",
    "rating": 4.5,
    "reviews": 25,
    "website": "https://www.cellphonerepair.com/meridian-id/",
    "category": "Bengali-speaking Tablet repair in Idaho",
    "description": "Provides fast and affordable device repairs for phones, tablets, laptops, and more, with a limited lifetime warranty on parts and labor",
    "hours": "Mon-Fri 9AM-6PM",
    "services": [
      "Bengali-speaking Tablet repair in Idaho consultation",
      "Professional service",
      "Quality guarantee"
    ],
    "social_links": {}
  },
  {
    "name": "iMaster Repair",
    "address": "1530 S Millennium Way Suite 110, Meridian, ID 83642",
    "phone": "(208) 291-1005",
    "rating": 4.8,
    "reviews": 25,
    "website": "https://imasterrepair.com/",
    "category": "Bengali-speaking Tablet repair in Idaho",
    "description": "Offers mail-in professional repair services for phones, tablets, computers, and consoles, including advanced micro-soldering repairs",
    "hours": "Mon-Fri 9AM-6PM",
    "services": [
      "Bengali-speaking Tablet repair in Idaho consultation",
      "Professional service",
      "Quality guarantee"
    ],
    "social_links": {}
  },
  {
    "name": "208 LifeLine Repairs",
    "address": "16th & State, Boise, ID (Specific address not provided, but location mentioned)",
    "phone": "(208) 906-0000",
    "rating": 4.9,
    "reviews": 25,
    "website": "https://www.208lifelinerepairs.com/",
    "category": "Bengali-speaking Tablet repair in Idaho",
    "description": "Specializes in cell phone, tablet, and computer repair, using high-quality parts and offering a 120-day warranty. They provide free diagnostic tests",
    "hours": "Mon-Fri 9AM-6PM",
    "services": [
      "Bengali-speaking Tablet repair in Idaho consultation",
      "Professional service",
      "Quality guarantee"
    ],
    "social_links": {}
  },
  {
    "name": "Four Corners Repair Center",
    "address": "1115 S. Progress Ave, Boise, ID 83709",
    "phone": "(208) 371-1000",
    "rating": 4.8,
    "reviews": 25,
    "website": "https://fourcornersrepair.com/",
    "category": "Bengali-speaking Tablet repair in Idaho",
    "description": "Offers fast, friendly, and reliable device repairs for phones, tablets, computers, and game consoles, with a lifetime parts warranty on eligible repairs",
    "hours": "Mon-Fri 9AM-6PM",
    "services": [
      "Bengali-speaking Tablet repair in Idaho consultation",
      "Professional service",
      "Quality guarantee"
    ],
    "social_links": {}
  },
  {
    "name": "Computer Central",
    "address": "10750 W. State Street, Boise, ID 83714",
    "phone": "(208) 378-9999",
    "rating": 4.7,
    "reviews": 25,
    "website": "https://computercentral.com/",
    "category": "Bengali-speaking Tablet repair in Idaho",
    "description": "Provides computer repair, sales, and custom builds, specializing in laptops and desktops, but also capable of handling tablet issues",
    "hours": "Mon-Fri 9AM-6PM",
    "services": [
      "Bengali-speaking Tablet repair in Idaho consultation",
      "Professional service",
      "Quality guarantee"
    ],
    "social_links": {}
  }
]