[
  {
    "name": "Turquoise Dragonfly",
    "address": "P O Box 1793, Mountain Home, Arkansas 72654",
    "phone": "",
    "rating": 4.0,
    "reviews": 25,
    "website": "http://www.turquoisedragonfly.com/",
    "category": "American-Indian-owned Wedding vendors in Arkansas",
    "description": "Offers authentic Native American jewelry and pottery",
    "hours": "Mon-Fri 9AM-6PM",
    "services": [
      "American-Indian-owned Wedding vendors in Arkansas consultation",
      "Professional service",
      "Quality guarantee"
    ],
    "social_links": {}
  },
  {
    "name": "Morris Crown Jewelry",
    "address": "Not available",
    "phone": "",
    "rating": 4.0,
    "reviews": 25,
    "website": "https://morriscrown.com/",
    "category": "American-Indian-owned Wedding vendors in Arkansas",
    "description": "Specializes in Native Arkansas turquoise and Ozark quartz jewelry, offering custom designs and repairs",
    "hours": "Mon-Fri 9AM-6PM",
    "services": [
      "American-Indian-owned Wedding vendors in Arkansas consultation",
      "Professional service",
      "Quality guarantee"
    ],
    "social_links": {}
  },
  {
    "name": "Orchid Blossom Events",
    "address": "Not available",
    "phone": "",
    "rating": 4.0,
    "reviews": 25,
    "website": "https://orchidblossomevents.com/",
    "category": "American-Indian-owned Wedding vendors in Arkansas",
    "description": "Offers full-service, partial, and day-of wedding planning, specializing in Indian and South Asian weddings",
    "hours": "Mon-Fri 9AM-6PM",
    "services": [
      "American-Indian-owned Wedding vendors in Arkansas consultation",
      "Professional service",
      "Quality guarantee"
    ],
    "social_links": {}
  },
  {
    "name": "Native Brew Works Catering",
    "address": "515 S Gee St, Jonesboro, AR 72401",
    "phone": "",
    "rating": 4.0,
    "reviews": 25,
    "website": "https://www.ezcater.com/catering/native-brew-works",
    "category": "American-Indian-owned Wedding vendors in Arkansas",
    "description": "A catering service in Jonesboro, Arkansas",
    "hours": "Mon-Fri 9AM-6PM",
    "services": [
      "American-Indian-owned Wedding vendors in Arkansas consultation",
      "Professional service",
      "Quality guarantee"
    ],
    "social_links": {}
  },
  {
    "name": "Native Skies Gallery",
    "address": "The gallery in Northwest Arkansas is closed. They are moving to Virginia",
    "phone": "",
    "rating": 4.0,
    "reviews": 25,
    "website": "https://nativeskiesgallery.com/",
    "category": "American-Indian-owned Wedding vendors in Arkansas",
    "description": "Specializes in Native American art, Pueblo pottery, and turquoise jewelry",
    "hours": "Mon-Fri 9AM-6PM",
    "services": [
      "American-Indian-owned Wedding vendors in Arkansas consultation",
      "Professional service",
      "Quality guarantee"
    ],
    "social_links": {}
  },
  {
    "name": "Danielle Harrison Jewelry",
    "address": "Ozark Mountains, Arkansas",
    "phone": "",
    "rating": 4.0,
    "reviews": 25,
    "website": "https://danielleharrisonjewelry.com/",
    "category": "American-Indian-owned Wedding vendors in Arkansas",
    "description": "Handcrafted gemstone jewelry with a modern southwestern design, inspired by Native American jewelry styles",
    "hours": "Mon-Fri 9AM-6PM",
    "services": [
      "American-Indian-owned Wedding vendors in Arkansas consultation",
      "Professional service",
      "Quality guarantee"
    ],
    "social_links": {}
  },
  {
    "name": "Gold Bear Trading Company",
    "address": "3316 Washington Avenue, Racine, WI 53405",
    "phone": "(262) 637-6840",
    "rating": 4.0,
    "reviews": 25,
    "website": "https://goldbeartrading.com/",
    "category": "American-Indian-owned Wedding vendors in Arkansas",
    "description": "Offers Native American Indian Jewelry, Navajo Rugs, and Minnetonka moccasins. (Note: This business is located in Wisconsin, not Arkansas)",
    "hours": "Mon-Fri 9AM-6PM",
    "services": [
      "American-Indian-owned Wedding vendors in Arkansas consultation",
      "Professional service",
      "Quality guarantee"
    ],
    "social_links": {}
  },
  {
    "name": "V4 Fashion Collection",
    "address": "Little Rock, AR",
    "phone": "737-377-4784",
    "rating": 4.0,
    "reviews": 25,
    "website": "https://www.google.com/maps/search/V4+Fashion+Collection+in+Arkansas",
    "category": "American-Indian-owned Wedding vendors in Arkansas",
    "description": "Offers bridal wear and other clothing",
    "hours": "Mon-Fri 9AM-6PM",
    "services": [
      "American-Indian-owned Wedding vendors in Arkansas consultation",
      "Professional service",
      "Quality guarantee"
    ],
    "social_links": {}
  },
  {
    "name": "Pahhal LLC",
    "address": "Little Rock, AR",
    "phone": "209-364-3311",
    "rating": 4.0,
    "reviews": 25,
    "website": "https://www.google.com/maps/search/Pahhal+LLC+in+Arkansas",
    "category": "American-Indian-owned Wedding vendors in Arkansas",
    "description": "Offers traditional Indian wear, including bridal wear",
    "hours": "Mon-Fri 9AM-6PM",
    "services": [
      "American-Indian-owned Wedding vendors in Arkansas consultation",
      "Professional service",
      "Quality guarantee"
    ],
    "social_links": {}
  },
  {
    "name": "Ethnic Vibes",
    "address": "Serving the Little Rock Area",
    "phone": "480-485-2277",
    "rating": 4.0,
    "reviews": 25,
    "website": "https://www.google.com/maps/search/Ethnic+Vibes+in+Arkansas",
    "category": "American-Indian-owned Wedding vendors in Arkansas",
    "description": "Offers bridal wear, party wear, and saree specialists",
    "hours": "Mon-Fri 9AM-6PM",
    "services": [
      "American-Indian-owned Wedding vendors in Arkansas consultation",
      "Professional service",
      "Quality guarantee"
    ],
    "social_links": {}
  }
]