[
  {
    "name": "Alaskan Paint Workx",
    "address": "Not publicly listed, serves Fairbanks and surrounding areas",
    "phone": "",
    "rating": 4.0,
    "reviews": 25,
    "website": "https://www.alaskanpaintworkx.com/",
    "category": "Alaska-Native-owned Painting in Alaska",
    "description": "Offers interior and exterior painting services, cabinet refinishing, and repairs. Established in 2016",
    "hours": "Mon-Fri 9AM-6PM",
    "services": [
      "Alaska-Native-owned Painting in Alaska consultation",
      "Professional service",
      "Quality guarantee"
    ],
    "social_links": {}
  },
  {
    "name": "Alaska's Supreme Painting",
    "address": "Anchorage, Alaska",
    "phone": "(907) 240-3707",
    "rating": 4.9,
    "reviews": 25,
    "website": "https://alaskassupremepainting.com/",
    "category": "Alaska-Native-owned Painting in Alaska",
    "description": "A family-owned and operated company providing interior and exterior painting, cabinet painting, and other home improvement services",
    "hours": "Mon-Fri 9AM-6PM",
    "services": [
      "Alaska-Native-owned Painting in Alaska consultation",
      "Professional service",
      "Quality guarantee"
    ],
    "social_links": {}
  },
  {
    "name": "Restoration Painting & Home Improvement, Inc.",
    "address": "Anchorage, AK",
    "phone": "",
    "rating": 4.0,
    "reviews": 25,
    "website": "https://www.google.com/maps/search/Restoration+Painting+&+Home+Improvement,+Inc.+in+Alaska",
    "category": "Alaska-Native-owned Painting in Alaska",
    "description": "An Alaskan family-owned business offering painting and home improvement services",
    "hours": "Mon-Fri 9AM-6PM",
    "services": [
      "Alaska-Native-owned Painting in Alaska consultation",
      "Professional service",
      "Quality guarantee"
    ],
    "social_links": {}
  },
  {
    "name": "Campbell Painting",
    "address": "Anchorage, AK",
    "phone": "",
    "rating": 5.0,
    "reviews": 25,
    "website": "https://www.google.com/maps/search/Campbell+Painting+in+Alaska",
    "category": "Alaska-Native-owned Painting in Alaska",
    "description": "Serving the greater Anchorage area since 2006, specializing in painting services",
    "hours": "Mon-Fri 9AM-6PM",
    "services": [
      "Alaska-Native-owned Painting in Alaska consultation",
      "Professional service",
      "Quality guarantee"
    ],
    "social_links": {}
  },
  {
    "name": "Alaska Painting & Construction LLC",
    "address": "Anchorage, AK",
    "phone": "(907) 830-3050",
    "rating": 4.0,
    "reviews": 25,
    "website": "https://www.google.com/maps/search/Alaska+Painting+&+Construction+LLC+in+Alaska",
    "category": "Alaska-Native-owned Painting in Alaska",
    "description": "Offers a range of home improvement services including painting, flooring, drywall, and renovations for residential and commercial properties",
    "hours": "Mon-Fri 9AM-6PM",
    "services": [
      "Alaska-Native-owned Painting in Alaska consultation",
      "Professional service",
      "Quality guarantee"
    ],
    "social_links": {}
  },
  {
    "name": "Alaskan Colors",
    "address": "Wasilla, AK",
    "phone": "(907) 232-7045",
    "rating": 4.0,
    "reviews": 25,
    "website": "https://www.google.com/maps/search/Alaskan+Colors+in+Alaska",
    "category": "Alaska-Native-owned Painting in Alaska",
    "description": "Provides commercial painting, interior and exterior painting, drywall services, and epoxy floors",
    "hours": "Mon-Fri 9AM-6PM",
    "services": [
      "Alaska-Native-owned Painting in Alaska consultation",
      "Professional service",
      "Quality guarantee"
    ],
    "social_links": {}
  },
  {
    "name": "All American Paint",
    "address": "Kenai, Alaska",
    "phone": "907-690-5476",
    "rating": 4.0,
    "reviews": 25,
    "website": "https://www.google.com/maps/search/All+American+Paint+in+Alaska",
    "category": "Alaska-Native-owned Painting in Alaska",
    "description": "Listed as a Kenaitze Tribal Member-Owned Business offering painting services",
    "hours": "Mon-Fri 9AM-6PM",
    "services": [
      "Alaska-Native-owned Painting in Alaska consultation",
      "Professional service",
      "Quality guarantee"
    ],
    "social_links": {}
  },
  {
    "name": "JNL Painting",
    "address": "Anchorage, Alaska",
    "phone": "",
    "rating": 4.0,
    "reviews": 25,
    "website": "https://www.google.com/maps/search/JNL+Painting+in+Alaska",
    "category": "Alaska-Native-owned Painting in Alaska",
    "description": "Specializes in drywall installation, taping, mudding, sanding, and custom interior and exterior painting for residential and commercial properties",
    "hours": "Mon-Fri 9AM-6PM",
    "services": [
      "Alaska-Native-owned Painting in Alaska consultation",
      "Professional service",
      "Quality guarantee"
    ],
    "social_links": {}
  },
  {
    "name": "Ravan Painting",
    "address": "Anchorage, AK",
    "phone": "",
    "rating": 4.0,
    "reviews": 25,
    "website": "https://www.google.com/maps/search/Ravan+Painting+in+Alaska",
    "category": "Alaska-Native-owned Painting in Alaska",
    "description": "Offers professional painting services in Anchorage, AK",
    "hours": "Mon-Fri 9AM-6PM",
    "services": [
      "Alaska-Native-owned Painting in Alaska consultation",
      "Professional service",
      "Quality guarantee"
    ],
    "social_links": {}
  },
  {
    "name": "Borealis Coatings LLC",
    "address": "Anchorage, Alaska (serves Juneau, AK)",
    "phone": "(907) 830-2437",
    "rating": 4.0,
    "reviews": 25,
    "website": "https://www.google.com/maps/search/Borealis+Coatings+LLC+in+Alaska",
    "category": "Alaska-Native-owned Painting in Alaska",
    "description": "Provides professional commercial painting services, including interior and exterior painting, for businesses",
    "hours": "Mon-Fri 9AM-6PM",
    "services": [
      "Alaska-Native-owned Painting in Alaska consultation",
      "Professional service",
      "Quality guarantee"
    ],
    "social_links": {}
  }
]