[
  {
    "name": "Core Combat Sports",
    "address": "1010 Phillips Ln, Louisville, KY 40217",
    "phone": "(502) 637-1555",
    "rating": 4.8,
    "reviews": 25,
    "website": "http://www.corecombatsports.com/",
    "category": "Black-owned Kickboxing classes in Kentucky",
    "description": "Offers a variety of martial arts including Muay Thai Kickboxing, Brazilian Jiu-Jitsu, Boxing, and Krav Maga, with programs for all ages and fitness levels",
    "hours": "Mon-Fri 9AM-6PM",
    "services": [
      "Black-owned Kickboxing classes in Kentucky consultation",
      "Professional service",
      "Quality guarantee"
    ],
    "social_links": {}
  },
  {
    "name": "Triple Crown Athletic",
    "address": "1000 Cox Rd, Florence, KY 41042",
    "phone": "(859) 371-3300",
    "rating": 4.9,
    "reviews": 25,
    "website": "https://www.triplecrownathletic.com/",
    "category": "Black-owned Kickboxing classes in Kentucky",
    "description": "A family-owned facility offering CrossFit, Functional Fitness, Kickboxing, Brazilian Jiu-Jitsu, and more for all ages and skill levels",
    "hours": "Mon-Fri 9AM-6PM",
    "services": [
      "Black-owned Kickboxing classes in Kentucky consultation",
      "Professional service",
      "Quality guarantee"
    ],
    "social_links": {}
  },
  {
    "name": "Real Fighters Gym",
    "address": "1400 S 4th St, Louisville, KY 40208",
    "phone": "(502) 744-2828",
    "rating": 4.9,
    "reviews": 25,
    "website": "https://www.realfightersgym.com/",
    "category": "Black-owned Kickboxing classes in Kentucky",
    "description": "Specializes in Dutch Kickboxing and Muay Thai, offering programs for beginners to advanced practitioners, as well as fitness kickboxing classes",
    "hours": "Mon-Fri 9AM-6PM",
    "services": [
      "Black-owned Kickboxing classes in Kentucky consultation",
      "Professional service",
      "Quality guarantee"
    ],
    "social_links": {}
  },
  {
    "name": "Area 502 MMA",
    "address": "1000 Phillips Ln, Louisville, KY 40217",
    "phone": "(502) 536-2474",
    "rating": 4.9,
    "reviews": 25,
    "website": "https://www.area502mma.com/",
    "category": "Black-owned Kickboxing classes in Kentucky",
    "description": "Offers Muay Thai Kickboxing classes for all levels, focusing on fitness and self-defense in a fun and intense environment",
    "hours": "Mon-Fri 9AM-6PM",
    "services": [
      "Black-owned Kickboxing classes in Kentucky consultation",
      "Professional service",
      "Quality guarantee"
    ],
    "social_links": {}
  },
  {
    "name": "Fight Factory",
    "address": "1000 Phillips Ln, Louisville, KY 40217",
    "phone": "(502) 702-4011",
    "rating": 4.9,
    "reviews": 25,
    "website": "https://www.fightfactorylouisville.com/",
    "category": "Black-owned Kickboxing classes in Kentucky",
    "description": "A mixed martial arts school offering kickboxing, BJJ, MMA, and boxing classes for members of all backgrounds",
    "hours": "Mon-Fri 9AM-6PM",
    "services": [
      "Black-owned Kickboxing classes in Kentucky consultation",
      "Professional service",
      "Quality guarantee"
    ],
    "social_links": {}
  },
  {
    "name": "Triumph Combat",
    "address": "1000 Phillips Ln, Louisville, KY 40217",
    "phone": "(502) 702-4011",
    "rating": 4.9,
    "reviews": 25,
    "website": "https://www.triumphcombat.com/",
    "category": "Black-owned Kickboxing classes in Kentucky",
    "description": "An elite martial arts gym offering boxing, kickboxing, BJJ, MMA, and other classes for all skill levels, from beginners to professionals",
    "hours": "Mon-Fri 9AM-6PM",
    "services": [
      "Black-owned Kickboxing classes in Kentucky consultation",
      "Professional service",
      "Quality guarantee"
    ],
    "social_links": {}
  },
  {
    "name": "HITS Fitness",
    "address": "1570 Nicholasville Rd, Lexington, KY 40503",
    "phone": "(859) 309-2222",
    "rating": 4.9,
    "reviews": 25,
    "website": "https://www.hitsfitness.com/",
    "category": "Black-owned Kickboxing classes in Kentucky",
    "description": "A boxing fitness club offering high-energy classes that combine boxing, kickboxing, and MMA skills for a fun and effective workout",
    "hours": "Mon-Fri 9AM-6PM",
    "services": [
      "Black-owned Kickboxing classes in Kentucky consultation",
      "Professional service",
      "Quality guarantee"
    ],
    "social_links": {}
  },
  {
    "name": "Kentucky Gym",
    "address": "2598 Richmond Rd, Lexington, KY 40509",
    "phone": "(859) 429-1850",
    "rating": 4.8,
    "reviews": 25,
    "website": "https://www.thekygym.com/",
    "category": "Black-owned Kickboxing classes in Kentucky",
    "description": "Voted Best Gym in Lexington, offering a blend of old-school weights and new equipment, with group boxing and kickboxing classes available",
    "hours": "Mon-Fri 9AM-6PM",
    "services": [
      "Black-owned Kickboxing classes in Kentucky consultation",
      "Professional service",
      "Quality guarantee"
    ],
    "social_links": {}
  },
  {
    "name": "Premier Fitness & Jiu Jitsu",
    "address": "5796 Constitution Drive suite B, Florence, KY 41042",
    "phone": "(859) 486-9951",
    "rating": 4.9,
    "reviews": 25,
    "website": "https://www.premierky.com/",
    "category": "Black-owned Kickboxing classes in Kentucky",
    "description": "Offers American traditional kickboxing classes in a community-centered environment, providing a fun, fast-paced, full-body workout",
    "hours": "Mon-Fri 9AM-6PM",
    "services": [
      "Black-owned Kickboxing classes in Kentucky consultation",
      "Professional service",
      "Quality guarantee"
    ],
    "social_links": {}
  },
  {
    "name": "Powell MMA and Fitness",
    "address": "8275 Doering Dr, Florence, KY 41042",
    "phone": "(859) 866-0000",
    "rating": 4.9,
    "reviews": 25,
    "website": "https://www.powellmma.com/",
    "category": "Black-owned Kickboxing classes in Kentucky",
    "description": "Offers beginner-friendly classes in Jiu Jitsu, Kickboxing, and Strength and Conditioning in an encouraging atmosphere",
    "hours": "Mon-Fri 9AM-6PM",
    "services": [
      "Black-owned Kickboxing classes in Kentucky consultation",
      "Professional service",
      "Quality guarantee"
    ],
    "social_links": {}
  }
]