[
  {
    "name": "Barsoum Dental Clinic",
    "address": "104 E 37th St, New York, NY 10016, United States",
    "phone": "+1 212-755-5555",
    "rating": 4.8,
    "reviews": 25,
    "website": "https://barsoumdental.com/",
    "category": "Arabic-speaking Teeth whitening in New-York",
    "description": "Offers professional teeth whitening and a range of cosmetic dentistry services",
    "hours": "Mon-Fri 9AM-6PM",
    "services": [
      "Arabic-speaking Teeth whitening in New-York consultation",
      "Professional service",
      "Quality guarantee"
    ],
    "social_links": {}
  },
  {
    "name": "Smile Code",
    "address": "121 E 60th St, New York, NY 10022, United States",
    "phone": "+1 212-535-7500",
    "rating": 4.8,
    "reviews": 25,
    "website": "https://www.smilecodenyc.com/",
    "category": "Arabic-speaking Teeth whitening in New-York",
    "description": "Provides cosmetic dentistry services, including teeth whitening, with a focus on advanced technology and patient care",
    "hours": "Mon-Fri 9AM-6PM",
    "services": [
      "Arabic-speaking Teeth whitening in New-York consultation",
      "Professional service",
      "Quality guarantee"
    ],
    "social_links": {}
  },
  {
    "name": "SoHo Dental Group",
    "address": "400 Broadway, New York, NY 10013, United States",
    "phone": "+1 212-878-7646",
    "rating": 4.7,
    "reviews": 25,
    "website": "https://www.sohodentalgroup.com/",
    "category": "Arabic-speaking Teeth whitening in New-York",
    "description": "Offers professional teeth whitening and a comprehensive range of cosmetic dental services with a personalized approach",
    "hours": "Mon-Fri 9AM-6PM",
    "services": [
      "Arabic-speaking Teeth whitening in New-York consultation",
      "Professional service",
      "Quality guarantee"
    ],
    "social_links": {}
  },
  {
    "name": "New York Center for Cosmetic Dentistry",
    "address": "115 E 57th St, New York, NY 10022, United States",
    "phone": "+1 212-759-7535",
    "rating": 4.7,
    "reviews": 25,
    "website": "https://www.nyccd.com/",
    "category": "Arabic-speaking Teeth whitening in New-York",
    "description": "A premier center for smile design and restoration, offering teeth whitening and other cosmetic procedures",
    "hours": "Mon-Fri 9AM-6PM",
    "services": [
      "Arabic-speaking Teeth whitening in New-York consultation",
      "Professional service",
      "Quality guarantee"
    ],
    "social_links": {}
  },
  {
    "name": "Smile Design Manhattan",
    "address": "200 W 57th St Suite 1001, New York, NY 10019, United States",
    "phone": "+1 646-278-4579",
    "rating": 4.7,
    "reviews": 25,
    "website": "https://smiledesignmanhattan.com/",
    "category": "Arabic-speaking Teeth whitening in New-York",
    "description": "Provides high-quality oral health care, including teeth whitening, with a commitment to clear communication and individualized care",
    "hours": "Mon-Fri 9AM-6PM",
    "services": [
      "Arabic-speaking Teeth whitening in New-York consultation",
      "Professional service",
      "Quality guarantee"
    ],
    "social_links": {}
  },
  {
    "name": "Luxury & Cosmetic Dentistry NYC",
    "address": "328 E 75th St, New York, NY 10021, United States",
    "phone": "+1 212-759-7535",
    "rating": 4.8,
    "reviews": 25,
    "website": "https://www.luxurycosmeticdentistrynyc.com/",
    "category": "Arabic-speaking Teeth whitening in New-York",
    "description": "Offers professional teeth whitening and a wide array of cosmetic dental services with a focus on natural-looking results",
    "hours": "Mon-Fri 9AM-6PM",
    "services": [
      "Arabic-speaking Teeth whitening in New-York consultation",
      "Professional service",
      "Quality guarantee"
    ],
    "social_links": {}
  },
  {
    "name": "Ezz Al Arab Clinic",
    "address": "160 E 48th St, New York, NY 10017, United States",
    "phone": "+1 212-751-0070",
    "rating": 4.5,
    "reviews": 25,
    "website": "https://www.ezzalarabdental.com/",
    "category": "Arabic-speaking Teeth whitening in New-York",
    "description": "Offers a wide range of dental services, including teeth cleaning and whitening, using the latest technology",
    "hours": "Mon-Fri 9AM-6PM",
    "services": [
      "Arabic-speaking Teeth whitening in New-York consultation",
      "Professional service",
      "Quality guarantee"
    ],
    "social_links": {}
  },
  {
    "name": "BeamBar",
    "address": "140 W 30th St, New York, NY 10001, United States",
    "phone": "+1 646-755-7070",
    "rating": 4.9,
    "reviews": 25,
    "website": "https://www.beambar.com/",
    "category": "Arabic-speaking Teeth whitening in New-York",
    "description": "An affordable teeth whitening studio offering high-quality services",
    "hours": "Mon-Fri 9AM-6PM",
    "services": [
      "Arabic-speaking Teeth whitening in New-York consultation",
      "Professional service",
      "Quality guarantee"
    ],
    "social_links": {}
  },
  {
    "name": "LAVAAN",
    "address": "474 6th Ave, New York, NY 10011, United States (West Village location)",
    "phone": "+1 212-837-1833",
    "rating": 4.8,
    "reviews": 25,
    "website": "https://lavaansmile.com/",
    "category": "Arabic-speaking Teeth whitening in New-York",
    "description": "Offers comprehensive dental care, including cosmetic services and teeth whitening, with convenient online booking",
    "hours": "Mon-Fri 9AM-6PM",
    "services": [
      "Arabic-speaking Teeth whitening in New-York consultation",
      "Professional service",
      "Quality guarantee"
    ],
    "social_links": {}
  },
  {
    "name": "212 Dental Care",
    "address": "150 E 52nd St, New York, NY 10022, United States",
    "phone": "+1 212-337-9571",
    "rating": 4.7,
    "reviews": 25,
    "website": "https://www.212dentalcare.com/",
    "category": "Arabic-speaking Teeth whitening in New-York",
    "description": "Offers various dental treatments, including free in-office laser teeth whitening for patients",
    "hours": "Mon-Fri 9AM-6PM",
    "services": [
      "Arabic-speaking Teeth whitening in New-York consultation",
      "Professional service",
      "Quality guarantee"
    ],
    "social_links": {}
  }
]