[
  {
    "name": "TeamBonding",
    "address": "Various locations across Maine, including Augusta, Bangor, Lewiston, Portland, and Scarborough",
    "phone": "(800) 844-8747",
    "rating": 4.0,
    "reviews": 25,
    "website": "https://www.teambonding.com/",
    "category": "Asian-owned Team building activities in Maine",
    "description": "Offers a wide range of in-person and virtual team-building activities, including scavenger hunts, retro gaming experiences, and charity bike builds",
    "hours": "Mon-Fri 9AM-6PM",
    "services": [
      "Asian-owned Team building activities in Maine consultation",
      "Professional service",
      "Quality guarantee"
    ],
    "social_links": {}
  },
  {
    "name": "Experience Maine Culinary",
    "address": "Primarily serves the Portland area",
    "phone": "(207) 808-7070",
    "rating": 4.0,
    "reviews": 25,
    "website": "https://experiencemeculinary.com/",
    "category": "Asian-owned Team building activities in Maine",
    "description": "Provides culinary team-building activities such as oyster shucking competitions, charcuterie making, and food-centric scavenger hunts",
    "hours": "Mon-Fri 9AM-6PM",
    "services": [
      "Asian-owned Team building activities in Maine consultation",
      "Professional service",
      "Quality guarantee"
    ],
    "social_links": {}
  },
  {
    "name": "Stage Neck Inn",
    "address": "42 Stage Neck Rd, York, ME 03909",
    "phone": "(207) 363-3850",
    "rating": 4.0,
    "reviews": 25,
    "website": "https://www.stageneck.com/",
    "category": "Asian-owned Team building activities in Maine",
    "description": "Offers team-building activities like \"Amazing Race\" adventures, lawn games, and cornhole tournaments",
    "hours": "Mon-Fri 9AM-6PM",
    "services": [
      "Asian-owned Team building activities in Maine consultation",
      "Professional service",
      "Quality guarantee"
    ],
    "social_links": {}
  },
  {
    "name": "Visit Portland",
    "address": "Primarily serves Portland, Maine",
    "phone": "(207) 772-5811",
    "rating": 4.0,
    "reviews": 25,
    "website": "https://www.visitportland.com/",
    "category": "Asian-owned Team building activities in Maine",
    "description": "Features various team-building options including axe throwing, escape rooms, and wine tastings",
    "hours": "Mon-Fri 9AM-6PM",
    "services": [
      "Asian-owned Team building activities in Maine consultation",
      "Professional service",
      "Quality guarantee"
    ],
    "social_links": {}
  },
  {
    "name": "Cliff House Maine",
    "address": "10 Cliff House Rd, Cape Neddick, ME 03902",
    "phone": "(207) 361-1000",
    "rating": 4.0,
    "reviews": 25,
    "website": "https://www.cliffhousemaine.com/",
    "category": "Asian-owned Team building activities in Maine",
    "description": "Offers on-site and off-site team-building activities such as archery, sailing, culinary competitions, and lobstering trips",
    "hours": "Mon-Fri 9AM-6PM",
    "services": [
      "Asian-owned Team building activities in Maine consultation",
      "Professional service",
      "Quality guarantee"
    ],
    "social_links": {}
  },
  {
    "name": "The Go Game",
    "address": "Primarily serves Portland, Maine",
    "phone": "(800) 510-5355",
    "rating": 4.0,
    "reviews": 25,
    "website": "https://www.thegogame.com/",
    "category": "Asian-owned Team building activities in Maine",
    "description": "Specializes in interactive team-building games like \"Space Escape\" and scavenger hunts in urban environments",
    "hours": "Mon-Fri 9AM-6PM",
    "services": [
      "Asian-owned Team building activities in Maine consultation",
      "Professional service",
      "Quality guarantee"
    ],
    "social_links": {}
  },
  {
    "name": "Kirin Asian Kitchen",
    "address": "171 Main St, Waterboro, ME 04087",
    "phone": "(207) 298-2558",
    "rating": 4.0,
    "reviews": 25,
    "website": "https://www.kirinkitchenwaterboro.com/",
    "category": "Asian-owned Team building activities in Maine",
    "description": "While primarily a restaurant, they may offer group dining experiences that could be adapted for team events",
    "hours": "Mon-Fri 9AM-6PM",
    "services": [
      "Asian-owned Team building activities in Maine consultation",
      "Professional service",
      "Quality guarantee"
    ],
    "social_links": {}
  },
  {
    "name": "Kon Asian Bistro",
    "address": "430 US-1, Scarborough, ME 04074",
    "phone": "(207) 885-5555",
    "rating": 4.0,
    "reviews": 25,
    "website": "https://konasianbistro.com/",
    "category": "Asian-owned Team building activities in Maine",
    "description": "As an Asian restaurant, they might be open to hosting private events or group dinners that could serve as team-building opportunities",
    "hours": "Mon-Fri 9AM-6PM",
    "services": [
      "Asian-owned Team building activities in Maine consultation",
      "Professional service",
      "Quality guarantee"
    ],
    "social_links": {}
  },
  {
    "name": "Shinbashi Asian Restaurant",
    "address": "139 High St, Ellsworth, ME 04605",
    "phone": "(207) 667-4000",
    "rating": 4.0,
    "reviews": 25,
    "website": "https://www.shinbashimaine.com/",
    "category": "Asian-owned Team building activities in Maine",
    "description": "Similar to Kirin Asian Kitchen and Kon Asian Bistro, this restaurant could potentially accommodate group events",
    "hours": "Mon-Fri 9AM-6PM",
    "services": [
      "Asian-owned Team building activities in Maine consultation",
      "Professional service",
      "Quality guarantee"
    ],
    "social_links": {}
  },
  {
    "name": "Ninja Sushi Asian Bistro",
    "address": "44 Western Ave, South Paris, ME 04281",
    "phone": "(207) 743-9999",
    "rating": 4.0,
    "reviews": 25,
    "website": "https://ninjasushisouthparis.com/",
    "category": "Asian-owned Team building activities in Maine",
    "description": "Another Asian restaurant that might be able to host private events for team-building purposes",
    "hours": "Mon-Fri 9AM-6PM",
    "services": [
      "Asian-owned Team building activities in Maine consultation",
      "Professional service",
      "Quality guarantee"
    ],
    "social_links": {}
  }
]