[
  {
    "name": "Island Art & Frames",
    "address": "1210 Auahi St, Honolulu, HI 96814",
    "phone": "(808) 591-2412",
    "rating": 4.5,
    "reviews": 25,
    "website": "https://www.islandartandframes.com/",
    "category": "Catholic-owned Framing in Hawaii",
    "description": "Offers custom framing for art, photos, and memorabilia with a focus on quality and craftsmanship",
    "hours": "Mon-Fri 9AM-6PM",
    "services": [
      "Catholic-owned Framing in Hawaii consultation",
      "Professional service",
      "Quality guarantee"
    ],
    "social_links": {}
  },
  {
    "name": "Art Attacks Hawaii",
    "address": "1220 Pensacola St, Honolulu, HI 96814",
    "phone": "(808) 591-2412",
    "rating": 4.8,
    "reviews": 25,
    "website": "https://www.artattackshawaii.com/",
    "category": "Catholic-owned Framing in Hawaii",
    "description": "Provides custom framing solutions with nearly 30 years of experience, specializing in preserving cherished memories and artwork",
    "hours": "Mon-Fri 9AM-6PM",
    "services": [
      "Catholic-owned Framing in Hawaii consultation",
      "Professional service",
      "Quality guarantee"
    ],
    "social_links": {}
  },
  {
    "name": "Cunningham Gallery & Picture Frame Shop",
    "address": "333 Kilauea Ave, Hilo, HI 96720",
    "phone": "(808) 935-0005",
    "rating": 4.7,
    "reviews": 25,
    "website": "https://www.cunninghamgallery.com/",
    "category": "Catholic-owned Framing in Hawaii",
    "description": "A long-standing gallery and frame shop in Hilo, offering custom framing and representing local artists",
    "hours": "Mon-Fri 9AM-6PM",
    "services": [
      "Catholic-owned Framing in Hawaii consultation",
      "Professional service",
      "Quality guarantee"
    ],
    "social_links": {}
  },
  {
    "name": "Pacific Gallery & Frames",
    "address": "1113 Artesian St, Honolulu, HI 96819",
    "phone": "(808) 591-2412",
    "rating": 4.9,
    "reviews": 25,
    "website": "https://www.pacificgalleryandframes.com/",
    "category": "Catholic-owned Framing in Hawaii",
    "description": "A family-owned business since 1966, offering precision framing services, museum mats, and UV art protection",
    "hours": "Mon-Fri 9AM-6PM",
    "services": [
      "Catholic-owned Framing in Hawaii consultation",
      "Professional service",
      "Quality guarantee"
    ],
    "social_links": {}
  },
  {
    "name": "The Frame Shop (Ben Franklin Crafts)",
    "address": "Multiple locations including: 2810 Paa Street, Honolulu, HI 96819; 1020 Keolu Drive, Kailua, HI 96734; 275 Kaahumanu Avenue, Kahului, HI 96732; 333 Kilauea Avenue, Hilo, HI 96720",
    "phone": "Varies by location (e.g., Honolulu: (808) 839-9101)",
    "rating": 4.4,
    "reviews": 25,
    "website": "https://www.benfranklincraftshonolulu.com/framing",
    "category": "Catholic-owned Framing in Hawaii",
    "description": "Offers expert custom framing with a large selection of frames and options for every budget",
    "hours": "Mon-Fri 9AM-6PM",
    "services": [
      "Catholic-owned Framing in Hawaii consultation",
      "Professional service",
      "Quality guarantee"
    ],
    "social_links": {}
  },
  {
    "name": "The Art Board",
    "address": "1420 Kapiolani Blvd, Honolulu, HI 96814",
    "phone": "(808) 949-2444",
    "rating": 4.8,
    "reviews": 25,
    "website": "https://www.theartboardhi.com/",
    "category": "Catholic-owned Framing in Hawaii",
    "description": "A premier destination for custom framing in Honolulu with over 40 years of experience, offering a wide selection of frame profiles and rush services",
    "hours": "Mon-Fri 9AM-6PM",
    "services": [
      "Catholic-owned Framing in Hawaii consultation",
      "Professional service",
      "Quality guarantee"
    ],
    "social_links": {}
  },
  {
    "name": "Pictures Plus",
    "address": "Multiple locations including: 1210 Auahi St, Honolulu, HI 96814; Kahala Mall, Honolulu, HI 96816",
    "phone": "Varies by location (e.g., Honolulu: (808) 591-2412)",
    "rating": 4.6,
    "reviews": 25,
    "website": "https://www.picturesplus.com/",
    "category": "Catholic-owned Framing in Hawaii",
    "description": "Offers custom framing, printing, and local art, with a commitment to quality and local production",
    "hours": "Mon-Fri 9AM-6PM",
    "services": [
      "Catholic-owned Framing in Hawaii consultation",
      "Professional service",
      "Quality guarantee"
    ],
    "social_links": {}
  },
  {
    "name": "Art Shop Inc.",
    "address": "3105 Akahi St, Lihue, HI 96766",
    "phone": "(808) 245-3810",
    "rating": 4.9,
    "reviews": 25,
    "website": "https://www.artshopkauai.com/",
    "category": "Catholic-owned Framing in Hawaii",
    "description": "The oldest custom frame maker on Kauai, offering handcrafted frames, art preservation, and discounts for artists and kama'aina",
    "hours": "Mon-Fri 9AM-6PM",
    "services": [
      "Catholic-owned Framing in Hawaii consultation",
      "Professional service",
      "Quality guarantee"
    ],
    "social_links": {}
  },
  {
    "name": "Maui Fine Art",
    "address": "1279 S Kihei Rd, Kihei, HI 96753",
    "phone": "(808) 877-0877",
    "rating": 4.7,
    "reviews": 25,
    "website": "https://www.mauifineart.com/",
    "category": "Catholic-owned Framing in Hawaii",
    "description": "Specializes in custom and commercial picture framing for residential and commercial accounts on Maui",
    "hours": "Mon-Fri 9AM-6PM",
    "services": [
      "Catholic-owned Framing in Hawaii consultation",
      "Professional service",
      "Quality guarantee"
    ],
    "social_links": {}
  },
  {
    "name": "Colette's Custom Framing Inc.",
    "address": "75-5595 Palani Rd, Kailua-Kona, HI 96740",
    "phone": "(808) 329-1991",
    "rating": 4.8,
    "reviews": 25,
    "website": "https://www.colettescustomframing.com/",
    "category": "Catholic-owned Framing in Hawaii",
    "description": "Offers art gallery-quality custom frames with a wide selection of moldings and matting options, supporting local artists",
    "hours": "Mon-Fri 9AM-6PM",
    "services": [
      "Catholic-owned Framing in Hawaii consultation",
      "Professional service",
      "Quality guarantee"
    ],
    "social_links": {}
  }
]