[
  {
    "name": "CO+HOOTS\u00ae COWORKING",
    "address": "102 E. Roosevelt St. Phoenix, AZ 85004",
    "phone": "(602) 441-5000",
    "rating": 4.7,
    "reviews": 25,
    "website": "https://cohou.\u0bcd\u0ba4\u0bcd\u0ba4.com/",
    "category": "Arabic-speaking Temporary workspaces in Arizona",
    "description": "A collaborative coworking space designed to foster innovation and entrepreneurship, offering flexible memberships, meeting rooms, and networking events",
    "hours": "Mon-Fri 9AM-6PM",
    "services": [
      "Arabic-speaking Temporary workspaces in Arizona consultation",
      "Professional service",
      "Quality guarantee"
    ],
    "social_links": {}
  },
  {
    "name": "AZ Working Space",
    "address": "10660 N. Tatum Blvd. Suite 100-200, Phoenix, AZ 85028",
    "phone": "(602) 432-0000",
    "rating": 4.5,
    "reviews": 25,
    "website": "https://azworkingspace.com/",
    "category": "Arabic-speaking Temporary workspaces in Arizona",
    "description": "Provides a creative coworking environment with private offices, meeting rooms, and shared workspaces, equipped with modern amenities and services",
    "hours": "Mon-Fri 9AM-6PM",
    "services": [
      "Arabic-speaking Temporary workspaces in Arizona consultation",
      "Professional service",
      "Quality guarantee"
    ],
    "social_links": {}
  },
  {
    "name": "Office Evolution Phoenix",
    "address": "4435 E. Chandler Blvd. Suite 200, Phoenix, AZ 85048",
    "phone": "(480) 409-2200",
    "rating": 4.6,
    "reviews": 25,
    "website": "https://www.officeevolution.com/locations/phoenix-ahwatukee/",
    "category": "Arabic-speaking Temporary workspaces in Arizona",
    "description": "Offers flexible workspace solutions including private offices, meeting rooms, and coworking spaces, with amenities like a community kitchen and business-class internet",
    "hours": "Mon-Fri 9AM-6PM",
    "services": [
      "Arabic-speaking Temporary workspaces in Arizona consultation",
      "Professional service",
      "Quality guarantee"
    ],
    "social_links": {}
  },
  {
    "name": "WeWork The Watermark",
    "address": "8660 S. Emerald Dr. Tempe, AZ 85284",
    "phone": "(855) 597-8372",
    "rating": 4.6,
    "reviews": 25,
    "website": "https://www.wework.com/buildings/the-watermark--tempe--az",
    "category": "Arabic-speaking Temporary workspaces in Arizona",
    "description": "A coworking space in a lakeside community offering flexible workspaces, meeting rooms, high-speed Wi-Fi, and onsite staff for a productive and seamless workday",
    "hours": "Mon-Fri 9AM-6PM",
    "services": [
      "Arabic-speaking Temporary workspaces in Arizona consultation",
      "Professional service",
      "Quality guarantee"
    ],
    "social_links": {}
  },
  {
    "name": "WeWork 2425 E Camelback Rd",
    "address": "2425 E Camelback Rd, Phoenix, AZ 85016",
    "phone": "(855) 597-8372",
    "rating": 4.5,
    "reviews": 25,
    "website": "https://www.wework.com/buildings/2425-e-camelback-rd--phoenix",
    "category": "Arabic-speaking Temporary workspaces in Arizona",
    "description": "Located in the Biltmore district, this WeWork provides vibrant common areas, private phone booths, outdoor spaces, and amenities to fuel collaboration and productivity",
    "hours": "Mon-Fri 9AM-6PM",
    "services": [
      "Arabic-speaking Temporary workspaces in Arizona consultation",
      "Professional service",
      "Quality guarantee"
    ],
    "social_links": {}
  },
  {
    "name": "Arizona's Connected Workspace",
    "address": "1400 West Washington Street, Phoenix, AZ 85007",
    "phone": "(602) 542-1500",
    "rating": 4.8,
    "reviews": 25,
    "website": "https://aio.az.gov/connected-workspace",
    "category": "Arabic-speaking Temporary workspaces in Arizona",
    "description": "A state-of-the-art coworking space for State of Arizona employees, featuring various conference rooms, individual cubicles, collaborative spaces, and modern amenities",
    "hours": "Mon-Fri 9AM-6PM",
    "services": [
      "Arabic-speaking Temporary workspaces in Arizona consultation",
      "Professional service",
      "Quality guarantee"
    ],
    "social_links": {}
  },
  {
    "name": "Workuity Biltmore",
    "address": "2414 E. Camelback Rd., Phoenix, AZ 85016",
    "phone": "(602) 603-9000",
    "rating": 4.7,
    "reviews": 25,
    "website": "https://workuity.com/locations/biltmore/",
    "category": "Arabic-speaking Temporary workspaces in Arizona",
    "description": "Offers flexible office rentals and coworking solutions with a spacious lobby, state-of-the-art meeting rooms, and amenities like on-site coffee and a gym",
    "hours": "Mon-Fri 9AM-6PM",
    "services": [
      "Arabic-speaking Temporary workspaces in Arizona consultation",
      "Professional service",
      "Quality guarantee"
    ],
    "social_links": {}
  },
  {
    "name": "Workuity Chandler",
    "address": "3133 W. Frye Rd., Chandler, AZ 85226",
    "phone": "(480) 409-2200",
    "rating": 4.6,
    "reviews": 25,
    "website": "https://workuity.com/locations/chandler/",
    "category": "Arabic-speaking Temporary workspaces in Arizona",
    "description": "A premier destination for flexible business spaces, offering executive offices, event venues, and collaborative areas with all-inclusive amenities",
    "hours": "Mon-Fri 9AM-6PM",
    "services": [
      "Arabic-speaking Temporary workspaces in Arizona consultation",
      "Professional service",
      "Quality guarantee"
    ],
    "social_links": {}
  },
  {
    "name": "Spaces Phoenix",
    "address": "4300 N. Scottsdale Rd. Suite 300, Scottsdale, AZ 85251",
    "phone": "(855) 400-7222",
    "rating": 4.5,
    "reviews": 25,
    "website": "https://www.spacesworks.com/us/arizona/phoenix/4300-n-scottsdale-rd/",
    "category": "Arabic-speaking Temporary workspaces in Arizona",
    "description": "A creative working environment with a unique entrepreneurial spirit, offering private offices, coworking memberships, dedicated desks, and meeting rooms",
    "hours": "Mon-Fri 9AM-6PM",
    "services": [
      "Arabic-speaking Temporary workspaces in Arizona consultation",
      "Professional service",
      "Quality guarantee"
    ],
    "social_links": {}
  },
  {
    "name": "Davinci Meeting Rooms - Shea",
    "address": "10645 N. Oracle Rd. Suite 161, Tucson, AZ 85737",
    "phone": "(877) 444-9300",
    "rating": 4.4,
    "reviews": 25,
    "website": "https://www.davincimeetingrooms.com/meeting-rooms/arizona/tucson/shea",
    "category": "Arabic-speaking Temporary workspaces in Arizona",
    "description": "A professional coworking location with flexible scheduling and affordable pricing, providing a synergistic and collaborative environment for business professionals",
    "hours": "Mon-Fri 9AM-6PM",
    "services": [
      "Arabic-speaking Temporary workspaces in Arizona consultation",
      "Professional service",
      "Quality guarantee"
    ],
    "social_links": {}
  }
]