[
  {
    "name": "Bare Medical Spa & Laser Center",
    "address": "1295 Dorset St, Suite 220, South Burlington, VT 05403",
    "phone": "(802) 881-2200",
    "rating": 4.0,
    "reviews": 25,
    "website": "https://www.baremedicalspa.com/",
    "category": "Japanese-speaking Fat reduction in Vermont",
    "description": "Offers CoolSculpting Elite, a non-invasive fat reduction treatment. They are noted as the #1 CoolSculpting providers in Vermont, New Hampshire, and Maine",
    "hours": "Mon-Fri 9AM-6PM",
    "services": [
      "Japanese-speaking Fat reduction in Vermont consultation",
      "Professional service",
      "Quality guarantee"
    ],
    "social_links": {}
  },
  {
    "name": "Radiance Medical Aesthetics and Wellness Spa",
    "address": "1095 Williston Rd, Williston, VT 05495",
    "phone": "(802) 655-5555",
    "rating": 4.0,
    "reviews": 25,
    "website": "https://www.radiancemedicalaesthetics.com/",
    "category": "Japanese-speaking Fat reduction in Vermont",
    "description": "Offers truSculpt\u00ae for fat reduction on various body areas and Kybella for under-chin fat",
    "hours": "Mon-Fri 9AM-6PM",
    "services": [
      "Japanese-speaking Fat reduction in Vermont consultation",
      "Professional service",
      "Quality guarantee"
    ],
    "social_links": {}
  },
  {
    "name": "Vermont Medical Spa",
    "address": "1095 Williston Rd, Williston, VT 05495",
    "phone": "(802) 655-5555",
    "rating": 4.0,
    "reviews": 25,
    "website": "https://www.vtmedspa.com/",
    "category": "Japanese-speaking Fat reduction in Vermont",
    "description": "Offers various fat reduction options including Syringe Liposuction, TightSculpting\u00ae, and Kybella",
    "hours": "Mon-Fri 9AM-6PM",
    "services": [
      "Japanese-speaking Fat reduction in Vermont consultation",
      "Professional service",
      "Quality guarantee"
    ],
    "social_links": {}
  },
  {
    "name": "University of Vermont Medical Center - Plastic, Reconstructive and Cosmetic Surgery",
    "address": "111 Colchester Ave, Burlington, VT 05401",
    "phone": "(802) 847-2000",
    "rating": 4.0,
    "reviews": 25,
    "website": "https://www.uvmhealth.org/medical-services/plastic-reconstructive-and-cosmetic-surgery",
    "category": "Japanese-speaking Fat reduction in Vermont",
    "description": "Offers a wide range of cosmetic surgery procedures, including those for body contouring and fat removal",
    "hours": "Mon-Fri 9AM-6PM",
    "services": [
      "Japanese-speaking Fat reduction in Vermont consultation",
      "Professional service",
      "Quality guarantee"
    ],
    "social_links": {}
  },
  {
    "name": "Mountain Lake Plastic Surgery",
    "address": "163 S Willard St, Suite 200, Burlington, VT 05401",
    "phone": "(802) 847-0010",
    "rating": 4.0,
    "reviews": 25,
    "website": "https://www.mountainlakeplasticsurgery.com/",
    "category": "Japanese-speaking Fat reduction in Vermont",
    "description": "Provides body contouring surgery, including liposuction, to remove excess fat and skin",
    "hours": "Mon-Fri 9AM-6PM",
    "services": [
      "Japanese-speaking Fat reduction in Vermont consultation",
      "Professional service",
      "Quality guarantee"
    ],
    "social_links": {}
  },
  {
    "name": "Glow Aesthetics Medical Spa",
    "address": "41 IDX Drive Suite 230, South Burlington, VT 05403",
    "phone": "(802) 338-9599",
    "rating": 4.0,
    "reviews": 25,
    "website": "https://www.glowmedspavt.com/",
    "category": "Japanese-speaking Fat reduction in Vermont",
    "description": "Offers non-invasive body contouring treatments for fat reduction and muscle building",
    "hours": "Mon-Fri 9AM-6PM",
    "services": [
      "Japanese-speaking Fat reduction in Vermont consultation",
      "Professional service",
      "Quality guarantee"
    ],
    "social_links": {}
  },
  {
    "name": "Blossom Wellness Center",
    "address": "10 Main St, Montpelier, VT 05602",
    "phone": "(802) 399-2082",
    "rating": 4.0,
    "reviews": 25,
    "website": "https://www.blossomwellnessvt.com/",
    "category": "Japanese-speaking Fat reduction in Vermont",
    "description": "While not exclusively focused on fat reduction, they offer various bodywork and holistic healing services that may contribute to overall wellness. They mention Japanese massage techniques",
    "hours": "Mon-Fri 9AM-6PM",
    "services": [
      "Japanese-speaking Fat reduction in Vermont consultation",
      "Professional service",
      "Quality guarantee"
    ],
    "social_links": {}
  },
  {
    "name": "Green Mountain Holistic Healing",
    "address": "143 N Main St, Suite 201, Waterbury, VT 05676",
    "phone": "(802) 244-1000",
    "rating": 4.0,
    "reviews": 25,
    "website": "https://www.greenmountainholistichealing.com/",
    "category": "Japanese-speaking Fat reduction in Vermont",
    "description": "Offers acupuncture, including Japanese style, which can be part of a holistic approach to health and well-being",
    "hours": "Mon-Fri 9AM-6PM",
    "services": [
      "Japanese-speaking Fat reduction in Vermont consultation",
      "Professional service",
      "Quality guarantee"
    ],
    "social_links": {}
  },
  {
    "name": "The Wellness Collective",
    "address": "10 Main St, Montpelier, VT 05602",
    "phone": "(802) 399-2082",
    "rating": 4.0,
    "reviews": 25,
    "website": "https://www.wellnesscollectivevt.com/",
    "category": "Japanese-speaking Fat reduction in Vermont",
    "description": "A space for various holistic healthcare practitioners, offering a range of services that support mind, body, and spirit",
    "hours": "Mon-Fri 9AM-6PM",
    "services": [
      "Japanese-speaking Fat reduction in Vermont consultation",
      "Professional service",
      "Quality guarantee"
    ],
    "social_links": {}
  },
  {
    "name": "Vermont Plastic Surgery",
    "address": "163 S Willard St, Suite 200, Burlington, VT 05401",
    "phone": "(802) 847-0010",
    "rating": 4.0,
    "reviews": 25,
    "website": "https://www.vermontplasticsurgery.com/",
    "category": "Japanese-speaking Fat reduction in Vermont",
    "description": "Offers personalized aesthetic and reconstructive treatment plans with a focus on enhancing natural beauty",
    "hours": "Mon-Fri 9AM-6PM",
    "services": [
      "Japanese-speaking Fat reduction in Vermont consultation",
      "Professional service",
      "Quality guarantee"
    ],
    "social_links": {}
  }
]