[
  {
    "name": "Connecticut Wealth Management",
    "address": "281 Farmington Ave, Farmington, CT 06032",
    "phone": "(860) 470-0290",
    "rating": 4.0,
    "reviews": 25,
    "website": "https://www.ctwealthmanagement.com/",
    "category": "Baby-Boomer-owned Retirement planning in Connecticut",
    "description": "Offers comprehensive financial planning, retirement planning, investment management, and consulting services for individuals, families, business owners, and executives",
    "hours": "Mon-Fri 9AM-6PM",
    "services": [
      "Baby-Boomer-owned Retirement planning in Connecticut consultation",
      "Professional service",
      "Quality guarantee"
    ],
    "social_links": {}
  },
  {
    "name": "Reed Financial Planning Services, LLC",
    "address": "1290 Post Rd, Fairfield, CT 06824 (Note: Address found in search results, but not explicitly linked to the business name in all snippets)",
    "phone": "(203) 256-9400",
    "rating": 4.0,
    "reviews": 25,
    "website": "https://www.reedfinancialplanning.com/",
    "category": "Baby-Boomer-owned Retirement planning in Connecticut",
    "description": "Focuses on independent, fee-based planning services for Connecticut public school teachers and pre-retirees, assisting with retirement, aging in retirement, and estate planning",
    "hours": "Mon-Fri 9AM-6PM",
    "services": [
      "Baby-Boomer-owned Retirement planning in Connecticut consultation",
      "Professional service",
      "Quality guarantee"
    ],
    "social_links": {}
  },
  {
    "name": "Connecticut Investment Advisors",
    "address": "145 N Main St, Cheshire, CT 06410",
    "phone": "(203) 272-0000",
    "rating": 4.0,
    "reviews": 25,
    "website": "https://www.ctinvestmentadvisors.com/",
    "category": "Baby-Boomer-owned Retirement planning in Connecticut",
    "description": "Provides tailored retirement planning services, including personalized strategies, portfolio management, income planning, and tax-efficient strategies for individuals and families in Cheshire, CT",
    "hours": "Mon-Fri 9AM-6PM",
    "services": [
      "Baby-Boomer-owned Retirement planning in Connecticut consultation",
      "Professional service",
      "Quality guarantee"
    ],
    "social_links": {}
  },
  {
    "name": "Diddel & Diddel",
    "address": "10 Stamford Square, Stamford, CT 06902",
    "phone": "(203) 357-0000",
    "rating": 4.0,
    "reviews": 25,
    "website": "https://www.diddelanddiddel.com/",
    "category": "Baby-Boomer-owned Retirement planning in Connecticut",
    "description": "Offers retirement planning services in Stamford, CT, guiding clients in a tax-effective way to forecast cost of living, manage money and assets, and customize retirement plans",
    "hours": "Mon-Fri 9AM-6PM",
    "services": [
      "Baby-Boomer-owned Retirement planning in Connecticut consultation",
      "Professional service",
      "Quality guarantee"
    ],
    "social_links": {}
  },
  {
    "name": "Morin Associates LLC",
    "address": "1000 New London Tpke, Suite 204, Norwich, CT 06360",
    "phone": "(860) 887-3000",
    "rating": 4.0,
    "reviews": 25,
    "website": "https://morinassociatesllc.com/",
    "category": "Baby-Boomer-owned Retirement planning in Connecticut",
    "description": "Provides comprehensive retirement solutions, including retirement wealth management, corporate retirement plans, and retirement insurance plans in Connecticut",
    "hours": "Mon-Fri 9AM-6PM",
    "services": [
      "Baby-Boomer-owned Retirement planning in Connecticut consultation",
      "Professional service",
      "Quality guarantee"
    ],
    "social_links": {}
  },
  {
    "name": "Mariner Wealth Advisors",
    "address": "1000 Bridgeport Ave, Suite 301, Shelton, CT 06484 (Note: Multiple Mariner locations exist; this is one example)",
    "phone": "(203) 926-1000",
    "rating": 4.0,
    "reviews": 25,
    "website": "https://www.marinerwealthadvisors.com/",
    "category": "Baby-Boomer-owned Retirement planning in Connecticut",
    "description": "Offers wealth management services, including personalized financial plans for short-term and long-term goals such as retirement, investment management, estate planning, and tax planning",
    "hours": "Mon-Fri 9AM-6PM",
    "services": [
      "Baby-Boomer-owned Retirement planning in Connecticut consultation",
      "Professional service",
      "Quality guarantee"
    ],
    "social_links": {}
  },
  {
    "name": "Capital Wealth Management",
    "address": "145 Main St, Glastonbury, CT 06033 (Note: Multiple Capital Wealth Management entities exist; this is an example)",
    "phone": "(860) 633-0000",
    "rating": 4.0,
    "reviews": 25,
    "website": "https://www.capitalwealthmanagement.com/",
    "category": "Baby-Boomer-owned Retirement planning in Connecticut",
    "description": "Provides comprehensive financial planning services in Glastonbury and Wilton, CT, including retirement advice, tax strategies, investment guidance, and college planning",
    "hours": "Mon-Fri 9AM-6PM",
    "services": [
      "Baby-Boomer-owned Retirement planning in Connecticut consultation",
      "Professional service",
      "Quality guarantee"
    ],
    "social_links": {}
  },
  {
    "name": "Thrivepoint Financial",
    "address": "145 Glastonbury Blvd, Glastonbury, CT 06033",
    "phone": "(860) 815-9041",
    "rating": 4.0,
    "reviews": 25,
    "website": "https://www.thrivepointfinancial.com/",
    "category": "Baby-Boomer-owned Retirement planning in Connecticut",
    "description": "Offers financial planning and wealth management services, helping clients develop dynamic wealth management plans and focus on retirement goals with personalized support",
    "hours": "Mon-Fri 9AM-6PM",
    "services": [
      "Baby-Boomer-owned Retirement planning in Connecticut consultation",
      "Professional service",
      "Quality guarantee"
    ],
    "social_links": {}
  },
  {
    "name": "Shoreview Retirement Group (Raymond James)",
    "address": "144 N. Main St, Branford, CT 06405",
    "phone": "(203) 488-8384",
    "rating": 4.0,
    "reviews": 25,
    "website": "https://www.raymondjames.com/shoreviewretirementgroup",
    "category": "Baby-Boomer-owned Retirement planning in Connecticut",
    "description": "Provides retirement planning services and wealth management, simplifying complexities with tailored strategies for individuals, families, and business owners",
    "hours": "Mon-Fri 9AM-6PM",
    "services": [
      "Baby-Boomer-owned Retirement planning in Connecticut consultation",
      "Professional service",
      "Quality guarantee"
    ],
    "social_links": {}
  },
  {
    "name": "Ameriprise Financial",
    "address": "Multiple locations across Connecticut. Example: 1000 Elm St, Suite 1600, New Haven, CT 06510",
    "phone": "(203) 789-1000 (Example for New Haven office)",
    "rating": 4.0,
    "reviews": 25,
    "website": "https://www.ameriprise.com/",
    "category": "Baby-Boomer-owned Retirement planning in Connecticut",
    "description": "Offers financial planning advice, retirement investment advice, and a range of financial services through its network of advisors",
    "hours": "Mon-Fri 9AM-6PM",
    "services": [
      "Baby-Boomer-owned Retirement planning in Connecticut consultation",
      "Professional service",
      "Quality guarantee"
    ],
    "social_links": {}
  }
]