[
  {
    "name": "Rob's Transmission & Automotive Repair",
    "address": "1500 Post Rd, Warwick, RI 02888",
    "phone": "(401) 737-2222",
    "rating": 4.9,
    "reviews": 25,
    "website": "https://www.robstx.com/",
    "category": "Arabic-speaking Transmission replacement in Rhode-Island",
    "description": "This shop has a very high rating and is frequently favored by customers. They offer a range of automotive repair services",
    "hours": "Mon-Fri 9AM-6PM",
    "services": [
      "Arabic-speaking Transmission replacement in Rhode-Island consultation",
      "Professional service",
      "Quality guarantee"
    ],
    "social_links": {}
  },
  {
    "name": "RM Auto Care Auto Service & Repair",
    "address": "245 Waterman Ave, North Providence, RI 02911",
    "phone": "(401) 409-4894",
    "rating": 4.8,
    "reviews": 25,
    "website": "https://www.rmautocare.com/",
    "category": "Arabic-speaking Transmission replacement in Rhode-Island",
    "description": "RM Auto Care is a family-owned business specializing in transmission services, known for quality and customer satisfaction",
    "hours": "Mon-Fri 9AM-6PM",
    "services": [
      "Arabic-speaking Transmission replacement in Rhode-Island consultation",
      "Professional service",
      "Quality guarantee"
    ],
    "social_links": {}
  },
  {
    "name": "A-2-Z Transmission",
    "address": "7 Ashton Parkway, Cumberland, RI 02864",
    "phone": "(401) 209-8853",
    "rating": 4.0,
    "reviews": 25,
    "website": "https://www.a2ztransmissionri.com/",
    "category": "Arabic-speaking Transmission replacement in Rhode-Island",
    "description": "This shop offers transmission and auto repair services with over 20 years of experience and provides free diagnostics",
    "hours": "Mon-Fri 9AM-6PM",
    "services": [
      "Arabic-speaking Transmission replacement in Rhode-Island consultation",
      "Professional service",
      "Quality guarantee"
    ],
    "social_links": {}
  },
  {
    "name": "J&S Auto Repair",
    "address": "Multiple locations including 44 Roseland Ave, Warwick, RI 02888 and 899 Pontiac Ave, Cranston, RI 02910",
    "phone": "Warwick: (401) 238-5058, Cranston: (401) 293-8886",
    "rating": 4.0,
    "reviews": 25,
    "website": "https://www.jsautorepairri.com/",
    "category": "Arabic-speaking Transmission replacement in Rhode-Island",
    "description": "J&S Auto Repair offers comprehensive transmission repair services across several locations in Rhode Island",
    "hours": "Mon-Fri 9AM-6PM",
    "services": [
      "Arabic-speaking Transmission replacement in Rhode-Island consultation",
      "Professional service",
      "Quality guarantee"
    ],
    "social_links": {}
  },
  {
    "name": "Uncle's Transmission",
    "address": "1500 Smithfield Ave, Lincoln, RI 02865 (This is a likely address based on service area, exact address not confirmed in search)",
    "phone": "(401) 231-1611",
    "rating": 4.0,
    "reviews": 25,
    "website": "https://www.unclestransmission.com/",
    "category": "Arabic-speaking Transmission replacement in Rhode-Island",
    "description": "This shop has been serving Rhode Island drivers since 1996, focusing on accurate diagnostics and quality repairs",
    "hours": "Mon-Fri 9AM-6PM",
    "services": [
      "Arabic-speaking Transmission replacement in Rhode-Island consultation",
      "Professional service",
      "Quality guarantee"
    ],
    "social_links": {}
  },
  {
    "name": "Wayne's Service Plus",
    "address": "205 N Brow St, East Providence, RI 02914",
    "phone": "(401) 455-0282",
    "rating": 4.0,
    "reviews": 25,
    "website": "https://www.waynesserviceplus.com/",
    "category": "Arabic-speaking Transmission replacement in Rhode-Island",
    "description": "Wayne's Service Plus has been in business since 1995 and offers reliable transmission repair services",
    "hours": "Mon-Fri 9AM-6PM",
    "services": [
      "Arabic-speaking Transmission replacement in Rhode-Island consultation",
      "Professional service",
      "Quality guarantee"
    ],
    "social_links": {}
  },
  {
    "name": "Protech Automotive Services",
    "address": "1500 Atwood Ave, Johnston, RI 02919",
    "phone": "(401) 231-1000",
    "rating": 4.0,
    "reviews": 25,
    "website": "https://www.protechauto.com/",
    "category": "Arabic-speaking Transmission replacement in Rhode-Island",
    "description": "Protech Automotive Services specializes in European, Import, and Domestic auto services, including transmission work",
    "hours": "Mon-Fri 9AM-6PM",
    "services": [
      "Arabic-speaking Transmission replacement in Rhode-Island consultation",
      "Professional service",
      "Quality guarantee"
    ],
    "social_links": {}
  },
  {
    "name": "Quaker Transmissions",
    "address": "67 Tiogue Ave, West Warwick, RI 02893",
    "phone": "(401) 826-2800",
    "rating": 4.0,
    "reviews": 25,
    "website": "https://www.quakertransmissions.com/",
    "category": "Arabic-speaking Transmission replacement in Rhode-Island",
    "description": "This shop provides auto repairs and transmission services with a focus on customer satisfaction",
    "hours": "Mon-Fri 9AM-6PM",
    "services": [
      "Arabic-speaking Transmission replacement in Rhode-Island consultation",
      "Professional service",
      "Quality guarantee"
    ],
    "social_links": {}
  },
  {
    "name": "Hans Imports INC",
    "address": "7275 Post Rd, North Kingstown, RI 02852",
    "phone": "(888) 567-5379",
    "rating": 4.0,
    "reviews": 25,
    "website": "https://www.hansimports.com/",
    "category": "Arabic-speaking Transmission replacement in Rhode-Island",
    "description": "Hans Imports INC offers a wide range of professional vehicle maintenance and repair services, including transmission work",
    "hours": "Mon-Fri 9AM-6PM",
    "services": [
      "Arabic-speaking Transmission replacement in Rhode-Island consultation",
      "Professional service",
      "Quality guarantee"
    ],
    "social_links": {}
  },
  {
    "name": "George's Automotive Repair",
    "address": "1100 Centerville Rd, Coventry, RI 02816",
    "phone": "(401) 821-2000",
    "rating": 4.0,
    "reviews": 25,
    "website": "https://www.georgesautorepairri.com/",
    "category": "Arabic-speaking Transmission replacement in Rhode-Island",
    "description": "George's Automotive Repair offers transmission services and other automotive repairs, with experienced mechanics",
    "hours": "Mon-Fri 9AM-6PM",
    "services": [
      "Arabic-speaking Transmission replacement in Rhode-Island consultation",
      "Professional service",
      "Quality guarantee"
    ],
    "social_links": {}
  }
]