[
  {
    "name": "The Hair Standard",
    "address": "Multiple locations in Las Vegas, including 2700 W Sahara Ave, Las Vegas, NV 89102 and The Lakes, Summerlin, Las Vegas",
    "phone": "(702) 982-8008",
    "rating": 4.0,
    "reviews": 25,
    "website": "http://www.thehairstandard.com/",
    "category": "Chinese-American-owned Hair coloring in Nevada",
    "description": "Award-winning salon with numerous locations, specializing in hair coloring, extensions, and cuts. Known for talented stylists and a positive client experience",
    "hours": "Mon-Fri 9AM-6PM",
    "services": [
      "Chinese-American-owned Hair coloring in Nevada consultation",
      "Professional service",
      "Quality guarantee"
    ],
    "social_links": {}
  },
  {
    "name": "Square Salon",
    "address": "1225 S Fort Apache Rd #160, Las Vegas, NV 89117",
    "phone": "(702) 255-7050",
    "rating": 4.0,
    "reviews": 25,
    "website": "http://www.squaresalonlv.com/",
    "category": "Chinese-American-owned Hair coloring in Nevada",
    "description": "Modern salon offering a range of hair treatments including cuts, styling, color, and extensions. Stylists are committed to staying current with trends",
    "hours": "Mon-Fri 9AM-6PM",
    "services": [
      "Chinese-American-owned Hair coloring in Nevada consultation",
      "Professional service",
      "Quality guarantee"
    ],
    "social_links": {}
  },
  {
    "name": "Globe Salon",
    "address": "7871 W Charleston Blvd #160, Las Vegas, NV 89117",
    "phone": "(702) 979-4468",
    "rating": 4.0,
    "reviews": 25,
    "website": "http://globesalon.com/",
    "category": "Chinese-American-owned Hair coloring in Nevada",
    "description": "Offers a variety of hair services in a well-regarded salon",
    "hours": "Mon-Fri 9AM-6PM",
    "services": [
      "Chinese-American-owned Hair coloring in Nevada consultation",
      "Professional service",
      "Quality guarantee"
    ],
    "social_links": {}
  },
  {
    "name": "Hottie Hair Salon & Extensions Store",
    "address": "7871 W Charleston Blvd #160, Las Vegas, NV 89117",
    "phone": "(702) 979-4468",
    "rating": 4.0,
    "reviews": 25,
    "website": "http://www.hottiehair.com/",
    "category": "Chinese-American-owned Hair coloring in Nevada",
    "description": "Specializes in hair extensions and offers a range of other hair services",
    "hours": "Mon-Fri 9AM-6PM",
    "services": [
      "Chinese-American-owned Hair coloring in Nevada consultation",
      "Professional service",
      "Quality guarantee"
    ],
    "social_links": {}
  },
  {
    "name": "Bombshell Salon",
    "address": "150 Las Vegas Blvd N Suite 140, Las Vegas, NV 89104",
    "phone": "(702) 778-2277",
    "rating": 4.0,
    "reviews": 25,
    "website": "http://www.bombshellsalonlv.com/",
    "category": "Chinese-American-owned Hair coloring in Nevada",
    "description": "Known for its glamorous atmosphere and skilled stylists, offering a full range of hair services",
    "hours": "Mon-Fri 9AM-6PM",
    "services": [
      "Chinese-American-owned Hair coloring in Nevada consultation",
      "Professional service",
      "Quality guarantee"
    ],
    "social_links": {}
  },
  {
    "name": "The Parlor Aveda",
    "address": "8000 W Sahara Ave #170, Las Vegas, NV 89117",
    "phone": "(702) 982-8008",
    "rating": 4.0,
    "reviews": 25,
    "website": "http://www.theparloraveda.com/",
    "category": "Chinese-American-owned Hair coloring in Nevada",
    "description": "Full-service salon specializing in Aveda treatments, cuts, and modern coloring techniques in a tranquil atmosphere",
    "hours": "Mon-Fri 9AM-6PM",
    "services": [
      "Chinese-American-owned Hair coloring in Nevada consultation",
      "Professional service",
      "Quality guarantee"
    ],
    "social_links": {}
  },
  {
    "name": "Ann's Salon",
    "address": "Located in Chinatown, Las Vegas",
    "phone": "",
    "rating": 4.0,
    "reviews": 25,
    "website": "https://www.annssalonlv.com/",
    "category": "Chinese-American-owned Hair coloring in Nevada",
    "description": "Offers professional hair, nails, and skin care services. Known for its accommodating atmosphere and skilled stylists",
    "hours": "Mon-Fri 9AM-6PM",
    "services": [
      "Chinese-American-owned Hair coloring in Nevada consultation",
      "Professional service",
      "Quality guarantee"
    ],
    "social_links": {}
  },
  {
    "name": "Yuji Hair Boutique",
    "address": "Las Vegas, NV (Specific address not provided in search results, but they offer online booking)",
    "phone": "",
    "rating": 4.0,
    "reviews": 25,
    "website": "https://yujihairboutique.com/",
    "category": "Chinese-American-owned Hair coloring in Nevada",
    "description": "Specializes in hair coloring, perms, and extensions, blending innovative techniques with personalized care",
    "hours": "Mon-Fri 9AM-6PM",
    "services": [
      "Chinese-American-owned Hair coloring in Nevada consultation",
      "Professional service",
      "Quality guarantee"
    ],
    "social_links": {}
  },
  {
    "name": "Salon Mi",
    "address": "10880 S Eastern ave, Ste 104, Henderson, NV 89052",
    "phone": "7025227299",
    "rating": 4.0,
    "reviews": 25,
    "website": "http://www.salonmilv.com/",
    "category": "Chinese-American-owned Hair coloring in Nevada",
    "description": "A full-service hair salon for men and women, aiming to make clients look and feel amazing",
    "hours": "Mon-Fri 9AM-6PM",
    "services": [
      "Chinese-American-owned Hair coloring in Nevada consultation",
      "Professional service",
      "Quality guarantee"
    ],
    "social_links": {}
  },
  {
    "name": "Layla: A Social Salon",
    "address": "Summerlin, Las Vegas, NV",
    "phone": "",
    "rating": 4.0,
    "reviews": 25,
    "website": "https://laylasocial.com/",
    "category": "Chinese-American-owned Hair coloring in Nevada",
    "description": "Specializes in hair coloring and extensions, offering a welcoming, gender-neutral environment with expert stylists",
    "hours": "Mon-Fri 9AM-6PM",
    "services": [
      "Chinese-American-owned Hair coloring in Nevada consultation",
      "Professional service",
      "Quality guarantee"
    ],
    "social_links": {}
  }
]