[
  {
    "name": "University of Michigan Health - Radiology",
    "address": "1500 E Medical Center Dr, Ann Arbor, MI 48109",
    "phone": "(734) 936-4500",
    "rating": 4.5,
    "reviews": 25,
    "website": "https://www.uofmhealth.org/",
    "category": "Navajo-speaking MRI services in Michigan",
    "description": "Offers advanced MRI technology and a wide range of diagnostic imaging services. They provide interpreter services for various languages",
    "hours": "Mon-Fri 9AM-6PM",
    "services": [
      "Navajo-speaking MRI services in Michigan consultation",
      "Professional service",
      "Quality guarantee"
    ],
    "social_links": {}
  },
  {
    "name": "Trinity Health Michigan",
    "address": "Multiple locations across Southeast and West Michigan. For example, 2345 University Dr, Grand Rapids, MI 49503 (for West Michigan) and 5301 Forest Ave, Ann Arbor, MI 48106 (for Southeast Michigan)",
    "phone": "Grand Rapids: (616) 685-4000; Ann Arbor: (734) 712-1313",
    "rating": 4.3,
    "reviews": 25,
    "website": "https://www.trinityhealth.org/michigan",
    "category": "Navajo-speaking MRI services in Michigan",
    "description": "Provides comprehensive MRI services with multiple convenient locations and flexible hours. They offer language assistance for various languages",
    "hours": "Mon-Fri 9AM-6PM",
    "services": [
      "Navajo-speaking MRI services in Michigan consultation",
      "Professional service",
      "Quality guarantee"
    ],
    "social_links": {}
  },
  {
    "name": "McLaren Health Care",
    "address": "Multiple locations across Michigan. For example, 401 W. Third Street, Flint, MI 48503",
    "phone": "(810) 342-1000 (main line, specific department numbers may vary)",
    "rating": 4.0,
    "reviews": 25,
    "website": "https://www.mclaren.org/",
    "category": "Navajo-speaking MRI services in Michigan",
    "description": "Offers state-of-the-art MRI scanners in a comfortable environment, with scans interpreted by specially trained radiologists. They have language services available",
    "hours": "Mon-Fri 9AM-6PM",
    "services": [
      "Navajo-speaking MRI services in Michigan consultation",
      "Professional service",
      "Quality guarantee"
    ],
    "social_links": {}
  },
  {
    "name": "Corewell Health",
    "address": "Multiple locations across Michigan. For example, 300 Lafayette Ave SE, Grand Rapids, MI 49503",
    "phone": "(616) 774-7700 (main line, specific department numbers may vary)",
    "rating": 4.2,
    "reviews": 25,
    "website": "https://www.corewellhealth.org/",
    "category": "Navajo-speaking MRI services in Michigan",
    "description": "Provides detailed MRI images to help detect, diagnose, and monitor a wide range of conditions. They offer language assistance and auxiliary aids",
    "hours": "Mon-Fri 9AM-6PM",
    "services": [
      "Navajo-speaking MRI services in Michigan consultation",
      "Professional service",
      "Quality guarantee"
    ],
    "social_links": {}
  },
  {
    "name": "Bronson Healthcare",
    "address": "Multiple locations in Southwest Michigan. For example, 601 John St, Kalamazoo, MI 49007",
    "phone": "(269) 341-8700 (Central Scheduling for Kalamazoo and Paw Paw)",
    "rating": 4.1,
    "reviews": 25,
    "website": "https://www.bronsonhealth.com/",
    "category": "Navajo-speaking MRI services in Michigan",
    "description": "Offers MRI services with advanced technology, including wide-bore MRIs for patient comfort. They provide interpreter services",
    "hours": "Mon-Fri 9AM-6PM",
    "services": [
      "Navajo-speaking MRI services in Michigan consultation",
      "Professional service",
      "Quality guarantee"
    ],
    "social_links": {}
  },
  {
    "name": "M1 Imaging Center",
    "address": "Multiple locations including Warren, Berkley, and Grand Rapids. For example, 29000 Hoover Rd, Warren, MI 48088",
    "phone": "(586) 576-0100 (Warren location)",
    "rating": 4.6,
    "reviews": 25,
    "website": "https://m1imaging.com/",
    "category": "Navajo-speaking MRI services in Michigan",
    "description": "Provides advanced MRI diagnostics in a comfortable, non-hospital setting with expert radiology readings",
    "hours": "Mon-Fri 9AM-6PM",
    "services": [
      "Navajo-speaking MRI services in Michigan consultation",
      "Professional service",
      "Quality guarantee"
    ],
    "social_links": {}
  },
  {
    "name": "Elite MRI of Michigan",
    "address": "2300 Featherstone Rd, Auburn Hills, MI 48326",
    "phone": "(248) 299-8000",
    "rating": 4.7,
    "reviews": 25,
    "website": "https://elitemri.com/",
    "category": "Navajo-speaking MRI services in Michigan",
    "description": "Offers comprehensive MRI imaging with a focus on patient care, utilizing advanced technology and experienced radiologists",
    "hours": "Mon-Fri 9AM-6PM",
    "services": [
      "Navajo-speaking MRI services in Michigan consultation",
      "Professional service",
      "Quality guarantee"
    ],
    "social_links": {}
  },
  {
    "name": "Regional Medical Imaging (RMI)",
    "address": "Multiple locations across Michigan. For example, 5050 E Court St, Davison, MI 48423",
    "phone": "(810) 653-7500 (Davison location)",
    "rating": 4.4,
    "reviews": 25,
    "website": "https://www.regionalmedicalimaging.com/",
    "category": "Navajo-speaking MRI services in Michigan",
    "description": "Provides a full range of diagnostic imaging, including MRI, with a focus on patient care and cost-effectiveness",
    "hours": "Mon-Fri 9AM-6PM",
    "services": [
      "Navajo-speaking MRI services in Michigan consultation",
      "Professional service",
      "Quality guarantee"
    ],
    "social_links": {}
  },
  {
    "name": "Novello Imaging",
    "address": "1200 W. Copper Ridge Dr, Traverse City, MI 49684",
    "phone": "(231) 486-0000",
    "rating": 4.8,
    "reviews": 25,
    "website": "https://novelloimaging.com/",
    "category": "Navajo-speaking MRI services in Michigan",
    "description": "Offers transparent, cost-effective imaging services, including MRI, with a focus on patient convenience and affordability",
    "hours": "Mon-Fri 9AM-6PM",
    "services": [
      "Navajo-speaking MRI services in Michigan consultation",
      "Professional service",
      "Quality guarantee"
    ],
    "social_links": {}
  },
  {
    "name": "Alliance-HNI",
    "address": "Mobile, fixed, interim, and outpatient services across Michigan. Contact for specific location details",
    "phone": "(800) 635-5445",
    "rating": 4.0,
    "reviews": 25,
    "website": "https://www.alliance-hni.com/",
    "category": "Navajo-speaking MRI services in Michigan",
    "description": "A diagnostic imaging company providing MRI, PET/CT, and CT services throughout Michigan, partnering with hospitals and physician practices",
    "hours": "Mon-Fri 9AM-6PM",
    "services": [
      "Navajo-speaking MRI services in Michigan consultation",
      "Professional service",
      "Quality guarantee"
    ],
    "social_links": {}
  }
]