[
  {
    "name": "Boomer Nashua",
    "address": "419 Amherst St, Nashua, NH 03060",
    "phone": "(603) 889-9799",
    "rating": 4.7,
    "reviews": 25,
    "website": "https://www.boomermcloud.com/",
    "category": "Baby-Boomer-owned Car audio installation in New-Hampshire",
    "description": "Specializes in custom car audio installations, fabrication, and a wide range of automotive accessories, including remote starters and window tinting",
    "hours": "Mon-Fri 9AM-6PM",
    "services": [
      "Baby-Boomer-owned Car audio installation in New-Hampshire consultation",
      "Professional service",
      "Quality guarantee"
    ],
    "social_links": {}
  },
  {
    "name": "Traffic Jamz",
    "address": "1242 Hooksett Rd, Hooksett, NH 03106",
    "phone": "(603) 669-5269",
    "rating": 4.8,
    "reviews": 25,
    "website": "https://trafficjamz.com/",
    "category": "Baby-Boomer-owned Car audio installation in New-Hampshire",
    "description": "Offers custom car audio, remote starter installation, window tinting, and other mobile electronic services with over two decades of experience",
    "hours": "Mon-Fri 9AM-6PM",
    "services": [
      "Baby-Boomer-owned Car audio installation in New-Hampshire consultation",
      "Professional service",
      "Quality guarantee"
    ],
    "social_links": {}
  },
  {
    "name": "Car Tunes Etc.",
    "address": "2 Laconia Ave, Derry, NH 03038",
    "phone": "(603) 425-1900",
    "rating": 4.8,
    "reviews": 25,
    "website": "https://www.cartunesetc.com/",
    "category": "Baby-Boomer-owned Car audio installation in New-Hampshire",
    "description": "A family-owned business since 1998, specializing in car audio, navigation, security, and custom installations for various vehicles, including watercraft and RVs. They are an Alpine Flagship Retail Specialist",
    "hours": "Mon-Fri 9AM-6PM",
    "services": [
      "Baby-Boomer-owned Car audio installation in New-Hampshire consultation",
      "Professional service",
      "Quality guarantee"
    ],
    "social_links": {}
  },
  {
    "name": "Speed Of Sound",
    "address": "119 Daniel Webster Hwy, Meredith, NH 03253",
    "phone": "(603) 279-2422",
    "rating": 4.9,
    "reviews": 25,
    "website": "https://www.speedofsoundnh.com/",
    "category": "Baby-Boomer-owned Car audio installation in New-Hampshire",
    "description": "Provides expert car audio system modifications, remote starter installations, and other electronic upgrades with a focus on knowledgeable staff and quality products",
    "hours": "Mon-Fri 9AM-6PM",
    "services": [
      "Baby-Boomer-owned Car audio installation in New-Hampshire consultation",
      "Professional service",
      "Quality guarantee"
    ],
    "social_links": {}
  },
  {
    "name": "Tint World\u00ae Salem",
    "address": "154 S Broadway, Salem, NH 03079",
    "phone": "(603) 328-5158",
    "rating": 4.5,
    "reviews": 25,
    "website": "https://www.tintworld.com/locations/salem-nh/",
    "category": "Baby-Boomer-owned Car audio installation in New-Hampshire",
    "description": "Offers a wide range of automotive audio and video installation services, including stereos, speakers, amplifiers, and DVD players",
    "hours": "Mon-Fri 9AM-6PM",
    "services": [
      "Baby-Boomer-owned Car audio installation in New-Hampshire consultation",
      "Professional service",
      "Quality guarantee"
    ],
    "social_links": {}
  },
  {
    "name": "Capital Car Audio",
    "address": "744 1st NH Turnpike, Epsom, NH 03234",
    "phone": "(603) 736-9000",
    "rating": 4.7,
    "reviews": 25,
    "website": "https://www.capitalcaraudio.com/",
    "category": "Baby-Boomer-owned Car audio installation in New-Hampshire",
    "description": "Specializes in car audio, Apple CarPlay, Android Auto, speakers, and installation services",
    "hours": "Mon-Fri 9AM-6PM",
    "services": [
      "Baby-Boomer-owned Car audio installation in New-Hampshire consultation",
      "Professional service",
      "Quality guarantee"
    ],
    "social_links": {}
  },
  {
    "name": "Granite State Audio LLC",
    "address": "197 Loudon Rd, Concord, NH 03301",
    "phone": "(603) 210-1000",
    "rating": 4.9,
    "reviews": 25,
    "website": "https://www.granitestateaudio.com/",
    "category": "Baby-Boomer-owned Car audio installation in New-Hampshire",
    "description": "A professional one-stop shop for car, marine, and home audio, video, and security systems, catering to a wide range of vehicles and properties",
    "hours": "Mon-Fri 9AM-6PM",
    "services": [
      "Baby-Boomer-owned Car audio installation in New-Hampshire consultation",
      "Professional service",
      "Quality guarantee"
    ],
    "social_links": {}
  },
  {
    "name": "Vanworks Car Audio",
    "address": "29 Gilford East Dr, Gilford, NH 03249",
    "phone": "(603) 524-4700",
    "rating": 4.6,
    "reviews": 25,
    "website": "https://www.vanworksnhi.com/",
    "category": "Baby-Boomer-owned Car audio installation in New-Hampshire",
    "description": "Provides services including remote starters, marine audio, boat audio upgrades, backup cameras, amplifiers, subwoofers, and LED lighting",
    "hours": "Mon-Fri 9AM-6PM",
    "services": [
      "Baby-Boomer-owned Car audio installation in New-Hampshire consultation",
      "Professional service",
      "Quality guarantee"
    ],
    "social_links": {}
  },
  {
    "name": "Mobile Car Pro",
    "address": "1000 Elm St, Manchester, NH 03101 (This is a general area; specific shop address may vary)",
    "phone": "(855) 742-7677",
    "rating": 4.7,
    "reviews": 25,
    "website": "https://mobilecarpro.com/",
    "category": "Baby-Boomer-owned Car audio installation in New-Hampshire",
    "description": "Offers expert mobile car stereo installation solutions, including Bluetooth integration, navigation, and high-definition sound systems, with locations in NH and MA",
    "hours": "Mon-Fri 9AM-6PM",
    "services": [
      "Baby-Boomer-owned Car audio installation in New-Hampshire consultation",
      "Professional service",
      "Quality guarantee"
    ],
    "social_links": {}
  },
  {
    "name": "ProSound NH",
    "address": "369 S Broadway, Salem, NH 03079",
    "phone": "(603) 890-3200",
    "rating": 4.8,
    "reviews": 25,
    "website": "https://www.prosound-nh.com/",
    "category": "Baby-Boomer-owned Car audio installation in New-Hampshire",
    "description": "Provides car audio services, gallery of work, and financing options, open Tuesday through Saturday",
    "hours": "Mon-Fri 9AM-6PM",
    "services": [
      "Baby-Boomer-owned Car audio installation in New-Hampshire consultation",
      "Professional service",
      "Quality guarantee"
    ],
    "social_links": {}
  }
]