[
  {
    "name": "Minnesota Detailing",
    "address": "Burnsville, MN (Mobile services available)",
    "phone": "(612) 444-1492",
    "rating": 4.0,
    "reviews": 25,
    "website": "https://www.minnesotadetailing.com/",
    "category": "Black-owned Paint protection film in Minnesota",
    "description": "Offers professional auto detailing, ceramic coatings, and paint protection services. They are a Black-owned business that provides mobile appointments",
    "hours": "Mon-Fri 9AM-6PM",
    "services": [
      "Black-owned Paint protection film in Minnesota consultation",
      "Professional service",
      "Quality guarantee"
    ],
    "social_links": {}
  },
  {
    "name": "Black Diamond Tinting",
    "address": "Little Canada, MN",
    "phone": "(651) 356-2720",
    "rating": 4.0,
    "reviews": 25,
    "website": "https://www.blackdiamondtinting.com/",
    "category": "Black-owned Paint protection film in Minnesota",
    "description": "Specializes in paint protection film (PPF) installation to protect vehicles from road debris and harsh elements. They serve the greater Twin Cities area",
    "hours": "Mon-Fri 9AM-6PM",
    "services": [
      "Black-owned Paint protection film in Minnesota consultation",
      "Professional service",
      "Quality guarantee"
    ],
    "social_links": {}
  },
  {
    "name": "Glisten Clear Bra",
    "address": "Minneapolis, MN",
    "phone": "(952) 288-5256",
    "rating": 4.0,
    "reviews": 25,
    "website": "https://www.glistenclearbra.com/",
    "category": "Black-owned Paint protection film in Minnesota",
    "description": "Installs ceramic coatings, paint protection film, and offers paint correction services",
    "hours": "Mon-Fri 9AM-6PM",
    "services": [
      "Black-owned Paint protection film in Minnesota consultation",
      "Professional service",
      "Quality guarantee"
    ],
    "social_links": {}
  },
  {
    "name": "Midwest Clear Bra",
    "address": "Minneapolis, MN",
    "phone": "",
    "rating": 4.0,
    "reviews": 25,
    "website": "https://www.midwestclearbra.com/",
    "category": "Black-owned Paint protection film in Minnesota",
    "description": "Experts in XPEL automotive paint protection film, ceramic coatings, and window tinting",
    "hours": "Mon-Fri 9AM-6PM",
    "services": [
      "Black-owned Paint protection film in Minnesota consultation",
      "Professional service",
      "Quality guarantee"
    ],
    "social_links": {}
  },
  {
    "name": "Lifestyle Tint",
    "address": "31310 125th St, Princeton, MN 55371",
    "phone": "(612) 444-1492",
    "rating": 4.0,
    "reviews": 25,
    "website": "https://www.lifestyletint.com/",
    "category": "Black-owned Paint protection film in Minnesota",
    "description": "Offers paint protection films, including Suntek and STEK brands, with various finishes",
    "hours": "Mon-Fri 9AM-6PM",
    "services": [
      "Black-owned Paint protection film in Minnesota consultation",
      "Professional service",
      "Quality guarantee"
    ],
    "social_links": {}
  },
  {
    "name": "Elite Auto Detailing a/k/a The Lite Auto",
    "address": "Information not available",
    "phone": "",
    "rating": 4.0,
    "reviews": 25,
    "website": "https://www.google.com/maps/search/Elite+Auto+Detailing+a/k/a+The+Lite+Auto+in+Minnesota",
    "category": "Black-owned Paint protection film in Minnesota",
    "description": "Provides top-notch auto detailing services",
    "hours": "Mon-Fri 9AM-6PM",
    "services": [
      "Black-owned Paint protection film in Minnesota consultation",
      "Professional service",
      "Quality guarantee"
    ],
    "social_links": {}
  },
  {
    "name": "Wilsons Auto World",
    "address": "1850 New Brighton Boulevard, Minneapolis, MN 55418",
    "phone": "(612) 781-1788",
    "rating": 4.0,
    "reviews": 25,
    "website": "https://www.google.com/maps/search/Wilsons+Auto+World+in+Minnesota",
    "category": "Black-owned Paint protection film in Minnesota",
    "description": "A Black-owned mechanic, auto repair, and body shop that also offers collision repair",
    "hours": "Mon-Fri 9AM-6PM",
    "services": [
      "Black-owned Paint protection film in Minnesota consultation",
      "Professional service",
      "Quality guarantee"
    ],
    "social_links": {}
  },
  {
    "name": "Waamo Auto Body & Towing",
    "address": "817 Vandalia Street, St. Paul, MN 55114",
    "phone": "(651) 756-7886",
    "rating": 4.0,
    "reviews": 25,
    "website": "https://waamoauto.com/",
    "category": "Black-owned Paint protection film in Minnesota",
    "description": "Offers auto repair, body work, and towing services",
    "hours": "Mon-Fri 9AM-6PM",
    "services": [
      "Black-owned Paint protection film in Minnesota consultation",
      "Professional service",
      "Quality guarantee"
    ],
    "social_links": {}
  },
  {
    "name": "MNR Dips",
    "address": "Fredericksburg, Virginia (This business was mentioned in a YouTube video about custom car paint jobs, but is not located in Minnesota.)",
    "phone": "",
    "rating": 4.0,
    "reviews": 25,
    "website": "https://www.mnrdips.com/",
    "category": "Black-owned Paint protection film in Minnesota",
    "description": "Specializes in custom paint jobs using liquid wrap",
    "hours": "Mon-Fri 9AM-6PM",
    "services": [
      "Black-owned Paint protection film in Minnesota consultation",
      "Professional service",
      "Quality guarantee"
    ],
    "social_links": {}
  },
  {
    "name": "Tint World",
    "address": "Lakeville, MN",
    "phone": "(952) 777-4300",
    "rating": 4.0,
    "reviews": 25,
    "website": "https://www.tintworld.com/locations/minnesota/lakeville-120/",
    "category": "Black-owned Paint protection film in Minnesota",
    "description": "Offers paint protection film (PPF) and clear bra services to protect vehicles from scratches and damage",
    "hours": "Mon-Fri 9AM-6PM",
    "services": [
      "Black-owned Paint protection film in Minnesota consultation",
      "Professional service",
      "Quality guarantee"
    ],
    "social_links": {}
  }
]