[
  {
    "name": "Steven N. Klitzner, P.A.",
    "address": "(Not specified in search results, but serves Miami-Dade County)",
    "phone": "(305) 564-9199",
    "rating": 4.0,
    "reviews": 25,
    "website": "https://www.google.com/maps/search/Steven+N.+Klitzner,+P.A.+in+Florida",
    "category": "American-Indian-owned IRS audit representation in Florida",
    "description": "Offers IRS audit representation and tax audit defense",
    "hours": "Mon-Fri 9AM-6PM",
    "services": [
      "American-Indian-owned IRS audit representation in Florida consultation",
      "Professional service",
      "Quality guarantee"
    ],
    "social_links": {}
  },
  {
    "name": "Tampa Pure Tax Relief",
    "address": "(Not specified in search results, but serves the Tampa area)",
    "phone": "(727) 219-1001",
    "rating": 4.0,
    "reviews": 25,
    "website": "https://www.google.com/maps/search/Tampa+Pure+Tax+Relief+in+Florida",
    "category": "American-Indian-owned IRS audit representation in Florida",
    "description": "Provides IRS audit representation and defense for individuals and businesses in the Tampa area",
    "hours": "Mon-Fri 9AM-6PM",
    "services": [
      "American-Indian-owned IRS audit representation in Florida consultation",
      "Professional service",
      "Quality guarantee"
    ],
    "social_links": {}
  },
  {
    "name": "Kian Finance Authority",
    "address": "(Not specified in search results, but serves Florida)",
    "phone": "(954) 399-8980 / (786) 473-2044",
    "rating": 4.0,
    "reviews": 25,
    "website": "https://www.google.com/maps/search/Kian+Finance+Authority+in+Florida",
    "category": "American-Indian-owned IRS audit representation in Florida",
    "description": "Offers comprehensive IRS representation and consultation services, including audit representation",
    "hours": "Mon-Fri 9AM-6PM",
    "services": [
      "American-Indian-owned IRS audit representation in Florida consultation",
      "Professional service",
      "Quality guarantee"
    ],
    "social_links": {}
  },
  {
    "name": "UpFront CPA",
    "address": "13574 Village Park Dr, Suite 255, Orlando, FL 32837",
    "phone": "321-248-4860",
    "rating": 4.0,
    "reviews": 25,
    "website": "https://www.google.com/maps/search/UpFront+CPA+in+Florida",
    "category": "American-Indian-owned IRS audit representation in Florida",
    "description": "Represents Florida businesses during IRS audits, handling communication and working to minimize taxes and penalties",
    "hours": "Mon-Fri 9AM-6PM",
    "services": [
      "American-Indian-owned IRS audit representation in Florida consultation",
      "Professional service",
      "Quality guarantee"
    ],
    "social_links": {}
  },
  {
    "name": "Kramer Weiss and Menahem",
    "address": "Sunrise, FL (Specific address not provided)",
    "phone": "",
    "rating": 4.0,
    "reviews": 25,
    "website": "https://www.google.com/maps/search/Kramer+Weiss+and+Menahem+in+Florida",
    "category": "American-Indian-owned IRS audit representation in Florida",
    "description": "A full-service tax, accounting, and business consulting firm offering IRS audit representation",
    "hours": "Mon-Fri 9AM-6PM",
    "services": [
      "American-Indian-owned IRS audit representation in Florida consultation",
      "Professional service",
      "Quality guarantee"
    ],
    "social_links": {}
  },
  {
    "name": "Sanjay Gupta & Associates, LLC",
    "address": "Plantation, FL (Specific address not provided)",
    "phone": "(954) 727-3777",
    "rating": 4.0,
    "reviews": 25,
    "website": "https://www.google.com/maps/search/Sanjay+Gupta+&+Associates,+LLC+in+Florida",
    "category": "American-Indian-owned IRS audit representation in Florida",
    "description": "An Indian-owned CPA firm offering tax filing and tax audit representation",
    "hours": "Mon-Fri 9AM-6PM",
    "services": [
      "American-Indian-owned IRS audit representation in Florida consultation",
      "Professional service",
      "Quality guarantee"
    ],
    "social_links": {}
  },
  {
    "name": "SNP Tax & Financials",
    "address": "Serving Jacksonville, FL (Specific address not provided)",
    "phone": "609-772-4641",
    "rating": 4.0,
    "reviews": 25,
    "website": "https://www.google.com/maps/search/SNP+Tax+&+Financials+in+Florida",
    "category": "American-Indian-owned IRS audit representation in Florida",
    "description": "Offers financial and taxation services, including IRS representation",
    "hours": "Mon-Fri 9AM-6PM",
    "services": [
      "American-Indian-owned IRS audit representation in Florida consultation",
      "Professional service",
      "Quality guarantee"
    ],
    "social_links": {}
  },
  {
    "name": "Jain Consulting - Vinita Chaudhary CPA",
    "address": "Jacksonville, FL (Specific address not provided)",
    "phone": "973-850-4353",
    "rating": 4.0,
    "reviews": 25,
    "website": "https://www.google.com/maps/search/Jain+Consulting+-+Vinita+Chaudhary+CPA+in+Florida",
    "category": "American-Indian-owned IRS audit representation in Florida",
    "description": "Provides accountant services, potentially including IRS audit representation",
    "hours": "Mon-Fri 9AM-6PM",
    "services": [
      "American-Indian-owned IRS audit representation in Florida consultation",
      "Professional service",
      "Quality guarantee"
    ],
    "social_links": {}
  },
  {
    "name": "GPS Tax Services",
    "address": "Maitland, FL (Specific address not provided)",
    "phone": "(407) 309-0382",
    "rating": 4.0,
    "reviews": 25,
    "website": "https://www.google.com/maps/search/GPS+Tax+Services+in+Florida",
    "category": "American-Indian-owned IRS audit representation in Florida",
    "description": "Offers IRS audit representation and audit defense",
    "hours": "Mon-Fri 9AM-6PM",
    "services": [
      "American-Indian-owned IRS audit representation in Florida consultation",
      "Professional service",
      "Quality guarantee"
    ],
    "social_links": {}
  },
  {
    "name": "Law Offices of Moffa, Sutton, & Donnini, P.A.",
    "address": "Tallahassee Office: 3500 Financial Plaza, Tallahassee, FL 32312; Tampa Office: 8875 Hidden River Parkway",
    "phone": "888-444-9568 (Tallahassee)",
    "rating": 4.0,
    "reviews": 25,
    "website": "https://www.google.com/maps/search/Law+Offices+of+Moffa,+Sutton,+&+Donnini,+P.A.+in+Florida",
    "category": "American-Indian-owned IRS audit representation in Florida",
    "description": "Provides information on Native American tax matters and likely offers related legal representation",
    "hours": "Mon-Fri 9AM-6PM",
    "services": [
      "American-Indian-owned IRS audit representation in Florida consultation",
      "Professional service",
      "Quality guarantee"
    ],
    "social_links": {}
  }
]