[
  {
    "name": "More Than a Move",
    "address": "14225 N 136th St, Scottsdale, AZ 85259",
    "phone": "(480) 717-9111",
    "rating": 5.0,
    "reviews": 25,
    "website": "https://www.morethanamove.com/",
    "category": "Baby-Boomer-owned Move management in Arizona",
    "description": "Specializes in senior move management, offering services from downsizing and decluttering to packing, moving, and unpacking. They aim to make the transition seamless and comfortable for seniors and their families",
    "hours": "Mon-Fri 9AM-6PM",
    "services": [
      "Baby-Boomer-owned Move management in Arizona consultation",
      "Professional service",
      "Quality guarantee"
    ],
    "social_links": {}
  },
  {
    "name": "A Place In Time Relocation Service",
    "address": "7144 E Stetson Dr, Scottsdale, AZ 85251",
    "phone": "(480) 717-9111",
    "rating": 4.9,
    "reviews": 25,
    "website": "https://www.aplaceintime.com/",
    "category": "Baby-Boomer-owned Move management in Arizona",
    "description": "A premier professional organizing and relocation company specializing in senior move management. They coordinate entire moves, including downsizing, decluttering, packing, moving, and unpacking, with a focus on care and compassion",
    "hours": "Mon-Fri 9AM-6PM",
    "services": [
      "Baby-Boomer-owned Move management in Arizona consultation",
      "Professional service",
      "Quality guarantee"
    ],
    "social_links": {}
  },
  {
    "name": "Smooth Transitions Phoenix East Valley",
    "address": "705 W Southern Ave, Mesa, AZ 85210",
    "phone": "(480) 339-0011",
    "rating": 4.8,
    "reviews": 25,
    "website": "https://smoothtransitions.com/",
    "category": "Baby-Boomer-owned Move management in Arizona",
    "description": "Offers senior move management services in the Phoenix Metro area, assisting seniors in relocating to retirement and living communities. They provide customized action plans and handle all details of the move",
    "hours": "Mon-Fri 9AM-6PM",
    "services": [
      "Baby-Boomer-owned Move management in Arizona consultation",
      "Professional service",
      "Quality guarantee"
    ],
    "social_links": {}
  },
  {
    "name": "Mentors Moving & Storage",
    "address": "1640 E. University Dr., Suite 101, Tempe, AZ 85281",
    "phone": "(480) 660-4239",
    "rating": 4.7,
    "reviews": 25,
    "website": "https://mentorsmoving.com/",
    "category": "Baby-Boomer-owned Move management in Arizona",
    "description": "Provides specialized senior moving services in Phoenix, with over fifteen years of experience. They are known for their trained crews and excellent customer reviews",
    "hours": "Mon-Fri 9AM-6PM",
    "services": [
      "Baby-Boomer-owned Move management in Arizona consultation",
      "Professional service",
      "Quality guarantee"
    ],
    "social_links": {}
  },
  {
    "name": "2 Fellas Moving Company",
    "address": "302 W Melinda Ln Suite 7, Phoenix, AZ 85027",
    "phone": "(602) 233-5527",
    "rating": 4.6,
    "reviews": 25,
    "website": "https://2fellasmoving.com/",
    "category": "Baby-Boomer-owned Move management in Arizona",
    "description": "Offers compassionate and reliable senior relocation services in Phoenix, with tailored solutions for downsizing and moving. They emphasize a caring transition for the elderly",
    "hours": "Mon-Fri 9AM-6PM",
    "services": [
      "Baby-Boomer-owned Move management in Arizona consultation",
      "Professional service",
      "Quality guarantee"
    ],
    "social_links": {}
  },
  {
    "name": "Arizona Senior Moving Company LLC",
    "address": "1021 E. Apache Blvd., Tempe, AZ 85281",
    "phone": "(480) 660-4239",
    "rating": 4.5,
    "reviews": 25,
    "website": "https://www.arizonaseniormoving.com/",
    "category": "Baby-Boomer-owned Move management in Arizona",
    "description": "Provides comprehensive senior moving services across Arizona, focusing on a smooth and stress-free transition for seniors. They offer packing, unpacking, and setup services",
    "hours": "Mon-Fri 9AM-6PM",
    "services": [
      "Baby-Boomer-owned Move management in Arizona consultation",
      "Professional service",
      "Quality guarantee"
    ],
    "social_links": {}
  },
  {
    "name": "Rambo 121 Movers",
    "address": "1707 W. Broadway Rd., Suite 101, Mesa, AZ 85202",
    "phone": "(602) 417-0011",
    "rating": 4.9,
    "reviews": 25,
    "website": "https://rambo121.com/",
    "category": "Baby-Boomer-owned Move management in Arizona",
    "description": "Specializes in senior moving services in Arizona, offering full-service support from packing to transport with compassion, patience, and professionalism. They serve the West Valley and greater Phoenix metro area",
    "hours": "Mon-Fri 9AM-6PM",
    "services": [
      "Baby-Boomer-owned Move management in Arizona consultation",
      "Professional service",
      "Quality guarantee"
    ],
    "social_links": {}
  },
  {
    "name": "Copperstate Moving",
    "address": "2520 W. Peoria Ave., Suite 101, Phoenix, AZ 85029",
    "phone": "(602) 570-7171",
    "rating": 4.8,
    "reviews": 25,
    "website": "https://copperstatemoving.com/",
    "category": "Baby-Boomer-owned Move management in Arizona",
    "description": "Offers senior moving services in Phoenix with a focus on genuine care and compassion, ensuring assisted living transitions feel like celebrations. They build extra time into moves for conversations and coordination",
    "hours": "Mon-Fri 9AM-6PM",
    "services": [
      "Baby-Boomer-owned Move management in Arizona consultation",
      "Professional service",
      "Quality guarantee"
    ],
    "social_links": {}
  },
  {
    "name": "Nicolosi Moving & Storage Inc.",
    "address": "2040 W. 10th Pl., Tempe, AZ 85281",
    "phone": "(480) 967-3500",
    "rating": 4.6,
    "reviews": 25,
    "website": "https://nicolosimoving.com/",
    "category": "Baby-Boomer-owned Move management in Arizona",
    "description": "Recognized as a top local mover in Arizona, known for excellent service and fair rates. They offer comprehensive residential moving services, including packing and labor-only options",
    "hours": "Mon-Fri 9AM-6PM",
    "services": [
      "Baby-Boomer-owned Move management in Arizona consultation",
      "Professional service",
      "Quality guarantee"
    ],
    "social_links": {}
  },
  {
    "name": "Creative Moving & Packing LLC",
    "address": "4620 N. 16th St., Suite 100, Phoenix, AZ 85016",
    "phone": "(602) 427-0100",
    "rating": 4.9,
    "reviews": 25,
    "website": "https://creativemovingaz.com/",
    "category": "Baby-Boomer-owned Move management in Arizona",
    "description": "A family-owned, full-service moving company offering residential and commercial services, including packing, storage, crating, and delivery. They have received accolades for professionalism and efficiency",
    "hours": "Mon-Fri 9AM-6PM",
    "services": [
      "Baby-Boomer-owned Move management in Arizona consultation",
      "Professional service",
      "Quality guarantee"
    ],
    "social_links": {}
  }
]