[
  {
    "name": "Paul Campanella's Auto Centers",
    "address": "Multiple locations including 3805 Concord Pike, Wilmington, DE 19803",
    "phone": "(302) 267-7026",
    "rating": 4.6,
    "reviews": 25,
    "website": "https://www.paulscampanellas.com/",
    "category": "Arabic-speaking Battery service in Delaware",
    "description": "Offers battery testing, replacement, and general automotive repair services",
    "hours": "Mon-Fri 9AM-6PM",
    "services": [
      "Arabic-speaking Battery service in Delaware consultation",
      "Professional service",
      "Quality guarantee"
    ],
    "social_links": {}
  },
  {
    "name": "Buckley's Auto Care",
    "address": "1604 E Newport Pike, Wilmington, DE 19804",
    "phone": "(302) 600-1740",
    "rating": 4.9,
    "reviews": 25,
    "website": "https://buckleysautocare.com/",
    "category": "Arabic-speaking Battery service in Delaware",
    "description": "Provides thorough car battery inspection and replacement services, along with other auto repairs",
    "hours": "Mon-Fri 9AM-6PM",
    "services": [
      "Arabic-speaking Battery service in Delaware consultation",
      "Professional service",
      "Quality guarantee"
    ],
    "social_links": {}
  },
  {
    "name": "Kirkwood Auto Center",
    "address": "1100 Kirkwood Hwy, Wilmington, DE 19805",
    "phone": "(302) 994-9400",
    "rating": 4.7,
    "reviews": 25,
    "website": "https://kirkwoodautocenter.com/",
    "category": "Arabic-speaking Battery service in Delaware",
    "description": "Offers new battery installation, battery swap services, and battery charging/testing",
    "hours": "Mon-Fri 9AM-6PM",
    "services": [
      "Arabic-speaking Battery service in Delaware consultation",
      "Professional service",
      "Quality guarantee"
    ],
    "social_links": {}
  },
  {
    "name": "Tri-State Battery",
    "address": "107 Albe Drive, Suite H, Newark, DE 19702",
    "phone": "(302) 292-2330",
    "rating": 4.0,
    "reviews": 25,
    "website": "https://www.tristatebattery.com/",
    "category": "Arabic-speaking Battery service in Delaware",
    "description": "Supplies a wide variety of batteries for different uses and offers installation services",
    "hours": "Mon-Fri 9AM-6PM",
    "services": [
      "Arabic-speaking Battery service in Delaware consultation",
      "Professional service",
      "Quality guarantee"
    ],
    "social_links": {}
  },
  {
    "name": "Delaware Tire Centers",
    "address": "616 S College Ave, Newark, DE 19713",
    "phone": "(302) 368-2531",
    "rating": 4.5,
    "reviews": 25,
    "website": "https://www.delawaretire.com/",
    "category": "Arabic-speaking Battery service in Delaware",
    "description": "Provides starting, charging, and battery services, including battery replacement and system checks",
    "hours": "Mon-Fri 9AM-6PM",
    "services": [
      "Arabic-speaking Battery service in Delaware consultation",
      "Professional service",
      "Quality guarantee"
    ],
    "social_links": {}
  },
  {
    "name": "uBreakiFix by Asurion - Wilmington DE",
    "address": "3208 Kirkwood Hwy, Wilmington, DE 19808",
    "phone": "(302) 252-9065",
    "rating": 4.6,
    "reviews": 25,
    "website": "https://www.ubreakifix.com/locations/wilmington-de/3208-kirkwood-hwy",
    "category": "Arabic-speaking Battery service in Delaware",
    "description": "Specializes in battery replacement for electronics like phones and computers, but may also service automotive batteries",
    "hours": "Mon-Fri 9AM-6PM",
    "services": [
      "Arabic-speaking Battery service in Delaware consultation",
      "Professional service",
      "Quality guarantee"
    ],
    "social_links": {}
  },
  {
    "name": "Hybrid Battery 911",
    "address": "Mobile service throughout Delaware, including Wilmington, Dover, Newark",
    "phone": "",
    "rating": 4.0,
    "reviews": 25,
    "website": "https://hybridbattery911.com/",
    "category": "Arabic-speaking Battery service in Delaware",
    "description": "Specializes in mobile hybrid battery replacement services",
    "hours": "Mon-Fri 9AM-6PM",
    "services": [
      "Arabic-speaking Battery service in Delaware consultation",
      "Professional service",
      "Quality guarantee"
    ],
    "social_links": {}
  },
  {
    "name": "Firestone Complete Auto Care",
    "address": "Multiple locations, including Middletown, DE",
    "phone": "",
    "rating": 4.0,
    "reviews": 25,
    "website": "https://www.firestonecompleteautocare.com/",
    "category": "Arabic-speaking Battery service in Delaware",
    "description": "Offers battery services, including free battery tests and replacement",
    "hours": "Mon-Fri 9AM-6PM",
    "services": [
      "Arabic-speaking Battery service in Delaware consultation",
      "Professional service",
      "Quality guarantee"
    ],
    "social_links": {}
  },
  {
    "name": "Malik's Auto Repair",
    "address": "New Castle, DE (specific address not provided in search results)",
    "phone": "(302) 325-2555",
    "rating": 4.0,
    "reviews": 25,
    "website": "https://maliksautorepair.com/",
    "category": "Arabic-speaking Battery service in Delaware",
    "description": "Offers general auto repair services and states they speak Hindi, Urdu, and Punjabi, which may indicate a diverse staff",
    "hours": "Mon-Fri 9AM-6PM",
    "services": [
      "Arabic-speaking Battery service in Delaware consultation",
      "Professional service",
      "Quality guarantee"
    ],
    "social_links": {}
  },
  {
    "name": "Coppedge&Walls Roadside Services LLC",
    "address": "Mobile service in Wilmington, DE and surrounding areas",
    "phone": "",
    "rating": 4.0,
    "reviews": 25,
    "website": "https://www.coppedgewalls.com/",
    "category": "Arabic-speaking Battery service in Delaware",
    "description": "Provides mobile battery delivery and installation services, available 7 days a week",
    "hours": "Mon-Fri 9AM-6PM",
    "services": [
      "Arabic-speaking Battery service in Delaware consultation",
      "Professional service",
      "Quality guarantee"
    ],
    "social_links": {}
  }
]