[
  {
    "name": "Manhattan Mini Storage",
    "address": "260 Spring Street, New York, NY 10013",
    "phone": "(212) 235-1548",
    "rating": 4.0,
    "reviews": 25,
    "website": "https://www.manhattanministorage.com/",
    "category": "Chinese-speaking Climate-controlled storage in New-York",
    "description": "Offers climate-controlled units, secure access, and 24/7 customer service",
    "hours": "Mon-Fri 9AM-6PM",
    "services": [
      "Chinese-speaking Climate-controlled storage in New-York consultation",
      "Professional service",
      "Quality guarantee"
    ],
    "social_links": {}
  },
  {
    "name": "Extra Space Storage",
    "address": "Multiple locations, including 3026 Veterans Road West, Staten Island, NY 10309",
    "phone": "(866) 979-4945",
    "rating": 4.0,
    "reviews": 25,
    "website": "https://www.extraspace.com/",
    "category": "Chinese-speaking Climate-controlled storage in New-York",
    "description": "Provides climate-controlled, indoor units with drive-up access",
    "hours": "Mon-Fri 9AM-6PM",
    "services": [
      "Chinese-speaking Climate-controlled storage in New-York consultation",
      "Professional service",
      "Quality guarantee"
    ],
    "social_links": {}
  },
  {
    "name": "CubeSmart Self Storage",
    "address": "Multiple locations, including 225 Pennsylvania Avenue, Brooklyn, NY 11207",
    "phone": "(844) 216-4587",
    "rating": 4.0,
    "reviews": 25,
    "website": "https://www.cubesmart.com/",
    "category": "Chinese-speaking Climate-controlled storage in New-York",
    "description": "Offers climate-controlled units with 24-hour access",
    "hours": "Mon-Fri 9AM-6PM",
    "services": [
      "Chinese-speaking Climate-controlled storage in New-York consultation",
      "Professional service",
      "Quality guarantee"
    ],
    "social_links": {}
  },
  {
    "name": "Public Storage",
    "address": "Multiple locations, including 3128 Northern Blvd, Long Island City, NY 11101",
    "phone": "(800) 792-1602",
    "rating": 4.0,
    "reviews": 25,
    "website": "https://www.publicstorage.com/",
    "category": "Chinese-speaking Climate-controlled storage in New-York",
    "description": "Provides a variety of unit sizes, including climate-controlled options, with features like drive-up access",
    "hours": "Mon-Fri 9AM-6PM",
    "services": [
      "Chinese-speaking Climate-controlled storage in New-York consultation",
      "Professional service",
      "Quality guarantee"
    ],
    "social_links": {}
  },
  {
    "name": "U-Haul Storage",
    "address": "Multiple locations across New York",
    "phone": "(800) 468-4285",
    "rating": 4.0,
    "reviews": 25,
    "website": "https://www.uhaul.com/",
    "category": "Chinese-speaking Climate-controlled storage in New-York",
    "description": "Offers climate-controlled storage units with month-to-month rental agreements and no administrative fees",
    "hours": "Mon-Fri 9AM-6PM",
    "services": [
      "Chinese-speaking Climate-controlled storage in New-York consultation",
      "Professional service",
      "Quality guarantee"
    ],
    "social_links": {}
  },
  {
    "name": "Safeguard Self Storage",
    "address": "Multiple locations, including 115 Empire Avenue, Brooklyn, NY 11225",
    "phone": "(800) 691-7076",
    "rating": 4.0,
    "reviews": 25,
    "website": "https://www.safeguardselfstorage.com/",
    "category": "Chinese-speaking Climate-controlled storage in New-York",
    "description": "Provides climate-controlled storage units to protect belongings from temperature and humidity fluctuations",
    "hours": "Mon-Fri 9AM-6PM",
    "services": [
      "Chinese-speaking Climate-controlled storage in New-York consultation",
      "Professional service",
      "Quality guarantee"
    ],
    "social_links": {}
  },
  {
    "name": "Stop & Stor",
    "address": "Multiple locations, including 131 Lynhurst Avenue, Staten Island, NY 10305",
    "phone": "(718) 698-8000",
    "rating": 4.0,
    "reviews": 25,
    "website": "https://www.stopandstor.com/",
    "category": "Chinese-speaking Climate-controlled storage in New-York",
    "description": "Offers climate-controlled units with steady temperature and humidity levels, and has a history dating back to 1980",
    "hours": "Mon-Fri 9AM-6PM",
    "services": [
      "Chinese-speaking Climate-controlled storage in New-York consultation",
      "Professional service",
      "Quality guarantee"
    ],
    "social_links": {}
  },
  {
    "name": "Verrazano Moving and Storage",
    "address": "Staten Island, NY (Specific address not provided in search results)",
    "phone": "(718) 698-8000",
    "rating": 4.0,
    "reviews": 25,
    "website": "http://www.verrazanomoving.com/",
    "category": "Chinese-speaking Climate-controlled storage in New-York",
    "description": "Provides climate-controlled storage with experienced staff to help choose the right unit",
    "hours": "Mon-Fri 9AM-6PM",
    "services": [
      "Chinese-speaking Climate-controlled storage in New-York consultation",
      "Professional service",
      "Quality guarantee"
    ],
    "social_links": {}
  },
  {
    "name": "Avant-Garde Moving & Storage",
    "address": "New York City, NY (Specific address not provided in search results)",
    "phone": "(212) 377-2200",
    "rating": 5.0,
    "reviews": 25,
    "website": "https://www.avantgardemoving.com/",
    "category": "Chinese-speaking Climate-controlled storage in New-York",
    "description": "Offers a state-of-the-art, climate-controlled storage facility with professional handling and 24/7 monitoring",
    "hours": "Mon-Fri 9AM-6PM",
    "services": [
      "Chinese-speaking Climate-controlled storage in New-York consultation",
      "Professional service",
      "Quality guarantee"
    ],
    "social_links": {}
  },
  {
    "name": "Divine Moving & Storage",
    "address": "New York City, NY (Specific address not provided in search results)",
    "phone": "(866) 348-4638",
    "rating": 4.0,
    "reviews": 25,
    "website": "https://www.divinemoving.com/",
    "category": "Chinese-speaking Climate-controlled storage in New-York",
    "description": "Provides climate-controlled storage units with services like photo inventory management and unpacking",
    "hours": "Mon-Fri 9AM-6PM",
    "services": [
      "Chinese-speaking Climate-controlled storage in New-York consultation",
      "Professional service",
      "Quality guarantee"
    ],
    "social_links": {}
  }
]