[
  {
    "name": "Pediatric Dentistry of Sunset Hills",
    "address": "3555 Sunset Office Dr #210, St. Louis, MO 63127",
    "phone": "(314) 822-2764",
    "rating": 4.9,
    "reviews": 25,
    "website": "https://www.google.com/maps/search/Pediatric+Dentistry+of+Sunset+Hills+in+Missouri",
    "category": "Black-owned Pediatric dentistry in Missouri",
    "description": "Offers comprehensive pediatric dental care for children and teens, with a fun, child-friendly environment. They provide services like checkups, cleanings, fluoride treatments, and more",
    "hours": "Mon-Fri 9AM-6PM",
    "services": [
      "Black-owned Pediatric dentistry in Missouri consultation",
      "Professional service",
      "Quality guarantee"
    ],
    "social_links": {}
  },
  {
    "name": "Little Smiles Pediatric Dentistry",
    "address": "Multiple locations including 1031 Rondale Court, Dardenne Prairie, MO 63368; 6309 Hazelwest Court, Hazelwood, MO 63042; and 1709 Heritage Hills Drive, Washington, MO 63090",
    "phone": "(636) 379-1191 (Dardenne Prairie), (314) 731-1688 (Hazelwood), (636) 238-3520 (Washington)",
    "rating": 4.0,
    "reviews": 25,
    "website": "https://www.google.com/maps/search/Little+Smiles+Pediatric+Dentistry+in+Missouri",
    "category": "Black-owned Pediatric dentistry in Missouri",
    "description": "Provides pediatric dental care with a focus on making dental visits fun and engaging for children using the \"Tell, Show, Do\" technique. They offer specialized care for children with special needs and general anesthesia options",
    "hours": "Mon-Fri 9AM-6PM",
    "services": [
      "Black-owned Pediatric dentistry in Missouri consultation",
      "Professional service",
      "Quality guarantee"
    ],
    "social_links": {}
  },
  {
    "name": "Parkville Pediatric Dentistry",
    "address": "6309 N Cosby Ave, Parkville, MO 64152",
    "phone": "(816) 746-KIDS (5437)",
    "rating": 4.0,
    "reviews": 25,
    "website": "https://www.google.com/maps/search/Parkville+Pediatric+Dentistry+in+Missouri",
    "category": "Black-owned Pediatric dentistry in Missouri",
    "description": "Offers preventive care and a wide range of dental services for infants, children, teens, and adults in a warm and caring environment",
    "hours": "Mon-Fri 9AM-6PM",
    "services": [
      "Black-owned Pediatric dentistry in Missouri consultation",
      "Professional service",
      "Quality guarantee"
    ],
    "social_links": {}
  },
  {
    "name": "Springfield Kids Dental",
    "address": "2121 E Republic Rd, Springfield, MO 65804",
    "phone": "(417) 887-5437",
    "rating": 4.0,
    "reviews": 25,
    "website": "https://www.google.com/maps/search/Springfield+Kids+Dental+in+Missouri",
    "category": "Black-owned Pediatric dentistry in Missouri",
    "description": "Experienced pediatric dentists focused on providing a warm and friendly environment for children, with treatments and education for comprehensive dental care",
    "hours": "Mon-Fri 9AM-6PM",
    "services": [
      "Black-owned Pediatric dentistry in Missouri consultation",
      "Professional service",
      "Quality guarantee"
    ],
    "social_links": {}
  },
  {
    "name": "Carthage Pediatric Dental",
    "address": "1127 W Airport Rd, Carthage, MO 64836",
    "phone": "(417) 358-5437",
    "rating": 4.0,
    "reviews": 25,
    "website": "https://www.google.com/maps/search/Carthage+Pediatric+Dental+in+Missouri",
    "category": "Black-owned Pediatric dentistry in Missouri",
    "description": "A board-certified pediatric dentist providing treatments and education for comprehensive dental care in a warm and friendly environment",
    "hours": "Mon-Fri 9AM-6PM",
    "services": [
      "Black-owned Pediatric dentistry in Missouri consultation",
      "Professional service",
      "Quality guarantee"
    ],
    "social_links": {}
  },
  {
    "name": "The Children's Dental Zone",
    "address": "11737 Tesson Ferry Rd, Ste 101, St. Louis, MO 63123",
    "phone": "(314) 842-5437",
    "rating": 4.0,
    "reviews": 25,
    "website": "https://www.google.com/maps/search/The+Children's+Dental+Zone+in+Missouri",
    "category": "Black-owned Pediatric dentistry in Missouri",
    "description": "Provides first-class pediatric dental treatments in a caring environment, with a focus on establishing a positive attitude towards dentistry",
    "hours": "Mon-Fri 9AM-6PM",
    "services": [
      "Black-owned Pediatric dentistry in Missouri consultation",
      "Professional service",
      "Quality guarantee"
    ],
    "social_links": {}
  },
  {
    "name": "Bloomy's Pediatric Dentistry",
    "address": "14333 S Outer 40 Rd, Ste 104, Ellisville, MO 63011",
    "phone": "(636) 200-5437",
    "rating": 4.0,
    "reviews": 25,
    "website": "https://www.google.com/maps/search/Bloomy's+Pediatric+Dentistry+in+Missouri",
    "category": "Black-owned Pediatric dentistry in Missouri",
    "description": "Specializes in providing oral health care to infants, children, and adolescents with specialized equipment and a warm, caring environment",
    "hours": "Mon-Fri 9AM-6PM",
    "services": [
      "Black-owned Pediatric dentistry in Missouri consultation",
      "Professional service",
      "Quality guarantee"
    ],
    "social_links": {}
  },
  {
    "name": "Mid Missouri Dental Center",
    "address": "1005 W Nifong Blvd, Suite 101, Columbia, MO 65203",
    "phone": "(573) 445-7775",
    "rating": 4.0,
    "reviews": 25,
    "website": "https://www.google.com/maps/search/Mid+Missouri+Dental+Center+in+Missouri",
    "category": "Black-owned Pediatric dentistry in Missouri",
    "description": "Offers high-quality dental care with a commitment to patient education and prevention, in a welcoming environment",
    "hours": "Mon-Fri 9AM-6PM",
    "services": [
      "Black-owned Pediatric dentistry in Missouri consultation",
      "Professional service",
      "Quality guarantee"
    ],
    "social_links": {}
  },
  {
    "name": "KC Dentistry 4 Kids",
    "address": "7000 N Broadway, Gladstone, MO 64118",
    "phone": "(816) 452-5437",
    "rating": 4.0,
    "reviews": 25,
    "website": "https://www.google.com/maps/search/KC+Dentistry+4+Kids+in+Missouri",
    "category": "Black-owned Pediatric dentistry in Missouri",
    "description": "Voted Best Pediatric Dentist and Best Children's Dentist, this practice offers a fun, kid-friendly environment with an indoor play area and arcade games",
    "hours": "Mon-Fri 9AM-6PM",
    "services": [
      "Black-owned Pediatric dentistry in Missouri consultation",
      "Professional service",
      "Quality guarantee"
    ],
    "social_links": {}
  },
  {
    "name": "Blacker Family Dental",
    "address": "10000 W 151st St, Overland Park, KS 66221 (Note: This is in Kansas, but serves the Kansas City metro area which includes Missouri.)",
    "phone": "(816) 763-8400",
    "rating": 4.0,
    "reviews": 25,
    "website": "https://www.google.com/maps/search/Blacker+Family+Dental+in+Missouri",
    "category": "Black-owned Pediatric dentistry in Missouri",
    "description": "A Kansas City family dental practice specializing in family dentistry, cosmetic dentistry, and dental implants",
    "hours": "Mon-Fri 9AM-6PM",
    "services": [
      "Black-owned Pediatric dentistry in Missouri consultation",
      "Professional service",
      "Quality guarantee"
    ],
    "social_links": {}
  }
]