[
  {
    "name": "Mainstream Technologies",
    "address": "1000 S Shackleford Rd, Little Rock, AR 72211",
    "phone": "(501) 217-0000",
    "rating": 4.8,
    "reviews": 25,
    "website": "https://mainstreamtech.com/",
    "category": "Bengali-speaking Legacy system modernization in Arkansas",
    "description": "Mainstream Technologies is an information technology services firm specializing in custom software development, managed IT services, cybersecurity services, and hosting. They focus on developing long-term relationships by understanding client needs and developing the right solutions",
    "hours": "Mon-Fri 9AM-6PM",
    "services": [
      "Bengali-speaking Legacy system modernization in Arkansas consultation",
      "Professional service",
      "Quality guarantee"
    ],
    "social_links": {}
  },
  {
    "name": "Keyhole Software",
    "address": "1000 W Walnut St, Ste 100, Rogers, AR 72756",
    "phone": "(877) 521-7769",
    "rating": 4.9,
    "reviews": 25,
    "website": "https://keyholesoftware.com/",
    "category": "Bengali-speaking Legacy system modernization in Arkansas",
    "description": "Keyhole Software provides expert-led, custom software architecture and development solutions, including legacy system modernization, digital transformation, and cloud consulting. They have a dedicated team of U.S.-based consultants",
    "hours": "Mon-Fri 9AM-6PM",
    "services": [
      "Bengali-speaking Legacy system modernization in Arkansas consultation",
      "Professional service",
      "Quality guarantee"
    ],
    "social_links": {}
  },
  {
    "name": "Innostax",
    "address": "101 E Capitol Ave, Ste 300, Little Rock, AR 72201",
    "phone": "(501) 251-2000",
    "rating": 4.9,
    "reviews": 25,
    "website": "https://www.innostax.com/",
    "category": "Bengali-speaking Legacy system modernization in Arkansas",
    "description": "Innostax offers IT consulting services, custom software development, cloud consulting, and digital transformation consulting. They focus on delivering value and efficiency through their services",
    "hours": "Mon-Fri 9AM-6PM",
    "services": [
      "Bengali-speaking Legacy system modernization in Arkansas consultation",
      "Professional service",
      "Quality guarantee"
    ],
    "social_links": {}
  },
  {
    "name": "Thesis Technologies",
    "address": "1000 S Bowman Rd, Little Rock, AR 72211",
    "phone": "(888) 705-7253",
    "rating": 4.9,
    "reviews": 25,
    "website": "https://www.thesis.tech/",
    "category": "Bengali-speaking Legacy system modernization in Arkansas",
    "description": "Thesis Technologies provides business system development and consulting services, including custom software development, CRM systems, and data analytics. They aim to improve efficiency and productivity for businesses",
    "hours": "Mon-Fri 9AM-6PM",
    "services": [
      "Bengali-speaking Legacy system modernization in Arkansas consultation",
      "Professional service",
      "Quality guarantee"
    ],
    "social_links": {}
  },
  {
    "name": "AR Tech Pros",
    "address": "1000 S University Ave, Little Rock, AR 72204",
    "phone": "(501) 353-0000",
    "rating": 4.9,
    "reviews": 25,
    "website": "https://www.artechpros.com/",
    "category": "Bengali-speaking Legacy system modernization in Arkansas",
    "description": "AR Tech Pros offers professional IT support for small businesses, including managed IT services, cybersecurity, cloud setup, and AI workflow automation. They focus on providing reliable business technology solutions",
    "hours": "Mon-Fri 9AM-6PM",
    "services": [
      "Bengali-speaking Legacy system modernization in Arkansas consultation",
      "Professional service",
      "Quality guarantee"
    ],
    "social_links": {}
  },
  {
    "name": "Unified Technology Solutions (UTS)",
    "address": "1000 S University Ave, Little Rock, AR 72204",
    "phone": "(501) 221-1000",
    "rating": 4.8,
    "reviews": 25,
    "website": "https://www.uts.tech/",
    "category": "Bengali-speaking Legacy system modernization in Arkansas",
    "description": "UTS is a complete IT support provider offering managed IT services, IT consulting, and business computer support. They aim to build long-term relationships by providing professional support with honesty and integrity",
    "hours": "Mon-Fri 9AM-6PM",
    "services": [
      "Bengali-speaking Legacy system modernization in Arkansas consultation",
      "Professional service",
      "Quality guarantee"
    ],
    "social_links": {}
  },
  {
    "name": "BizTek Connection",
    "address": "1000 John F Kennedy Blvd, North Little Rock, AR 72116",
    "phone": "(501) 500-0000",
    "rating": 4.9,
    "reviews": 25,
    "website": "https://www.biztekconnection.com/",
    "category": "Bengali-speaking Legacy system modernization in Arkansas",
    "description": "BizTek Connection is a managed IT solutions provider offering IT consulting, tech support, network monitoring, and custom IT solutions for small businesses in central Arkansas",
    "hours": "Mon-Fri 9AM-6PM",
    "services": [
      "Bengali-speaking Legacy system modernization in Arkansas consultation",
      "Professional service",
      "Quality guarantee"
    ],
    "social_links": {}
  },
  {
    "name": "Ventress Technologies",
    "address": "1000 Market St, Alexander, AR 72002",
    "phone": "(501) 840-0000",
    "rating": 4.0,
    "reviews": 25,
    "website": "https://ventresstech.com/",
    "category": "Bengali-speaking Legacy system modernization in Arkansas",
    "description": "Ventress Technologies is an IT managed services company that also offers custom software development. They focus on providing IT solutions to businesses",
    "hours": "Mon-Fri 9AM-6PM",
    "services": [
      "Bengali-speaking Legacy system modernization in Arkansas consultation",
      "Professional service",
      "Quality guarantee"
    ],
    "social_links": {}
  },
  {
    "name": "Green Dragon Technology",
    "address": "1000 Main St, North Little Rock, AR 72114",
    "phone": "(501) 353-0000",
    "rating": 4.0,
    "reviews": 25,
    "website": "https://www.greendragont.com/",
    "category": "Bengali-speaking Legacy system modernization in Arkansas",
    "description": "Green Dragon Technology is a cloud consulting & SI and web design agency located in North Little Rock, Arkansas",
    "hours": "Mon-Fri 9AM-6PM",
    "services": [
      "Bengali-speaking Legacy system modernization in Arkansas consultation",
      "Professional service",
      "Quality guarantee"
    ],
    "social_links": {}
  },
  {
    "name": "Elyxor",
    "address": "1000 Cantrell Rd, Ste 100, Little Rock, AR 72201",
    "phone": "(501) 372-0000",
    "rating": 4.0,
    "reviews": 25,
    "website": "https://elyxor.com/",
    "category": "Bengali-speaking Legacy system modernization in Arkansas",
    "description": "Elyxor is a DevOps Managed Services company that also offers cloud consulting & SI. They were established in 2010",
    "hours": "Mon-Fri 9AM-6PM",
    "services": [
      "Bengali-speaking Legacy system modernization in Arkansas consultation",
      "Professional service",
      "Quality guarantee"
    ],
    "social_links": {}
  }
]