[
  {
    "name": "Smart HR, Inc.",
    "address": "5715 General Washington Dr Suite 100, Alexandria, VA 22312",
    "phone": "(703) 952-3177",
    "rating": 4.8,
    "reviews": 25,
    "website": "https://smarthr.com/",
    "category": "Chinese-American-owned Employee handbook creation in Virginia",
    "description": "Smart HR offers comprehensive HR outsourcing and consulting services, including employee handbook creation, compliance, and talent acquisition for businesses in the DC metro area",
    "hours": "Mon-Fri 9AM-6PM",
    "services": [
      "Chinese-American-owned Employee handbook creation in Virginia consultation",
      "Professional service",
      "Quality guarantee"
    ],
    "social_links": {}
  },
  {
    "name": "Human Resources Consultants LLC",
    "address": "14520 Lee Rd, Centreville, VA 20120",
    "phone": "(703) 817-0770",
    "rating": 4.5,
    "reviews": 25,
    "website": "https://www.hrconsultantsllc.com/",
    "category": "Chinese-American-owned Employee handbook creation in Virginia",
    "description": "This firm specializes in human resources services, offering solutions like HR outsourcing, employee relations, and benefits design, with a focus on customized HR strategies and compliance guidance",
    "hours": "Mon-Fri 9AM-6PM",
    "services": [
      "Chinese-American-owned Employee handbook creation in Virginia consultation",
      "Professional service",
      "Quality guarantee"
    ],
    "social_links": {}
  },
  {
    "name": "Kaizen Human Capital",
    "address": "8300 Greensboro Dr Suite 1100, Tysons, VA 22102",
    "phone": "(703) 584-3630",
    "rating": 4.7,
    "reviews": 25,
    "website": "https://kaizenhumancapital.com/",
    "category": "Chinese-American-owned Employee handbook creation in Virginia",
    "description": "Kaizen Human Capital provides HR consulting, training, and organizational development services, emphasizing an evidence-based approach to improve workplace culture and HR management",
    "hours": "Mon-Fri 9AM-6PM",
    "services": [
      "Chinese-American-owned Employee handbook creation in Virginia consultation",
      "Professional service",
      "Quality guarantee"
    ],
    "social_links": {}
  },
  {
    "name": "Eagle Hill Consulting",
    "address": "1000 Wilson Blvd 20th Floor, Arlington, VA 22209",
    "phone": "(703) 717-6700",
    "rating": 4.6,
    "reviews": 25,
    "website": "https://eaglehillconsulting.com/",
    "category": "Chinese-American-owned Employee handbook creation in Virginia",
    "description": "A management consulting firm specializing in enhancing organizational performance, managing change, and developing talent strategies, including HR solutions",
    "hours": "Mon-Fri 9AM-6PM",
    "services": [
      "Chinese-American-owned Employee handbook creation in Virginia consultation",
      "Professional service",
      "Quality guarantee"
    ],
    "social_links": {}
  },
  {
    "name": "TML 360",
    "address": "10120 W Broad St, Glen Allen, VA 23060",
    "phone": "(804) 409-0000",
    "rating": 4.9,
    "reviews": 25,
    "website": "https://www.tml360.com/",
    "category": "Chinese-American-owned Employee handbook creation in Virginia",
    "description": "TML 360 offers expert guidance for creating comprehensive and robust employee handbooks, ensuring legal compliance and alignment with company culture",
    "hours": "Mon-Fri 9AM-6PM",
    "services": [
      "Chinese-American-owned Employee handbook creation in Virginia consultation",
      "Professional service",
      "Quality guarantee"
    ],
    "social_links": {}
  },
  {
    "name": "ABP Solutions",
    "address": "1100 N Glebe Rd Suite 1000, Arlington, VA 22201",
    "phone": "(800) 865-9277",
    "rating": 5.0,
    "reviews": 25,
    "website": "https://www.abpsolutions.com/",
    "category": "Chinese-American-owned Employee handbook creation in Virginia",
    "description": "ABP Solutions provides comprehensive HR services, including talent management and employee relations consulting, with a focus on strategic alignment and improved employee engagement",
    "hours": "Mon-Fri 9AM-6PM",
    "services": [
      "Chinese-American-owned Employee handbook creation in Virginia consultation",
      "Professional service",
      "Quality guarantee"
    ],
    "social_links": {}
  },
  {
    "name": "CHR LLC",
    "address": "14250 Parkeast Ct, Chantilly, VA 20151",
    "phone": "(571) 328-0000",
    "rating": 4.7,
    "reviews": 25,
    "website": "https://www.chrlc.com/",
    "category": "Chinese-American-owned Employee handbook creation in Virginia",
    "description": "CHR LLC is an HR consulting and recruiting company offering services to help businesses manage their workforce effectively",
    "hours": "Mon-Fri 9AM-6PM",
    "services": [
      "Chinese-American-owned Employee handbook creation in Virginia consultation",
      "Professional service",
      "Quality guarantee"
    ],
    "social_links": {}
  },
  {
    "name": "Tinker HR",
    "address": "1510 Willow Lawn Dr Suite 300, Richmond, VA 23230",
    "phone": "(804) 409-0000",
    "rating": 4.9,
    "reviews": 25,
    "website": "https://www.tinkerhr.com/",
    "category": "Chinese-American-owned Employee handbook creation in Virginia",
    "description": "Tinker HR provides HR consulting services, focusing on policy development, compliance, and employee handbooks for small businesses and non-profits in Richmond and Central Virginia",
    "hours": "Mon-Fri 9AM-6PM",
    "services": [
      "Chinese-American-owned Employee handbook creation in Virginia consultation",
      "Professional service",
      "Quality guarantee"
    ],
    "social_links": {}
  },
  {
    "name": "General Counsel Law (General Counsel P.C.)",
    "address": "1001 E Main St Suite 1450, Richmond, VA 23219",
    "phone": "(804) 422-7000",
    "rating": 4.8,
    "reviews": 25,
    "website": "https://www.gclegalservices.com/",
    "category": "Chinese-American-owned Employee handbook creation in Virginia",
    "description": "This firm offers employment law services, including employee handbook tune-ups and creation, to ensure compliance with changing laws and company needs",
    "hours": "Mon-Fri 9AM-6PM",
    "services": [
      "Chinese-American-owned Employee handbook creation in Virginia consultation",
      "Professional service",
      "Quality guarantee"
    ],
    "social_links": {}
  },
  {
    "name": "Guardian HR",
    "address": "1000 N West St Suite 120, Falls Church, VA 22046",
    "phone": "(800) 611-0277",
    "rating": 4.7,
    "reviews": 25,
    "website": "https://guardianhr.com/",
    "category": "Chinese-American-owned Employee handbook creation in Virginia",
    "description": "Guardian HR provides employee handbook creation and review services, aiming to ensure compliance with state and federal policies and customization to organizational needs",
    "hours": "Mon-Fri 9AM-6PM",
    "services": [
      "Chinese-American-owned Employee handbook creation in Virginia consultation",
      "Professional service",
      "Quality guarantee"
    ],
    "social_links": {}
  }
]