[
  {
    "name": "Revival Infusion + Wellness",
    "address": "101 S Garner Lake Rd, Gillette, WY 82718",
    "phone": "(307) 331-2545",
    "rating": 4.0,
    "reviews": 25,
    "website": "https://revivalinfusion.com/",
    "category": "Black-owned IV therapy in Wyoming",
    "description": "Offers IV vitamin infusions, ozone therapy, chelation, and NAD+ treatments",
    "hours": "Mon-Fri 9AM-6PM",
    "services": [
      "Black-owned IV therapy in Wyoming consultation",
      "Professional service",
      "Quality guarantee"
    ],
    "social_links": {}
  },
  {
    "name": "Push IV and Wellness",
    "address": "2119 Logan Ave, Cheyenne, WY 82001",
    "phone": "(307) 429-0277",
    "rating": 4.0,
    "reviews": 25,
    "website": "https://www.pushivandwellness.com/",
    "category": "Black-owned IV therapy in Wyoming",
    "description": "Provides IV infusion and injectable services with essential vitamin and mineral supplements",
    "hours": "Mon-Fri 9AM-6PM",
    "services": [
      "Black-owned IV therapy in Wyoming consultation",
      "Professional service",
      "Quality guarantee"
    ],
    "social_links": {}
  },
  {
    "name": "Radiant Health",
    "address": "1001 S Sheridan Ave, Sheridan, WY 82801",
    "phone": "(307) 655-5400",
    "rating": 4.0,
    "reviews": 25,
    "website": "https://www.radianthealthwy.com/",
    "category": "Black-owned IV therapy in Wyoming",
    "description": "Offers various IV therapies, including energy-boosting B12 and beauty-boosting biotin, with customized treatments",
    "hours": "Mon-Fri 9AM-6PM",
    "services": [
      "Black-owned IV therapy in Wyoming consultation",
      "Professional service",
      "Quality guarantee"
    ],
    "social_links": {}
  },
  {
    "name": "Yellowstone IV Lounges & Wellness Center",
    "address": "1225 E 2nd St, Casper, WY 82601",
    "phone": "(307) 202-9339",
    "rating": 4.0,
    "reviews": 25,
    "website": "https://yellowstoneiv.com/",
    "category": "Black-owned IV therapy in Wyoming",
    "description": "Provides IV nutrient infusions and other wellness services, including treatments for migraines, fatigue, allergies, and athletic recovery",
    "hours": "Mon-Fri 9AM-6PM",
    "services": [
      "Black-owned IV therapy in Wyoming consultation",
      "Professional service",
      "Quality guarantee"
    ],
    "social_links": {}
  },
  {
    "name": "SALT. Hydration & Wellness",
    "address": "1225 E 2nd St, Casper, WY 82601 (Mobile services available)",
    "phone": "(307) 222-0555",
    "rating": 4.0,
    "reviews": 25,
    "website": "https://www.saalty.com/",
    "category": "Black-owned IV therapy in Wyoming",
    "description": "Offers mobile IV hydration and wellness therapy, NAD+, weight loss peptides, and Botox, administered by licensed nurses",
    "hours": "Mon-Fri 9AM-6PM",
    "services": [
      "Black-owned IV therapy in Wyoming consultation",
      "Professional service",
      "Quality guarantee"
    ],
    "social_links": {}
  },
  {
    "name": "Elevated Health LLC",
    "address": "100 N 3rd St, Douglas, WY 82633",
    "phone": "(307) 358-1150",
    "rating": 4.0,
    "reviews": 25,
    "website": "https://elevatedhealthwy.com/",
    "category": "Black-owned IV therapy in Wyoming",
    "description": "Provides IV infusions, micro-needling, neurotoxin therapy, and BioTE, with licensed medical professionals on staff",
    "hours": "Mon-Fri 9AM-6PM",
    "services": [
      "Black-owned IV therapy in Wyoming consultation",
      "Professional service",
      "Quality guarantee"
    ],
    "social_links": {}
  },
  {
    "name": "RevIVe IV Vitamin Bar",
    "address": "309 Grand Ave, Laramie, WY 82070",
    "phone": "(307) 742-0066",
    "rating": 4.0,
    "reviews": 25,
    "website": "https://revivewy.com/",
    "category": "Black-owned IV therapy in Wyoming",
    "description": "Offers IV mixes, injections, and infrared sauna pod sessions, with customized IV mixes and mobile services",
    "hours": "Mon-Fri 9AM-6PM",
    "services": [
      "Black-owned IV therapy in Wyoming consultation",
      "Professional service",
      "Quality guarantee"
    ],
    "social_links": {}
  },
  {
    "name": "Drip Hydration",
    "address": "Services available in Jackson Hole, WY (Mobile)",
    "phone": "(307) 201-0200",
    "rating": 4.0,
    "reviews": 25,
    "website": "https://driphydration.com/locations/jackson-hole-wy/",
    "category": "Black-owned IV therapy in Wyoming",
    "description": "Offers at-home IV therapy, including vitamin IV therapy, NAD IV therapy, iron infusions, and wellness treatments",
    "hours": "Mon-Fri 9AM-6PM",
    "services": [
      "Black-owned IV therapy in Wyoming consultation",
      "Professional service",
      "Quality guarantee"
    ],
    "social_links": {}
  },
  {
    "name": "Wyo Med Spa",
    "address": "101 S Garner Lake Rd, Gillette, WY 82718",
    "phone": "(307) 257-0000",
    "rating": 4.0,
    "reviews": 25,
    "website": "https://wyomedspa.com/",
    "category": "Black-owned IV therapy in Wyoming",
    "description": "Offers NAD therapy, IV hydration therapy, and specialized IV infusions for athletes",
    "hours": "Mon-Fri 9AM-6PM",
    "services": [
      "Black-owned IV therapy in Wyoming consultation",
      "Professional service",
      "Quality guarantee"
    ],
    "social_links": {}
  },
  {
    "name": "El Burro Loco",
    "address": "2333 E Yellowstone Hwy, Casper, WY 82609",
    "phone": "(307) 333-2233",
    "rating": 4.0,
    "reviews": 25,
    "website": "https://www.google.com/maps/search/El+Burro+Loco+in+Wyoming",
    "category": "Black-owned IV therapy in Wyoming",
    "description": "Listed as a minority-owned business in Casper, WY. Further details on services are not available",
    "hours": "Mon-Fri 9AM-6PM",
    "services": [
      "Black-owned IV therapy in Wyoming consultation",
      "Professional service",
      "Quality guarantee"
    ],
    "social_links": {}
  }
]