[
  {
    "name": "St. Joseph Academy",
    "address": "1201 S. 10th St., Milwaukee, WI 53204",
    "phone": "(414) 645-5337",
    "rating": 4.0,
    "reviews": 25,
    "website": "https://www.stjosephacademy.org/",
    "category": "Catholic-owned Before school care in Wisconsin",
    "description": "Offers before-school care starting at 6:00 am for students in grades K4 through 8th grade",
    "hours": "Mon-Fri 9AM-6PM",
    "services": [
      "Catholic-owned Before school care in Wisconsin consultation",
      "Professional service",
      "Quality guarantee"
    ],
    "social_links": {}
  },
  {
    "name": "Waukesha Catholic School System",
    "address": "St. Mary Campus: 2555 N. Lily Pond Rd., Pewaukee, WI 53073; St. William Campus: 407 N. East Ave., Waukesha, WI 53186",
    "phone": "(262) 691-1535 (St. Mary Campus); (262) 547-2744 (St. William Campus)",
    "rating": 4.0,
    "reviews": 25,
    "website": "https://www.waukeshacatholic.org/",
    "category": "Catholic-owned Before school care in Wisconsin",
    "description": "Provides before-school care from 6:30 a.m. until the start of the school day at both campuses",
    "hours": "Mon-Fri 9AM-6PM",
    "services": [
      "Catholic-owned Before school care in Wisconsin consultation",
      "Professional service",
      "Quality guarantee"
    ],
    "social_links": {}
  },
  {
    "name": "St. John Vianney School (Brookfield)",
    "address": "1755 N. Calhoun Rd., Brookfield, WI 53045",
    "phone": "(262) 796-3942",
    "rating": 4.0,
    "reviews": 25,
    "website": "https://www.stjohnvianney.org/",
    "category": "Catholic-owned Before school care in Wisconsin",
    "description": "Offers before-school care from 7:00-7:45 am for students in K3 through 8th grade",
    "hours": "Mon-Fri 9AM-6PM",
    "services": [
      "Catholic-owned Before school care in Wisconsin consultation",
      "Professional service",
      "Quality guarantee"
    ],
    "social_links": {}
  },
  {
    "name": "St. John Vianney Catholic School (Janesville)",
    "address": "1250 E. Racine St., Janesville, WI 53545",
    "phone": "(608) 752-6802",
    "rating": 4.0,
    "reviews": 25,
    "website": "https://www.stjohnvianney.org/",
    "category": "Catholic-owned Before school care in Wisconsin",
    "description": "Before-school care is available from 7:00 a.m. The cost is $1.50 per day, per student",
    "hours": "Mon-Fri 9AM-6PM",
    "services": [
      "Catholic-owned Before school care in Wisconsin consultation",
      "Professional service",
      "Quality guarantee"
    ],
    "social_links": {}
  },
  {
    "name": "St. Mary Catholic School (Portage)",
    "address": "309 W. Franklin St., Portage, WI 53901",
    "phone": "(608) 742-4998",
    "rating": 4.0,
    "reviews": 25,
    "website": "https://www.stmaryportage.org/",
    "category": "Catholic-owned Before school care in Wisconsin",
    "description": "Offers a morning care program from 7:00 \u2013 8:00 a.m",
    "hours": "Mon-Fri 9AM-6PM",
    "services": [
      "Catholic-owned Before school care in Wisconsin consultation",
      "Professional service",
      "Quality guarantee"
    ],
    "social_links": {}
  },
  {
    "name": "St. Mary School (New Richmond)",
    "address": "700 S. Knowles Ave., New Richmond, WI 54017",
    "phone": "(715) 246-6511",
    "rating": 4.0,
    "reviews": 25,
    "website": "https://www.stmarynr.org/",
    "category": "Catholic-owned Before school care in Wisconsin",
    "description": "Offers before-school care starting at 6:30 AM, which includes a cold breakfast",
    "hours": "Mon-Fri 9AM-6PM",
    "services": [
      "Catholic-owned Before school care in Wisconsin consultation",
      "Professional service",
      "Quality guarantee"
    ],
    "social_links": {}
  },
  {
    "name": "St. Mary Catholic Faith Community (Hales Corners)",
    "address": "9553 W. Edgerton Ave., Hales Corners, WI 53130",
    "phone": "(414) 425-3100",
    "rating": 4.0,
    "reviews": 25,
    "website": "https://www.stmaryparish.org/",
    "category": "Catholic-owned Before school care in Wisconsin",
    "description": "Offers a Before School Care program from 6:15-7:30 AM",
    "hours": "Mon-Fri 9AM-6PM",
    "services": [
      "Catholic-owned Before school care in Wisconsin consultation",
      "Professional service",
      "Quality guarantee"
    ],
    "social_links": {}
  },
  {
    "name": "St. Bernard Catholic School (Green Bay)",
    "address": "1610 Holmgren Way, Green Bay, WI 54304",
    "phone": "(920) 491-1470",
    "rating": 4.0,
    "reviews": 25,
    "website": "https://www.stbernardgb.org/",
    "category": "Catholic-owned Before school care in Wisconsin",
    "description": "Offers a Morning Care Program starting at 6:30 am",
    "hours": "Mon-Fri 9AM-6PM",
    "services": [
      "Catholic-owned Before school care in Wisconsin consultation",
      "Professional service",
      "Quality guarantee"
    ],
    "social_links": {}
  },
  {
    "name": "St. Michael Catholic School (Cary)",
    "address": "1001 Forest Ave., Cary, IL 60013 (Note: This appears to be an Illinois address, but the search results indicate it serves Wisconsin families or is part of a broader search. Further verification may be needed.)",
    "phone": "(847) 639-3044",
    "rating": 4.0,
    "reviews": 25,
    "website": "https://www.stmichelcary.org/",
    "category": "Catholic-owned Before school care in Wisconsin",
    "description": "Offers Before School Care daily starting at 7:15 a.m",
    "hours": "Mon-Fri 9AM-6PM",
    "services": [
      "Catholic-owned Before school care in Wisconsin consultation",
      "Professional service",
      "Quality guarantee"
    ],
    "social_links": {}
  },
  {
    "name": "St. Joseph Catholic School (Racine)",
    "address": "1525 Erie Street, Racine, WI 53402",
    "phone": "(262) 633-2403",
    "rating": 4.0,
    "reviews": 25,
    "website": "https://www.sienacatholicschools.org/st-joseph/",
    "category": "Catholic-owned Before school care in Wisconsin",
    "description": "The morning program opens at 6:30 a.m. for families needing care before school",
    "hours": "Mon-Fri 9AM-6PM",
    "services": [
      "Catholic-owned Before school care in Wisconsin consultation",
      "Professional service",
      "Quality guarantee"
    ],
    "social_links": {}
  }
]