[
  {
    "name": "University of Iowa Hospitals & Clinics - Breast Imaging Center of Excellence",
    "address": "41570 Pomerantz Family Pavilion (PFP), Iowa City, IA 52242",
    "phone": "(319) 356-4369",
    "rating": 4.5,
    "reviews": 25,
    "website": "https://uihealthcare.org/",
    "category": "Chinese-speaking Mammography services in Iowa",
    "description": "Offers high-quality digital and 3D mammography, with radiologists specializing in breast imaging",
    "hours": "Mon-Fri 9AM-6PM",
    "services": [
      "Chinese-speaking Mammography services in Iowa consultation",
      "Professional service",
      "Quality guarantee"
    ],
    "social_links": {}
  },
  {
    "name": "GRACE Breast Imaging & Medical Spa",
    "address": "1000 N. Ankeny Blvd, Suite 100, Ankeny, IA 50023",
    "phone": "(515) 277-5400",
    "rating": 4.9,
    "reviews": 25,
    "website": "https://gracebreastimaging.com/",
    "category": "Chinese-speaking Mammography services in Iowa",
    "description": "A women-owned facility offering advanced mammography technology and a spa-like environment",
    "hours": "Mon-Fri 9AM-6PM",
    "services": [
      "Chinese-speaking Mammography services in Iowa consultation",
      "Professional service",
      "Quality guarantee"
    ],
    "social_links": {}
  },
  {
    "name": "Mercy Medical Center - Cedar Rapids",
    "address": "701 10th Street SE, Cedar Rapids, IA 52403",
    "phone": "(319) 398-6690",
    "rating": 4.3,
    "reviews": 25,
    "website": "https://www.mercycare.org/",
    "category": "Chinese-speaking Mammography services in Iowa",
    "description": "Designated as a Breast Imaging Center of Excellence, offering 3D mammography and other breast health services",
    "hours": "Mon-Fri 9AM-6PM",
    "services": [
      "Chinese-speaking Mammography services in Iowa consultation",
      "Professional service",
      "Quality guarantee"
    ],
    "social_links": {}
  },
  {
    "name": "The Iowa Clinic - Medical Imaging",
    "address": "Multiple locations, including 5880 Westown Parkway, West Des Moines, IA 50266",
    "phone": "(515) 875-9740",
    "rating": 4.4,
    "reviews": 25,
    "website": "https://www.iowaclinic.com/medical-imaging",
    "category": "Chinese-speaking Mammography services in Iowa",
    "description": "Provides advanced imaging services, including mammography, with a focus on patient comfort and convenience",
    "hours": "Mon-Fri 9AM-6PM",
    "services": [
      "Chinese-speaking Mammography services in Iowa consultation",
      "Professional service",
      "Quality guarantee"
    ],
    "social_links": {}
  },
  {
    "name": "Broadlawns Medical Center - Mammography",
    "address": "1801 Hickman Road, Des Moines, IA 50314",
    "phone": "(515) 282-2309",
    "rating": 4.1,
    "reviews": 25,
    "website": "https://broadlawns.org/",
    "category": "Chinese-speaking Mammography services in Iowa",
    "description": "Offers state-of-the-art screening and diagnostic mammography for early breast cancer detection",
    "hours": "Mon-Fri 9AM-6PM",
    "services": [
      "Chinese-speaking Mammography services in Iowa consultation",
      "Professional service",
      "Quality guarantee"
    ],
    "social_links": {}
  },
  {
    "name": "Corridor Radiology and Muscatine Radiology",
    "address": "Multiple locations, including 2769 Heartland Drive, Suite #105, Coralville, IA 52241",
    "phone": "(319) 351-1111 (for Corridor Radiology)",
    "rating": 4.6,
    "reviews": 25,
    "website": "https://corridorradiology.com/",
    "category": "Chinese-speaking Mammography services in Iowa",
    "description": "ACR-accredited centers providing a full spectrum of breast services, including 3D mammography",
    "hours": "Mon-Fri 9AM-6PM",
    "services": [
      "Chinese-speaking Mammography services in Iowa consultation",
      "Professional service",
      "Quality guarantee"
    ],
    "social_links": {}
  },
  {
    "name": "MercyOne Katzmann Breast Care",
    "address": "411 Laurel St, Des Moines, IA 50314",
    "phone": "(515) 222-7474",
    "rating": 4.7,
    "reviews": 25,
    "website": "https://www.mercyone.org/iowa/locations/mercyone-katzmann-breast-care/",
    "category": "Chinese-speaking Mammography services in Iowa",
    "description": "A dedicated breast health center offering advanced imaging and support services for women",
    "hours": "Mon-Fri 9AM-6PM",
    "services": [
      "Chinese-speaking Mammography services in Iowa consultation",
      "Professional service",
      "Quality guarantee"
    ],
    "social_links": {}
  },
  {
    "name": "Iowa Radiology",
    "address": "Multiple locations, including 1221 Pleasant Street Suite 350, Des Moines, IA 50309",
    "phone": "(515) 277-7000",
    "rating": 4.8,
    "reviews": 25,
    "website": "https://www.iowaradiology.com/",
    "category": "Chinese-speaking Mammography services in Iowa",
    "description": "Provides trusted, patient-focused imaging, including 3D mammograms, with convenient scheduling options",
    "hours": "Mon-Fri 9AM-6PM",
    "services": [
      "Chinese-speaking Mammography services in Iowa consultation",
      "Professional service",
      "Quality guarantee"
    ],
    "social_links": {}
  },
  {
    "name": "Hansen Family Hospital - Radiology Department",
    "address": "1710 Pleasant St, Iowa Falls, IA 50126",
    "phone": "(641) 648-7135",
    "rating": 4.2,
    "reviews": 25,
    "website": "https://www.hansenfamilyhospital.org/",
    "category": "Chinese-speaking Mammography services in Iowa",
    "description": "Offers screening mammograms and has financial assistance programs available",
    "hours": "Mon-Fri 9AM-6PM",
    "services": [
      "Chinese-speaking Mammography services in Iowa consultation",
      "Professional service",
      "Quality guarantee"
    ],
    "social_links": {}
  },
  {
    "name": "Lakes Regional Healthcare - Mammography Services",
    "address": "1200 4th Ave, Spirit Lake, IA 51360",
    "phone": "(712) 336-8658",
    "rating": 4.5,
    "reviews": 25,
    "website": "https://www.lakeshealth.org/",
    "category": "Chinese-speaking Mammography services in Iowa",
    "description": "Provides high-quality 3D mammography technology for greater accuracy in breast cancer detection",
    "hours": "Mon-Fri 9AM-6PM",
    "services": [
      "Chinese-speaking Mammography services in Iowa consultation",
      "Professional service",
      "Quality guarantee"
    ],
    "social_links": {}
  }
]