[
  {
    "name": "De Michele Inc.",
    "address": "1235 W Baltimore Pike, Media, PA 19063",
    "phone": "(610) 566-5400",
    "rating": 4.8,
    "reviews": 25,
    "website": "https://www.demicheleinc.com/",
    "category": "Japanese-speaking Irrigation repair in Pennsylvania",
    "description": "A full-service residential and commercial company specializing in landscaping, hardscaping, and irrigation design and installation",
    "hours": "Mon-Fri 9AM-6PM",
    "services": [
      "Japanese-speaking Irrigation repair in Pennsylvania consultation",
      "Professional service",
      "Quality guarantee"
    ],
    "social_links": {}
  },
  {
    "name": "Custom Turf",
    "address": "1000 North Franklin Drive, Pittsburgh, PA 15216",
    "phone": "(412) 384-4111",
    "rating": 4.7,
    "reviews": 25,
    "website": "https://customturf.com/",
    "category": "Japanese-speaking Irrigation repair in Pennsylvania",
    "description": "Offers expert irrigation installation and repair services, with designers certified by the Irrigation Association",
    "hours": "Mon-Fri 9AM-6PM",
    "services": [
      "Japanese-speaking Irrigation repair in Pennsylvania consultation",
      "Professional service",
      "Quality guarantee"
    ],
    "social_links": {}
  },
  {
    "name": "Impact Irrigation Solutions",
    "address": "500 W Dekalb Pike, King of Prussia, PA 19406",
    "phone": "(484) 723-3600",
    "rating": 4.9,
    "reviews": 25,
    "website": "https://impactirrigationsolutions.com/",
    "category": "Japanese-speaking Irrigation repair in Pennsylvania",
    "description": "Provides comprehensive sprinkler and irrigation repair services with over 20 years of experience",
    "hours": "Mon-Fri 9AM-6PM",
    "services": [
      "Japanese-speaking Irrigation repair in Pennsylvania consultation",
      "Professional service",
      "Quality guarantee"
    ],
    "social_links": {}
  },
  {
    "name": "Conserva Irrigation of Delaware Valley",
    "address": "220 W State St, Doylestown, PA 18901",
    "phone": "(267) 609-3083",
    "rating": 4.8,
    "reviews": 25,
    "website": "https://www.conservairrigation.com/delaware-valley/",
    "category": "Japanese-speaking Irrigation repair in Pennsylvania",
    "description": "Specializes in irrigation repair and installation with a focus on water conservation",
    "hours": "Mon-Fri 9AM-6PM",
    "services": [
      "Japanese-speaking Irrigation repair in Pennsylvania consultation",
      "Professional service",
      "Quality guarantee"
    ],
    "social_links": {}
  },
  {
    "name": "Evergreen Irrigation",
    "address": "2064 Shearer Rd, Lansdale, PA 19446",
    "phone": "(610) 584-0500",
    "rating": 4.7,
    "reviews": 25,
    "website": "https://www.evergreenirrigationofpa.com/",
    "category": "Japanese-speaking Irrigation repair in Pennsylvania",
    "description": "Offers installation, maintenance, and repair services for all brands of lawn and garden irrigation sprinkler systems",
    "hours": "Mon-Fri 9AM-6PM",
    "services": [
      "Japanese-speaking Irrigation repair in Pennsylvania consultation",
      "Professional service",
      "Quality guarantee"
    ],
    "social_links": {}
  },
  {
    "name": "Little Squirt Enterprises",
    "address": "1050 Old Douglassville Rd, Douglassville, PA 19518",
    "phone": "(610) 367-2100",
    "rating": 4.9,
    "reviews": 25,
    "website": "https://www.littlesquirt.com/",
    "category": "Japanese-speaking Irrigation repair in Pennsylvania",
    "description": "Provides irrigation system installation and sprinkler system design, installation, and repair services since 1998",
    "hours": "Mon-Fri 9AM-6PM",
    "services": [
      "Japanese-speaking Irrigation repair in Pennsylvania consultation",
      "Professional service",
      "Quality guarantee"
    ],
    "social_links": {}
  },
  {
    "name": "GoldGlo Landscapes",
    "address": "4100 Gettysburg Rd, Enola, PA 17025",
    "phone": "(717) 657-7500",
    "rating": 4.8,
    "reviews": 25,
    "website": "https://www.goldgrolandscapes.com/",
    "category": "Japanese-speaking Irrigation repair in Pennsylvania",
    "description": "Offers state-of-the-art irrigation solutions designed to keep landscapes thriving while conserving water",
    "hours": "Mon-Fri 9AM-6PM",
    "services": [
      "Japanese-speaking Irrigation repair in Pennsylvania consultation",
      "Professional service",
      "Quality guarantee"
    ],
    "social_links": {}
  },
  {
    "name": "Hydroscapes",
    "address": "1027 N Providence Rd, Secane, PA 19018",
    "phone": "(610) 543-1000",
    "rating": 4.9,
    "reviews": 25,
    "website": "https://www.hydroscapes.net/",
    "category": "Japanese-speaking Irrigation repair in Pennsylvania",
    "description": "Provides custom irrigation system design, expert sprinkler system installation, and comprehensive maintenance services",
    "hours": "Mon-Fri 9AM-6PM",
    "services": [
      "Japanese-speaking Irrigation repair in Pennsylvania consultation",
      "Professional service",
      "Quality guarantee"
    ],
    "social_links": {}
  },
  {
    "name": "Shepard's Garden Landscaping LLC",
    "address": "1010 Cooper St, Burlington, NJ 08016 (Serves areas near PA)",
    "phone": "(609) 759-0000",
    "rating": 4.8,
    "reviews": 25,
    "website": "https://www.shepardsgarden.com/",
    "category": "Japanese-speaking Irrigation repair in Pennsylvania",
    "description": "Offers comprehensive landscaping solutions including efficient sprinkler installations and maintenance",
    "hours": "Mon-Fri 9AM-6PM",
    "services": [
      "Japanese-speaking Irrigation repair in Pennsylvania consultation",
      "Professional service",
      "Quality guarantee"
    ],
    "social_links": {}
  },
  {
    "name": "Hanselman Landscape and Gardens",
    "address": "1000 Rohrerstown Rd, Lancaster, PA 17601",
    "phone": "(717) 653-1273",
    "rating": 4.9,
    "reviews": 25,
    "website": "https://www.hanselmanlandscape.com/",
    "category": "Japanese-speaking Irrigation repair in Pennsylvania",
    "description": "Specializes in landscape design and architecture, including Japanese garden design, water features, and irrigation",
    "hours": "Mon-Fri 9AM-6PM",
    "services": [
      "Japanese-speaking Irrigation repair in Pennsylvania consultation",
      "Professional service",
      "Quality guarantee"
    ],
    "social_links": {}
  }
]