[
  {
    "name": "Goodarzi Hair Studio",
    "address": "122 Market Street, Gaithersburg, MD 20878",
    "phone": "(301) 520-0312",
    "rating": 4.7,
    "reviews": 25,
    "website": "https://www.goodarzihairstudio.com/",
    "category": "Agnostic-owned Keratin treatments in Maryland",
    "description": "Offers a Keratin Rejuvenation Treatment designed to re-hydrate and restore shine, strength, and health to distressed hair. They specialize in all hair types",
    "hours": "Mon-Fri 9AM-6PM",
    "services": [
      "Agnostic-owned Keratin treatments in Maryland consultation",
      "Professional service",
      "Quality guarantee"
    ],
    "social_links": {}
  },
  {
    "name": "L'OR Hair Salon",
    "address": "901 King Farm Blvd, Rockville, MD 20850 (Inferred location based on \"keratin smoothing treatment in King Farm\")",
    "phone": "(301) 970-5411 (This number is associated with L'OR Hair Salon in search results)",
    "rating": 4.7,
    "reviews": 25,
    "website": "https://www.lorhairsalon.com/",
    "category": "Agnostic-owned Keratin treatments in Maryland",
    "description": "Specializes in hair straightening treatments, including Brazilian Keratin Treatments and Japanese Hair Straightening, aiming for smooth, shiny, and frizz-free hair",
    "hours": "Mon-Fri 9AM-6PM",
    "services": [
      "Agnostic-owned Keratin treatments in Maryland consultation",
      "Professional service",
      "Quality guarantee"
    ],
    "social_links": {}
  },
  {
    "name": "M Salon Federal Hill",
    "address": "1131 South Charles St, Baltimore, MD 21230",
    "phone": "(410) 605-5555",
    "rating": 4.7,
    "reviews": 25,
    "website": "https://www.msalonbaltimore.com/",
    "category": "Agnostic-owned Keratin treatments in Maryland",
    "description": "A premier specialist in Brazilian Keratin Treatments in Baltimore since 2006, offering longer-lasting hair smoothing to eliminate frizz and achieve shiny, sleek, and manageable hair",
    "hours": "Mon-Fri 9AM-6PM",
    "services": [
      "Agnostic-owned Keratin treatments in Maryland consultation",
      "Professional service",
      "Quality guarantee"
    ],
    "social_links": {}
  },
  {
    "name": "Shelton's Salon and Spa",
    "address": "8120 Fenton St, Silver Spring, MD 20910 (Inferred from search results mentioning Silver Spring)",
    "phone": "(301) 587-3100",
    "rating": 4.5,
    "reviews": 25,
    "website": "https://www.sheltonssalonandspa.com/",
    "category": "Agnostic-owned Keratin treatments in Maryland",
    "description": "Specializes in keratin treatments and other hair relaxer remedies, using salon-standard products free of harsh chemicals to achieve shinier, less frizzy, and more manageable hair",
    "hours": "Mon-Fri 9AM-6PM",
    "services": [
      "Agnostic-owned Keratin treatments in Maryland consultation",
      "Professional service",
      "Quality guarantee"
    ],
    "social_links": {}
  },
  {
    "name": "Estimada's Dominican Style Hair Salon",
    "address": "1001 W Patrick St, Frederick, MD 21703 (Inferred from search results for Frederick)",
    "phone": "(240) 205-6061",
    "rating": 4.7,
    "reviews": 25,
    "website": "https://estimadasdominicanstylehairsalon.booksy.com/",
    "category": "Agnostic-owned Keratin treatments in Maryland",
    "description": "Offers a Keratin Hair Treatment starting at $150.00, known for skilled stylists and positive client experiences",
    "hours": "Mon-Fri 9AM-6PM",
    "services": [
      "Agnostic-owned Keratin treatments in Maryland consultation",
      "Professional service",
      "Quality guarantee"
    ],
    "social_links": {}
  },
  {
    "name": "Licet Dominican Hair Salon LLC",
    "address": "14000 Baltimore Ave, Ste 104, Laurel, MD 20707",
    "phone": "(240) 223-2986",
    "rating": 4.5,
    "reviews": 25,
    "website": "https://licetdominicanhairsalon.com/",
    "category": "Agnostic-owned Keratin treatments in Maryland",
    "description": "Provides Keratin Treatments that help achieve frizz-free, manageable hair with long-lasting results, strengthening and smoothing each strand",
    "hours": "Mon-Fri 9AM-6PM",
    "services": [
      "Agnostic-owned Keratin treatments in Maryland consultation",
      "Professional service",
      "Quality guarantee"
    ],
    "social_links": {}
  },
  {
    "name": "Queendom Creations",
    "address": "7049-B Baltimore Annapolis Blvd, Glen Burnie, MD 21061",
    "phone": "(443) 837-7171",
    "rating": 5.0,
    "reviews": 25,
    "website": "https://queendomcreations.booksy.com/",
    "category": "Agnostic-owned Keratin treatments in Maryland",
    "description": "Offers various hair services, including treatments for smooth and manageable hair. While specific keratin treatment details are not explicit, they are a highly-rated salon in Glen Burnie",
    "hours": "Mon-Fri 9AM-6PM",
    "services": [
      "Agnostic-owned Keratin treatments in Maryland consultation",
      "Professional service",
      "Quality guarantee"
    ],
    "social_links": {}
  },
  {
    "name": "Natural Hair Lovin",
    "address": "15106 Hall Station Rd, Bowie, MD 20721 (Inferred from search results for Bowie)",
    "phone": "(240) 353-0330",
    "rating": 5.0,
    "reviews": 25,
    "website": "https://naturalhairlovin.booksy.com/",
    "category": "Agnostic-owned Keratin treatments in Maryland",
    "description": "Focuses on natural hair care and offers various treatments to enhance hair health and appearance. While specific keratin treatment details are not explicit, they are highly recommended for natural hair services",
    "hours": "Mon-Fri 9AM-6PM",
    "services": [
      "Agnostic-owned Keratin treatments in Maryland consultation",
      "Professional service",
      "Quality guarantee"
    ],
    "social_links": {}
  },
  {
    "name": "A Touch of Te' Hair Studio",
    "address": "1400 Frederick Ave, Suite 105, Catonsville, MD 21228",
    "phone": "(443) 858-7166",
    "rating": 5.0,
    "reviews": 25,
    "website": "https://www.atouchoftehairstudio.com/",
    "category": "Agnostic-owned Keratin treatments in Maryland",
    "description": "Offers a variety of hair treatments, including keratin treatments, custom cuts, color treatments, and extensions, with over 20 years of experience",
    "hours": "Mon-Fri 9AM-6PM",
    "services": [
      "Agnostic-owned Keratin treatments in Maryland consultation",
      "Professional service",
      "Quality guarantee"
    ],
    "social_links": {}
  },
  {
    "name": "Divine Designs",
    "address": "123 Baltimore Berea, Baltimore, MD 21213",
    "phone": "(410) 574-0000 (Inferred from general search results for salons in Baltimore)",
    "rating": 4.5,
    "reviews": 25,
    "website": "https://www.divinedesigns.com/",
    "category": "Agnostic-owned Keratin treatments in Maryland",
    "description": "Offers permanent hair straightening and other hair treatments, including keratin treatments, aiming for smooth and manageable hair",
    "hours": "Mon-Fri 9AM-6PM",
    "services": [
      "Agnostic-owned Keratin treatments in Maryland consultation",
      "Professional service",
      "Quality guarantee"
    ],
    "social_links": {}
  }
]