[
  {
    "name": "The Irish Cottage Pub",
    "address": "151 Pleasant St, Methuen, MA 01844",
    "phone": "(978) 685-4000",
    "rating": 4.0,
    "reviews": 25,
    "website": "http://www.irishcottagepub.com/",
    "category": "Catholic-owned Pubs in Massachusetts",
    "description": "An authentic Irish restaurant and pub with great food, drinks, and music, serving traditional Irish dishes",
    "hours": "Mon-Fri 9AM-6PM",
    "services": [
      "Catholic-owned Pubs in Massachusetts consultation",
      "Professional service",
      "Quality guarantee"
    ],
    "social_links": {}
  },
  {
    "name": "Sweeney's On Boylston",
    "address": "1195 Boylston St, Boston, MA 02215",
    "phone": "(617) 536-2030",
    "rating": 4.0,
    "reviews": 25,
    "website": "https://www.sweeneysonboylston.com/",
    "category": "Catholic-owned Pubs in Massachusetts",
    "description": "An Irish pub in Boston's Back Bay, known for a lively time with great Irish food and drink",
    "hours": "Mon-Fri 9AM-6PM",
    "services": [
      "Catholic-owned Pubs in Massachusetts consultation",
      "Professional service",
      "Quality guarantee"
    ],
    "social_links": {}
  },
  {
    "name": "The Irish Pub",
    "address": "51 Billings Rd N, Quincy, MA 02171",
    "phone": "(617) 774-0222",
    "rating": 4.0,
    "reviews": 25,
    "website": "https://www.google.com/maps/search/The+Irish+Pub+in+Massachusetts",
    "category": "Catholic-owned Pubs in Massachusetts",
    "description": "A pub in Quincy, Massachusetts, serving breakfast, lunch, and dinner",
    "hours": "Mon-Fri 9AM-6PM",
    "services": [
      "Catholic-owned Pubs in Massachusetts consultation",
      "Professional service",
      "Quality guarantee"
    ],
    "social_links": {}
  },
  {
    "name": "Sly Fox Tavern",
    "address": "139 Copeland St, Quincy, MA 02169",
    "phone": "(617) 328-5777",
    "rating": 4.0,
    "reviews": 25,
    "website": "https://www.google.com/maps/search/Sly+Fox+Tavern+in+Massachusetts",
    "category": "Catholic-owned Pubs in Massachusetts",
    "description": "A neighborhood Irish bar in West Quincy, owned by the McKenna family",
    "hours": "Mon-Fri 9AM-6PM",
    "services": [
      "Catholic-owned Pubs in Massachusetts consultation",
      "Professional service",
      "Quality guarantee"
    ],
    "social_links": {}
  },
  {
    "name": "The Dubliner Boston",
    "address": "293 Washington St, Boston, MA 02108",
    "phone": "(617) 426-4444",
    "rating": 4.0,
    "reviews": 25,
    "website": "http://www.dublinerboston.com/",
    "category": "Catholic-owned Pubs in Massachusetts",
    "description": "Boston's premium Irish bar, offering live music, great food, and authentic Irish hospitality",
    "hours": "Mon-Fri 9AM-6PM",
    "services": [
      "Catholic-owned Pubs in Massachusetts consultation",
      "Professional service",
      "Quality guarantee"
    ],
    "social_links": {}
  },
  {
    "name": "The Claddagh Pub",
    "address": "171 Pelham St, Methuen, MA 01844",
    "phone": "(978) 683-2945",
    "rating": 4.0,
    "reviews": 25,
    "website": "http://www.thecladdaghpub.com/",
    "category": "Catholic-owned Pubs in Massachusetts",
    "description": "A gathering place in Methuen offering comfort food and libations in a cozy bar atmosphere",
    "hours": "Mon-Fri 9AM-6PM",
    "services": [
      "Catholic-owned Pubs in Massachusetts consultation",
      "Professional service",
      "Quality guarantee"
    ],
    "social_links": {}
  },
  {
    "name": "The Black Rose",
    "address": "160 State St, Boston, MA 02109",
    "phone": "(617) 742-2276",
    "rating": 4.0,
    "reviews": 25,
    "website": "http://www.theblackrose.net/",
    "category": "Catholic-owned Pubs in Massachusetts",
    "description": "A premier Irish pub in Boston's Faneuil Hall, offering food, live music, and Guinness",
    "hours": "Mon-Fri 9AM-6PM",
    "services": [
      "Catholic-owned Pubs in Massachusetts consultation",
      "Professional service",
      "Quality guarantee"
    ],
    "social_links": {}
  },
  {
    "name": "Nathan Bill's",
    "address": "1870 Wilbraham Rd, Springfield, MA 01119",
    "phone": "(413) 782-0005",
    "rating": 4.0,
    "reviews": 25,
    "website": "http://www.nathanbills.com/",
    "category": "Catholic-owned Pubs in Massachusetts",
    "description": "An Irish restaurant and bar in Springfield, MA, offering Irish cuisine and a banquet hall",
    "hours": "Mon-Fri 9AM-6PM",
    "services": [
      "Catholic-owned Pubs in Massachusetts consultation",
      "Professional service",
      "Quality guarantee"
    ],
    "social_links": {}
  },
  {
    "name": "Joe Angelo's Cafe",
    "address": "11 Crescent St, Brockton, MA 02301",
    "phone": "(508) 588-8331",
    "rating": 4.0,
    "reviews": 25,
    "website": "http://www.joeangeloscafe.com/",
    "category": "Catholic-owned Pubs in Massachusetts",
    "description": "A family-owned bar and restaurant in downtown Brockton, serving food and drinks",
    "hours": "Mon-Fri 9AM-6PM",
    "services": [
      "Catholic-owned Pubs in Massachusetts consultation",
      "Professional service",
      "Quality guarantee"
    ],
    "social_links": {}
  },
  {
    "name": "Mickey Malone's Tavern",
    "address": "1109 Main St, Brockton, MA 02301",
    "phone": "(508) 427-6144",
    "rating": 4.0,
    "reviews": 25,
    "website": "http://www.mickeysonmain.com/",
    "category": "Catholic-owned Pubs in Massachusetts",
    "description": "A sports bar in Brockton, MA, offering American food with an Irish twist",
    "hours": "Mon-Fri 9AM-6PM",
    "services": [
      "Catholic-owned Pubs in Massachusetts consultation",
      "Professional service",
      "Quality guarantee"
    ],
    "social_links": {}
  }
]