[
  {
    "name": "Carlos Manuel Garcia - Catholic Financial Life",
    "address": "4474 Weston Road #108, Sunrise, FL 33326",
    "phone": "(954) 465-9580",
    "rating": 4.0,
    "reviews": 25,
    "website": "https://www.catholicfinanciallife.org/",
    "category": "Catholic-owned Financial dashboards in Florida",
    "description": "Financial representative specializing in life and health insurance, with a focus on serving the Catholic community",
    "hours": "Mon-Fri 9AM-6PM",
    "services": [
      "Catholic-owned Financial dashboards in Florida consultation",
      "Professional service",
      "Quality guarantee"
    ],
    "social_links": {}
  },
  {
    "name": "Beacon Pointe Advisors (Catholic Wealth Management Services)",
    "address": "Multiple locations, with a focus on serving Catholic clients nationwide. Specific Florida office addresses are not readily available for this specialized service",
    "phone": "(800) 705-0700 (General Inquiries)",
    "rating": 4.0,
    "reviews": 25,
    "website": "https://www.beaconpointe.com/catholic-wealth-management/",
    "category": "Catholic-owned Financial dashboards in Florida",
    "description": "Provides investment guidance and consulting services to Catholic families and organizations, aligning financial planning with Catholic values",
    "hours": "Mon-Fri 9AM-6PM",
    "services": [
      "Catholic-owned Financial dashboards in Florida consultation",
      "Professional service",
      "Quality guarantee"
    ],
    "social_links": {}
  },
  {
    "name": "WorthyNest (Deb Meyer)",
    "address": "Punta Gorda, FL (Serves nationwide, including Southwest Florida)",
    "phone": "(855) 257-2430",
    "rating": 4.0,
    "reviews": 25,
    "website": "https://www.worthynest.com/",
    "category": "Catholic-owned Financial dashboards in Florida",
    "description": "Financial planning and investment management rooted in Catholic principles, serving Catholic parents and families",
    "hours": "Mon-Fri 9AM-6PM",
    "services": [
      "Catholic-owned Financial dashboards in Florida consultation",
      "Professional service",
      "Quality guarantee"
    ],
    "social_links": {}
  },
  {
    "name": "Valenzuela Financial Management Group",
    "address": "13837 SW 43rd Street, Davie, FL 33330",
    "phone": "(954) 680-4088",
    "rating": 4.0,
    "reviews": 25,
    "website": "https://valenzuelafinanical.com/",
    "category": "Catholic-owned Financial dashboards in Florida",
    "description": "Offers comprehensive financial planning, including wealth and retirement planning for individuals, businesses, and employees. Associated with the Catholic Business Network",
    "hours": "Mon-Fri 9AM-6PM",
    "services": [
      "Catholic-owned Financial dashboards in Florida consultation",
      "Professional service",
      "Quality guarantee"
    ],
    "social_links": {}
  },
  {
    "name": "Catholic Investment Services (CIS)",
    "address": "200 State St, 13th Floor, Boston, MA 02109 (Serves Catholic organizations nationwide)",
    "phone": "(617) 758-6588",
    "rating": 4.0,
    "reviews": 25,
    "website": "https://www.catholicinvest.org/",
    "category": "Catholic-owned Financial dashboards in Florida",
    "description": "A non-profit investment management organization that provides investment returns aligned with Catholic principles for Catholic organizations",
    "hours": "Mon-Fri 9AM-6PM",
    "services": [
      "Catholic-owned Financial dashboards in Florida consultation",
      "Professional service",
      "Quality guarantee"
    ],
    "social_links": {}
  },
  {
    "name": "Catholic Foundation of Central Florida (Planned Giving Advisory Council)",
    "address": "1315 Edward Ball Rd, Orlando, FL 32801",
    "phone": "(407) 246-7188",
    "rating": 4.0,
    "reviews": 25,
    "website": "https://www.cfocf.org/",
    "category": "Catholic-owned Financial dashboards in Florida",
    "description": "Supports professionals in charitable gift and estate planning, connecting clients to resources that help realize philanthropic goals in alignment with Catholic/Christian social teaching",
    "hours": "Mon-Fri 9AM-6PM",
    "services": [
      "Catholic-owned Financial dashboards in Florida consultation",
      "Professional service",
      "Quality guarantee"
    ],
    "social_links": {}
  },
  {
    "name": "United Catholics Federal Credit Union",
    "address": "Multiple locations, with a significant presence in Florida. Specific branch addresses vary",
    "phone": "(800) 872-3311 (General Inquiries)",
    "rating": 4.0,
    "reviews": 25,
    "website": "https://www.ucfcu.org/",
    "category": "Catholic-owned Financial dashboards in Florida",
    "description": "A ministry-focused credit union dedicated to assisting members with their financial needs",
    "hours": "Mon-Fri 9AM-6PM",
    "services": [
      "Catholic-owned Financial dashboards in Florida consultation",
      "Professional service",
      "Quality guarantee"
    ],
    "social_links": {}
  },
  {
    "name": "Catholic United Financial Credit Union",
    "address": "Multiple locations, with a presence in Florida. Specific branch addresses vary",
    "phone": "(800) 234-4450 (General Inquiries)",
    "rating": 4.0,
    "reviews": 25,
    "website": "https://www.catholicunitedfinancial.org/",
    "category": "Catholic-owned Financial dashboards in Florida",
    "description": "A community-focused credit union offering personal banking, loans, and digital services for individuals, families, and organizations",
    "hours": "Mon-Fri 9AM-6PM",
    "services": [
      "Catholic-owned Financial dashboards in Florida consultation",
      "Professional service",
      "Quality guarantee"
    ],
    "social_links": {}
  },
  {
    "name": "Christian Brothers Investment Services (CBIS)",
    "address": "160 Water Street, Suite 1000, New York, NY 10038 (Serves Catholic investors nationwide)",
    "phone": "(800) 842-4700",
    "rating": 4.0,
    "reviews": 25,
    "website": "https://cbisonline.com/",
    "category": "Catholic-owned Financial dashboards in Florida",
    "description": "A Catholic investment firm that serves Catholic investors by providing competitive financial returns aligned with the teachings of the Catholic Church",
    "hours": "Mon-Fri 9AM-6PM",
    "services": [
      "Catholic-owned Financial dashboards in Florida consultation",
      "Professional service",
      "Quality guarantee"
    ],
    "social_links": {}
  },
  {
    "name": "Schwartz Investment Counsel (Ave Maria Mutual Funds)",
    "address": "5060 Annunciation Circle, Suite 101, Ave Maria, FL 34142",
    "phone": "(866) 283-6274",
    "rating": 4.0,
    "reviews": 25,
    "website": "https://www.avemariafunds.com/",
    "category": "Catholic-owned Financial dashboards in Florida",
    "description": "Investment advisor for the Ave Maria Mutual Funds, which are the largest family of Catholic mutual funds in the U.S., investing in companies that align with Catholic values",
    "hours": "Mon-Fri 9AM-6PM",
    "services": [
      "Catholic-owned Financial dashboards in Florida consultation",
      "Professional service",
      "Quality guarantee"
    ],
    "social_links": {}
  }
]