[
  {
    "name": "Safari Lawn Care LLC",
    "address": "7000 W. Overland Rd., Boise, ID 83709",
    "phone": "(208) 898-9600",
    "rating": 4.0,
    "reviews": 25,
    "website": "https://www.safarilawncare.com/",
    "category": "Armenian-speaking Irrigation system installation in Idaho",
    "description": "Offers sprinkler system installation, repair, turn-on, and blowout services. They specialize in both residential and commercial properties",
    "hours": "Mon-Fri 9AM-6PM",
    "services": [
      "Armenian-speaking Irrigation system installation in Idaho consultation",
      "Professional service",
      "Quality guarantee"
    ],
    "social_links": {}
  },
  {
    "name": "The Yard Butler",
    "address": "3750 N. Yellowstone Hwy., Idaho Falls, ID 83401",
    "phone": "(208) 844-4177",
    "rating": 4.0,
    "reviews": 25,
    "website": "https://www.theyardbutler.com/",
    "category": "Armenian-speaking Irrigation system installation in Idaho",
    "description": "Provides irrigation and sprinkler system services, including installation, maintenance, and repair for lawns, gardens, and drip systems",
    "hours": "Mon-Fri 9AM-6PM",
    "services": [
      "Armenian-speaking Irrigation system installation in Idaho consultation",
      "Professional service",
      "Quality guarantee"
    ],
    "social_links": {}
  },
  {
    "name": "Outback Landscape",
    "address": "3040 W. Broadway St., Idaho Falls, ID 83402",
    "phone": "(208) 522-5296",
    "rating": 4.0,
    "reviews": 25,
    "website": "https://www.outbacklandscape.com/",
    "category": "Armenian-speaking Irrigation system installation in Idaho",
    "description": "Offers comprehensive irrigation services, including installation, repair, and maintenance, utilizing modern technology like smart controls and rain sensors",
    "hours": "Mon-Fri 9AM-6PM",
    "services": [
      "Armenian-speaking Irrigation system installation in Idaho consultation",
      "Professional service",
      "Quality guarantee"
    ],
    "social_links": {}
  },
  {
    "name": "T&T Lawn Services",
    "address": "1575 W. Broadway St., Idaho Falls, ID 83402",
    "phone": "(208) 523-5296",
    "rating": 4.0,
    "reviews": 25,
    "website": "https://www.tntlawnservices.com/",
    "category": "Armenian-speaking Irrigation system installation in Idaho",
    "description": "Provides professional sprinkler system installation services, focusing on customized designs and efficient water distribution for lawns and gardens",
    "hours": "Mon-Fri 9AM-6PM",
    "services": [
      "Armenian-speaking Irrigation system installation in Idaho consultation",
      "Professional service",
      "Quality guarantee"
    ],
    "social_links": {}
  },
  {
    "name": "Mr. Chipp",
    "address": "1000 S. Progress Ave., Boise, ID 83709",
    "phone": "(208) 401-0140",
    "rating": 4.0,
    "reviews": 25,
    "website": "https://mrchipp.com/",
    "category": "Armenian-speaking Irrigation system installation in Idaho",
    "description": "A landscaping company offering sprinkler system installation and maintenance services in the greater Boise area, focusing on punctual and professional results",
    "hours": "Mon-Fri 9AM-6PM",
    "services": [
      "Armenian-speaking Irrigation system installation in Idaho consultation",
      "Professional service",
      "Quality guarantee"
    ],
    "social_links": {}
  },
  {
    "name": "Green-Keeper Landscape, LLC",
    "address": "10100 W. State St., Boise, ID 83714",
    "phone": "(208) 377-0900",
    "rating": 4.3,
    "reviews": 25,
    "website": "https://www.google.com/maps/search/Green-Keeper+Landscape,+LLC+in+Idaho",
    "category": "Armenian-speaking Irrigation system installation in Idaho",
    "description": "Handles a wide array of sprinkler installation requests with over 40 years of experience, known for being courteous and professional",
    "hours": "Mon-Fri 9AM-6PM",
    "services": [
      "Armenian-speaking Irrigation system installation in Idaho consultation",
      "Professional service",
      "Quality guarantee"
    ],
    "social_links": {}
  },
  {
    "name": "Idaho Landscape Creations",
    "address": "10900 W. Chinden Blvd., Boise, ID 83714",
    "phone": "(208) 377-5296",
    "rating": 4.0,
    "reviews": 25,
    "website": "https://www.idaholandscapecreations.com/",
    "category": "Armenian-speaking Irrigation system installation in Idaho",
    "description": "Specializes in crafting landscapes and offers irrigation services, with a team that is fully licensed and insured",
    "hours": "Mon-Fri 9AM-6PM",
    "services": [
      "Armenian-speaking Irrigation system installation in Idaho consultation",
      "Professional service",
      "Quality guarantee"
    ],
    "social_links": {}
  },
  {
    "name": "Idaho Falls Sprinkler Systems",
    "address": "3150 N. Yellowstone Hwy., Idaho Falls, ID 83401",
    "phone": "(208) 523-0500",
    "rating": 4.0,
    "reviews": 25,
    "website": "https://idahofallssprinklers.com/",
    "category": "Armenian-speaking Irrigation system installation in Idaho",
    "description": "Provides various services to get automatic irrigation systems up and running smoothly, focusing on customer satisfaction",
    "hours": "Mon-Fri 9AM-6PM",
    "services": [
      "Armenian-speaking Irrigation system installation in Idaho consultation",
      "Professional service",
      "Quality guarantee"
    ],
    "social_links": {}
  },
  {
    "name": "Conserva Irrigation of Greater Boise",
    "address": "1101 S. Progress Ave., Boise, ID 83709",
    "phone": "(208) 369-9783",
    "rating": 4.0,
    "reviews": 25,
    "website": "https://www.conservairrigation.com/greater-boise/",
    "category": "Armenian-speaking Irrigation system installation in Idaho",
    "description": "Offers competitively priced sprinkler repair and installation services, focusing on water conservation and efficiency with smart sprinkler systems",
    "hours": "Mon-Fri 9AM-6PM",
    "services": [
      "Armenian-speaking Irrigation system installation in Idaho consultation",
      "Professional service",
      "Quality guarantee"
    ],
    "social_links": {}
  },
  {
    "name": "Idaho Sprinkler Services",
    "address": "10000 W. State St., Boise, ID 83714",
    "phone": "(208) 401-0140",
    "rating": 4.0,
    "reviews": 25,
    "website": "https://idahosprinklerservices.com/",
    "category": "Armenian-speaking Irrigation system installation in Idaho",
    "description": "Primarily focuses on sprinkler repair, but also offers irrigation and sprinkler system upgrades and additions, serving the Treasure Valley area",
    "hours": "Mon-Fri 9AM-6PM",
    "services": [
      "Armenian-speaking Irrigation system installation in Idaho consultation",
      "Professional service",
      "Quality guarantee"
    ],
    "social_links": {}
  }
]