[
  {
    "name": "Insurance Protection Specialists",
    "address": "5500 Plaza Drive, Flowood, MS 39232",
    "phone": "(601) 992-4040",
    "rating": 4.0,
    "reviews": 25,
    "website": "https://www.ips-ms.com/",
    "category": "Greek-speaking Umbrella insurance in Mississippi",
    "description": "Offers umbrella insurance as an added layer of coverage above standard liability limits",
    "hours": "Mon-Fri 9AM-6PM",
    "services": [
      "Greek-speaking Umbrella insurance in Mississippi consultation",
      "Professional service",
      "Quality guarantee"
    ],
    "social_links": {}
  },
  {
    "name": "Mississippi Farm Bureau Insurance",
    "address": "Multiple locations across Mississippi",
    "phone": "(800) 222-2476 (General Inquiries)",
    "rating": 4.0,
    "reviews": 25,
    "website": "https://www.FarmBureauMS.org/",
    "category": "Greek-speaking Umbrella insurance in Mississippi",
    "description": "Provides personal umbrella policies offering excess liability coverage",
    "hours": "Mon-Fri 9AM-6PM",
    "services": [
      "Greek-speaking Umbrella insurance in Mississippi consultation",
      "Professional service",
      "Quality guarantee"
    ],
    "social_links": {}
  },
  {
    "name": "Scott Insurance Services",
    "address": "1000 Highland Colony Pkwy, Suite 100, Jackson, MS 39211",
    "phone": "(601) 981-1000",
    "rating": 4.0,
    "reviews": 25,
    "website": "https://www.scottins.com/",
    "category": "Greek-speaking Umbrella insurance in Mississippi",
    "description": "Offers umbrella insurance as a financial safety net with comprehensive additional liability coverage",
    "hours": "Mon-Fri 9AM-6PM",
    "services": [
      "Greek-speaking Umbrella insurance in Mississippi consultation",
      "Professional service",
      "Quality guarantee"
    ],
    "social_links": {}
  },
  {
    "name": "Riverside Insurance Agency, Inc.",
    "address": "1000 Flowood Dr, Flowood, MS 39232",
    "phone": "(601) 932-7000",
    "rating": 4.0,
    "reviews": 25,
    "website": "https://www.riversideins.com/",
    "category": "Greek-speaking Umbrella insurance in Mississippi",
    "description": "Provides umbrella insurance for added protection against liabilities from injuries or property damage",
    "hours": "Mon-Fri 9AM-6PM",
    "services": [
      "Greek-speaking Umbrella insurance in Mississippi consultation",
      "Professional service",
      "Quality guarantee"
    ],
    "social_links": {}
  },
  {
    "name": "The Policy Center Inc.",
    "address": "1000 Highland Colony Pkwy, Suite 100, Jackson, MS 39211",
    "phone": "(601) 981-1000",
    "rating": 4.0,
    "reviews": 25,
    "website": "https://www.thepolicycenterinc.com/",
    "category": "Greek-speaking Umbrella insurance in Mississippi",
    "description": "Offers comprehensive insurance solutions, likely including umbrella policies",
    "hours": "Mon-Fri 9AM-6PM",
    "services": [
      "Greek-speaking Umbrella insurance in Mississippi consultation",
      "Professional service",
      "Quality guarantee"
    ],
    "social_links": {}
  },
  {
    "name": "Oxford Insurance Agency, Inc.",
    "address": "211 W Jackson Ave, Oxford, MS 38655",
    "phone": "(662) 234-7511",
    "rating": 4.0,
    "reviews": 25,
    "website": "https://www.oxfordins.com/",
    "category": "Greek-speaking Umbrella insurance in Mississippi",
    "description": "An independent agency that can help compare and save on various insurance types, potentially including umbrella",
    "hours": "Mon-Fri 9AM-6PM",
    "services": [
      "Greek-speaking Umbrella insurance in Mississippi consultation",
      "Professional service",
      "Quality guarantee"
    ],
    "social_links": {}
  },
  {
    "name": "Little & Associates Insurance",
    "address": "2310 5th St, Meridian, MS 39301",
    "phone": "(601) 482-8109",
    "rating": 4.0,
    "reviews": 25,
    "website": "https://www.littleandassociates.net/",
    "category": "Greek-speaking Umbrella insurance in Mississippi",
    "description": "Offers personal umbrella liability insurance for an extra layer of protection",
    "hours": "Mon-Fri 9AM-6PM",
    "services": [
      "Greek-speaking Umbrella insurance in Mississippi consultation",
      "Professional service",
      "Quality guarantee"
    ],
    "social_links": {}
  },
  {
    "name": "Guardian Insurance Group",
    "address": "701 Commerce St, Southaven, MS 38671",
    "phone": "(662) 342-0111",
    "rating": 4.0,
    "reviews": 25,
    "website": "https://www.guardianms.com/",
    "category": "Greek-speaking Umbrella insurance in Mississippi",
    "description": "Provides personal umbrella insurance to protect against large claims and liabilities",
    "hours": "Mon-Fri 9AM-6PM",
    "services": [
      "Greek-speaking Umbrella insurance in Mississippi consultation",
      "Professional service",
      "Quality guarantee"
    ],
    "social_links": {}
  },
  {
    "name": "Pyron Group",
    "address": "1000 Highland Colony Pkwy, Suite 100, Jackson, MS 39211",
    "phone": "(601) 981-1000",
    "rating": 4.0,
    "reviews": 25,
    "website": "https://www.pyrongroup.com/",
    "category": "Greek-speaking Umbrella insurance in Mississippi",
    "description": "Specializes in commercial umbrella insurance, assessing business needs for extra coverage",
    "hours": "Mon-Fri 9AM-6PM",
    "services": [
      "Greek-speaking Umbrella insurance in Mississippi consultation",
      "Professional service",
      "Quality guarantee"
    ],
    "social_links": {}
  },
  {
    "name": "Wood Griffith Insurance Services",
    "address": "1000 Highland Colony Pkwy, Suite 100, Jackson, MS 39211",
    "phone": "(601) 981-1000",
    "rating": 4.0,
    "reviews": 25,
    "website": "https://www.woodgriffith.com/",
    "category": "Greek-speaking Umbrella insurance in Mississippi",
    "description": "Offers commercial umbrella insurance as a supplementary layer of protection for businesses",
    "hours": "Mon-Fri 9AM-6PM",
    "services": [
      "Greek-speaking Umbrella insurance in Mississippi consultation",
      "Professional service",
      "Quality guarantee"
    ],
    "social_links": {}
  }
]