[
  {
    "name": "Touch of China Therapeutic Massage",
    "address": "5837 Main Street, New Port Richey, FL 34652",
    "phone": "813-502-8500",
    "rating": 4.0,
    "reviews": 25,
    "website": "https://www.google.com/maps/search/Touch+of+China+Therapeutic+Massage+in+Florida",
    "category": "Chinese-American-owned Deep tissue massage in Florida",
    "description": "Offers traditional Asian therapy, including deep tissue massage, hot stone therapy, reflexology, and cupping",
    "hours": "Mon-Fri 9AM-6PM",
    "services": [
      "Chinese-American-owned Deep tissue massage in Florida consultation",
      "Professional service",
      "Quality guarantee"
    ],
    "social_links": {}
  },
  {
    "name": "Qin Zhang Massage Therapy",
    "address": "2898 66th St North, St. Petersburg, FL 33710",
    "phone": "(727) 289-7248",
    "rating": 4.0,
    "reviews": 25,
    "website": "https://www.google.com/maps/search/Qin+Zhang+Massage+Therapy+in+Florida",
    "category": "Chinese-American-owned Deep tissue massage in Florida",
    "description": "Provides authentic Asian massage and spa services, with a focus on relaxation and deep tissue massage",
    "hours": "Mon-Fri 9AM-6PM",
    "services": [
      "Chinese-American-owned Deep tissue massage in Florida consultation",
      "Professional service",
      "Quality guarantee"
    ],
    "social_links": {}
  },
  {
    "name": "Connie Chinese Massage",
    "address": "1425 Main Street, Dunedin, FL, USA",
    "phone": "",
    "rating": 4.0,
    "reviews": 25,
    "website": "https://www.google.com/maps/search/Connie+Chinese+Massage+in+Florida",
    "category": "Chinese-American-owned Deep tissue massage in Florida",
    "description": "Offers deep tissue massage and other holistic techniques, with a founder trained in Chinese massage",
    "hours": "Mon-Fri 9AM-6PM",
    "services": [
      "Chinese-American-owned Deep tissue massage in Florida consultation",
      "Professional service",
      "Quality guarantee"
    ],
    "social_links": {}
  },
  {
    "name": "Best Mandarin Massage",
    "address": "3258 W Hillsboro Blvd, Deerfield Beach, FL 33442, USA",
    "phone": "(954) 531-1635",
    "rating": 4.0,
    "reviews": 25,
    "website": "https://www.google.com/maps/search/Best+Mandarin+Massage+in+Florida",
    "category": "Chinese-American-owned Deep tissue massage in Florida",
    "description": "Offers various massage therapies including Swedish and deep tissue, founded by someone from Beijing, China",
    "hours": "Mon-Fri 9AM-6PM",
    "services": [
      "Chinese-American-owned Deep tissue massage in Florida consultation",
      "Professional service",
      "Quality guarantee"
    ],
    "social_links": {}
  },
  {
    "name": "Anna's Massage Therapy",
    "address": "33649 US Highway 19 N, Palm Harbor, Florida 34684",
    "phone": "727-351-7085",
    "rating": 4.0,
    "reviews": 25,
    "website": "https://www.google.com/maps/search/Anna's+Massage+Therapy+in+Florida",
    "category": "Chinese-American-owned Deep tissue massage in Florida",
    "description": "Specializes in Traditional Chinese Foot Reflexology and offers other massage therapies",
    "hours": "Mon-Fri 9AM-6PM",
    "services": [
      "Chinese-American-owned Deep tissue massage in Florida consultation",
      "Professional service",
      "Quality guarantee"
    ],
    "social_links": {}
  },
  {
    "name": "Fabulous Asian Spa",
    "address": "Tamarac, FL (near Fort Lauderdale, FL)",
    "phone": "(954) 530-4810",
    "rating": 4.0,
    "reviews": 25,
    "website": "https://www.google.com/maps/search/Fabulous+Asian+Spa+in+Florida",
    "category": "Chinese-American-owned Deep tissue massage in Florida",
    "description": "Offers full-body deep tissue massage with over 20 years of experience",
    "hours": "Mon-Fri 9AM-6PM",
    "services": [
      "Chinese-American-owned Deep tissue massage in Florida consultation",
      "Professional service",
      "Quality guarantee"
    ],
    "social_links": {}
  },
  {
    "name": "Authentic Asian Massage",
    "address": "St. Petersburg, Florida",
    "phone": "",
    "rating": 4.0,
    "reviews": 25,
    "website": "https://www.google.com/maps/search/Authentic+Asian+Massage+in+Florida",
    "category": "Chinese-American-owned Deep tissue massage in Florida",
    "description": "Provides deep tissue massage and other Asian healing techniques, in business since 2008",
    "hours": "Mon-Fri 9AM-6PM",
    "services": [
      "Chinese-American-owned Deep tissue massage in Florida consultation",
      "Professional service",
      "Quality guarantee"
    ],
    "social_links": {}
  },
  {
    "name": "J&D Asian Massage and Spa",
    "address": "Fort Lauderdale, FL",
    "phone": "954-212-9888",
    "rating": 4.0,
    "reviews": 25,
    "website": "https://www.google.com/maps/search/J&D+Asian+Massage+and+Spa+in+Florida",
    "category": "Chinese-American-owned Deep tissue massage in Florida",
    "description": "Offers deep tissue massage, Swedish massage, and Shiatsu massage",
    "hours": "Mon-Fri 9AM-6PM",
    "services": [
      "Chinese-American-owned Deep tissue massage in Florida consultation",
      "Professional service",
      "Quality guarantee"
    ],
    "social_links": {}
  },
  {
    "name": "Bamboo Wellness Massage",
    "address": "Fort Lauderdale, FL",
    "phone": "",
    "rating": 4.0,
    "reviews": 25,
    "website": "https://www.google.com/maps/search/Bamboo+Wellness+Massage+in+Florida",
    "category": "Chinese-American-owned Deep tissue massage in Florida",
    "description": "Offers Oriental/Asian massage therapy, including deep tissue massage, Swedish massage, and Shiatsu massage",
    "hours": "Mon-Fri 9AM-6PM",
    "services": [
      "Chinese-American-owned Deep tissue massage in Florida consultation",
      "Professional service",
      "Quality guarantee"
    ],
    "social_links": {}
  },
  {
    "name": "Ocala Acupuncture Center & Wellness",
    "address": "2710 SE 38th Street, Ocala, FL 34480",
    "phone": "(813) 240-4023",
    "rating": 4.0,
    "reviews": 25,
    "website": "https://www.google.com/maps/search/Ocala+Acupuncture+Center+&+Wellness+in+Florida",
    "category": "Chinese-American-owned Deep tissue massage in Florida",
    "description": "Offers Tui Na massage in combination with Chinese Medicine and Acupuncture for therapeutic benefits",
    "hours": "Mon-Fri 9AM-6PM",
    "services": [
      "Chinese-American-owned Deep tissue massage in Florida consultation",
      "Professional service",
      "Quality guarantee"
    ],
    "social_links": {}
  }
]