[
  {
    "name": "Comfort Keepers Home Care",
    "address": "Multiple locations, including Anchorage, AK",
    "phone": "(907) 885-6512",
    "rating": 4.0,
    "reviews": 25,
    "website": "https://www.comfortkeepers.com/",
    "category": "Alaska-Native-owned Respite care in Alaska",
    "description": "Offers respite care services to provide relief for family caregivers, with flexible scheduling and personalized care plans",
    "hours": "Mon-Fri 9AM-6PM",
    "services": [
      "Alaska-Native-owned Respite care in Alaska consultation",
      "Professional service",
      "Quality guarantee"
    ],
    "social_links": {}
  },
  {
    "name": "Visiting Angels Anchorage",
    "address": "Multiple locations, including Anchorage, AK",
    "phone": "",
    "rating": 4.0,
    "reviews": 25,
    "website": "https://www.visitingangels.com/anchorage/",
    "category": "Alaska-Native-owned Respite care in Alaska",
    "description": "Provides respite care services to help seniors live safely at home while offering support to family caregivers. They offer part-time, temporary, and support care",
    "hours": "Mon-Fri 9AM-6PM",
    "services": [
      "Alaska-Native-owned Respite care in Alaska consultation",
      "Professional service",
      "Quality guarantee"
    ],
    "social_links": {}
  },
  {
    "name": "Consumer Direct Care Network Alaska",
    "address": "Multiple locations in Alaska",
    "phone": "",
    "rating": 4.0,
    "reviews": 25,
    "website": "https://www.consumerdirectcare.com/alaska/",
    "category": "Alaska-Native-owned Respite care in Alaska",
    "description": "Offers chore and respite services to provide relief for caregivers and support for individuals with age or disability-related needs",
    "hours": "Mon-Fri 9AM-6PM",
    "services": [
      "Alaska-Native-owned Respite care in Alaska consultation",
      "Professional service",
      "Quality guarantee"
    ],
    "social_links": {}
  },
  {
    "name": "Alaskan Home Health, Inc.",
    "address": "9191 Old Seward Hwy., Suite 19A, Anchorage, Alaska 99515",
    "phone": "(907) 830-8548",
    "rating": 4.0,
    "reviews": 25,
    "website": "http://www.alaskanhomehealth.com/",
    "category": "Alaska-Native-owned Respite care in Alaska",
    "description": "Provides comprehensive home health care services, which can include support that may function as respite care for families",
    "hours": "Mon-Fri 9AM-6PM",
    "services": [
      "Alaska-Native-owned Respite care in Alaska consultation",
      "Professional service",
      "Quality guarantee"
    ],
    "social_links": {}
  },
  {
    "name": "Providence at Home with Compassus Home Health (Anchorage)",
    "address": "Anchorage, AK",
    "phone": "(907) 331-4075",
    "rating": 4.0,
    "reviews": 25,
    "website": "https://www.compassus.com/locations/alaska/anchorage/providence-at-home-anchorage",
    "category": "Alaska-Native-owned Respite care in Alaska",
    "description": "Offers Medicare-certified home health care services that can assist families needing temporary relief",
    "hours": "Mon-Fri 9AM-6PM",
    "services": [
      "Alaska-Native-owned Respite care in Alaska consultation",
      "Professional service",
      "Quality guarantee"
    ],
    "social_links": {}
  },
  {
    "name": "Ancora Home Health & Hospice",
    "address": "Multiple locations in Alaska",
    "phone": "",
    "rating": 4.0,
    "reviews": 25,
    "website": "https://ancora.health/",
    "category": "Alaska-Native-owned Respite care in Alaska",
    "description": "Provides medical home health care, palliative care, and hospice care, which can offer support and respite for families",
    "hours": "Mon-Fri 9AM-6PM",
    "services": [
      "Alaska-Native-owned Respite care in Alaska consultation",
      "Professional service",
      "Quality guarantee"
    ],
    "social_links": {}
  },
  {
    "name": "Southcentral Foundation (Elder Program)",
    "address": "6901 East Tudor Road, Suite 8, Anchorage, AK 99507",
    "phone": "(907) 729-6500",
    "rating": 4.0,
    "reviews": 25,
    "website": "https://www.southcentralfoundation.com/",
    "category": "Alaska-Native-owned Respite care in Alaska",
    "description": "This program serves Alaska Native and American Indian Elders and may offer services that include respite care or support for caregivers",
    "hours": "Mon-Fri 9AM-6PM",
    "services": [
      "Alaska-Native-owned Respite care in Alaska consultation",
      "Professional service",
      "Quality guarantee"
    ],
    "social_links": {}
  },
  {
    "name": "I\u00f1upiat Community of the Arctic Slope (ICAS) Social Services",
    "address": "Various locations, including Anaktuvuk Pass and Pt. Lay",
    "phone": "",
    "rating": 4.0,
    "reviews": 25,
    "website": "https://www.northslope.org/departments/social-services",
    "category": "Alaska-Native-owned Respite care in Alaska",
    "description": "Offers respite care providing relief to unpaid family support for senior tribal members",
    "hours": "Mon-Fri 9AM-6PM",
    "services": [
      "Alaska-Native-owned Respite care in Alaska consultation",
      "Professional service",
      "Quality guarantee"
    ],
    "social_links": {}
  },
  {
    "name": "Kodiak Area Native Association (KANA) Elder Services",
    "address": "Kodiak, AK",
    "phone": "(907) 486-1368",
    "rating": 4.0,
    "reviews": 25,
    "website": "https://www.kana.kodiak.ak.us/",
    "category": "Alaska-Native-owned Respite care in Alaska",
    "description": "Provides caregiver support, including respite care, for those caring for Elderly loved ones or grandchildren",
    "hours": "Mon-Fri 9AM-6PM",
    "services": [
      "Alaska-Native-owned Respite care in Alaska consultation",
      "Professional service",
      "Quality guarantee"
    ],
    "social_links": {}
  },
  {
    "name": "Aleutian Pribilof Islands Association, Inc.",
    "address": "Anchorage, AK",
    "phone": "(907) 276-2700 ext 721",
    "rating": 4.0,
    "reviews": 25,
    "website": "https://www.apiai.org/",
    "category": "Alaska-Native-owned Respite care in Alaska",
    "description": "As a tribal entity offering personal care services, they may provide or coordinate respite care for eligible individuals",
    "hours": "Mon-Fri 9AM-6PM",
    "services": [
      "Alaska-Native-owned Respite care in Alaska consultation",
      "Professional service",
      "Quality guarantee"
    ],
    "social_links": {}
  }
]