[
  {
    "name": "American Pest Management",
    "address": "1045 E 76th Ave, Anchorage, AK 99518",
    "phone": "(907) 277-7378",
    "rating": 4.5,
    "reviews": 25,
    "website": "https://www.americanpestmanagement.com/",
    "category": "Armenian-speaking Bed bug control in Alaska",
    "description": "Offers heat and chemical treatments for bed bugs, with a 30-day service warranty. They also use trained inspection dogs",
    "hours": "Mon-Fri 9AM-6PM",
    "services": [
      "Armenian-speaking Bed bug control in Alaska consultation",
      "Professional service",
      "Quality guarantee"
    ],
    "social_links": {}
  },
  {
    "name": "Alaska Pest Management",
    "address": "1045 E 76th Ave, Anchorage, AK 99518",
    "phone": "(907) 277-7378",
    "rating": 4.5,
    "reviews": 25,
    "website": "https://www.alaskapestmanagement.com/",
    "category": "Armenian-speaking Bed bug control in Alaska",
    "description": "Provides heat treatment technology and professional-grade pesticides for complete bed bug eradication. They have over two decades of experience",
    "hours": "Mon-Fri 9AM-6PM",
    "services": [
      "Armenian-speaking Bed bug control in Alaska consultation",
      "Professional service",
      "Quality guarantee"
    ],
    "social_links": {}
  },
  {
    "name": "Pied Piper Pest Control",
    "address": "2440 E 88th Ave Suite A, Anchorage, AK 99507",
    "phone": "(907) 344-2538",
    "rating": 4.7,
    "reviews": 25,
    "website": "https://www.piedpiperpestcontrol.com/",
    "category": "Armenian-speaking Bed bug control in Alaska",
    "description": "A locally owned and operated company since 1965, offering comprehensive bed bug treatment solutions including chemical and steam treatments",
    "hours": "Mon-Fri 9AM-6PM",
    "services": [
      "Armenian-speaking Bed bug control in Alaska consultation",
      "Professional service",
      "Quality guarantee"
    ],
    "social_links": {}
  },
  {
    "name": "SES Pest & Wildlife Control",
    "address": "Serves Kenai Peninsula and Anchorage, AK. Specific office address not readily available",
    "phone": "(907) 362-5200",
    "rating": 4.8,
    "reviews": 25,
    "website": "https://www.sespest.com/",
    "category": "Armenian-speaking Bed bug control in Alaska",
    "description": "An Alaskan-owned company specializing in pest and wildlife control, including discreet bed bug removal using non-chemical and natural organic products when viable",
    "hours": "Mon-Fri 9AM-6PM",
    "services": [
      "Armenian-speaking Bed bug control in Alaska consultation",
      "Professional service",
      "Quality guarantee"
    ],
    "social_links": {}
  },
  {
    "name": "Eagle Pest Control & Tree Service",
    "address": "11001 Old Seward Hwy, Ste 102, Anchorage, AK 99515",
    "phone": "(907) 345-4011",
    "rating": 4.6,
    "reviews": 25,
    "website": "https://www.eaglepestak.com/",
    "category": "Armenian-speaking Bed bug control in Alaska",
    "description": "Offers trusted, year-round pest management, including guaranteed thermal remediation (high heat) treatments for bed bugs, with a 90-day warranty",
    "hours": "Mon-Fri 9AM-6PM",
    "services": [
      "Armenian-speaking Bed bug control in Alaska consultation",
      "Professional service",
      "Quality guarantee"
    ],
    "social_links": {}
  },
  {
    "name": "Alaska Affordable Pest",
    "address": "Serves Palmer, Anchorage, Girdwood, Wasilla, and Eagle River, AK. Specific office address not readily available",
    "phone": "(907) 770-5635",
    "rating": 4.9,
    "reviews": 25,
    "website": "https://www.alaskaaffordablepest.com/",
    "category": "Armenian-speaking Bed bug control in Alaska",
    "description": "Provides a full range of pest control services, including effective treatment plans for bed bugs, with a focus on prompt and quality service",
    "hours": "Mon-Fri 9AM-6PM",
    "services": [
      "Armenian-speaking Bed bug control in Alaska consultation",
      "Professional service",
      "Quality guarantee"
    ],
    "social_links": {}
  },
  {
    "name": "Alaska Pest Management (Southeast Alaska)",
    "address": "Serves Southeast Alaska, including Juneau, AK. Specific office address not readily available",
    "phone": "(907) 586-2411",
    "rating": 4.8,
    "reviews": 25,
    "website": "https://www.alaskapestmanagement.net/",
    "category": "Armenian-speaking Bed bug control in Alaska",
    "description": "Leading pest control company in Southeast Alaska for over 30 years, experienced with local pests and effective in eradicating bed bug problems",
    "hours": "Mon-Fri 9AM-6PM",
    "services": [
      "Armenian-speaking Bed bug control in Alaska consultation",
      "Professional service",
      "Quality guarantee"
    ],
    "social_links": {}
  },
  {
    "name": "Alaska Bed Bug Solutions",
    "address": "Serves homes and businesses across Alaska. Specific office address not readily available",
    "phone": "(907) 302-0011",
    "rating": 4.9,
    "reviews": 25,
    "website": "https://www.alaskabedbugsolutions.com/",
    "category": "Armenian-speaking Bed bug control in Alaska",
    "description": "Specializes in chemical-free heat treatments to eliminate bed bugs at all life stages, offering fast and reliable service",
    "hours": "Mon-Fri 9AM-6PM",
    "services": [
      "Armenian-speaking Bed bug control in Alaska consultation",
      "Professional service",
      "Quality guarantee"
    ],
    "social_links": {}
  },
  {
    "name": "Eco Pros Pest Solutions",
    "address": "Serves Anchorage, Wasilla, Kenai, and Palmer in Alaska. Specific office address not readily available",
    "phone": "(907) 201-8783",
    "rating": 4.7,
    "reviews": 25,
    "website": "https://www.ecoprosak.com/",
    "category": "Armenian-speaking Bed bug control in Alaska",
    "description": "Offers pest control and extermination services for various pests, including bed bugs, with options for regular or organic pest control",
    "hours": "Mon-Fri 9AM-6PM",
    "services": [
      "Armenian-speaking Bed bug control in Alaska consultation",
      "Professional service",
      "Quality guarantee"
    ],
    "social_links": {}
  },
  {
    "name": "APEX Pest Control Solutions of Alaska",
    "address": "Serves Alaska. Specific office address not readily available",
    "phone": "(907) 302-0011",
    "rating": 4.8,
    "reviews": 25,
    "website": "https://www.apexak.com/",
    "category": "Armenian-speaking Bed bug control in Alaska",
    "description": "Provides excellent pest and bed bug services at affordable and competitive rates, offering quality service and guarantees",
    "hours": "Mon-Fri 9AM-6PM",
    "services": [
      "Armenian-speaking Bed bug control in Alaska consultation",
      "Professional service",
      "Quality guarantee"
    ],
    "social_links": {}
  }
]