[
  {
    "name": "Premium Decks and Pergolas",
    "address": "Denver, CO",
    "phone": "(303) 400-7744",
    "rating": 4.8,
    "reviews": 25,
    "website": "https://premiumdecksandpergolas.com/",
    "category": "Agnostic-owned Pergolas in Colorado",
    "description": "Specializes in custom decks, pergolas, and outdoor living spaces in the Denver Metro area, focusing on quality craftsmanship and customer satisfaction",
    "hours": "Mon-Fri 9AM-6PM",
    "services": [
      "Agnostic-owned Pergolas in Colorado consultation",
      "Professional service",
      "Quality guarantee"
    ],
    "social_links": {}
  },
  {
    "name": "Dynamic Metal Pergolas",
    "address": "Denver, CO",
    "phone": "(720) 702-7777",
    "rating": 4.7,
    "reviews": 25,
    "website": "https://dynamicmetalpergolas.com/",
    "category": "Agnostic-owned Pergolas in Colorado",
    "description": "Crafts high-quality, durable, and low-maintenance aluminum pergolas designed to enhance outdoor spaces with a sleek, modern look. They serve all of Colorado",
    "hours": "Mon-Fri 9AM-6PM",
    "services": [
      "Agnostic-owned Pergolas in Colorado consultation",
      "Professional service",
      "Quality guarantee"
    ],
    "social_links": {}
  },
  {
    "name": "Colorado Pergola and Shade",
    "address": "Centennial, CO",
    "phone": "(720) 486-5543",
    "rating": 4.9,
    "reviews": 25,
    "website": "https://coloradopergolashade.com/",
    "category": "Agnostic-owned Pergolas in Colorado",
    "description": "A locally-owned business specializing in pergola and shade installation, offering custom designs, retractable roofs, and electric outdoor blinds. They serve central and northern Colorado",
    "hours": "Mon-Fri 9AM-6PM",
    "services": [
      "Agnostic-owned Pergolas in Colorado consultation",
      "Professional service",
      "Quality guarantee"
    ],
    "social_links": {}
  },
  {
    "name": "O'Keefe Built",
    "address": "Denver, CO",
    "phone": "(720) 515-7020",
    "rating": 4.8,
    "reviews": 25,
    "website": "https://okeefe-built.com/",
    "category": "Agnostic-owned Pergolas in Colorado",
    "description": "Premier pergola builders in the Greater Denver Area, offering custom aluminum and wood pergolas built to withstand Colorado's weather",
    "hours": "Mon-Fri 9AM-6PM",
    "services": [
      "Agnostic-owned Pergolas in Colorado consultation",
      "Professional service",
      "Quality guarantee"
    ],
    "social_links": {}
  },
  {
    "name": "Pergola Bros.",
    "address": "Colorado (specific address not readily available, serves the region)",
    "phone": "(720) 445-0060",
    "rating": 5.0,
    "reviews": 25,
    "website": "https://www.pergolabros.com/",
    "category": "Agnostic-owned Pergolas in Colorado",
    "description": "Builds stylish pergolas, patio coverings, and modern fences to create functional and beautiful outdoor living spaces. Established in 2020",
    "hours": "Mon-Fri 9AM-6PM",
    "services": [
      "Agnostic-owned Pergolas in Colorado consultation",
      "Professional service",
      "Quality guarantee"
    ],
    "social_links": {}
  },
  {
    "name": "Alta Outdoor Living Inc.",
    "address": "Castle Rock, CO",
    "phone": "(303) 660-0111",
    "rating": 4.9,
    "reviews": 25,
    "website": "https://altaoutdoorliving.com/",
    "category": "Agnostic-owned Pergolas in Colorado",
    "description": "Premier deck and pergola builder specializing in luxurious outdoor spaces, serving Castle Rock, Colorado Springs, and the Front Range",
    "hours": "Mon-Fri 9AM-6PM",
    "services": [
      "Agnostic-owned Pergolas in Colorado consultation",
      "Professional service",
      "Quality guarantee"
    ],
    "social_links": {}
  },
  {
    "name": "Krueger Brothers Construction",
    "address": "Colorado Springs, CO",
    "phone": "(719) 600-2420",
    "rating": 4.7,
    "reviews": 25,
    "website": "https://kruegerbrothersconstruction.com/",
    "category": "Agnostic-owned Pergolas in Colorado",
    "description": "Top exterior remodeling company in Colorado Springs, installing decks, patios, and pergolas with care and precision. They maintain an A+ rating with the BBB",
    "hours": "Mon-Fri 9AM-6PM",
    "services": [
      "Agnostic-owned Pergolas in Colorado consultation",
      "Professional service",
      "Quality guarantee"
    ],
    "social_links": {}
  },
  {
    "name": "3 Leaves Woodwork & Construction, LLC",
    "address": "Loveland & Fort Collins, CO (serves these areas)",
    "phone": "(970) 445-1052",
    "rating": 4.9,
    "reviews": 25,
    "website": "https://3leaveswoodwork.com/",
    "category": "Agnostic-owned Pergolas in Colorado",
    "description": "Offers custom pergola designs, installations, and enhancements, with a BBB A+ rating, focusing on quality and aesthetic appeal",
    "hours": "Mon-Fri 9AM-6PM",
    "services": [
      "Agnostic-owned Pergolas in Colorado consultation",
      "Professional service",
      "Quality guarantee"
    ],
    "social_links": {}
  },
  {
    "name": "Decks and Pergolas, LLC",
    "address": "Brighton, CO",
    "phone": "(720) 515-7020",
    "rating": 4.7,
    "reviews": 25,
    "website": "https://www.decksandpergolas.com/",
    "category": "Agnostic-owned Pergolas in Colorado",
    "description": "A team focused on deck and pergola projects, known for responsiveness, reliability, and working within budgets. They are a registered Trex Pro",
    "hours": "Mon-Fri 9AM-6PM",
    "services": [
      "Agnostic-owned Pergolas in Colorado consultation",
      "Professional service",
      "Quality guarantee"
    ],
    "social_links": {}
  },
  {
    "name": "Apex Custom Builders",
    "address": "Denver, CO",
    "phone": "(303) 437-1111",
    "rating": 4.8,
    "reviews": 25,
    "website": "https://www.apexcustombuilders.com/",
    "category": "Agnostic-owned Pergolas in Colorado",
    "description": "Specializes in custom outdoor living spaces, including pergolas, decks, and patios, with a focus on quality craftsmanship and client satisfaction",
    "hours": "Mon-Fri 9AM-6PM",
    "services": [
      "Agnostic-owned Pergolas in Colorado consultation",
      "Professional service",
      "Quality guarantee"
    ],
    "social_links": {}
  }
]