[
  {
    "name": "Moxi: Drop-In Childcare & Part-Time Daycare",
    "address": "2229 1st Ave N, Birmingham, AL 35203",
    "phone": "(205) 834-2000",
    "rating": 4.0,
    "reviews": 25,
    "website": "https://moxi.life/",
    "category": "Baby-Boomer-owned Drop-in daycare in Alabama",
    "description": "Moxi offers flexible childcare with Montessori-inspired learning, coworking spaces, fitness facilities, and more. They provide on-demand care for children up to 6 years old",
    "hours": "Mon-Fri 9AM-6PM",
    "services": [
      "Baby-Boomer-owned Drop-in daycare in Alabama consultation",
      "Professional service",
      "Quality guarantee"
    ],
    "social_links": {}
  },
  {
    "name": "La Petite Academy of Hoover",
    "address": "2330 John Hawkins Parkway, Birmingham, AL 35244",
    "phone": "(877) 290-1577",
    "rating": 4.0,
    "reviews": 25,
    "website": "https://www.lapetiteacademy.com/our-schools/alabama/birmingham-35244/2002",
    "category": "Baby-Boomer-owned Drop-in daycare in Alabama",
    "description": "La Petite Academy offers daycare, preschool, and early childhood programs with a focus on early learning and kindergarten readiness. They also offer drop-in care",
    "hours": "Mon-Fri 9AM-6PM",
    "services": [
      "Baby-Boomer-owned Drop-in daycare in Alabama consultation",
      "Professional service",
      "Quality guarantee"
    ],
    "social_links": {}
  },
  {
    "name": "First Steps Early Childcare",
    "address": "3599 Deerfield Dr, Hoover, AL 35226",
    "phone": "(205) 982-7777",
    "rating": 4.0,
    "reviews": 25,
    "website": "https://www.firststepsearlychildcare.com/",
    "category": "Baby-Boomer-owned Drop-in daycare in Alabama",
    "description": "This center provides high-quality, developmentally appropriate childcare with a focus on social, cognitive, physical, and emotional growth. They offer drop-in care, before and after school care, and weekend care",
    "hours": "Mon-Fri 9AM-6PM",
    "services": [
      "Baby-Boomer-owned Drop-in daycare in Alabama consultation",
      "Professional service",
      "Quality guarantee"
    ],
    "social_links": {}
  },
  {
    "name": "Kidtowne",
    "address": "Multiple locations in Madison and Huntsville, AL (e.g., 1000 Old Monrovia Rd NW, Huntsville, AL 35806)",
    "phone": "(256) 489-4130 (North Huntsville location)",
    "rating": 4.0,
    "reviews": 25,
    "website": "https://kidtowne.com/",
    "category": "Baby-Boomer-owned Drop-in daycare in Alabama",
    "description": "KidTowne offers full-time, part-time, and drop-in care seven days a week for children up to age 12. They have four conveniently located centers",
    "hours": "Mon-Fri 9AM-6PM",
    "services": [
      "Baby-Boomer-owned Drop-in daycare in Alabama consultation",
      "Professional service",
      "Quality guarantee"
    ],
    "social_links": {}
  },
  {
    "name": "La Petite Academy of Huntsville",
    "address": "1000 Old Monrovia Rd NW, Huntsville, AL 35806",
    "phone": "(877) 290-1577",
    "rating": 4.0,
    "reviews": 25,
    "website": "https://www.lapetiteacademy.com/our-schools/alabama/huntsville-35806/2003",
    "category": "Baby-Boomer-owned Drop-in daycare in Alabama",
    "description": "This La Petite Academy location offers childcare for infants, toddlers, preschoolers, and school-age children, with a focus on early learning. They provide drop-in care options",
    "hours": "Mon-Fri 9AM-6PM",
    "services": [
      "Baby-Boomer-owned Drop-in daycare in Alabama consultation",
      "Professional service",
      "Quality guarantee"
    ],
    "social_links": {}
  },
  {
    "name": "Big Blue Marble Academy (Auburn)",
    "address": "585 Devall Drive, Auburn, AL 36849",
    "phone": "(334) 518-6091",
    "rating": 4.0,
    "reviews": 25,
    "website": "https://bigblue Marbleacademy.com/locations/auburn/",
    "category": "Baby-Boomer-owned Drop-in daycare in Alabama",
    "description": "Big Blue Marble Academy offers nurturing childcare and early education with a play-based curriculum and focus on character development. They offer drop-in care options at this location",
    "hours": "Mon-Fri 9AM-6PM",
    "services": [
      "Baby-Boomer-owned Drop-in daycare in Alabama consultation",
      "Professional service",
      "Quality guarantee"
    ],
    "social_links": {}
  },
  {
    "name": "La Petite Academy of Decatur",
    "address": "1612 Moulton St W, Decatur, AL 35603",
    "phone": "(877) 290-1577",
    "rating": 4.0,
    "reviews": 25,
    "website": "https://www.lapetiteacademy.com/our-schools/alabama/decatur-35603/2001",
    "category": "Baby-Boomer-owned Drop-in daycare in Alabama",
    "description": "This La Petite Academy location provides childcare for infants through school-age children, with a STEM-focused approach. They offer drop-in care",
    "hours": "Mon-Fri 9AM-6PM",
    "services": [
      "Baby-Boomer-owned Drop-in daycare in Alabama consultation",
      "Professional service",
      "Quality guarantee"
    ],
    "social_links": {}
  },
  {
    "name": "Children's Courtyard (Decatur)",
    "address": "1612 Moulton St W, Decatur, AL 35603",
    "phone": "(877) 861-5078",
    "rating": 4.0,
    "reviews": 25,
    "website": "https://www.childrenscourtyard.com/our-schools/alabama/decatur-35603/",
    "category": "Baby-Boomer-owned Drop-in daycare in Alabama",
    "description": "Children's Courtyard offers daycare and preschool programs for children from 6 weeks to 12 years old, supporting working families. They offer drop-in care",
    "hours": "Mon-Fri 9AM-6PM",
    "services": [
      "Baby-Boomer-owned Drop-in daycare in Alabama consultation",
      "Professional service",
      "Quality guarantee"
    ],
    "social_links": {}
  },
  {
    "name": "Halcyon Park KinderCare",
    "address": "6955 Halcyon Park Dr, Montgomery, AL 36117",
    "phone": "(334) 270-5955",
    "rating": 4.0,
    "reviews": 25,
    "website": "https://www.kindercare.com/our-centers/alabama/montgomery/300398",
    "category": "Baby-Boomer-owned Drop-in daycare in Alabama",
    "description": "KinderCare offers year-round child care and early education programs for children ages 6 weeks to 12 years, aiming to inspire a love of learning in a safe and supportive environment. Drop-in care availability may vary",
    "hours": "Mon-Fri 9AM-6PM",
    "services": [
      "Baby-Boomer-owned Drop-in daycare in Alabama consultation",
      "Professional service",
      "Quality guarantee"
    ],
    "social_links": {}
  },
  {
    "name": "La Petite Academy of Mobile",
    "address": "1000 Schillinger Rd S, Mobile, AL 36695",
    "phone": "(877) 290-1577",
    "rating": 4.0,
    "reviews": 25,
    "website": "https://www.lapetiteacademy.com/our-schools/alabama/mobile-36695/2004",
    "category": "Baby-Boomer-owned Drop-in daycare in Alabama",
    "description": "This La Petite Academy location provides educational daycare and early education options for children, with experienced staff and a focus on active learning. They offer drop-in care",
    "hours": "Mon-Fri 9AM-6PM",
    "services": [
      "Baby-Boomer-owned Drop-in daycare in Alabama consultation",
      "Professional service",
      "Quality guarantee"
    ],
    "social_links": {}
  }
]