[
  {
    "name": "AFC Urgent Care Stamford",
    "address": "192 Westport Avenue, Norwalk, CT 06851",
    "phone": "(203) 853-2610",
    "rating": 4.0,
    "reviews": 25,
    "website": "https://www.afcurgentcare.com/stamford/",
    "category": "Chinese-speaking Urgent care centers in Connecticut",
    "description": "Offers urgent care, lab testing, and vaccinations",
    "hours": "Mon-Fri 9AM-6PM",
    "services": [
      "Chinese-speaking Urgent care centers in Connecticut consultation",
      "Professional service",
      "Quality guarantee"
    ],
    "social_links": {}
  },
  {
    "name": "Yale New Haven Health Urgent Care - Waterbury",
    "address": "920 Wolcott St, Waterbury, CT 06705",
    "phone": "(203) 528-4993",
    "rating": 4.0,
    "reviews": 25,
    "website": "https://www.ynhh.org/urgent-care/waterbury",
    "category": "Chinese-speaking Urgent care centers in Connecticut",
    "description": "Provides urgent care services for non-life-threatening illnesses and injuries",
    "hours": "Mon-Fri 9AM-6PM",
    "services": [
      "Chinese-speaking Urgent care centers in Connecticut consultation",
      "Professional service",
      "Quality guarantee"
    ],
    "social_links": {}
  },
  {
    "name": "Concentra - New Britain",
    "address": "972 W Main Street, New Britain, CT 06053",
    "phone": "(860) 827-0745",
    "rating": 4.0,
    "reviews": 25,
    "website": "https://www.concentra.com/locations/new-britain-ct-972-w-main-street",
    "category": "Chinese-speaking Urgent care centers in Connecticut",
    "description": "Offers occupational medicine, urgent care, and physical therapy services",
    "hours": "Mon-Fri 9AM-6PM",
    "services": [
      "Chinese-speaking Urgent care centers in Connecticut consultation",
      "Professional service",
      "Quality guarantee"
    ],
    "social_links": {}
  },
  {
    "name": "DOCS Medical Group - Danbury",
    "address": "2 Main Street, Danbury, CT 06810",
    "phone": "(203) 826-2140",
    "rating": 4.0,
    "reviews": 25,
    "website": "https://www.docsmg.com/locations/danbury-ct/",
    "category": "Chinese-speaking Urgent care centers in Connecticut",
    "description": "Provides urgent care for non-life-threatening illnesses and minor injuries",
    "hours": "Mon-Fri 9AM-6PM",
    "services": [
      "Chinese-speaking Urgent care centers in Connecticut consultation",
      "Professional service",
      "Quality guarantee"
    ],
    "social_links": {}
  },
  {
    "name": "DOCS Medical Group - Bridgeport",
    "address": "1177 Main Street, Bridgeport, CT 06604",
    "phone": "(203) 333-4400",
    "rating": 4.0,
    "reviews": 25,
    "website": "https://www.docsmg.com/locations/bridgeport-ct/",
    "category": "Chinese-speaking Urgent care centers in Connecticut",
    "description": "Offers prompt, high-quality care for urgent medical issues",
    "hours": "Mon-Fri 9AM-6PM",
    "services": [
      "Chinese-speaking Urgent care centers in Connecticut consultation",
      "Professional service",
      "Quality guarantee"
    ],
    "social_links": {}
  },
  {
    "name": "Hartford HealthCare Urgent Care - Norwalk",
    "address": "192 Westport Avenue, Norwalk, CT 06851",
    "phone": "(203) 853-2610",
    "rating": 4.0,
    "reviews": 25,
    "website": "https://hartfordhealthcare.org/locations/urgent-care-norwalk",
    "category": "Chinese-speaking Urgent care centers in Connecticut",
    "description": "Provides urgent care for non-life-threatening illnesses and injuries",
    "hours": "Mon-Fri 9AM-6PM",
    "services": [
      "Chinese-speaking Urgent care centers in Connecticut consultation",
      "Professional service",
      "Quality guarantee"
    ],
    "social_links": {}
  },
  {
    "name": "DOCS Medical Group - New Haven",
    "address": "1317 State Street, New Haven, CT 06511",
    "phone": "(203) 624-2273",
    "rating": 4.0,
    "reviews": 25,
    "website": "https://www.docsmg.com/locations/new-haven-ct/",
    "category": "Chinese-speaking Urgent care centers in Connecticut",
    "description": "Offers expert medical treatment for non-life-threatening illnesses and minor injuries",
    "hours": "Mon-Fri 9AM-6PM",
    "services": [
      "Chinese-speaking Urgent care centers in Connecticut consultation",
      "Professional service",
      "Quality guarantee"
    ],
    "social_links": {}
  },
  {
    "name": "Priority Urgent Care & Walk-In Clinic - Newington",
    "address": "2909 Berlin Turnpike, Newington, CT 06111",
    "phone": "(860) 436-3757",
    "rating": 4.0,
    "reviews": 25,
    "website": "https://www.priorityurgentcare.com/newington",
    "category": "Chinese-speaking Urgent care centers in Connecticut",
    "description": "Provides urgent care services for minor illnesses and injuries",
    "hours": "Mon-Fri 9AM-6PM",
    "services": [
      "Chinese-speaking Urgent care centers in Connecticut consultation",
      "Professional service",
      "Quality guarantee"
    ],
    "social_links": {}
  },
  {
    "name": "AFC Urgent Care - New Britain",
    "address": "1735 Stanley Street, New Britain, CT 06053",
    "phone": "(860) 357-6899",
    "rating": 4.0,
    "reviews": 25,
    "website": "https://www.afcurgentcare.com/new-britain/",
    "category": "Chinese-speaking Urgent care centers in Connecticut",
    "description": "Offers urgent care, lab testing, and vaccinations",
    "hours": "Mon-Fri 9AM-6PM",
    "services": [
      "Chinese-speaking Urgent care centers in Connecticut consultation",
      "Professional service",
      "Quality guarantee"
    ],
    "social_links": {}
  },
  {
    "name": "DOCS Medical Group - Stamford",
    "address": "2001 W Main Street, Stamford, CT 06902",
    "phone": "(203) 658-8291",
    "rating": 4.0,
    "reviews": 25,
    "website": "https://www.docsmg.com/locations/stamford-ct/",
    "category": "Chinese-speaking Urgent care centers in Connecticut",
    "description": "Provides prompt, high-quality care for urgent medical issues",
    "hours": "Mon-Fri 9AM-6PM",
    "services": [
      "Chinese-speaking Urgent care centers in Connecticut consultation",
      "Professional service",
      "Quality guarantee"
    ],
    "social_links": {}
  }
]