[
  {
    "name": "Paris Parker Salon & Spa",
    "address": "Multiple locations in New Orleans, Baton Rouge, and the Northshore",
    "phone": "",
    "rating": 4.0,
    "reviews": 25,
    "website": "https://www.parisparler.com/",
    "category": "Chinese-American-owned Spa Facials in Louisiana",
    "description": "Offers a range of Aveda-based spa services, including various types of facials",
    "hours": "Mon-Fri 9AM-6PM",
    "services": [
      "Chinese-American-owned Spa Facials in Louisiana consultation",
      "Professional service",
      "Quality guarantee"
    ],
    "social_links": {}
  },
  {
    "name": "Spa Mizan",
    "address": "3211 Johnston St, Lafayette, LA 70503",
    "phone": "(337) 456-0067",
    "rating": 4.0,
    "reviews": 25,
    "website": "https://www.spamizan.com/",
    "category": "Chinese-American-owned Spa Facials in Louisiana",
    "description": "Offers Aveda spa services, including facials, massages, and body treatments",
    "hours": "Mon-Fri 9AM-6PM",
    "services": [
      "Chinese-American-owned Spa Facials in Louisiana consultation",
      "Professional service",
      "Quality guarantee"
    ],
    "social_links": {}
  },
  {
    "name": "Remington Spa",
    "address": "2000 E. 70th St, Shreveport, LA 71105",
    "phone": "(318) 861-2000",
    "rating": 4.0,
    "reviews": 25,
    "website": "https://www.theremington.com/spa/",
    "category": "Chinese-American-owned Spa Facials in Louisiana",
    "description": "Offers a variety of spa services, including massages and facials",
    "hours": "Mon-Fri 9AM-6PM",
    "services": [
      "Chinese-American-owned Spa Facials in Louisiana consultation",
      "Professional service",
      "Quality guarantee"
    ],
    "social_links": {}
  },
  {
    "name": "8445 Medical Spa",
    "address": "8445 Line Ave, Shreveport, LA 71106",
    "phone": "(318) 868-4445",
    "rating": 4.0,
    "reviews": 25,
    "website": "https://www.8445medspa.com/",
    "category": "Chinese-American-owned Spa Facials in Louisiana",
    "description": "Offers advanced aesthetic treatments, including spa facials and microblading",
    "hours": "Mon-Fri 9AM-6PM",
    "services": [
      "Chinese-American-owned Spa Facials in Louisiana consultation",
      "Professional service",
      "Quality guarantee"
    ],
    "social_links": {}
  },
  {
    "name": "The Windsor Court Spa",
    "address": "300 Gravier St, New Orleans, LA 70130",
    "phone": "(504) 434-5108",
    "rating": 4.0,
    "reviews": 25,
    "website": "https://www.windsorcourthotel.com/spa/",
    "category": "Chinese-American-owned Spa Facials in Louisiana",
    "description": "Offers luxury spa facials and other treatments",
    "hours": "Mon-Fri 9AM-6PM",
    "services": [
      "Chinese-American-owned Spa Facials in Louisiana consultation",
      "Professional service",
      "Quality guarantee"
    ],
    "social_links": {}
  },
  {
    "name": "Lux Spa",
    "address": "101 Settlers Trace Blvd, Suite 101, Lafayette, LA 70508",
    "phone": "(337) 456-6040",
    "rating": 4.0,
    "reviews": 25,
    "website": "https://www.luxspalafayette.com/",
    "category": "Chinese-American-owned Spa Facials in Louisiana",
    "description": "Provides med spa services, including various types of facials",
    "hours": "Mon-Fri 9AM-6PM",
    "services": [
      "Chinese-American-owned Spa Facials in Louisiana consultation",
      "Professional service",
      "Quality guarantee"
    ],
    "social_links": {}
  },
  {
    "name": "The Glow Spa",
    "address": "6308 Line Ave, Shreveport, LA 71106",
    "phone": "(318) 606-2525",
    "rating": 4.0,
    "reviews": 25,
    "website": "https://www.theglowspashreveport.com/",
    "category": "Chinese-American-owned Spa Facials in Louisiana",
    "description": "Offers facials, waxing, microdermabrasions, and chemical peels",
    "hours": "Mon-Fri 9AM-6PM",
    "services": [
      "Chinese-American-owned Spa Facials in Louisiana consultation",
      "Professional service",
      "Quality guarantee"
    ],
    "social_links": {}
  },
  {
    "name": "Woodhouse Spa",
    "address": "Multiple locations in Baton Rouge and New Orleans",
    "phone": "",
    "rating": 4.0,
    "reviews": 25,
    "website": "https://www.woodhousespas.com/",
    "category": "Chinese-American-owned Spa Facials in Louisiana",
    "description": "Offers luxury wellness treatments, including massages and facials",
    "hours": "Mon-Fri 9AM-6PM",
    "services": [
      "Chinese-American-owned Spa Facials in Louisiana consultation",
      "Professional service",
      "Quality guarantee"
    ],
    "social_links": {}
  },
  {
    "name": "Thrive NOLA Spa",
    "address": "519 Wilkinson St, #105, New Orleans, LA 70130",
    "phone": "(504) 342-4586",
    "rating": 4.0,
    "reviews": 25,
    "website": "https://www.thrivenolaspa.com/",
    "category": "Chinese-American-owned Spa Facials in Louisiana",
    "description": "Offers personalized massage therapy, facials, and waxing",
    "hours": "Mon-Fri 9AM-6PM",
    "services": [
      "Chinese-American-owned Spa Facials in Louisiana consultation",
      "Professional service",
      "Quality guarantee"
    ],
    "social_links": {}
  },
  {
    "name": "Spavia",
    "address": "4601 Ambassador Caffery Parkway, Ste 201, Lafayette, LA 70508",
    "phone": "(337) 761-6102",
    "rating": 5.0,
    "reviews": 25,
    "website": "https://www.spavia.com/lafayette",
    "category": "Chinese-American-owned Spa Facials in Louisiana",
    "description": "Provides an unforgettable spa experience with customizable treatments, including facials",
    "hours": "Mon-Fri 9AM-6PM",
    "services": [
      "Chinese-American-owned Spa Facials in Louisiana consultation",
      "Professional service",
      "Quality guarantee"
    ],
    "social_links": {}
  }
]