[
  {
    "name": "Wyoming Recovery",
    "address": "1019 N Center St, Casper, WY 82601",
    "phone": "(307) 265-3791",
    "rating": 4.0,
    "reviews": 25,
    "website": "https://wyomingrecovery.com/",
    "category": "Agnostic-owned Substance abuse counseling in Wyoming",
    "description": "Offers inpatient and outpatient treatment programs for drug and alcohol addiction, including medically-supervised detox",
    "hours": "Mon-Fri 9AM-6PM",
    "services": [
      "Agnostic-owned Substance abuse counseling in Wyoming consultation",
      "Professional service",
      "Quality guarantee"
    ],
    "social_links": {}
  },
  {
    "name": "Recover Wyoming",
    "address": "1017 E Lincolnway, Cheyenne, WY 82001",
    "phone": "(307) 421-7261",
    "rating": 4.0,
    "reviews": 25,
    "website": "https://recoverwyoming.org/",
    "category": "Agnostic-owned Substance abuse counseling in Wyoming",
    "description": "Provides peer-based recovery support services, including recovery coaches and all-recovery meetings, honoring all pathways to recovery",
    "hours": "Mon-Fri 9AM-6PM",
    "services": [
      "Agnostic-owned Substance abuse counseling in Wyoming consultation",
      "Professional service",
      "Quality guarantee"
    ],
    "social_links": {}
  },
  {
    "name": "Central Wyoming Counseling Center",
    "address": "1430 Wilkins Cir, Casper, WY 82604",
    "phone": "(307) 237-9585",
    "rating": 4.0,
    "reviews": 25,
    "website": "https://cwcc.us/",
    "category": "Agnostic-owned Substance abuse counseling in Wyoming",
    "description": "Offers a wide range of substance abuse services, including outpatient and residential treatment options",
    "hours": "Mon-Fri 9AM-6PM",
    "services": [
      "Agnostic-owned Substance abuse counseling in Wyoming consultation",
      "Professional service",
      "Quality guarantee"
    ],
    "social_links": {}
  },
  {
    "name": "Southwest Counseling Service",
    "address": "1040 S Main St, Rock Springs, WY 82901",
    "phone": "(307) 352-6680",
    "rating": 4.0,
    "reviews": 25,
    "website": "https://www.swcounseling.org/",
    "category": "Agnostic-owned Substance abuse counseling in Wyoming",
    "description": "Provides comprehensive mental health and substance abuse services for adolescents, adults, and families in Sweetwater County",
    "hours": "Mon-Fri 9AM-6PM",
    "services": [
      "Agnostic-owned Substance abuse counseling in Wyoming consultation",
      "Professional service",
      "Quality guarantee"
    ],
    "social_links": {}
  },
  {
    "name": "Foundations Counseling and Consulting of Wyoming",
    "address": "515 E Carlson St Suite 104, Cheyenne, WY 82009",
    "phone": "(307) 459-0107",
    "rating": 4.0,
    "reviews": 25,
    "website": "https://www.fccwy.com/",
    "category": "Agnostic-owned Substance abuse counseling in Wyoming",
    "description": "Offers a collaborative approach to counseling, including substance abuse evaluation and treatment in a safe and confidential environment",
    "hours": "Mon-Fri 9AM-6PM",
    "services": [
      "Agnostic-owned Substance abuse counseling in Wyoming consultation",
      "Professional service",
      "Quality guarantee"
    ],
    "social_links": {}
  },
  {
    "name": "Step Stone Counseling",
    "address": "1001 W 17th St #101, Gillette, WY 82718",
    "phone": "(307) 228-0070",
    "rating": 4.0,
    "reviews": 25,
    "website": "https://stepstonecounseling.com/",
    "category": "Agnostic-owned Substance abuse counseling in Wyoming",
    "description": "Provides substance misuse treatment, including individual and group counseling, assessments, and telehealth sessions across Wyoming",
    "hours": "Mon-Fri 9AM-6PM",
    "services": [
      "Agnostic-owned Substance abuse counseling in Wyoming consultation",
      "Professional service",
      "Quality guarantee"
    ],
    "social_links": {}
  },
  {
    "name": "Campbell County Health Behavioral Health Services",
    "address": "501 S Burma Ave, Fifth Floor, Gillette, WY 82718",
    "phone": "(307) 688-5000",
    "rating": 4.0,
    "reviews": 25,
    "website": "https://www.cchwyo.org/services/behavioral-health",
    "category": "Agnostic-owned Substance abuse counseling in Wyoming",
    "description": "Offers comprehensive care for behavioral disorders, mental health conditions, and substance use treatment, including outpatient services and assessments",
    "hours": "Mon-Fri 9AM-6PM",
    "services": [
      "Agnostic-owned Substance abuse counseling in Wyoming consultation",
      "Professional service",
      "Quality guarantee"
    ],
    "social_links": {}
  },
  {
    "name": "Community Health Centers of Central Wyoming (CHCCW) Behavioral Health",
    "address": "1020 W 15th St, Casper, WY 82604",
    "phone": "(307) 237-9585",
    "rating": 4.0,
    "reviews": 25,
    "website": "https://www.chccw.us/behavioral-health",
    "category": "Agnostic-owned Substance abuse counseling in Wyoming",
    "description": "Integrates behavioral health services with other aspects of healthcare, offering counseling and treatment for various challenges, including substance use",
    "hours": "Mon-Fri 9AM-6PM",
    "services": [
      "Agnostic-owned Substance abuse counseling in Wyoming consultation",
      "Professional service",
      "Quality guarantee"
    ],
    "social_links": {}
  },
  {
    "name": "Wyoming Behavioral Institute",
    "address": "1100 Wyoming Dr, Casper, WY 82609",
    "phone": "(800) 457-9312",
    "rating": 4.0,
    "reviews": 25,
    "website": "https://www.wyomingbehavioral.com/",
    "category": "Agnostic-owned Substance abuse counseling in Wyoming",
    "description": "A psychiatric hospital offering outpatient mental health care and treatment for chemical dependency for children, adolescents, and adults",
    "hours": "Mon-Fri 9AM-6PM",
    "services": [
      "Agnostic-owned Substance abuse counseling in Wyoming consultation",
      "Professional service",
      "Quality guarantee"
    ],
    "social_links": {}
  },
  {
    "name": "Outside Therapy",
    "address": "Services provided via in-person and telehealth throughout Wyoming. (Specific physical address not listed in search results for a primary location)",
    "phone": "(307) 200-0770",
    "rating": 4.0,
    "reviews": 25,
    "website": "https://outsidetherapy.com/",
    "category": "Agnostic-owned Substance abuse counseling in Wyoming",
    "description": "Provides mental health services for ages 10+ throughout Wyoming, including individual, couples, family, and group counseling with a trauma-informed approach",
    "hours": "Mon-Fri 9AM-6PM",
    "services": [
      "Agnostic-owned Substance abuse counseling in Wyoming consultation",
      "Professional service",
      "Quality guarantee"
    ],
    "social_links": {}
  }
]