[
  {
    "name": "Painted Lotus Yoga and Wellness, LLC",
    "address": "Riverside Office Center Suite E-1, 535 Jack Warner Pkwy. NE, Tuscaloosa, AL 35404",
    "phone": "205-239-7083",
    "rating": 4.0,
    "reviews": 25,
    "website": "http://www.paintedlotusyoga.com/",
    "category": "Chinese-speaking Prenatal yoga in Alabama",
    "description": "Offers a sanctuary for embodied movement, nervous system support, and soulful connection, with a focus on scientifically sound and spiritually grounded yoga",
    "hours": "Mon-Fri 9AM-6PM",
    "services": [
      "Chinese-speaking Prenatal yoga in Alabama consultation",
      "Professional service",
      "Quality guarantee"
    ],
    "social_links": {}
  },
  {
    "name": "The Oha Bodywork & Wellness",
    "address": "2820 7th Ave S, Birmingham, AL 35233",
    "phone": "(205) 502-7220",
    "rating": 4.0,
    "reviews": 25,
    "website": "https://www.oha-bodywork.com/",
    "category": "Chinese-speaking Prenatal yoga in Alabama",
    "description": "Provides yoga, meditation, massage, and traditional Hawaiian healing in Birmingham's historic Forest Park neighborhood",
    "hours": "Mon-Fri 9AM-6PM",
    "services": [
      "Chinese-speaking Prenatal yoga in Alabama consultation",
      "Professional service",
      "Quality guarantee"
    ],
    "social_links": {}
  },
  {
    "name": "Yes You Yoga and Wellness by Kimberly Richardson",
    "address": "Services offered in various community-based settings. Contact for specific locations",
    "phone": "",
    "rating": 4.0,
    "reviews": 25,
    "website": "https://www.yesyouyogaandwellness.com/",
    "category": "Chinese-speaking Prenatal yoga in Alabama",
    "description": "Offers holistic health and wellness services including one-on-one and small group yoga therapy, community-based and private yoga classes, and guided meditation. Kimberly Richardson is a Registered Prenatal Yoga Teacher (RPYT)",
    "hours": "Mon-Fri 9AM-6PM",
    "services": [
      "Chinese-speaking Prenatal yoga in Alabama consultation",
      "Professional service",
      "Quality guarantee"
    ],
    "social_links": {}
  },
  {
    "name": "yoga[lab]bham",
    "address": "2207 7th Ave S, Birmingham, AL 35233",
    "phone": "(205) 478-0260",
    "rating": 4.0,
    "reviews": 25,
    "website": "https://www.yogalabham.com/",
    "category": "Chinese-speaking Prenatal yoga in Alabama",
    "description": "Offers various yoga classes, including a prenatal class designed to create a supportive and relaxing space for expectant mothers",
    "hours": "Mon-Fri 9AM-6PM",
    "services": [
      "Chinese-speaking Prenatal yoga in Alabama consultation",
      "Professional service",
      "Quality guarantee"
    ],
    "social_links": {}
  },
  {
    "name": "u4ic yoga studio",
    "address": "2318 7th Ave S, Birmingham, AL 35233",
    "phone": "(205) 478-0260",
    "rating": 4.0,
    "reviews": 25,
    "website": "https://www.u4icyoga.com/",
    "category": "Chinese-speaking Prenatal yoga in Alabama",
    "description": "Offers a variety of yoga classes including Vinyasa, Core, and Stretch, as well as Pilates and Yoga Teacher Training",
    "hours": "Mon-Fri 9AM-6PM",
    "services": [
      "Chinese-speaking Prenatal yoga in Alabama consultation",
      "Professional service",
      "Quality guarantee"
    ],
    "social_links": {}
  }
]