[
  {
    "name": "LifeTouch Massage",
    "address": "1223 2nd Avenue S, Birmingham, AL 35233",
    "phone": "(205) 702-7020",
    "rating": 4.9,
    "reviews": 25,
    "website": "https://www.lifetouchal.com/",
    "category": "Bengali-speaking Swedish massage in Alabama",
    "description": "Offers a variety of massage services, including Swedish and deep tissue, with experienced professionals who customize services to unique needs",
    "hours": "Mon-Fri 9AM-6PM",
    "services": [
      "Bengali-speaking Swedish massage in Alabama consultation",
      "Professional service",
      "Quality guarantee"
    ],
    "social_links": {}
  },
  {
    "name": "Birmingham Massage Couple",
    "address": "1776 Independence Ct., Suite 101, Birmingham, AL 35216",
    "phone": "(205) 940-2222",
    "rating": 4.9,
    "reviews": 25,
    "website": "https://bhammassagecouple.com/",
    "category": "Bengali-speaking Swedish massage in Alabama",
    "description": "Provides various massage and stress relief services, including couples massage and neuromuscular therapy",
    "hours": "Mon-Fri 9AM-6PM",
    "services": [
      "Bengali-speaking Swedish massage in Alabama consultation",
      "Professional service",
      "Quality guarantee"
    ],
    "social_links": {}
  },
  {
    "name": "Birmingham Wellness Massage - Hoover",
    "address": "5330 Stadium Trace Pkwy #335, Hoover, AL 35244",
    "phone": "(205) 984-3440",
    "rating": 4.9,
    "reviews": 25,
    "website": "https://www.birminghamwellnessmassage.com/",
    "category": "Bengali-speaking Swedish massage in Alabama",
    "description": "Offers Swedish massage and other stress relief therapies designed to promote relaxation and mental clarity",
    "hours": "Mon-Fri 9AM-6PM",
    "services": [
      "Bengali-speaking Swedish massage in Alabama consultation",
      "Professional service",
      "Quality guarantee"
    ],
    "social_links": {}
  },
  {
    "name": "Woodhouse Spa",
    "address": "125 Summit Blvd, Birmingham, AL 35243",
    "phone": "(205) 969-6001",
    "rating": 4.9,
    "reviews": 25,
    "website": "https://www.woodhousespas.com/locations/birmingham-al/",
    "category": "Bengali-speaking Swedish massage in Alabama",
    "description": "A luxury day spa offering massages, facials, and body treatments in a serene environment. Voted Best Spa of 2025 by About Town Magazine",
    "hours": "Mon-Fri 9AM-6PM",
    "services": [
      "Bengali-speaking Swedish massage in Alabama consultation",
      "Professional service",
      "Quality guarantee"
    ],
    "social_links": {}
  },
  {
    "name": "Escape Day Spa",
    "address": "100 Broadway Street, Birmingham, AL 35209",
    "phone": "(205) 730-7000",
    "rating": 4.7,
    "reviews": 25,
    "website": "https://escapedayspabham.com/",
    "category": "Bengali-speaking Swedish massage in Alabama",
    "description": "Offers a range of spa services including facials, manicures/pedicures, and various massage therapies",
    "hours": "Mon-Fri 9AM-6PM",
    "services": [
      "Bengali-speaking Swedish massage in Alabama consultation",
      "Professional service",
      "Quality guarantee"
    ],
    "social_links": {}
  },
  {
    "name": "Spa Cahaba",
    "address": "2279 Valleydale Rd Suite 102, Hoover, AL 35244",
    "phone": "(205) 980-4772",
    "rating": 4.0,
    "reviews": 25,
    "website": "https://www.spacahaba.com/",
    "category": "Bengali-speaking Swedish massage in Alabama",
    "description": "A well-regarded spa offering various treatments for relaxation and wellness",
    "hours": "Mon-Fri 9AM-6PM",
    "services": [
      "Bengali-speaking Swedish massage in Alabama consultation",
      "Professional service",
      "Quality guarantee"
    ],
    "social_links": {}
  },
  {
    "name": "Ambiance Salon and Spa",
    "address": "2436 E University Dr UNIT 2103, Auburn, AL 36830",
    "phone": "(334) 826-3060",
    "rating": 4.0,
    "reviews": 25,
    "website": "https://ambiancesalonandauburn.com/",
    "category": "Bengali-speaking Swedish massage in Alabama",
    "description": "Offers Swedish massage and other professional massage therapy services with licensed and experienced therapists",
    "hours": "Mon-Fri 9AM-6PM",
    "services": [
      "Bengali-speaking Swedish massage in Alabama consultation",
      "Professional service",
      "Quality guarantee"
    ],
    "social_links": {}
  },
  {
    "name": "Alabama Massage Specialists",
    "address": "Hunt's Alley, Downtown Prattville, AL (Specific suite number not provided in search results)",
    "phone": "334-320-0371",
    "rating": 4.0,
    "reviews": 25,
    "website": "https://www.alabamasss.com/",
    "category": "Bengali-speaking Swedish massage in Alabama",
    "description": "A massage therapy studio focused on pain and stress relief in a quiet and serene atmosphere",
    "hours": "Mon-Fri 9AM-6PM",
    "services": [
      "Bengali-speaking Swedish massage in Alabama consultation",
      "Professional service",
      "Quality guarantee"
    ],
    "social_links": {}
  },
  {
    "name": "The Retreat Day Spa",
    "address": "(Location details not fully provided in search results, but mentioned as being away from the busy city for serenity)",
    "phone": "256-319-3003",
    "rating": 4.0,
    "reviews": 25,
    "website": "https://www.google.com/maps/search/The+Retreat+Day+Spa+in+Alabama",
    "category": "Bengali-speaking Swedish massage in Alabama",
    "description": "Provides services tailored to individual needs for a healthy mind and body, focusing on serenity and massages",
    "hours": "Mon-Fri 9AM-6PM",
    "services": [
      "Bengali-speaking Swedish massage in Alabama consultation",
      "Professional service",
      "Quality guarantee"
    ],
    "social_links": {}
  },
  {
    "name": "Massage Wellness SPA",
    "address": "(Specific address not provided in search results, but mentioned as a top spa in Alabama)",
    "phone": "(205) 414-6062",
    "rating": 4.0,
    "reviews": 25,
    "website": "https://www.google.com/maps/search/Massage+Wellness+SPA+in+Alabama",
    "category": "Bengali-speaking Swedish massage in Alabama",
    "description": "Offers excellent deep tissue massages by professionals",
    "hours": "Mon-Fri 9AM-6PM",
    "services": [
      "Bengali-speaking Swedish massage in Alabama consultation",
      "Professional service",
      "Quality guarantee"
    ],
    "social_links": {}
  }
]