[
  {
    "name": "Tribe Express",
    "address": "Not specified in search results",
    "phone": "",
    "rating": 4.0,
    "reviews": 25,
    "website": "https://www.tribeexpress.com/",
    "category": "American-Indian-owned Loading services in Texas",
    "description": "A Native American, woman-owned, asset-based, truckload transportation service provider specializing in temperature-controlled and deep frozen cargo",
    "hours": "Mon-Fri 9AM-6PM",
    "services": [
      "American-Indian-owned Loading services in Texas consultation",
      "Professional service",
      "Quality guarantee"
    ],
    "social_links": {}
  },
  {
    "name": "Native American Logistics, LLC",
    "address": "SHERMAN, TX 75092-4482",
    "phone": "903-815-4249",
    "rating": 4.0,
    "reviews": 25,
    "website": "https://www.google.com/maps/search/Native+American+Logistics,+LLC+in+Texas",
    "category": "American-Indian-owned Loading services in Texas",
    "description": "Provides non-emergency medical transport (VAN) services",
    "hours": "Mon-Fri 9AM-6PM",
    "services": [
      "American-Indian-owned Loading services in Texas consultation",
      "Professional service",
      "Quality guarantee"
    ],
    "social_links": {}
  },
  {
    "name": "Native Trax Logistics LLC",
    "address": "Not specified in search results (part of Ongweoweh Corp, headquartered in Ithaca, New York)",
    "phone": "(607) 266-7070",
    "rating": 4.0,
    "reviews": 25,
    "website": "https://www.nativetraxtl.com/",
    "category": "American-Indian-owned Loading services in Texas",
    "description": "Specializes in freight brokerage and logistics, offering truckload (TL) and less than truckload (LTL) services across North America",
    "hours": "Mon-Fri 9AM-6PM",
    "services": [
      "American-Indian-owned Loading services in Texas consultation",
      "Professional service",
      "Quality guarantee"
    ],
    "social_links": {}
  },
  {
    "name": "Native American Logistics",
    "address": "Not specified in search results",
    "phone": "US +1(877) 781-3006",
    "rating": 4.0,
    "reviews": 25,
    "website": "https://www.nalww.com/",
    "category": "American-Indian-owned Loading services in Texas",
    "description": "A non-asset-based 3PL (third-party logistics) provider offering supply chain solutions, premium transportation, and cross-border logistics",
    "hours": "Mon-Fri 9AM-6PM",
    "services": [
      "American-Indian-owned Loading services in Texas consultation",
      "Professional service",
      "Quality guarantee"
    ],
    "social_links": {}
  },
  {
    "name": "Indian Nation Wholesale (INW)",
    "address": "Warehouses in Durant, Norman, and Lawton, Oklahoma, serving North Texas",
    "phone": "",
    "rating": 4.0,
    "reviews": 25,
    "website": "https://www.indiannationwholesale.com/",
    "category": "American-Indian-owned Loading services in Texas",
    "description": "A wholesale distributor serving retailers across Oklahoma and North Texas, offering next-day delivery",
    "hours": "Mon-Fri 9AM-6PM",
    "services": [
      "American-Indian-owned Loading services in Texas consultation",
      "Professional service",
      "Quality guarantee"
    ],
    "social_links": {}
  }
]