[
  {
    "name": "Wineaux",
    "address": "737 W Serene Ave, Las Vegas, NV 89113",
    "phone": "(702) 844-4444",
    "rating": 4.0,
    "reviews": 25,
    "website": "https://wineauxlv.com/",
    "category": "Arabic-speaking Wine bars in Nevada",
    "description": "A wine market and bar offering a curated selection of wines and expert guidance",
    "hours": "Mon-Fri 9AM-6PM",
    "services": [
      "Arabic-speaking Wine bars in Nevada consultation",
      "Professional service",
      "Quality guarantee"
    ],
    "social_links": {}
  },
  {
    "name": "Zephyr Wine Bar",
    "address": "1100 W. First Street, Reno, NV 89503",
    "phone": "(775) 470-5555",
    "rating": 4.0,
    "reviews": 25,
    "website": "https://zephyrwinery.com/",
    "category": "Arabic-speaking Wine bars in Nevada",
    "description": "A wine bar in South Reno offering unique wines and small plates, with a focus on providing a welcoming atmosphere",
    "hours": "Mon-Fri 9AM-6PM",
    "services": [
      "Arabic-speaking Wine bars in Nevada consultation",
      "Professional service",
      "Quality guarantee"
    ],
    "social_links": {}
  },
  {
    "name": "The Local",
    "address": "2240 Village Walk Dr #136, Henderson, NV 89052",
    "phone": "(702) 665-6050",
    "rating": 4.0,
    "reviews": 25,
    "website": "http://drinkeatlocal.com/",
    "category": "Arabic-speaking Wine bars in Nevada",
    "description": "A Henderson wine bar offering a curated wine list and light fare in an airy space",
    "hours": "Mon-Fri 9AM-6PM",
    "services": [
      "Arabic-speaking Wine bars in Nevada consultation",
      "Professional service",
      "Quality guarantee"
    ],
    "social_links": {}
  },
  {
    "name": "Rock N Grapes Wine Pub",
    "address": "105 Water St, Henderson, NV 89015",
    "phone": "(702) 728-1500",
    "rating": 5.0,
    "reviews": 25,
    "website": "https://www.rockngrapes.com/",
    "category": "Arabic-speaking Wine bars in Nevada",
    "description": "A non-pretentious wine pub in Henderson serving charcuterie boards, sandwiches, and salads, with a wide array of wines",
    "hours": "Mon-Fri 9AM-6PM",
    "services": [
      "Arabic-speaking Wine bars in Nevada consultation",
      "Professional service",
      "Quality guarantee"
    ],
    "social_links": {}
  },
  {
    "name": "Carson Piazza Bar",
    "address": "130 W 3rd St, Carson City, NV 89701",
    "phone": "(775) 301-6708",
    "rating": 4.0,
    "reviews": 25,
    "website": "http://carsonpiazzabar.com/",
    "category": "Arabic-speaking Wine bars in Nevada",
    "description": "A gathering place in downtown Carson City offering wine, cocktails, and small plates",
    "hours": "Mon-Fri 9AM-6PM",
    "services": [
      "Arabic-speaking Wine bars in Nevada consultation",
      "Professional service",
      "Quality guarantee"
    ],
    "social_links": {}
  },
  {
    "name": "Uncorked - Liquor World Las Vegas",
    "address": "3021 Bicentennial Dr, Henderson, NV 89044",
    "phone": "(702) 476-0000",
    "rating": 4.0,
    "reviews": 25,
    "website": "https://liquorworldlv.com/uncorked/",
    "category": "Arabic-speaking Wine bars in Nevada",
    "description": "A craft beer and wine bar with an outdoor patio in Henderson, offering a relaxed atmosphere",
    "hours": "Mon-Fri 9AM-6PM",
    "services": [
      "Arabic-speaking Wine bars in Nevada consultation",
      "Professional service",
      "Quality guarantee"
    ],
    "social_links": {}
  },
  {
    "name": "Alatte Coffee & Wine Bar",
    "address": "507 N. Carson St., Carson City, NV 89701",
    "phone": "(775) 882-1626",
    "rating": 4.0,
    "reviews": 25,
    "website": "https://www.visitcarsoncity.com/listing/alatte-coffee-wine-bar/1002/",
    "category": "Arabic-speaking Wine bars in Nevada",
    "description": "A caf\u00e9 and wine bar in Carson City offering specialty coffee and handpicked wines, along with pastries and light bites",
    "hours": "Mon-Fri 9AM-6PM",
    "services": [
      "Arabic-speaking Wine bars in Nevada consultation",
      "Professional service",
      "Quality guarantee"
    ],
    "social_links": {}
  },
  {
    "name": "Cellar 8 Wine Bar",
    "address": "111 W Telegraph St, Carson City, NV 89703",
    "phone": "(775) 461-0100",
    "rating": 4.0,
    "reviews": 25,
    "website": "https://cellar8wine.com/",
    "category": "Arabic-speaking Wine bars in Nevada",
    "description": "A wine bar in Carson City with a passion for wine, offering a curated selection and community events",
    "hours": "Mon-Fri 9AM-6PM",
    "services": [
      "Arabic-speaking Wine bars in Nevada consultation",
      "Professional service",
      "Quality guarantee"
    ],
    "social_links": {}
  },
  {
    "name": "Wine on Water Street",
    "address": "123 Water St, Henderson, NV 89015",
    "phone": "",
    "rating": 4.0,
    "reviews": 25,
    "website": "https://www.thepasscasino.com/dining/wine-on-water-street/",
    "category": "Arabic-speaking Wine bars in Nevada",
    "description": "A wine bar located in The Pass Casino in Henderson, offering a celebration of fine flavors and good company",
    "hours": "Mon-Fri 9AM-6PM",
    "services": [
      "Arabic-speaking Wine bars in Nevada consultation",
      "Professional service",
      "Quality guarantee"
    ],
    "social_links": {}
  },
  {
    "name": "Azzurra Wine Bar & Shop",
    "address": "314 S Water St, Henderson, NV 89015",
    "phone": "(725) 223-3900",
    "rating": 4.0,
    "reviews": 25,
    "website": "https://www.azzurracucina.com/wine-bar-shop",
    "category": "Arabic-speaking Wine bars in Nevada",
    "description": "Offers hand-selected wines by the glass or bottle, light bites, and a wine shop, located inside Public Works Coffee Bar",
    "hours": "Mon-Fri 9AM-6PM",
    "services": [
      "Arabic-speaking Wine bars in Nevada consultation",
      "Professional service",
      "Quality guarantee"
    ],
    "social_links": {}
  }
]