[
  {
    "name": "Guard Tronic, Inc.",
    "address": "Fort Smith, AR (Specific address not provided in search results)",
    "phone": "(479) 783-6000",
    "rating": 4.0,
    "reviews": 25,
    "website": "https://guardtronic.com/",
    "category": "African-American-owned 24 7 monitoring in Arkansas",
    "description": "Offers 24/7 monitoring services from their UL Listed/FM Approved Central Station, including burglar alarm systems, fire alarm systems, smart home integration, and medical alert systems",
    "hours": "Mon-Fri 9AM-6PM",
    "services": [
      "African-American-owned 24 7 monitoring in Arkansas consultation",
      "Professional service",
      "Quality guarantee"
    ],
    "social_links": {}
  },
  {
    "name": "Electronic Security Systems",
    "address": "633 Prairie Flower Road, Webb City, MO 64870 (Serves Arkansas)",
    "phone": "(417) 623-2689",
    "rating": 4.0,
    "reviews": 25,
    "website": "https://www.google.com/maps/search/Electronic+Security+Systems+in+Arkansas",
    "category": "African-American-owned 24 7 monitoring in Arkansas",
    "description": "Provides 24/7 security monitoring services through Central Dispatch, serving Arkansas, Missouri, Oklahoma, and Kansas. They highlight that calls are always answered by a person",
    "hours": "Mon-Fri 9AM-6PM",
    "services": [
      "African-American-owned 24 7 monitoring in Arkansas consultation",
      "Professional service",
      "Quality guarantee"
    ],
    "social_links": {}
  },
  {
    "name": "Arkansas Security",
    "address": "Springdale, AR (Specific address not provided in search results)",
    "phone": "(479) 750-0000",
    "rating": 4.0,
    "reviews": 25,
    "website": "https://arkansassecurity.com/",
    "category": "African-American-owned 24 7 monitoring in Arkansas",
    "description": "A locally owned and operated provider of residential and commercial security systems, offering 24/7 monitoring, surveillance systems, fire systems, and access control",
    "hours": "Mon-Fri 9AM-6PM",
    "services": [
      "African-American-owned 24 7 monitoring in Arkansas consultation",
      "Professional service",
      "Quality guarantee"
    ],
    "social_links": {}
  },
  {
    "name": "Armor Alarms",
    "address": "Hot Springs, AR (Specific address not provided in search results)",
    "phone": "(501) 525-5600",
    "rating": 4.0,
    "reviews": 25,
    "website": "https://armoralarms.com/",
    "category": "African-American-owned 24 7 monitoring in Arkansas",
    "description": "Offers 24/7 monitoring services for residential and commercial properties, including security systems, alarms, and access control systems",
    "hours": "Mon-Fri 9AM-6PM",
    "services": [
      "African-American-owned 24 7 monitoring in Arkansas consultation",
      "Professional service",
      "Quality guarantee"
    ],
    "social_links": {}
  },
  {
    "name": "Advanced Alarms of Arkansas",
    "address": "Greenbrier, AR (Specific address not provided in search results)",
    "phone": "(501) 607-0898",
    "rating": 4.0,
    "reviews": 25,
    "website": "https://advancedalarmsar.com/",
    "category": "African-American-owned 24 7 monitoring in Arkansas",
    "description": "Provides electronic and fire alarm systems with 24/7 monitoring for homes and families, emphasizing reliability and quality solutions",
    "hours": "Mon-Fri 9AM-6PM",
    "services": [
      "African-American-owned 24 7 monitoring in Arkansas consultation",
      "Professional service",
      "Quality guarantee"
    ],
    "social_links": {}
  },
  {
    "name": "COP Security",
    "address": "Benton, AR (Specific address not provided in search results)",
    "phone": "(501) 315-9313",
    "rating": 4.0,
    "reviews": 25,
    "website": "https://copsecurity.com/",
    "category": "African-American-owned 24 7 monitoring in Arkansas",
    "description": "Offers residential and business security systems, automation, video, access, and 24/7 monitoring services",
    "hours": "Mon-Fri 9AM-6PM",
    "services": [
      "African-American-owned 24 7 monitoring in Arkansas consultation",
      "Professional service",
      "Quality guarantee"
    ],
    "social_links": {}
  },
  {
    "name": "ICU Protection, LLC",
    "address": "Conway and Sherwood, AR (Specific addresses not provided in search results)",
    "phone": "(501) 450-0000 (Conway) / (501) 834-0000 (Sherwood)",
    "rating": 4.0,
    "reviews": 25,
    "website": "https://icuprotection.com/",
    "category": "African-American-owned 24 7 monitoring in Arkansas",
    "description": "A locally owned and operated company serving Central Arkansas, offering alarm, security, and 24/7 monitoring services for residential and commercial clients",
    "hours": "Mon-Fri 9AM-6PM",
    "services": [
      "African-American-owned 24 7 monitoring in Arkansas consultation",
      "Professional service",
      "Quality guarantee"
    ],
    "social_links": {}
  },
  {
    "name": "May Security Systems Inc.",
    "address": "Jonesboro, AR (Specific address not provided in search results)",
    "phone": "(870) 932-6600",
    "rating": 4.0,
    "reviews": 25,
    "website": "https://maysecuritysystems.com/",
    "category": "African-American-owned 24 7 monitoring in Arkansas",
    "description": "Provides 24/7 monitoring for homes and businesses, with a showroom available to view satellite and camera displays",
    "hours": "Mon-Fri 9AM-6PM",
    "services": [
      "African-American-owned 24 7 monitoring in Arkansas consultation",
      "Professional service",
      "Quality guarantee"
    ],
    "social_links": {}
  },
  {
    "name": "1st Choice Protection Systems",
    "address": "Fayetteville, AR (Specific address not provided in search results)",
    "phone": "(479) 587-3500",
    "rating": 4.0,
    "reviews": 25,
    "website": "https://1stcpsecurity.com/",
    "category": "African-American-owned 24 7 monitoring in Arkansas",
    "description": "Offers home electronics for security, convenience, and entertainment. While not explicitly stating 24/7 monitoring, it is listed as a security provider",
    "hours": "Mon-Fri 9AM-6PM",
    "services": [
      "African-American-owned 24 7 monitoring in Arkansas consultation",
      "Professional service",
      "Quality guarantee"
    ],
    "social_links": {}
  },
  {
    "name": "ECAM",
    "address": "Little Rock, AR (Specific address not provided in search results)",
    "phone": "(877) 598-ECAM",
    "rating": 4.0,
    "reviews": 25,
    "website": "https://www.ecam.com/",
    "category": "African-American-owned 24 7 monitoring in Arkansas",
    "description": "Offers live video monitoring solutions for businesses and properties in Little Rock, Arkansas, focusing on preventing and diffusing criminal activity before it happens",
    "hours": "Mon-Fri 9AM-6PM",
    "services": [
      "African-American-owned 24 7 monitoring in Arkansas consultation",
      "Professional service",
      "Quality guarantee"
    ],
    "social_links": {}
  }
]