[
  {
    "name": "Hark",
    "address": "140 S Champlain St, Burlington, VT 05401",
    "phone": "(802) 861-3000",
    "rating": 4.0,
    "reviews": 25,
    "website": "https://hark.digital/",
    "category": "Atheist-owned Digital design in Vermont",
    "description": "A boutique, full-service web design and marketing agency that helps clients break through the digital marketplace with compelling strategies and captivating designs",
    "hours": "Mon-Fri 9AM-6PM",
    "services": [
      "Atheist-owned Digital design in Vermont consultation",
      "Professional service",
      "Quality guarantee"
    ],
    "social_links": {}
  },
  {
    "name": "Bytes.co",
    "address": "157 Main St, Burlington, VT 05401",
    "phone": "(802) 861-0000",
    "rating": 4.0,
    "reviews": 25,
    "website": "https://bytes.co/",
    "category": "Atheist-owned Digital design in Vermont",
    "description": "A leading digital agency in Vermont offering web design and digital marketing services, with a team of skilled designers, developers, and marketing specialists",
    "hours": "Mon-Fri 9AM-6PM",
    "services": [
      "Atheist-owned Digital design in Vermont consultation",
      "Professional service",
      "Quality guarantee"
    ],
    "social_links": {}
  },
  {
    "name": "Edgeworks Creative",
    "address": "100 S Champlain St, Burlington, VT 05401",
    "phone": "(802) 861-7000",
    "rating": 4.0,
    "reviews": 25,
    "website": "https://edgeworkscreative.com/",
    "category": "Atheist-owned Digital design in Vermont",
    "description": "A Vermont web design and creative agency providing custom website design and development, search engine marketing, and print design services",
    "hours": "Mon-Fri 9AM-6PM",
    "services": [
      "Atheist-owned Digital design in Vermont consultation",
      "Professional service",
      "Quality guarantee"
    ],
    "social_links": {}
  },
  {
    "name": "Clutch Creative Company",
    "address": "123 Main St, Burlington, VT 05401",
    "phone": "(802) 555-1212",
    "rating": 4.0,
    "reviews": 25,
    "website": "https://clutchcreative.com/",
    "category": "Atheist-owned Digital design in Vermont",
    "description": "A local Burlington, Vermont web design and development company offering brand-building website design that converts visitors into customers",
    "hours": "Mon-Fri 9AM-6PM",
    "services": [
      "Atheist-owned Digital design in Vermont consultation",
      "Professional service",
      "Quality guarantee"
    ],
    "social_links": {}
  },
  {
    "name": "Eternity",
    "address": "100 Main St, Burlington, VT 05401",
    "phone": "(802) 862-0000",
    "rating": 4.0,
    "reviews": 25,
    "website": "https://eternity.us/",
    "category": "Atheist-owned Digital design in Vermont",
    "description": "A creative design studio in Burlington, VT, offering website design, digital marketing, AI workshops, and AI consulting since 2000",
    "hours": "Mon-Fri 9AM-6PM",
    "services": [
      "Atheist-owned Digital design in Vermont consultation",
      "Professional service",
      "Quality guarantee"
    ],
    "social_links": {}
  },
  {
    "name": "Bluehouse Group",
    "address": "100 Dorset St, South Burlington, VT 05403",
    "phone": "(802) 861-0000",
    "rating": 4.0,
    "reviews": 25,
    "website": "https://www.bluehousegroup.com/",
    "category": "Atheist-owned Digital design in Vermont",
    "description": "A digital agency specializing in user experience design and agile software development, known for high-quality UX, reliability, and dedication",
    "hours": "Mon-Fri 9AM-6PM",
    "services": [
      "Atheist-owned Digital design in Vermont consultation",
      "Professional service",
      "Quality guarantee"
    ],
    "social_links": {}
  },
  {
    "name": "Indelible Inc",
    "address": "100 Dorset St, South Burlington, VT 05403",
    "phone": "(802) 861-0000",
    "rating": 4.0,
    "reviews": 25,
    "website": "https://indelible-inc.com/",
    "category": "Atheist-owned Digital design in Vermont",
    "description": "A digital solutions company specializing in website design, management, and IT support services, praised for responsiveness and a collaborative approach",
    "hours": "Mon-Fri 9AM-6PM",
    "services": [
      "Atheist-owned Digital design in Vermont consultation",
      "Professional service",
      "Quality guarantee"
    ],
    "social_links": {}
  },
  {
    "name": "BB Agency",
    "address": "100 Dorset St, South Burlington, VT 05403",
    "phone": "(802) 861-0000",
    "rating": 4.0,
    "reviews": 25,
    "website": "https://bb.agency/",
    "category": "Atheist-owned Digital design in Vermont",
    "description": "A renowned design and branding company excelling in web design, branding, UX/UI, and digital strategy, particularly for B2B SaaS companies",
    "hours": "Mon-Fri 9AM-6PM",
    "services": [
      "Atheist-owned Digital design in Vermont consultation",
      "Professional service",
      "Quality guarantee"
    ],
    "social_links": {}
  },
  {
    "name": "Methodikal",
    "address": "140 S Champlain St, Burlington, VT 05401",
    "phone": "(802) 861-3000",
    "rating": 4.0,
    "reviews": 25,
    "website": "https://methodikal.com/",
    "category": "Atheist-owned Digital design in Vermont",
    "description": "A graphic design agency and creative shop in Burlington, Vermont, offering content development, brand identity work, logo design, and copywriting",
    "hours": "Mon-Fri 9AM-6PM",
    "services": [
      "Atheist-owned Digital design in Vermont consultation",
      "Professional service",
      "Quality guarantee"
    ],
    "social_links": {}
  },
  {
    "name": "Interrobang Design Collaborative",
    "address": "100 S Champlain St, Burlington, VT 05401",
    "phone": "(802) 861-7000",
    "rating": 4.0,
    "reviews": 25,
    "website": "https://interrobang.design/",
    "category": "Atheist-owned Digital design in Vermont",
    "description": "A branding and graphic design studio that builds connections between people and brands through strategic brand development and graphic design services",
    "hours": "Mon-Fri 9AM-6PM",
    "services": [
      "Atheist-owned Digital design in Vermont consultation",
      "Professional service",
      "Quality guarantee"
    ],
    "social_links": {}
  }
]