[
  {
    "name": "The Medical Spa of Hawaii",
    "address": "66-145 Kamehameha Hwy, Haleiwa, HI 96712",
    "phone": "(808) 291-5773",
    "rating": 4.0,
    "reviews": 25,
    "website": "https://www.medicalspahawaii.com/",
    "category": "Arabic-speaking Skin care facilities in Hawaii",
    "description": "Offers a range of non-surgical cosmetic solutions including laser hair removal, medical facials, injectables, and microneedling",
    "hours": "Mon-Fri 9AM-6PM",
    "services": [
      "Arabic-speaking Skin care facilities in Hawaii consultation",
      "Professional service",
      "Quality guarantee"
    ],
    "social_links": {}
  },
  {
    "name": "Koru Medical Spa",
    "address": "75-5995 Kuakini Hwy Suite 101, Kailua-Kona, HI 96740",
    "phone": "(808) 339-3595",
    "rating": 4.0,
    "reviews": 25,
    "website": "https://korumedicalspa.com/",
    "category": "Arabic-speaking Skin care facilities in Hawaii",
    "description": "Provides a holistic approach to beauty with superior treatments and medical-grade products, including laser treatments and injectables",
    "hours": "Mon-Fri 9AM-6PM",
    "services": [
      "Arabic-speaking Skin care facilities in Hawaii consultation",
      "Professional service",
      "Quality guarantee"
    ],
    "social_links": {}
  },
  {
    "name": "Helen's Haven Skin Care Clinic",
    "address": "1314 S King St, Honolulu, HI 96814",
    "phone": "(808) 952-3344",
    "rating": 4.0,
    "reviews": 25,
    "website": "https://www.helenshaven.com/",
    "category": "Arabic-speaking Skin care facilities in Hawaii",
    "description": "Offers top skin rejuvenation services like Botox, PRF, fillers, and facials",
    "hours": "Mon-Fri 9AM-6PM",
    "services": [
      "Arabic-speaking Skin care facilities in Hawaii consultation",
      "Professional service",
      "Quality guarantee"
    ],
    "social_links": {}
  },
  {
    "name": "Pua Manu Medspa",
    "address": "1020 Kakala Street, Suite #902, Kapolei, HI 96707",
    "phone": "(808) 900-4351",
    "rating": 4.0,
    "reviews": 25,
    "website": "https://www.puamanumedspa.com/",
    "category": "Arabic-speaking Skin care facilities in Hawaii",
    "description": "A state-of-the-art medical spa offering body contouring, hair restoration, and treatments for excessive sweating, led by Dr. Nancy Chen",
    "hours": "Mon-Fri 9AM-6PM",
    "services": [
      "Arabic-speaking Skin care facilities in Hawaii consultation",
      "Professional service",
      "Quality guarantee"
    ],
    "social_links": {}
  },
  {
    "name": "Aloha Aesthetics MD",
    "address": "1314 S King St, Honolulu, HI 96814",
    "phone": "(808) 518-0000",
    "rating": 4.0,
    "reviews": 25,
    "website": "https://www.alohaaestheticsmd.com/",
    "category": "Arabic-speaking Skin care facilities in Hawaii",
    "description": "Specializes in advanced, non-surgical med spa treatments such as microneedling, SaltFacial\u00ae, Botox\u00ae, and Jeuveau\u00ae",
    "hours": "Mon-Fri 9AM-6PM",
    "services": [
      "Arabic-speaking Skin care facilities in Hawaii consultation",
      "Professional service",
      "Quality guarantee"
    ],
    "social_links": {}
  },
  {
    "name": "Honolulu Dermatology LLC",
    "address": "4400 Kalaniana\u02bbole Hwy, Suite 205, Honolulu, HI 96816",
    "phone": "(808) 737-0000",
    "rating": 4.0,
    "reviews": 25,
    "website": "https://www.honoluludermatology.com/",
    "category": "Arabic-speaking Skin care facilities in Hawaii",
    "description": "Led by board-certified dermatologist Amber Gill MD, specializing in cosmetic and general dermatology",
    "hours": "Mon-Fri 9AM-6PM",
    "services": [
      "Arabic-speaking Skin care facilities in Hawaii consultation",
      "Professional service",
      "Quality guarantee"
    ],
    "social_links": {}
  },
  {
    "name": "Hawaii Premier Dermatology",
    "address": "1441 Kapi\u02bbolani Blvd Suite 1110, Honolulu, HI 96814",
    "phone": "(808) 400-6904",
    "rating": 4.0,
    "reviews": 25,
    "website": "https://hawaiipremierderm.com/",
    "category": "Arabic-speaking Skin care facilities in Hawaii",
    "description": "Offers comprehensive medical and cosmetic dermatology services for adults and children, with advanced technology and compassionate care",
    "hours": "Mon-Fri 9AM-6PM",
    "services": [
      "Arabic-speaking Skin care facilities in Hawaii consultation",
      "Professional service",
      "Quality guarantee"
    ],
    "social_links": {}
  },
  {
    "name": "Complete Dermatology",
    "address": "98-1005 Moanalua Rd Bldg 3 Ste 201, Aiea, HI 96701 (and other locations)",
    "phone": "(808) 454-8000",
    "rating": 4.0,
    "reviews": 25,
    "website": "https://completedermatologyhi.com/",
    "category": "Arabic-speaking Skin care facilities in Hawaii",
    "description": "Provides a high level of care and comprehensive treatment options for various medical and cosmetic skin concerns, with advanced lasers and microneedling",
    "hours": "Mon-Fri 9AM-6PM",
    "services": [
      "Arabic-speaking Skin care facilities in Hawaii consultation",
      "Professional service",
      "Quality guarantee"
    ],
    "social_links": {}
  },
  {
    "name": "Matsuda Dermatology",
    "address": "405 N Kuakini St., Suite 703, Honolulu, HI 96817",
    "phone": "(808) 818-8937",
    "rating": 4.0,
    "reviews": 25,
    "website": "https://matsudadermatology.com/",
    "category": "Arabic-speaking Skin care facilities in Hawaii",
    "description": "Board-certified dermatologists specializing in medical and aesthetic dermatology with an emphasis on personalized care",
    "hours": "Mon-Fri 9AM-6PM",
    "services": [
      "Arabic-speaking Skin care facilities in Hawaii consultation",
      "Professional service",
      "Quality guarantee"
    ],
    "social_links": {}
  },
  {
    "name": "Aesthetics Hawaii",
    "address": "1314 S King St, Honolulu, HI 96814",
    "phone": "(808) 518-0000",
    "rating": 4.0,
    "reviews": 25,
    "website": "https://www.aestheticshawaii.com/",
    "category": "Arabic-speaking Skin care facilities in Hawaii",
    "description": "Honolulu's top Botox and non-surgical skin care clinic, offering a wide range of aesthetic treatments and products",
    "hours": "Mon-Fri 9AM-6PM",
    "services": [
      "Arabic-speaking Skin care facilities in Hawaii consultation",
      "Professional service",
      "Quality guarantee"
    ],
    "social_links": {}
  }
]