[
  {
    "name": "Asia's Tire Services",
    "address": "3207 N Main St, Danville, VA 24540",
    "phone": "(276) 701-0211",
    "rating": 4.6,
    "reviews": 25,
    "website": "https://www.birdeye.com/asias-tire-services-2702535",
    "category": "Asian-owned Tire installation in Virginia",
    "description": "A tire service center in Danville, VA",
    "hours": "Mon-Fri 9AM-6PM",
    "services": [
      "Asian-owned Tire installation in Virginia consultation",
      "Professional service",
      "Quality guarantee"
    ],
    "social_links": {}
  },
  {
    "name": "AID Tire & Auto Repair",
    "address": "1003 Old Graves Mill Rd, Lynchburg, VA 24502",
    "phone": "(434) 239-8473",
    "rating": 4.0,
    "reviews": 25,
    "website": "https://aidtire.com/",
    "category": "Asian-owned Tire installation in Virginia",
    "description": "Specializes in Asian vehicle repairs, offering a full range of auto repair and preventative maintenance services",
    "hours": "Mon-Fri 9AM-6PM",
    "services": [
      "Asian-owned Tire installation in Virginia consultation",
      "Professional service",
      "Quality guarantee"
    ],
    "social_links": {}
  },
  {
    "name": "Bayside Tire & Auto",
    "address": "4460 Shore Drive, Virginia Beach, VA 23455",
    "phone": "(757) 464-0515",
    "rating": 4.0,
    "reviews": 25,
    "website": "https://www.baysidetireandauto.com/",
    "category": "Asian-owned Tire installation in Virginia",
    "description": "A full-service auto repair and preventative maintenance facility specializing in Asian vehicles",
    "hours": "Mon-Fri 9AM-6PM",
    "services": [
      "Asian-owned Tire installation in Virginia consultation",
      "Professional service",
      "Quality guarantee"
    ],
    "social_links": {}
  },
  {
    "name": "Certified Auto Repair",
    "address": "9550 Chamberlayne Road, Mechanicsville, VA 23111",
    "phone": "(804) 746-5367",
    "rating": 4.0,
    "reviews": 25,
    "website": "https://www.certifiedautorepair.com/",
    "category": "Asian-owned Tire installation in Virginia",
    "description": "A trusted Asian repair shop in Henrico, VA, specializing in servicing all major Asian vehicle brands",
    "hours": "Mon-Fri 9AM-6PM",
    "services": [
      "Asian-owned Tire installation in Virginia consultation",
      "Professional service",
      "Quality guarantee"
    ],
    "social_links": {}
  },
  {
    "name": "Atlee Auto Service",
    "address": "9550 Chamberlayne Road, Mechanicsville, VA 23111",
    "phone": "(804) 746-5367",
    "rating": 4.0,
    "reviews": 25,
    "website": "https://atleeautoservice.com/",
    "category": "Asian-owned Tire installation in Virginia",
    "description": "Specializes in Asian auto repair and maintenance for various makes and models",
    "hours": "Mon-Fri 9AM-6PM",
    "services": [
      "Asian-owned Tire installation in Virginia consultation",
      "Professional service",
      "Quality guarantee"
    ],
    "social_links": {}
  },
  {
    "name": "Japanese Auto Masters",
    "address": "3012 Holland Rd, Virginia Beach, VA 23453",
    "phone": "(757) 495-0011",
    "rating": 4.0,
    "reviews": 25,
    "website": "https://www.japaneseautomasters.com/",
    "category": "Asian-owned Tire installation in Virginia",
    "description": "Specializes in servicing Japanese vehicles, but also works on all Asian, Japanese, and domestic vehicles",
    "hours": "Mon-Fri 9AM-6PM",
    "services": [
      "Asian-owned Tire installation in Virginia consultation",
      "Professional service",
      "Quality guarantee"
    ],
    "social_links": {}
  },
  {
    "name": "Virginia Tire & Auto",
    "address": "Multiple locations across Northern Virginia and Richmond, including:",
    "phone": "855-425-3677",
    "rating": 4.0,
    "reviews": 25,
    "website": "https://www.vatire.com/",
    "category": "Asian-owned Tire installation in Virginia",
    "description": "A family-owned business with multiple locations offering tire services, auto repair, and maintenance",
    "hours": "Mon-Fri 9AM-6PM",
    "services": [
      "Asian-owned Tire installation in Virginia consultation",
      "Professional service",
      "Quality guarantee"
    ],
    "social_links": {}
  },
  {
    "name": "The Tire Shop",
    "address": "925 Edwards Ferry Road NE, Leesburg, VA 20176",
    "phone": "(703) 777-2255",
    "rating": 4.0,
    "reviews": 25,
    "website": "https://www.aaamidatlantic.com/locations/leesburg/the-tire-shop",
    "category": "Asian-owned Tire installation in Virginia",
    "description": "A locally owned and operated auto repair and tire shop in Leesburg, VA, part of the AAA Mid-Atlantic Network",
    "hours": "Mon-Fri 9AM-6PM",
    "services": [
      "Asian-owned Tire installation in Virginia consultation",
      "Professional service",
      "Quality guarantee"
    ],
    "social_links": {}
  },
  {
    "name": "Leete Tire & Auto Center",
    "address": "Not specified in search results",
    "phone": "",
    "rating": 4.0,
    "reviews": 25,
    "website": "https://www.google.com/maps/search/Leete+Tire+&+Auto+Center+in+Virginia",
    "category": "Asian-owned Tire installation in Virginia",
    "description": "A tire and auto service company",
    "hours": "Mon-Fri 9AM-6PM",
    "services": [
      "Asian-owned Tire installation in Virginia consultation",
      "Professional service",
      "Quality guarantee"
    ],
    "social_links": {}
  }
]