[
  {
    "name": "G P Automotive",
    "address": "8021 196th St SW, Lynnwood, WA 98036",
    "phone": "(425) 774-7888",
    "rating": 4.7,
    "reviews": 25,
    "website": "https://gpautomotivewa.com/",
    "category": "Asian-owned Tune-ups in Washington",
    "description": "Specializes in Asian vehicle repair and maintenance, including tune-ups",
    "hours": "Mon-Fri 9AM-6PM",
    "services": [
      "Asian-owned Tune-ups in Washington consultation",
      "Professional service",
      "Quality guarantee"
    ],
    "social_links": {}
  },
  {
    "name": "Casey's Independent Auto Repair",
    "address": "11610 NE 65th Street, Vancouver, WA 98662",
    "phone": "(360) 253-7111",
    "rating": 4.6,
    "reviews": 25,
    "website": "https://caseysautorepair.com/",
    "category": "Asian-owned Tune-ups in Washington",
    "description": "Offers repairs, maintenance, and tune-ups on all makes and models of Asian cars",
    "hours": "Mon-Fri 9AM-6PM",
    "services": [
      "Asian-owned Tune-ups in Washington consultation",
      "Professional service",
      "Quality guarantee"
    ],
    "social_links": {}
  },
  {
    "name": "Conaway Motors",
    "address": "700 20th St NE, Everett, WA 98201",
    "phone": "(425) 353-3611",
    "rating": 4.7,
    "reviews": 25,
    "website": "https://www.conawaymotors.com/",
    "category": "Asian-owned Tune-ups in Washington",
    "description": "A highly-rated shop with extensive experience in Asian vehicle repair and maintenance, including tune-ups",
    "hours": "Mon-Fri 9AM-6PM",
    "services": [
      "Asian-owned Tune-ups in Washington consultation",
      "Professional service",
      "Quality guarantee"
    ],
    "social_links": {}
  },
  {
    "name": "M&N Absolute Auto Repair",
    "address": "700 20th St NE, Everett, WA 98201",
    "phone": "(425) 353-3611",
    "rating": 4.8,
    "reviews": 25,
    "website": "https://www.mnabsoluteautorepair.com/",
    "category": "Asian-owned Tune-ups in Washington",
    "description": "Specializes in Asian auto repair, offering expert service for a wide range of makes and models, including tune-ups",
    "hours": "Mon-Fri 9AM-6PM",
    "services": [
      "Asian-owned Tune-ups in Washington consultation",
      "Professional service",
      "Quality guarantee"
    ],
    "social_links": {}
  },
  {
    "name": "No. 1 Japanese Auto Repair",
    "address": "8515 15th Ave NW, Seattle, WA 98117",
    "phone": "(206) 782-0711",
    "rating": 4.8,
    "reviews": 25,
    "website": "https://www.no1japaneseautorepair.com/",
    "category": "Asian-owned Tune-ups in Washington",
    "description": "A family-owned shop specializing in Asian import vehicles, offering comprehensive services including tune-ups",
    "hours": "Mon-Fri 9AM-6PM",
    "services": [
      "Asian-owned Tune-ups in Washington consultation",
      "Professional service",
      "Quality guarantee"
    ],
    "social_links": {}
  },
  {
    "name": "All Modern Automotive",
    "address": "15105 Highway 99, Suite A, Lynnwood, WA 98087",
    "phone": "(425) 510-4133",
    "rating": 4.9,
    "reviews": 25,
    "website": "https://allmodernautomotive.com/",
    "category": "Asian-owned Tune-ups in Washington",
    "description": "Provides expert auto repair and maintenance for a variety of Asian vehicles, including tune-ups",
    "hours": "Mon-Fri 9AM-6PM",
    "services": [
      "Asian-owned Tune-ups in Washington consultation",
      "Professional service",
      "Quality guarantee"
    ],
    "social_links": {}
  },
  {
    "name": "North Bend Automotive",
    "address": "43306 SE North Bend Way, North Bend, WA 98045",
    "phone": "(425) 888-4522",
    "rating": 4.7,
    "reviews": 25,
    "website": "https://www.northbendautomotive.com/",
    "category": "Asian-owned Tune-ups in Washington",
    "description": "A full-service auto repair shop specializing in Asian vehicles, offering tune-ups and preventative maintenance",
    "hours": "Mon-Fri 9AM-6PM",
    "services": [
      "Asian-owned Tune-ups in Washington consultation",
      "Professional service",
      "Quality guarantee"
    ],
    "social_links": {}
  },
  {
    "name": "Meyers Auto Tech",
    "address": "7130 W Canal Dr, Kennewick, WA 99336",
    "phone": "(509) 735-0555",
    "rating": 4.8,
    "reviews": 25,
    "website": "https://meyersautotech.com/",
    "category": "Asian-owned Tune-ups in Washington",
    "description": "Offers automotive and truck repair and maintenance services, including tune-ups for various vehicles",
    "hours": "Mon-Fri 9AM-6PM",
    "services": [
      "Asian-owned Tune-ups in Washington consultation",
      "Professional service",
      "Quality guarantee"
    ],
    "social_links": {}
  },
  {
    "name": "Scanwest Autosport",
    "address": "1700 4th Ave S, Seattle, WA 98134",
    "phone": "(206) 329-7226",
    "rating": 4.9,
    "reviews": 25,
    "website": "https://www.scanwestautosport.com/",
    "category": "Asian-owned Tune-ups in Washington",
    "description": "Specializes in European and Japanese vehicles, offering a full range of services including tune-ups",
    "hours": "Mon-Fri 9AM-6PM",
    "services": [
      "Asian-owned Tune-ups in Washington consultation",
      "Professional service",
      "Quality guarantee"
    ],
    "social_links": {}
  },
  {
    "name": "Matt's Greenwood Auto Care",
    "address": "10502 3rd Ave NW, Seattle, WA 98177",
    "phone": "(206) 782-1111",
    "rating": 5.0,
    "reviews": 25,
    "website": "https://www.mattsgreenwoodautocare.com/",
    "category": "Asian-owned Tune-ups in Washington",
    "description": "A highly-rated auto care center that services a wide range of vehicles, including Asian makes, and offers tune-up services",
    "hours": "Mon-Fri 9AM-6PM",
    "services": [
      "Asian-owned Tune-ups in Washington consultation",
      "Professional service",
      "Quality guarantee"
    ],
    "social_links": {}
  }
]