[
  {
    "name": "Adler Law LLC",
    "address": "151 N. Delaware St., Suite 1200, Indianapolis, IN 46204",
    "phone": "(317) 635-7880",
    "rating": 4.5,
    "reviews": 25,
    "website": "https://www.adlerlawllc.com/",
    "category": "Baby-Boomer-owned Probate law in Indiana",
    "description": "Adler Law LLC focuses on estate planning, probate, and Medicaid planning, offering tailored solutions to protect clients' interests and their families' futures",
    "hours": "Mon-Fri 9AM-6PM",
    "services": [
      "Baby-Boomer-owned Probate law in Indiana consultation",
      "Professional service",
      "Quality guarantee"
    ],
    "social_links": {}
  },
  {
    "name": "Triplett & Carothers",
    "address": "4007 Produce Rd., Floyds Knobs, IN 47119",
    "phone": "(812) 920-1000",
    "rating": 4.8,
    "reviews": 25,
    "website": "https://www.triplettcarothers.com/",
    "category": "Baby-Boomer-owned Probate law in Indiana",
    "description": "This firm specializes in Indiana probate, estate planning, and trust administration, with over 30 years of combined experience",
    "hours": "Mon-Fri 9AM-6PM",
    "services": [
      "Baby-Boomer-owned Probate law in Indiana consultation",
      "Professional service",
      "Quality guarantee"
    ],
    "social_links": {}
  },
  {
    "name": "Amber K. Boyd Attorney at Law",
    "address": "2025 Edison Rd., Indianapolis, IN 46240",
    "phone": "(317) 750-1020",
    "rating": 4.7,
    "reviews": 25,
    "website": "https://www.akboydlaw.com/",
    "category": "Baby-Boomer-owned Probate law in Indiana",
    "description": "Amber K. Boyd Attorney at Law has deep expertise in estate planning, probate, and probate litigation, aiming to deliver effective and efficient service",
    "hours": "Mon-Fri 9AM-6PM",
    "services": [
      "Baby-Boomer-owned Probate law in Indiana consultation",
      "Professional service",
      "Quality guarantee"
    ],
    "social_links": {}
  },
  {
    "name": "Rice & Rice",
    "address": "100 Valparaiso St., Valparaiso, IN 46383 (also has offices in Lafayette and Granger)",
    "phone": "(219) 240-0450",
    "rating": 4.9,
    "reviews": 25,
    "website": "https://www.riceandricelaw.com/",
    "category": "Baby-Boomer-owned Probate law in Indiana",
    "description": "With over 100 years of combined experience, Rice & Rice assists clients throughout Indiana with estate planning and probate matters",
    "hours": "Mon-Fri 9AM-6PM",
    "services": [
      "Baby-Boomer-owned Probate law in Indiana consultation",
      "Professional service",
      "Quality guarantee"
    ],
    "social_links": {}
  },
  {
    "name": "Hocker Law, LLC",
    "address": "8440 Allison Pointe Trail, Suite 100, Indianapolis, IN 46250",
    "phone": "(317) 578-1630",
    "rating": 4.6,
    "reviews": 25,
    "website": "https://www.hockerlaw.com/",
    "category": "Baby-Boomer-owned Probate law in Indiana",
    "description": "Hocker Law, LLC provides guidance through the probate process and estate planning, aiming to be \"lawyers for life.\"",
    "hours": "Mon-Fri 9AM-6PM",
    "services": [
      "Baby-Boomer-owned Probate law in Indiana consultation",
      "Professional service",
      "Quality guarantee"
    ],
    "social_links": {}
  },
  {
    "name": "Massillamany Jeter & Carson LLP",
    "address": "9899 E. 106th St., Fishers, IN 46038",
    "phone": "(317) 434-1490",
    "rating": 4.7,
    "reviews": 25,
    "website": "https://mjc.law/",
    "category": "Baby-Boomer-owned Probate law in Indiana",
    "description": "This firm represents clients throughout Indiana during the probate process and offers free consultations",
    "hours": "Mon-Fri 9AM-6PM",
    "services": [
      "Baby-Boomer-owned Probate law in Indiana consultation",
      "Professional service",
      "Quality guarantee"
    ],
    "social_links": {}
  },
  {
    "name": "Mann Law, P.C.",
    "address": "101 W. Ohio St., Suite 2000, Indianapolis, IN 46204",
    "phone": "(317) 825-5500",
    "rating": 4.8,
    "reviews": 25,
    "website": "https://www.mannlawpc.com/",
    "category": "Baby-Boomer-owned Probate law in Indiana",
    "description": "Mann Law, P.C. provides representation for estate planning, estate administration, probate, and guardianship matters",
    "hours": "Mon-Fri 9AM-6PM",
    "services": [
      "Baby-Boomer-owned Probate law in Indiana consultation",
      "Professional service",
      "Quality guarantee"
    ],
    "social_links": {}
  },
  {
    "name": "Lee Cossell & Feagley, LLP",
    "address": "101 W. Washington St., Suite 800, Indianapolis, IN 46204",
    "phone": "(317) 631-5151",
    "rating": 4.5,
    "reviews": 25,
    "website": "https://www.lcflaw.com/",
    "category": "Baby-Boomer-owned Probate law in Indiana",
    "description": "This firm's experienced civil litigators are well-versed in Indiana probate law and handle a full range of disputes that may arise during probate",
    "hours": "Mon-Fri 9AM-6PM",
    "services": [
      "Baby-Boomer-owned Probate law in Indiana consultation",
      "Professional service",
      "Quality guarantee"
    ],
    "social_links": {}
  },
  {
    "name": "Holwager & Holwager",
    "address": "1000 N. Arlington Ave., Beech Grove, IN 46107",
    "phone": "(317) 783-0000",
    "rating": 4.7,
    "reviews": 25,
    "website": "https://www.holwagerlaw.com/",
    "category": "Baby-Boomer-owned Probate law in Indiana",
    "description": "Holwager & Holwager offers over 50 years of experience in elder law, estate and trust planning, and probate",
    "hours": "Mon-Fri 9AM-6PM",
    "services": [
      "Baby-Boomer-owned Probate law in Indiana consultation",
      "Professional service",
      "Quality guarantee"
    ],
    "social_links": {}
  },
  {
    "name": "Politakis Law",
    "address": "1000 Eagle Ridge Dr., Ste. F, Schererville, IN 46375 (also has an office in Chesterton)",
    "phone": "(219) 220-4041",
    "rating": 4.9,
    "reviews": 25,
    "website": "https://www.politakislaw.com/",
    "category": "Baby-Boomer-owned Probate law in Indiana",
    "description": "Politakis Law specializes in estate planning and elder law, providing comprehensive plans tailored to individual needs",
    "hours": "Mon-Fri 9AM-6PM",
    "services": [
      "Baby-Boomer-owned Probate law in Indiana consultation",
      "Professional service",
      "Quality guarantee"
    ],
    "social_links": {}
  }
]