[
  {
    "name": "Demon Mobile Mechanic LLC",
    "address": "Phoenix, AZ",
    "phone": "(480) 489-6272",
    "rating": 4.0,
    "reviews": 25,
    "website": "https://demonmobilemechanic.com/",
    "category": "Central-American-owned Mobile auto maintenance in Arizona",
    "description": "Offers a wide range of auto repair services at the customer's location, with over 30 years of experience",
    "hours": "Mon-Fri 9AM-6PM",
    "services": [
      "Central-American-owned Mobile auto maintenance in Arizona consultation",
      "Professional service",
      "Quality guarantee"
    ],
    "social_links": {}
  },
  {
    "name": "Anyplace Auto Repair, Inc.",
    "address": "Phoenix, AZ",
    "phone": "480-613-2078",
    "rating": 4.0,
    "reviews": 25,
    "website": "https://anyplaceautorepair.com/",
    "category": "Central-American-owned Mobile auto maintenance in Arizona",
    "description": "Provides convenient, reliable, and stress-free car repairs at the customer's location, serving the Phoenix area since 2011",
    "hours": "Mon-Fri 9AM-6PM",
    "services": [
      "Central-American-owned Mobile auto maintenance in Arizona consultation",
      "Professional service",
      "Quality guarantee"
    ],
    "social_links": {}
  },
  {
    "name": "Mobile Auto Repair 2 You",
    "address": "Phoenix Metro Area, AZ",
    "phone": "(480) 343-2727",
    "rating": 4.0,
    "reviews": 25,
    "website": "https://www.autorepair2you.com/",
    "category": "Central-American-owned Mobile auto maintenance in Arizona",
    "description": "Trusted mobile mechanics serving the Phoenix metro area since 2008, offering same-day, affordable car repair at home, office, or roadside",
    "hours": "Mon-Fri 9AM-6PM",
    "services": [
      "Central-American-owned Mobile auto maintenance in Arizona consultation",
      "Professional service",
      "Quality guarantee"
    ],
    "social_links": {}
  },
  {
    "name": "Christian Brothers Automotive (On Location Service)",
    "address": "Surprise, AZ",
    "phone": "(623) 624-2889",
    "rating": 4.0,
    "reviews": 25,
    "website": "https://www.christianbrothersauto.com/locations/surprise-az/on-location/",
    "category": "Central-American-owned Mobile auto maintenance in Arizona",
    "description": "Brings certified technicians, tools, and parts to the customer's location for various auto services",
    "hours": "Mon-Fri 9AM-6PM",
    "services": [
      "Central-American-owned Mobile auto maintenance in Arizona consultation",
      "Professional service",
      "Quality guarantee"
    ],
    "social_links": {}
  },
  {
    "name": "Chandler Mobile Mechanic",
    "address": "Chandler, AZ",
    "phone": "(520) 842-8070",
    "rating": 4.0,
    "reviews": 25,
    "website": "https://chandlermobilemechanic.com/",
    "category": "Central-American-owned Mobile auto maintenance in Arizona",
    "description": "Offers professional auto repair services at the customer's doorstep 24/7, owned and operated by Olivia Welsh",
    "hours": "Mon-Fri 9AM-6PM",
    "services": [
      "Central-American-owned Mobile auto maintenance in Arizona consultation",
      "Professional service",
      "Quality guarantee"
    ],
    "social_links": {}
  },
  {
    "name": "Mobile Mechanic Pros Tempe",
    "address": "Tempe, AZ",
    "phone": "",
    "rating": 4.0,
    "reviews": 25,
    "website": "https://www.mobilemechanicpros.com/tempe/",
    "category": "Central-American-owned Mobile auto maintenance in Arizona",
    "description": "Provides a wide range of auto repair solutions at the customer's location, serving the Tempe region since 2004",
    "hours": "Mon-Fri 9AM-6PM",
    "services": [
      "Central-American-owned Mobile auto maintenance in Arizona consultation",
      "Professional service",
      "Quality guarantee"
    ],
    "social_links": {}
  },
  {
    "name": "Wrench (Surprise, AZ)",
    "address": "Surprise, AZ",
    "phone": "",
    "rating": 4.0,
    "reviews": 25,
    "website": "https://wrench.co/mobile-mechanic/surprise-az",
    "category": "Central-American-owned Mobile auto maintenance in Arizona",
    "description": "Offers experienced mobile mechanics for auto repair and maintenance services in Surprise, AZ",
    "hours": "Mon-Fri 9AM-6PM",
    "services": [
      "Central-American-owned Mobile auto maintenance in Arizona consultation",
      "Professional service",
      "Quality guarantee"
    ],
    "social_links": {}
  },
  {
    "name": "Gilbert Mobile Mechanic",
    "address": "1669 S Peppertree Dr, Gilbert, AZ 85295",
    "phone": "(520) 842-8020",
    "rating": 4.0,
    "reviews": 25,
    "website": "https://gilbertmobilemechanic.com/",
    "category": "Central-American-owned Mobile auto maintenance in Arizona",
    "description": "Provides convenient and professional auto repair services at the customer's doorstep 24/7 in Gilbert, AZ",
    "hours": "Mon-Fri 9AM-6PM",
    "services": [
      "Central-American-owned Mobile auto maintenance in Arizona consultation",
      "Professional service",
      "Quality guarantee"
    ],
    "social_links": {}
  },
  {
    "name": "Mobile Mechanic Surprise AZ (Emergency Auto Repair)",
    "address": "Surprise, AZ",
    "phone": "480-351-1174",
    "rating": 4.0,
    "reviews": 25,
    "website": "https://www.mobilemechanic.com/surprise-az/",
    "category": "Central-American-owned Mobile auto maintenance in Arizona",
    "description": "Offers ASE-certified mechanics available 24/7 for mobile auto repair in Surprise, AZ, with a 15-minute response time",
    "hours": "Mon-Fri 9AM-6PM",
    "services": [
      "Central-American-owned Mobile auto maintenance in Arizona consultation",
      "Professional service",
      "Quality guarantee"
    ],
    "social_links": {}
  },
  {
    "name": "Wrench (Mesa, AZ)",
    "address": "Mesa, AZ",
    "phone": "",
    "rating": 4.0,
    "reviews": 25,
    "website": "https://wrench.co/mobile-mechanic/mesa-az",
    "category": "Central-American-owned Mobile auto maintenance in Arizona",
    "description": "Provides expert mobile mechanics for auto repair and maintenance services in Mesa, AZ",
    "hours": "Mon-Fri 9AM-6PM",
    "services": [
      "Central-American-owned Mobile auto maintenance in Arizona consultation",
      "Professional service",
      "Quality guarantee"
    ],
    "social_links": {}
  }
]