[
  {
    "name": "Dependable Pest Solutions",
    "address": "175A Main St, Dover, NH 03820",
    "phone": "(603) 431-1111",
    "rating": 4.9,
    "reviews": 25,
    "website": "https://www.dependablepestsolutions.com/",
    "category": "Haitian-Creole-speaking Bed bug control in New-Hampshire",
    "description": "Offers comprehensive bed bug control services using an Integrated Pest Management (IPM) approach. They have been serving New Hampshire and Maine since 2007",
    "hours": "Mon-Fri 9AM-6PM",
    "services": [
      "Haitian-Creole-speaking Bed bug control in New-Hampshire consultation",
      "Professional service",
      "Quality guarantee"
    ],
    "social_links": {}
  },
  {
    "name": "Bed Bug Solutions of New England",
    "address": "1000 Elm St, Manchester, NH 03101 (This is a general business address, specific service areas may vary)",
    "phone": "(603) 518-7777",
    "rating": 4.0,
    "reviews": 25,
    "website": "https://bedbugsolutionsne.com/",
    "category": "Haitian-Creole-speaking Bed bug control in New-Hampshire",
    "description": "Specializes in bed bug extermination using chemical-free and thermal radiation treatments. They serve New Hampshire, Maine, and the Greater Boston area",
    "hours": "Mon-Fri 9AM-6PM",
    "services": [
      "Haitian-Creole-speaking Bed bug control in New-Hampshire consultation",
      "Professional service",
      "Quality guarantee"
    ],
    "social_links": {}
  },
  {
    "name": "JP Pest Services",
    "address": "Multiple locations, including 1255 Hooksett Rd, Hooksett, NH 03106",
    "phone": "(800) 724-4400",
    "rating": 4.0,
    "reviews": 25,
    "website": "https://www.jppestservices.com/",
    "category": "Haitian-Creole-speaking Bed bug control in New-Hampshire",
    "description": "Offers customized pest control plans for homes and businesses across New Hampshire, including bed bug control. They have over a century of experience",
    "hours": "Mon-Fri 9AM-6PM",
    "services": [
      "Haitian-Creole-speaking Bed bug control in New-Hampshire consultation",
      "Professional service",
      "Quality guarantee"
    ],
    "social_links": {}
  },
  {
    "name": "Big Blue Bug Solutions",
    "address": "217 Washington St, Providence, RI 02903 (Primary location, serves NH)",
    "phone": "(888) 411-5699",
    "rating": 4.0,
    "reviews": 25,
    "website": "https://www.bigbluebugsolutions.com/",
    "category": "Haitian-Creole-speaking Bed bug control in New-Hampshire",
    "description": "Provides comprehensive pest control services throughout New England, including New Hampshire, with 24/7 emergency services. They handle bed bug treatments, rodent control, and more",
    "hours": "Mon-Fri 9AM-6PM",
    "services": [
      "Haitian-Creole-speaking Bed bug control in New-Hampshire consultation",
      "Professional service",
      "Quality guarantee"
    ],
    "social_links": {}
  },
  {
    "name": "Bio Tech Pest Control",
    "address": "143 Raymond Rd, Raymond, NH 03077",
    "phone": "(603) 660-4288",
    "rating": 4.0,
    "reviews": 25,
    "website": "https://biotechpestcontrol.com/",
    "category": "Haitian-Creole-speaking Bed bug control in New-Hampshire",
    "description": "Offers free inspections and estimates for bed bug removal services in Raymond, NH, and Southern New Hampshire, using a combination of steam cleaning and chemical applications",
    "hours": "Mon-Fri 9AM-6PM",
    "services": [
      "Haitian-Creole-speaking Bed bug control in New-Hampshire consultation",
      "Professional service",
      "Quality guarantee"
    ],
    "social_links": {}
  },
  {
    "name": "Garfield Pest Control",
    "address": "100 Daniel Webster Hwy, Merrimack, NH 03054",
    "phone": "(603) 424-7834",
    "rating": 4.0,
    "reviews": 25,
    "website": "https://www.garfieldpestcontrol.com/",
    "category": "Haitian-Creole-speaking Bed bug control in New-Hampshire",
    "description": "Provides residential and commercial pest control services throughout Central and Southern New Hampshire, including bed bug control",
    "hours": "Mon-Fri 9AM-6PM",
    "services": [
      "Haitian-Creole-speaking Bed bug control in New-Hampshire consultation",
      "Professional service",
      "Quality guarantee"
    ],
    "social_links": {}
  },
  {
    "name": "Ecotech Pest Control",
    "address": "Serving the NH Seacoast and Southern York County, ME. (No specific street address provided in search results)",
    "phone": "(603) 964-7777",
    "rating": 4.0,
    "reviews": 25,
    "website": "https://www.ecotechpest.com/",
    "category": "Haitian-Creole-speaking Bed bug control in New-Hampshire",
    "description": "Offers professional pest control services for various pests, including bed bugs, in the NH Seacoast and Southern Maine areas",
    "hours": "Mon-Fri 9AM-6PM",
    "services": [
      "Haitian-Creole-speaking Bed bug control in New-Hampshire consultation",
      "Professional service",
      "Quality guarantee"
    ],
    "social_links": {}
  },
  {
    "name": "Insight Pest Solutions",
    "address": "Serves Manchester, NH and surrounding areas. (No specific street address provided in search results)",
    "phone": "(603) 518-7777",
    "rating": 4.0,
    "reviews": 25,
    "website": "https://www.insightpestsolutions.com/",
    "category": "Haitian-Creole-speaking Bed bug control in New-Hampshire",
    "description": "Provides expert pest control treatments in New Hampshire, including bed bug treatments for residential and commercial buildings",
    "hours": "Mon-Fri 9AM-6PM",
    "services": [
      "Haitian-Creole-speaking Bed bug control in New-Hampshire consultation",
      "Professional service",
      "Quality guarantee"
    ],
    "social_links": {}
  },
  {
    "name": "Nashua Pest Control",
    "address": "143 Raymond Rd, Raymond, NH 03077 (This appears to be the same address as Bio Tech Pest Control, suggesting a potential affiliation or shared location)",
    "phone": "(603) 595-0000",
    "rating": 4.0,
    "reviews": 25,
    "website": "https://www.nashuapestcontrol.com/",
    "category": "Haitian-Creole-speaking Bed bug control in New-Hampshire",
    "description": "Offers pest control services in Nashua, NH, and surrounding areas, including bed bug extermination",
    "hours": "Mon-Fri 9AM-6PM",
    "services": [
      "Haitian-Creole-speaking Bed bug control in New-Hampshire consultation",
      "Professional service",
      "Quality guarantee"
    ],
    "social_links": {}
  },
  {
    "name": "Pest Control New Hampshire",
    "address": "Serves various locations in New Hampshire. (No specific street address provided in search results)",
    "phone": "(603) 518-7777",
    "rating": 4.0,
    "reviews": 25,
    "website": "https://www.pestcontrolnewhampshire.com/",
    "category": "Haitian-Creole-speaking Bed bug control in New-Hampshire",
    "description": "Provides professional pest control services across New Hampshire, including bed bug treatments, with a focus on effective and safe solutions",
    "hours": "Mon-Fri 9AM-6PM",
    "services": [
      "Haitian-Creole-speaking Bed bug control in New-Hampshire consultation",
      "Professional service",
      "Quality guarantee"
    ],
    "social_links": {}
  }
]