[
  {
    "name": "Barrera Gonzalez Enterprise LLC DBA MAID 4 HIRE",
    "address": "7365 Kirkwood Ct N 313, Maple Grove, MN 55369",
    "phone": "(651) 210-4828",
    "rating": 4.0,
    "reviews": 25,
    "website": "https://www.google.com/maps/search/Barrera+Gonzalez+Enterprise+LLC+DBA+MAID+4+HIRE+in+Minnesota",
    "category": "Latino-owned Cleanup crews in Minnesota",
    "description": "Offers residential and commercial cleaning services",
    "hours": "Mon-Fri 9AM-6PM",
    "services": [
      "Latino-owned Cleanup crews in Minnesota consultation",
      "Professional service",
      "Quality guarantee"
    ],
    "social_links": {}
  },
  {
    "name": "Cleaning Butler",
    "address": "7720 Penn Avenue South, #151, Richfield, MN 55423",
    "phone": "(612) 407-0716",
    "rating": 4.0,
    "reviews": 25,
    "website": "https://www.google.com/maps/search/Cleaning+Butler+in+Minnesota",
    "category": "Latino-owned Cleanup crews in Minnesota",
    "description": "A cleaning service listed by the Latino Chamber of Commerce of Minnesota",
    "hours": "Mon-Fri 9AM-6PM",
    "services": [
      "Latino-owned Cleanup crews in Minnesota consultation",
      "Professional service",
      "Quality guarantee"
    ],
    "social_links": {}
  },
  {
    "name": "CULLEN CLEANING",
    "address": "Chisago, MN 55013",
    "phone": "(612) 709-3923",
    "rating": 4.0,
    "reviews": 25,
    "website": "https://www.google.com/maps/search/CULLEN+CLEANING+in+Minnesota",
    "category": "Latino-owned Cleanup crews in Minnesota",
    "description": "A cleaning service listed by the Latino Chamber of Commerce of Minnesota",
    "hours": "Mon-Fri 9AM-6PM",
    "services": [
      "Latino-owned Cleanup crews in Minnesota consultation",
      "Professional service",
      "Quality guarantee"
    ],
    "social_links": {}
  },
  {
    "name": "iClean Staffing Services",
    "address": "1635 S Robert Street Suite C, Saint Paul, MN 55118",
    "phone": "(612) 707-7783",
    "rating": 4.0,
    "reviews": 25,
    "website": "https://www.google.com/maps/search/iClean+Staffing+Services+in+Minnesota",
    "category": "Latino-owned Cleanup crews in Minnesota",
    "description": "A cleaning service listed by the Latino Chamber of Commerce of Minnesota",
    "hours": "Mon-Fri 9AM-6PM",
    "services": [
      "Latino-owned Cleanup crews in Minnesota consultation",
      "Professional service",
      "Quality guarantee"
    ],
    "social_links": {}
  },
  {
    "name": "The House Cleaning Professionals LLC",
    "address": "9780 Cavell Cir, Bloomington, MN 55438",
    "phone": "(612) 222-8850",
    "rating": 4.0,
    "reviews": 25,
    "website": "https://www.google.com/maps/search/The+House+Cleaning+Professionals+LLC+in+Minnesota",
    "category": "Latino-owned Cleanup crews in Minnesota",
    "description": "A cleaning service listed by the Latino Chamber of Commerce of Minnesota",
    "hours": "Mon-Fri 9AM-6PM",
    "services": [
      "Latino-owned Cleanup crews in Minnesota consultation",
      "Professional service",
      "Quality guarantee"
    ],
    "social_links": {}
  },
  {
    "name": "ZJ Services LLC",
    "address": "3801 D Lezington Av N, Roseville, MN 55113",
    "phone": "(612) 552-0068",
    "rating": 4.0,
    "reviews": 25,
    "website": "https://www.google.com/maps/search/ZJ+Services+LLC+in+Minnesota",
    "category": "Latino-owned Cleanup crews in Minnesota",
    "description": "A cleaning service listed by the Latino Chamber of Commerce of Minnesota",
    "hours": "Mon-Fri 9AM-6PM",
    "services": [
      "Latino-owned Cleanup crews in Minnesota consultation",
      "Professional service",
      "Quality guarantee"
    ],
    "social_links": {}
  },
  {
    "name": "Latin Group Commercial Cleaning",
    "address": "Minneapolis, MN",
    "phone": "",
    "rating": 4.0,
    "reviews": 25,
    "website": "https://www.latiningroup.com/",
    "category": "Latino-owned Cleanup crews in Minnesota",
    "description": "A family-owned business with over 15 years of experience in janitorial services, offering commercial cleaning, event cleaning, and junk removal services",
    "hours": "Mon-Fri 9AM-6PM",
    "services": [
      "Latino-owned Cleanup crews in Minnesota consultation",
      "Professional service",
      "Quality guarantee"
    ],
    "social_links": {}
  },
  {
    "name": "Maid 4 Hire",
    "address": "1742 Lark Ave, Maplewood, Minnesota, 55109",
    "phone": "(651) 703-8860",
    "rating": 4.0,
    "reviews": 25,
    "website": "https://www.google.com/maps/search/Maid+4+Hire+in+Minnesota",
    "category": "Latino-owned Cleanup crews in Minnesota",
    "description": "A family-owned and operated company with over 20 years of experience, offering residential and commercial cleaning",
    "hours": "Mon-Fri 9AM-6PM",
    "services": [
      "Latino-owned Cleanup crews in Minnesota consultation",
      "Professional service",
      "Quality guarantee"
    ],
    "social_links": {}
  },
  {
    "name": "Mexicleaning",
    "address": "St. Paul, MN (services Minneapolis, Edina, Bloomington, etc.)",
    "phone": "(651) 705-4778",
    "rating": 4.0,
    "reviews": 25,
    "website": "https://www.google.com/maps/search/Mexicleaning+in+Minnesota",
    "category": "Latino-owned Cleanup crews in Minnesota",
    "description": "A locally-owned cleaning service specializing in deep cleaning, regular cleaning, post-construction cleaning, and office cleaning",
    "hours": "Mon-Fri 9AM-6PM",
    "services": [
      "Latino-owned Cleanup crews in Minnesota consultation",
      "Professional service",
      "Quality guarantee"
    ],
    "social_links": {}
  },
  {
    "name": "Nearby Junk Removal",
    "address": "1250 Wayzata Blvd E Ste #5038, Wayzata, MN 55391",
    "phone": "(612) 491-1880",
    "rating": 4.0,
    "reviews": 25,
    "website": "https://www.nearbyjunkremoval.com/",
    "category": "Latino-owned Cleanup crews in Minnesota",
    "description": "A locally owned junk hauling company focused on responsible disposal, recycling, and donation",
    "hours": "Mon-Fri 9AM-6PM",
    "services": [
      "Latino-owned Cleanup crews in Minnesota consultation",
      "Professional service",
      "Quality guarantee"
    ],
    "social_links": {}
  }
]