[
  {
    "name": "Baladi Mediterranean Caf\u00e9",
    "address": "4553 Virginia Beach Blvd, Virginia Beach, VA 23462",
    "phone": "(757) 499-0000",
    "rating": 4.6,
    "reviews": 25,
    "website": "https://baladimedcafe.com/",
    "category": "Middle-Eastern-owned Food delivery in Virginia",
    "description": "Offers authentic and healthy Middle-Eastern cuisine, voted Best of 2022 in Virginia Beach. They provide delivery and pickup services",
    "hours": "Mon-Fri 9AM-6PM",
    "services": [
      "Middle-Eastern-owned Food delivery in Virginia consultation",
      "Professional service",
      "Quality guarantee"
    ],
    "social_links": {}
  },
  {
    "name": "Shawarma Express",
    "address": "5401 Mechanicsville Turnpike, Richmond, VA 23223",
    "phone": "(804) 505-2020",
    "rating": 4.7,
    "reviews": 25,
    "website": "https://shawarmaexpressrichmond.com/",
    "category": "Middle-Eastern-owned Food delivery in Virginia",
    "description": "A popular spot in Richmond for authentic Middle Eastern cuisine, known for its shawarmas, kebabs, and falafels. They offer carryout and delivery services",
    "hours": "Mon-Fri 9AM-6PM",
    "services": [
      "Middle-Eastern-owned Food delivery in Virginia consultation",
      "Professional service",
      "Quality guarantee"
    ],
    "social_links": {}
  },
  {
    "name": "Carytown Gyro",
    "address": "3110 W Cary St, Richmond, VA 23221",
    "phone": "(804) 355-4976",
    "rating": 4.5,
    "reviews": 25,
    "website": "https://carytowngyro.com/",
    "category": "Middle-Eastern-owned Food delivery in Virginia",
    "description": "Offers Middle Eastern, Mediterranean, and Greek dishes with convenient pickup and delivery options. They specialize in halal items like falafel, shawarma, and hummus",
    "hours": "Mon-Fri 9AM-6PM",
    "services": [
      "Middle-Eastern-owned Food delivery in Virginia consultation",
      "Professional service",
      "Quality guarantee"
    ],
    "social_links": {}
  },
  {
    "name": "Kabob Bazaar",
    "address": "400 S Maple Ave, Falls Church, VA 22046",
    "phone": "(703) 237-1000",
    "rating": 4.5,
    "reviews": 25,
    "website": "https://www.kabobbazaar.com/",
    "category": "Middle-Eastern-owned Food delivery in Virginia",
    "description": "Provides Middle Eastern cuisine with delivery and pickup options, featuring Persian kebabs, rice dishes, and Mediterranean salads",
    "hours": "Mon-Fri 9AM-6PM",
    "services": [
      "Middle-Eastern-owned Food delivery in Virginia consultation",
      "Professional service",
      "Quality guarantee"
    ],
    "social_links": {}
  },
  {
    "name": "Erbil Kabob",
    "address": "3210 Old Pickett Rd, Fairfax, VA 22031",
    "phone": "(703) 591-9000",
    "rating": 4.5,
    "reviews": 25,
    "website": "https://erbil-kabob.com/",
    "category": "Middle-Eastern-owned Food delivery in Virginia",
    "description": "Offers Iraqi cuisine with pickup and delivery services, known for its grilled meats and vegetarian options",
    "hours": "Mon-Fri 9AM-6PM",
    "services": [
      "Middle-Eastern-owned Food delivery in Virginia consultation",
      "Professional service",
      "Quality guarantee"
    ],
    "social_links": {}
  },
  {
    "name": "Sheesh Grill",
    "address": "8190 Strawberry Ln Unit 4, Falls Church, VA 22042",
    "phone": "(703) 650-1000",
    "rating": 4.5,
    "reviews": 25,
    "website": "https://sheeshgrill.com/",
    "category": "Middle-Eastern-owned Food delivery in Virginia",
    "description": "Serves authentic Middle Eastern and Mediterranean dishes, with a focus on vegan and gluten-free options. They offer online ordering for pickup and delivery",
    "hours": "Mon-Fri 9AM-6PM",
    "services": [
      "Middle-Eastern-owned Food delivery in Virginia consultation",
      "Professional service",
      "Quality guarantee"
    ],
    "social_links": {}
  },
  {
    "name": "Lebanese Taverna",
    "address": "1101 N Highland St, Arlington, VA 22201",
    "phone": "(703) 243-8000",
    "rating": 4.4,
    "reviews": 25,
    "website": "https://lebanesetaverna.com/",
    "category": "Middle-Eastern-owned Food delivery in Virginia",
    "description": "A long-standing establishment offering classic Lebanese family cooking with multiple locations and catering services",
    "hours": "Mon-Fri 9AM-6PM",
    "services": [
      "Middle-Eastern-owned Food delivery in Virginia consultation",
      "Professional service",
      "Quality guarantee"
    ],
    "social_links": {}
  },
  {
    "name": "Zaytoun Halal Grill",
    "address": "400 S Maple Ave, Falls Church, VA 22046",
    "phone": "(703) 536-5000",
    "rating": 4.5,
    "reviews": 25,
    "website": "https://zaytounhalalgrill.com/",
    "category": "Middle-Eastern-owned Food delivery in Virginia",
    "description": "Provides Mediterranean cuisine with convenient delivery and pickup options, featuring falafel wraps, shawarma plates, and hummus platters",
    "hours": "Mon-Fri 9AM-6PM",
    "services": [
      "Middle-Eastern-owned Food delivery in Virginia consultation",
      "Professional service",
      "Quality guarantee"
    ],
    "social_links": {}
  },
  {
    "name": "Mezeh Mediterranean Grill",
    "address": "1100 S Hayes St, Arlington, VA 22202",
    "phone": "(703) 418-2222",
    "rating": 4.4,
    "reviews": 25,
    "website": "https://www.mezeh.com/",
    "category": "Middle-Eastern-owned Food delivery in Virginia",
    "description": "Offers a variety of Mediterranean bowls, salads, and wraps with online ordering for delivery and takeout",
    "hours": "Mon-Fri 9AM-6PM",
    "services": [
      "Middle-Eastern-owned Food delivery in Virginia consultation",
      "Professional service",
      "Quality guarantee"
    ],
    "social_links": {}
  },
  {
    "name": "Mazadar Restaurant",
    "address": "11725 Lee Hwy #15, Fairfax, VA 22030",
    "phone": "(571) 432-0202",
    "rating": 4.6,
    "reviews": 25,
    "website": "https://mazadarrestaurant.com/",
    "category": "Middle-Eastern-owned Food delivery in Virginia",
    "description": "Serves Afghan, Iranian, and Mediterranean cuisines, including kabobs and vegetarian dishes. They offer online ordering for pickup and delivery through various partners",
    "hours": "Mon-Fri 9AM-6PM",
    "services": [
      "Middle-Eastern-owned Food delivery in Virginia consultation",
      "Professional service",
      "Quality guarantee"
    ],
    "social_links": {}
  }
]