[
  {
    "name": "Cathedral of Saints Peter and Paul",
    "address": "30 Fenner St, Providence, RI 02903",
    "phone": "(401) 278-4578 (Diocese of Providence general inquiries, may be able to direct to specific cathedral contact)",
    "rating": 4.0,
    "reviews": 25,
    "website": "https://www.cathedralprovidence.org/",
    "category": "Catholic-owned Event-friendly venues in Rhode-Island",
    "description": "A prominent Catholic cathedral that hosts weddings and other events",
    "hours": "Mon-Fri 9AM-6PM",
    "services": [
      "Catholic-owned Event-friendly venues in Rhode-Island consultation",
      "Professional service",
      "Quality guarantee"
    ],
    "social_links": {}
  },
  {
    "name": "The Pavilion at Grace",
    "address": "50 Hopkins St, Providence, RI 02903",
    "phone": "(401) 521-3150 (Grace Church main line)",
    "rating": 5.0,
    "reviews": 25,
    "website": "https://www.gracepvd.org/the-pavilion",
    "category": "Catholic-owned Event-friendly venues in Rhode-Island",
    "description": "A modern event space connected to historic Grace Church, suitable for weddings and various events",
    "hours": "Mon-Fri 9AM-6PM",
    "services": [
      "Catholic-owned Event-friendly venues in Rhode-Island consultation",
      "Professional service",
      "Quality guarantee"
    ],
    "social_links": {}
  },
  {
    "name": "St. Ann Arts and Cultural Center",
    "address": "200 Main St, Woonsocket, RI 02895",
    "phone": "(401) 766-1000",
    "rating": 5.0,
    "reviews": 25,
    "website": "http://www.stannarts.org/",
    "category": "Catholic-owned Event-friendly venues in Rhode-Island",
    "description": "Known as \"America's Sistine Chapel,\" this center hosts events and is noted for its art and cultural significance",
    "hours": "Mon-Fri 9AM-6PM",
    "services": [
      "Catholic-owned Event-friendly venues in Rhode-Island consultation",
      "Professional service",
      "Quality guarantee"
    ],
    "social_links": {}
  },
  {
    "name": "Mother of Hope Camp",
    "address": "305 Winola Dr, Chepachet, RI 02814",
    "phone": "(401) 568-3700",
    "rating": 4.0,
    "reviews": 25,
    "website": "https://www.motherofhopecamp.com/",
    "category": "Catholic-owned Event-friendly venues in Rhode-Island",
    "description": "This camp, affiliated with the Diocese of Providence, offers rental of its facilities for events, meetings, and retreats",
    "hours": "Mon-Fri 9AM-6PM",
    "services": [
      "Catholic-owned Event-friendly venues in Rhode-Island consultation",
      "Professional service",
      "Quality guarantee"
    ],
    "social_links": {}
  },
  {
    "name": "St. Lucy Parish - Parish Center Hall",
    "address": "237 Lower Meadow Rd, Middletown, RI 02842",
    "phone": "(401) 847-6153",
    "rating": 4.0,
    "reviews": 25,
    "website": "https://www.stlucymiddletown.org/",
    "category": "Catholic-owned Event-friendly venues in Rhode-Island",
    "description": "Offers a renovated parish hall for use by parishioners and outside groups, with a capacity of 150",
    "hours": "Mon-Fri 9AM-6PM",
    "services": [
      "Catholic-owned Event-friendly venues in Rhode-Island consultation",
      "Professional service",
      "Quality guarantee"
    ],
    "social_links": {}
  },
  {
    "name": "St. Kevin Parish - Fr. Francis O'Hara Hall",
    "address": "333 Sandy Lane, Warwick, RI 02889",
    "phone": "(401) 737-2638",
    "rating": 4.0,
    "reviews": 25,
    "website": "https://stkevinparish.org/renting-our-parish-hall",
    "category": "Catholic-owned Event-friendly venues in Rhode-Island",
    "description": "This hall is available for rental by parishioners and can accommodate up to 100 people, with a kitchen and bar",
    "hours": "Mon-Fri 9AM-6PM",
    "services": [
      "Catholic-owned Event-friendly venues in Rhode-Island consultation",
      "Professional service",
      "Quality guarantee"
    ],
    "social_links": {}
  },
  {
    "name": "St. Bernard Church - Parish Hall",
    "address": "250 Old Post Rd, North Kingstown, RI 02852",
    "phone": "(401) 884-4177",
    "rating": 4.0,
    "reviews": 25,
    "website": "https://stbernardparish.org/parish-hall-rental",
    "category": "Catholic-owned Event-friendly venues in Rhode-Island",
    "description": "The parish hall is available for rent to groups whose mission is not contrary to the Catholic Church, with a capacity and amenities for various events",
    "hours": "Mon-Fri 9AM-6PM",
    "services": [
      "Catholic-owned Event-friendly venues in Rhode-Island consultation",
      "Professional service",
      "Quality guarantee"
    ],
    "social_links": {}
  },
  {
    "name": "St. Joseph's National Catholic Church - Social Center",
    "address": "1345 Hartford Ave, Johnston, RI 02919",
    "phone": "(401) 942-5142",
    "rating": 4.0,
    "reviews": 25,
    "website": "https://stjosephjohnston.org/social-center-rental",
    "category": "Catholic-owned Event-friendly venues in Rhode-Island",
    "description": "Offers a social center, stage, and kitchen area for daily and longer-term rentals",
    "hours": "Mon-Fri 9AM-6PM",
    "services": [
      "Catholic-owned Event-friendly venues in Rhode-Island consultation",
      "Professional service",
      "Quality guarantee"
    ],
    "social_links": {}
  },
  {
    "name": "The Catholic Center at URI",
    "address": "90 Chapel Way, Kingston, RI 02881",
    "phone": "(401) 783-0077",
    "rating": 4.0,
    "reviews": 25,
    "website": "https://www.rhodycatholic.org/",
    "category": "Catholic-owned Event-friendly venues in Rhode-Island",
    "description": "While primarily a student center, it hosts events and may have spaces available for rental",
    "hours": "Mon-Fri 9AM-6PM",
    "services": [
      "Catholic-owned Event-friendly venues in Rhode-Island consultation",
      "Professional service",
      "Quality guarantee"
    ],
    "social_links": {}
  },
  {
    "name": "Our Lady of Mercy Chapel - Salve Regina University",
    "address": "100 Ochre Point Ave, Newport, RI 02840",
    "phone": "(401) 847-6650 (Salve Regina University main line)",
    "rating": 4.3,
    "reviews": 25,
    "website": "https://www.salve.edu/center-spiritual-life/our-lady-mercy-chapel",
    "category": "Catholic-owned Event-friendly venues in Rhode-Island",
    "description": "This chapel on the Salve Regina University campus hosts Catholic weddings and other events",
    "hours": "Mon-Fri 9AM-6PM",
    "services": [
      "Catholic-owned Event-friendly venues in Rhode-Island consultation",
      "Professional service",
      "Quality guarantee"
    ],
    "social_links": {}
  }
]