[
  {
    "name": "Texas A&M AgriLife Extension Service Soil Testing Laboratory",
    "address": "2610 F&B Road, College Station, TX 77845",
    "phone": "979-321-5960",
    "rating": 4.0,
    "reviews": 25,
    "website": "https://soiltesting.tamu.edu/",
    "category": "Arabic-speaking Soil testing in Texas",
    "description": "Offers research-based soil, water, and forage testing services. They process a large volume of samples annually and provide recommendations tailored to Texas growing conditions",
    "hours": "Mon-Fri 9AM-6PM",
    "services": [
      "Arabic-speaking Soil testing in Texas consultation",
      "Professional service",
      "Quality guarantee"
    ],
    "social_links": {}
  },
  {
    "name": "ARM Soil Testing LLC",
    "address": "17240 Huffmeister Road Suite 102, Cypress, TX 77429",
    "phone": "832-593-7510",
    "rating": 4.0,
    "reviews": 25,
    "website": "https://www.armssoiltesting.com/",
    "category": "Arabic-speaking Soil testing in Texas",
    "description": "Provides geotechnical engineering and environmental consulting services, including soil testing. They have been serving the Houston area since 2000",
    "hours": "Mon-Fri 9AM-6PM",
    "services": [
      "Arabic-speaking Soil testing in Texas consultation",
      "Professional service",
      "Quality guarantee"
    ],
    "social_links": {}
  },
  {
    "name": "Associated Testing Laboratories",
    "address": "Houston, Texas",
    "phone": "713.748.3717",
    "rating": 4.0,
    "reviews": 25,
    "website": "https://www.associatedtestinglaboratories.com/",
    "category": "Arabic-speaking Soil testing in Texas",
    "description": "A geoscience and geotechnical engineering firm offering soil, foundation, environmental, and construction materials testing in Houston and the Gulf Coast",
    "hours": "Mon-Fri 9AM-6PM",
    "services": [
      "Arabic-speaking Soil testing in Texas consultation",
      "Professional service",
      "Quality guarantee"
    ],
    "social_links": {}
  },
  {
    "name": "A&L Ag Laboratories",
    "address": "302 34th Street, P.O. Box 1590, Lubbock, TX 79408",
    "phone": "806-763-2760",
    "rating": 4.0,
    "reviews": 25,
    "website": "https://www.google.com/maps/search/A&L+Ag+Laboratories+in+Texas",
    "category": "Arabic-speaking Soil testing in Texas",
    "description": "Analyzes soil and water quality samples",
    "hours": "Mon-Fri 9AM-6PM",
    "services": [
      "Arabic-speaking Soil testing in Texas consultation",
      "Professional service",
      "Quality guarantee"
    ],
    "social_links": {}
  },
  {
    "name": "High Plains Laboratory, Inc.",
    "address": "1502 W. Park, P.O. Box 791, Hereford, TX 79045",
    "phone": "806-364-0242",
    "rating": 4.0,
    "reviews": 25,
    "website": "https://www.google.com/maps/search/High+Plains+Laboratory,+Inc.+in+Texas",
    "category": "Arabic-speaking Soil testing in Texas",
    "description": "Analyzes soil samples",
    "hours": "Mon-Fri 9AM-6PM",
    "services": [
      "Arabic-speaking Soil testing in Texas consultation",
      "Professional service",
      "Quality guarantee"
    ],
    "social_links": {}
  },
  {
    "name": "Texas Plant and Soil Lab",
    "address": "F.M. 1925 Rt. 7, Box 213 Y, Edinburg, TX 78539",
    "phone": "956-383-0739",
    "rating": 4.0,
    "reviews": 25,
    "website": "https://www.google.com/maps/search/Texas+Plant+and+Soil+Lab+in+Texas",
    "category": "Arabic-speaking Soil testing in Texas",
    "description": "Analyzes soil and water quality samples, specializing in South Texas soil conditions",
    "hours": "Mon-Fri 9AM-6PM",
    "services": [
      "Arabic-speaking Soil testing in Texas consultation",
      "Professional service",
      "Quality guarantee"
    ],
    "social_links": {}
  },
  {
    "name": "Alluvial Soil Lab",
    "address": "(Locations not specified, but serves Texas)",
    "phone": "",
    "rating": 4.0,
    "reviews": 25,
    "website": "https://www.alluvialsoillab.com/",
    "category": "Arabic-speaking Soil testing in Texas",
    "description": "Offers comprehensive Texas soil analysis with Texas-specific recommendations, including specialized tests for alkaline soil and heavy metals",
    "hours": "Mon-Fri 9AM-6PM",
    "services": [
      "Arabic-speaking Soil testing in Texas consultation",
      "Professional service",
      "Quality guarantee"
    ],
    "social_links": {}
  },
  {
    "name": "Geotech Engineering & Testing (GET)",
    "address": "(Locations not specified, but serves Houston area)",
    "phone": "",
    "rating": 4.0,
    "reviews": 25,
    "website": "https://www.get-testing.com/",
    "category": "Arabic-speaking Soil testing in Texas",
    "description": "Provides laboratory testing for soil classification, shear strength, compaction, and more, with services dating back to 1985",
    "hours": "Mon-Fri 9AM-6PM",
    "services": [
      "Arabic-speaking Soil testing in Texas consultation",
      "Professional service",
      "Quality guarantee"
    ],
    "social_links": {}
  },
  {
    "name": "Arias & Associates, Inc.",
    "address": "(Three office locations serving Texas)",
    "phone": "",
    "rating": 4.0,
    "reviews": 25,
    "website": "https://ariasinc.com/",
    "category": "Arabic-speaking Soil testing in Texas",
    "description": "A leading geotechnical engineering and construction materials testing firm in Texas since 1996",
    "hours": "Mon-Fri 9AM-6PM",
    "services": [
      "Arabic-speaking Soil testing in Texas consultation",
      "Professional service",
      "Quality guarantee"
    ],
    "social_links": {}
  },
  {
    "name": "Whitworth Engineering",
    "address": "(Locations not specified, but serves Texas)",
    "phone": "",
    "rating": 4.0,
    "reviews": 25,
    "website": "https://whitworthengineering.com/",
    "category": "Arabic-speaking Soil testing in Texas",
    "description": "Offers geotechnical testing and consulting for residential and commercial projects, with certified technicians for ASTM testing procedures",
    "hours": "Mon-Fri 9AM-6PM",
    "services": [
      "Arabic-speaking Soil testing in Texas consultation",
      "Professional service",
      "Quality guarantee"
    ],
    "social_links": {}
  }
]