[
  {
    "name": "Zero Gravity Marketing",
    "address": "5 Science Park, New Haven, CT 06511",
    "phone": "(203) 773-1151",
    "rating": 4.8,
    "reviews": 25,
    "website": "https://www.zerogravitymarketing.com/",
    "category": "Black-owned Email marketing in Connecticut",
    "description": "A full-service digital marketing agency specializing in SEO, PPC, CRO, social media marketing, content marketing, website design, and creative services",
    "hours": "Mon-Fri 9AM-6PM",
    "services": [
      "Black-owned Email marketing in Connecticut consultation",
      "Professional service",
      "Quality guarantee"
    ],
    "social_links": {}
  },
  {
    "name": "41 North Digital",
    "address": "100 Pearl Street, Suite 1700, Hartford, CT 06103",
    "phone": "(860) 553-1100",
    "rating": 5.0,
    "reviews": 25,
    "website": "https://www.41northdigital.com/",
    "category": "Black-owned Email marketing in Connecticut",
    "description": "A Connecticut-based digital marketing agency offering SEO, PPC, email marketing, and website design services",
    "hours": "Mon-Fri 9AM-6PM",
    "services": [
      "Black-owned Email marketing in Connecticut consultation",
      "Professional service",
      "Quality guarantee"
    ],
    "social_links": {}
  },
  {
    "name": "Mack Media Group",
    "address": "200 Boston Post Rd, Ste 201, Guilford, CT 06437",
    "phone": "(203) 778-1120",
    "rating": 4.9,
    "reviews": 25,
    "website": "https://www.mackmediagroup.com/",
    "category": "Black-owned Email marketing in Connecticut",
    "description": "A digital marketing agency providing services including email marketing, SEO, PPC, social media marketing, and web design",
    "hours": "Mon-Fri 9AM-6PM",
    "services": [
      "Black-owned Email marketing in Connecticut consultation",
      "Professional service",
      "Quality guarantee"
    ],
    "social_links": {}
  },
  {
    "name": "Nowspeed",
    "address": "100 Pearl Street, 17th Floor, Hartford, CT 06103",
    "phone": "(860) 409-3300",
    "rating": 4.8,
    "reviews": 25,
    "website": "https://www.nowspeed.com/",
    "category": "Black-owned Email marketing in Connecticut",
    "description": "A digital marketing agency focused on helping businesses grow through websites, SEO, social media marketing, and digital advertising",
    "hours": "Mon-Fri 9AM-6PM",
    "services": [
      "Black-owned Email marketing in Connecticut consultation",
      "Professional service",
      "Quality guarantee"
    ],
    "social_links": {}
  },
  {
    "name": "Exposure",
    "address": "100 Pearl Street, 17th Floor, Hartford, CT 06103",
    "phone": "(860) 553-1100",
    "rating": 4.9,
    "reviews": 25,
    "website": "https://www.exposure.marketing/",
    "category": "Black-owned Email marketing in Connecticut",
    "description": "Offers comprehensive email marketing solutions, including strategy, design, content creation, campaign management, and list management",
    "hours": "Mon-Fri 9AM-6PM",
    "services": [
      "Black-owned Email marketing in Connecticut consultation",
      "Professional service",
      "Quality guarantee"
    ],
    "social_links": {}
  },
  {
    "name": "Connext Digital",
    "address": "1000 High Ridge Rd, Stamford, CT 06905",
    "phone": "(203) 588-1100",
    "rating": 4.7,
    "reviews": 25,
    "website": "https://www.connextdigital.com/",
    "category": "Black-owned Email marketing in Connecticut",
    "description": "Provides email marketing services, including email deployment, list growth, and email hygiene & verification",
    "hours": "Mon-Fri 9AM-6PM",
    "services": [
      "Black-owned Email marketing in Connecticut consultation",
      "Professional service",
      "Quality guarantee"
    ],
    "social_links": {}
  },
  {
    "name": "FourteenG Marketing",
    "address": "100 Pearl Street, 17th Floor, Hartford, CT 06103",
    "phone": "(860) 553-1100",
    "rating": 4.9,
    "reviews": 25,
    "website": "https://www.fourteeng.com/",
    "category": "Black-owned Email marketing in Connecticut",
    "description": "A 100% minority-owned business offering email marketing, digital marketing solutions, and Google Marketing Platform services",
    "hours": "Mon-Fri 9AM-6PM",
    "services": [
      "Black-owned Email marketing in Connecticut consultation",
      "Professional service",
      "Quality guarantee"
    ],
    "social_links": {}
  },
  {
    "name": "Noble House Media",
    "address": "Not specified in search results",
    "phone": "",
    "rating": 4.0,
    "reviews": 25,
    "website": "https://www.noblehousenews.com/",
    "category": "Black-owned Email marketing in Connecticut",
    "description": "Offers email marketing services including design, production, sending, analytics, and list growth",
    "hours": "Mon-Fri 9AM-6PM",
    "services": [
      "Black-owned Email marketing in Connecticut consultation",
      "Professional service",
      "Quality guarantee"
    ],
    "social_links": {}
  },
  {
    "name": "ShopBlackCT",
    "address": "",
    "phone": "",
    "rating": 4.0,
    "reviews": 25,
    "website": "https://shopblackct.com/",
    "category": "Black-owned Email marketing in Connecticut",
    "description": "A directory of Black-owned businesses in Connecticut. While not an email marketing agency itself, it may list businesses that offer such services",
    "hours": "Mon-Fri 9AM-6PM",
    "services": [
      "Black-owned Email marketing in Connecticut consultation",
      "Professional service",
      "Quality guarantee"
    ],
    "social_links": {}
  },
  {
    "name": "628 Digital Design",
    "address": "Connecticut (specific address not provided in search results)",
    "phone": "",
    "rating": 4.0,
    "reviews": 25,
    "website": "https://www.628digital.com/",
    "category": "Black-owned Email marketing in Connecticut",
    "description": "An agency dedicated to serving Black-owned companies, offering services like email marketing, branding, and web design",
    "hours": "Mon-Fri 9AM-6PM",
    "services": [
      "Black-owned Email marketing in Connecticut consultation",
      "Professional service",
      "Quality guarantee"
    ],
    "social_links": {}
  }
]