[
  {
    "name": "A.J. LeBlanc Heating",
    "address": "109 Route 101, Amherst, NH 03031",
    "phone": "(603) 673-6000",
    "rating": 4.7,
    "reviews": 25,
    "website": "https://www.ajleblancheating.com/",
    "category": "Chinese-speaking Air quality systems in New-Hampshire",
    "description": "Offers a comprehensive range of indoor air quality solutions, including humidifiers, air purifiers, air cleaners, dehumidifiers, UV purifiers, and ventilation systems. They focus on improving home comfort and health through better air quality",
    "hours": "Mon-Fri 9AM-6PM",
    "services": [
      "Chinese-speaking Air quality systems in New-Hampshire consultation",
      "Professional service",
      "Quality guarantee"
    ],
    "social_links": {}
  },
  {
    "name": "Joys HVAC",
    "address": "165 S River Rd, Bedford, NH 03110",
    "phone": "(603) 232-2711",
    "rating": 4.8,
    "reviews": 25,
    "website": "https://www.joyshvac.com/",
    "category": "Chinese-speaking Air quality systems in New-Hampshire",
    "description": "Specializes in indoor air quality solutions such as HEPA filters, humidity control, germicidal UV lamps, and air purifiers to improve the air in homes, especially for those with respiratory issues",
    "hours": "Mon-Fri 9AM-6PM",
    "services": [
      "Chinese-speaking Air quality systems in New-Hampshire consultation",
      "Professional service",
      "Quality guarantee"
    ],
    "social_links": {}
  },
  {
    "name": "Heritage Home Service",
    "address": "109 Route 101, Amherst, NH 03031",
    "phone": "(603) 601-3955",
    "rating": 4.8,
    "reviews": 25,
    "website": "https://www.heritagehomeservice.com/",
    "category": "Chinese-speaking Air quality systems in New-Hampshire",
    "description": "Provides a wide array of indoor air quality services including whole-home air filtration, UV light purification, electrostatic and ionic air purification, humidification, dehumidification, and duct cleaning. They aim to protect families' health year-round",
    "hours": "Mon-Fri 9AM-6PM",
    "services": [
      "Chinese-speaking Air quality systems in New-Hampshire consultation",
      "Professional service",
      "Quality guarantee"
    ],
    "social_links": {}
  },
  {
    "name": "Georges Heating & Cooling",
    "address": "165 S River Rd, Bedford, NH 03110",
    "phone": "(603) 657-5863",
    "rating": 4.7,
    "reviews": 25,
    "website": "https://www.georgesheating.com/",
    "category": "Chinese-speaking Air quality systems in New-Hampshire",
    "description": "Offers indoor air quality solutions including UV air purifiers, ventilation systems, whole-house dehumidifiers, humidifiers, and filtration air cleaners for both residential and commercial clients",
    "hours": "Mon-Fri 9AM-6PM",
    "services": [
      "Chinese-speaking Air quality systems in New-Hampshire consultation",
      "Professional service",
      "Quality guarantee"
    ],
    "social_links": {}
  },
  {
    "name": "Northeast Air Sealing",
    "address": "149 Loudon Rd, Concord, NH 03301",
    "phone": "(603) 518-4411",
    "rating": 4.9,
    "reviews": 25,
    "website": "https://www.northeastairsealing.com/",
    "category": "Chinese-speaking Air quality systems in New-Hampshire",
    "description": "Focuses on improving indoor air quality through solutions like insulation, air sealing, ventilation, filtration, and window/door replacement to tackle the root causes of poor air quality",
    "hours": "Mon-Fri 9AM-6PM",
    "services": [
      "Chinese-speaking Air quality systems in New-Hampshire consultation",
      "Professional service",
      "Quality guarantee"
    ],
    "social_links": {}
  },
  {
    "name": "Clean Aire Technology",
    "address": "155 Dow St, Suite 103, Manchester, NH 03101",
    "phone": "(603) 267-7042",
    "rating": 4.5,
    "reviews": 25,
    "website": "https://cleanairetechnology.com/",
    "category": "Chinese-speaking Air quality systems in New-Hampshire",
    "description": "A full-service distributor of industrial and commercial air purification products, offering on-site evaluation, system design, installation, and servicing for various air cleaning needs",
    "hours": "Mon-Fri 9AM-6PM",
    "services": [
      "Chinese-speaking Air quality systems in New-Hampshire consultation",
      "Professional service",
      "Quality guarantee"
    ],
    "social_links": {}
  },
  {
    "name": "Pro HVAC",
    "address": "147 Dover Point Rd, Dover, NH 03820",
    "phone": "(603) 743-4822",
    "rating": 4.6,
    "reviews": 25,
    "website": "https://prohvacnh.com/",
    "category": "Chinese-speaking Air quality systems in New-Hampshire",
    "description": "Provides comprehensive HVAC services including heating, cooling, and indoor air quality solutions. They sell, repair, and install various systems to ensure comfortable and healthy indoor environments",
    "hours": "Mon-Fri 9AM-6PM",
    "services": [
      "Chinese-speaking Air quality systems in New-Hampshire consultation",
      "Professional service",
      "Quality guarantee"
    ],
    "social_links": {}
  },
  {
    "name": "Comfort Matters LLC",
    "address": "149 Loudon Rd, Concord, NH 03301",
    "phone": "(603) 715-0101",
    "rating": 4.9,
    "reviews": 25,
    "website": "https://www.comfortmattersllc.com/",
    "category": "Chinese-speaking Air quality systems in New-Hampshire",
    "description": "A one-stop shop for HVAC repair and installation needs, offering solutions that improve indoor comfort and air quality. They have been in the HVAC industry since 2002",
    "hours": "Mon-Fri 9AM-6PM",
    "services": [
      "Chinese-speaking Air quality systems in New-Hampshire consultation",
      "Professional service",
      "Quality guarantee"
    ],
    "social_links": {}
  },
  {
    "name": "MCP HVAC",
    "address": "1100 Lafayette Rd, Portsmouth, NH 03801",
    "phone": "(603) 431-8000",
    "rating": 4.8,
    "reviews": 25,
    "website": "https://mcphvac.com/",
    "category": "Chinese-speaking Air quality systems in New-Hampshire",
    "description": "Specializes in whole-home air purifiers, such as the REME HALO\u00ae system, to reduce allergens, germs, and odors, integrating them seamlessly into existing HVAC systems for cleaner, healthier air",
    "hours": "Mon-Fri 9AM-6PM",
    "services": [
      "Chinese-speaking Air quality systems in New-Hampshire consultation",
      "Professional service",
      "Quality guarantee"
    ],
    "social_links": {}
  },
  {
    "name": "Kearney HVAC",
    "address": "123 Commerce Way, Suite 10, Portsmouth, NH 03801",
    "phone": "(603) 766-1010",
    "rating": 4.7,
    "reviews": 25,
    "website": "https://kearneyhvac.com/",
    "category": "Chinese-speaking Air quality systems in New-Hampshire",
    "description": "Offers whole-home indoor air quality solutions, including air purifiers (like iWave and Aprilaire), humidifiers, and dehumidifiers, to help residents breathe easier and improve their home's health",
    "hours": "Mon-Fri 9AM-6PM",
    "services": [
      "Chinese-speaking Air quality systems in New-Hampshire consultation",
      "Professional service",
      "Quality guarantee"
    ],
    "social_links": {}
  }
]