[
  {
    "name": "Agen's Automotive",
    "address": "737 E Intl Airport Rd, Anchorage, AK 99518",
    "phone": "(907) 563-2436",
    "rating": 4.0,
    "reviews": 25,
    "website": "http://www.agensautomotive.com/",
    "category": "Asian-owned Rotor replacement in Alaska",
    "description": "Specializes in Asian vehicle repair and service, including makes like Acura, Honda, Hyundai, Infiniti, Kia, Lexus, Mazda, Mitsubishi, Nissan, Subaru, Suzuki, and Toyota",
    "hours": "Mon-Fri 9AM-6PM",
    "services": [
      "Asian-owned Rotor replacement in Alaska consultation",
      "Professional service",
      "Quality guarantee"
    ],
    "social_links": {}
  },
  {
    "name": "Peger Road Auto Repair, LLC (Asian Vehicle Repairs)",
    "address": "1904 Peger Rd, Fairbanks, AK 99709",
    "phone": "(907) 479-6162",
    "rating": 4.0,
    "reviews": 25,
    "website": "https://pegerroadautorepair.com/",
    "category": "Asian-owned Rotor replacement in Alaska",
    "description": "A full-service auto repair and preventative maintenance facility specializing in Asian vehicles",
    "hours": "Mon-Fri 9AM-6PM",
    "services": [
      "Asian-owned Rotor replacement in Alaska consultation",
      "Professional service",
      "Quality guarantee"
    ],
    "social_links": {}
  },
  {
    "name": "FrontLine Automotive",
    "address": "1440 University Avenue South, Fairbanks, Alaska 99709",
    "phone": "(888) 469-7550",
    "rating": 4.0,
    "reviews": 25,
    "website": "https://frontlineautomotiveak.com/",
    "category": "Asian-owned Rotor replacement in Alaska",
    "description": "Services a diverse range of vehicles, including Asian vehicles, and offers brake rotor repair and replacement",
    "hours": "Mon-Fri 9AM-6PM",
    "services": [
      "Asian-owned Rotor replacement in Alaska consultation",
      "Professional service",
      "Quality guarantee"
    ],
    "social_links": {}
  },
  {
    "name": "Specialized Import Auto Service (JT Auto)",
    "address": "1090 W Dimond, Anchorage, AK 99515",
    "phone": "(907) 562-0005",
    "rating": 4.0,
    "reviews": 25,
    "website": "http://www.jtauto.com/",
    "category": "Asian-owned Rotor replacement in Alaska",
    "description": "Specializes in quality Japanese import auto repair and offers services for various Asian vehicle makes",
    "hours": "Mon-Fri 9AM-6PM",
    "services": [
      "Asian-owned Rotor replacement in Alaska consultation",
      "Professional service",
      "Quality guarantee"
    ],
    "social_links": {}
  },
  {
    "name": "Edmonds Import Auto",
    "address": "Palmer, AK (Specific address not provided in search results)",
    "phone": "",
    "rating": 4.0,
    "reviews": 25,
    "website": "https://www.edmondsimportauto.com/",
    "category": "Asian-owned Rotor replacement in Alaska",
    "description": "Offers European and Asian auto repair, with specialized expertise in brands like Toyota and Mitsubishi",
    "hours": "Mon-Fri 9AM-6PM",
    "services": [
      "Asian-owned Rotor replacement in Alaska consultation",
      "Professional service",
      "Quality guarantee"
    ],
    "social_links": {}
  },
  {
    "name": "Arctic Import Repair",
    "address": "Anchorage, AK (Specific address not provided in search results)",
    "phone": "",
    "rating": 4.0,
    "reviews": 25,
    "website": "http://www.arcticimportrepair.com/",
    "category": "Asian-owned Rotor replacement in Alaska",
    "description": "Specializes in foreign auto repair, including European and Japanese makes, and has been serving Anchorage since 1986",
    "hours": "Mon-Fri 9AM-6PM",
    "services": [
      "Asian-owned Rotor replacement in Alaska consultation",
      "Professional service",
      "Quality guarantee"
    ],
    "social_links": {}
  },
  {
    "name": "A&A, The Shop",
    "address": "4617 Old Seward Hwy, Anchorage, AK 99503",
    "phone": "(907) 562-3919",
    "rating": 4.0,
    "reviews": 25,
    "website": "https://www.aatheshop.com/",
    "category": "Asian-owned Rotor replacement in Alaska",
    "description": "An independently owned and operated facility specializing in Subaru, Toyota, Scion, and Lexus repair",
    "hours": "Mon-Fri 9AM-6PM",
    "services": [
      "Asian-owned Rotor replacement in Alaska consultation",
      "Professional service",
      "Quality guarantee"
    ],
    "social_links": {}
  },
  {
    "name": "F.A.T.S. Parts",
    "address": "202 E International Airport Rd, Anchorage, AK 99518",
    "phone": "(907) 561-4721",
    "rating": 4.0,
    "reviews": 25,
    "website": "http://www.fatsparts.com/",
    "category": "Asian-owned Rotor replacement in Alaska",
    "description": "A quality car parts supplier in Anchorage that also offers auto repair and service, including brake services",
    "hours": "Mon-Fri 9AM-6PM",
    "services": [
      "Asian-owned Rotor replacement in Alaska consultation",
      "Professional service",
      "Quality guarantee"
    ],
    "social_links": {}
  }
]