[
  {
    "name": "Petti Pest Control",
    "address": "Multiple locations including 158 Front Royal Pike, Suite 204, Winchester, VA 22602 and 71 Edmond Road, Unit 7B, Kearneysville, WV 25430",
    "phone": "540-667-9997 (Winchester), 304-725-9997 (Kearneysville)",
    "rating": 4.0,
    "reviews": 25,
    "website": "https://www.google.com/maps/search/Petti+Pest+Control+West+Virginia",
    "category": "Buddhist-owned Pest management in West-Virginia",
    "description": "A locally-operated and veteran-owned company offering same-day services and guaranteed results for various pests",
    "hours": "Mon-Fri 9AM-6PM",
    "services": [
      "Buddhist-owned Pest management in West-Virginia consultation",
      "Professional service",
      "Quality guarantee"
    ],
    "social_links": {}
  },
  {
    "name": "Orkin",
    "address": "Multiple locations in West Virginia",
    "phone": "855-833-7518",
    "rating": 4.0,
    "reviews": 25,
    "website": "https://www.google.com/maps/search/Orkin+West+Virginia",
    "category": "Buddhist-owned Pest management in West-Virginia",
    "description": "A large and trusted pest control company with rigorous technician training and customized quotes",
    "hours": "Mon-Fri 9AM-6PM",
    "services": [
      "Buddhist-owned Pest management in West-Virginia consultation",
      "Professional service",
      "Quality guarantee"
    ],
    "social_links": {}
  },
  {
    "name": "Terminix",
    "address": "Multiple locations in West Virginia",
    "phone": "866-520-5394",
    "rating": 4.0,
    "reviews": 25,
    "website": "https://www.google.com/maps/search/Terminix+West+Virginia",
    "category": "Buddhist-owned Pest management in West-Virginia",
    "description": "Offers over 90 years of industry experience, with a focus on termites and 24/7 customer support",
    "hours": "Mon-Fri 9AM-6PM",
    "services": [
      "Buddhist-owned Pest management in West-Virginia consultation",
      "Professional service",
      "Quality guarantee"
    ],
    "social_links": {}
  },
  {
    "name": "Ehrlich Pest Control",
    "address": "One location in West Virginia",
    "phone": "877-247-9026",
    "rating": 4.0,
    "reviews": 25,
    "website": "https://www.google.com/maps/search/Ehrlich+Pest+Control+West+Virginia",
    "category": "Buddhist-owned Pest management in West-Virginia",
    "description": "Servicing customers for over 90 years with GreenPro certification for eco-friendly treatments",
    "hours": "Mon-Fri 9AM-6PM",
    "services": [
      "Buddhist-owned Pest management in West-Virginia consultation",
      "Professional service",
      "Quality guarantee"
    ],
    "social_links": {}
  },
  {
    "name": "Master's Pest Management",
    "address": "Buckhannon, WV (servicing North-Central WV)",
    "phone": "304-472-1411",
    "rating": 4.0,
    "reviews": 25,
    "website": "https://www.google.com/maps/search/Master's+Pest+Management+West+Virginia",
    "category": "Buddhist-owned Pest management in West-Virginia",
    "description": "Licensed and certified pest management professionals offering reliable quality at affordable prices",
    "hours": "Mon-Fri 9AM-6PM",
    "services": [
      "Buddhist-owned Pest management in West-Virginia consultation",
      "Professional service",
      "Quality guarantee"
    ],
    "social_links": {}
  },
  {
    "name": "Absolute Pest Management Inc.",
    "address": "Huntington, WV",
    "phone": "304-522-7378",
    "rating": 4.0,
    "reviews": 25,
    "website": "https://www.google.com/maps/search/Absolute+Pest+Management+Inc.+West+Virginia",
    "category": "Buddhist-owned Pest management in West-Virginia",
    "description": "Provides comprehensive pest control services, including termite control, bed bug control, and bird control",
    "hours": "Mon-Fri 9AM-6PM",
    "services": [
      "Buddhist-owned Pest management in West-Virginia consultation",
      "Professional service",
      "Quality guarantee"
    ],
    "social_links": {}
  },
  {
    "name": "PestGoat, LLC",
    "address": "Keyser, West Virginia",
    "phone": "",
    "rating": 4.0,
    "reviews": 25,
    "website": "https://www.google.com/maps/search/PestGoat,+LLC+West+Virginia",
    "category": "Buddhist-owned Pest management in West-Virginia",
    "description": "Known for professional and effective pest control services, with technicians who are knowledgeable and thorough",
    "hours": "Mon-Fri 9AM-6PM",
    "services": [
      "Buddhist-owned Pest management in West-Virginia consultation",
      "Professional service",
      "Quality guarantee"
    ],
    "social_links": {}
  },
  {
    "name": "Appalachian Pest Control",
    "address": "Serves Huntington, Ashland, Ironton, Charleston, and surrounding areas",
    "phone": "",
    "rating": 4.0,
    "reviews": 25,
    "website": "https://www.google.com/maps/search/Appalachian+Pest+Control+West+Virginia",
    "category": "Buddhist-owned Pest management in West-Virginia",
    "description": "Offers effective, humane, and cost-friendly services with over 50 years of collective experience",
    "hours": "Mon-Fri 9AM-6PM",
    "services": [
      "Buddhist-owned Pest management in West-Virginia consultation",
      "Professional service",
      "Quality guarantee"
    ],
    "social_links": {}
  },
  {
    "name": "Environmental Pest Control",
    "address": "Operates across MD and VA, serving WV",
    "phone": "",
    "rating": 4.0,
    "reviews": 25,
    "website": "https://www.google.com/maps/search/Environmental+Pest+Control+West+Virginia",
    "category": "Buddhist-owned Pest management in West-Virginia",
    "description": "A professional rodent extermination company that also handles other pests and wildlife removal",
    "hours": "Mon-Fri 9AM-6PM",
    "services": [
      "Buddhist-owned Pest management in West-Virginia consultation",
      "Professional service",
      "Quality guarantee"
    ],
    "social_links": {}
  },
  {
    "name": "Curry Termite & Pest Control LLC",
    "address": "Huntington, WV (serving Charleston, WV, and Southern Ohio)",
    "phone": "304-521-1636",
    "rating": 4.0,
    "reviews": 25,
    "website": "https://www.google.com/maps/search/Curry+Termite+&+Pest+Control+LLC+West+Virginia",
    "category": "Buddhist-owned Pest management in West-Virginia",
    "description": "A locally owned and operated pest and termite company with over 10 years of experience and state-certified technicians",
    "hours": "Mon-Fri 9AM-6PM",
    "services": [
      "Buddhist-owned Pest management in West-Virginia consultation",
      "Professional service",
      "Quality guarantee"
    ],
    "social_links": {}
  }
]