[
  {
    "name": "Zion & Zion",
    "address": "4040 E. Camelback Rd., Phoenix, AZ 85018",
    "phone": "(602) 374-4400",
    "rating": 4.8,
    "reviews": 25,
    "website": "https://zionandzion.com/",
    "category": "Atheist-owned Brand development in Arizona",
    "description": "A full-service integrated marketing and advertising agency known for its strategic brilliance, design innovation, and data-driven approach",
    "hours": "Mon-Fri 9AM-6PM",
    "services": [
      "Atheist-owned Brand development in Arizona consultation",
      "Professional service",
      "Quality guarantee"
    ],
    "social_links": {}
  },
  {
    "name": "The James Agency",
    "address": "7171 E. Chauncey Ln., Suite 100, Scottsdale, AZ 85251",
    "phone": "(480) 556-1500",
    "rating": 4.7,
    "reviews": 25,
    "website": "https://thejamesagency.com/",
    "category": "Atheist-owned Brand development in Arizona",
    "description": "A full-service integrated marketing agency offering strategic brilliance, design innovation, and fearless advertising",
    "hours": "Mon-Fri 9AM-6PM",
    "services": [
      "Atheist-owned Brand development in Arizona consultation",
      "Professional service",
      "Quality guarantee"
    ],
    "social_links": {}
  },
  {
    "name": "Ivio Agency",
    "address": "20 E. Thomas Rd., Suite 2200, Phoenix, AZ 85012",
    "phone": "(602) 354-3544",
    "rating": 4.9,
    "reviews": 25,
    "website": "https://www.ivioagency.com/",
    "category": "Atheist-owned Brand development in Arizona",
    "description": "An agency specializing in branding, website design, and digital marketing campaigns to help brands succeed and grow",
    "hours": "Mon-Fri 9AM-6PM",
    "services": [
      "Atheist-owned Brand development in Arizona consultation",
      "Professional service",
      "Quality guarantee"
    ],
    "social_links": {}
  },
  {
    "name": "Allegra Marketing and Print",
    "address": "Multiple locations across Arizona. A representative address is 1060 S. Rockford Dr., Tempe, AZ 85281",
    "phone": "(480) 967-7000",
    "rating": 4.5,
    "reviews": 25,
    "website": "https://www.allegratempe.com/",
    "category": "Atheist-owned Brand development in Arizona",
    "description": "A full-service marketing and print communications company offering flexible solutions for businesses",
    "hours": "Mon-Fri 9AM-6PM",
    "services": [
      "Atheist-owned Brand development in Arizona consultation",
      "Professional service",
      "Quality guarantee"
    ],
    "social_links": {}
  },
  {
    "name": "Markitors",
    "address": "1430 W. Broadway Rd., Suite 101, Tempe, AZ 85282",
    "phone": "(480) 559-7474",
    "rating": 4.9,
    "reviews": 25,
    "website": "https://markitors.com/",
    "category": "Atheist-owned Brand development in Arizona",
    "description": "A digital marketing startup focused on connecting small businesses with customers and driving online brand growth",
    "hours": "Mon-Fri 9AM-6PM",
    "services": [
      "Atheist-owned Brand development in Arizona consultation",
      "Professional service",
      "Quality guarantee"
    ],
    "social_links": {}
  },
  {
    "name": "Chunk Media",
    "address": "7077 E. Camelback Rd., Suite 150, Scottsdale, AZ 85251",
    "phone": "(480) 420-0011",
    "rating": 4.8,
    "reviews": 25,
    "website": "https://chunkmedia.com/",
    "category": "Atheist-owned Brand development in Arizona",
    "description": "A versatile marketing agency providing comprehensive solutions that can be tailored to client needs",
    "hours": "Mon-Fri 9AM-6PM",
    "services": [
      "Atheist-owned Brand development in Arizona consultation",
      "Professional service",
      "Quality guarantee"
    ],
    "social_links": {}
  },
  {
    "name": "SeedX Inc.",
    "address": "1060 W. Southern Ave., Suite 1, Tempe, AZ 85282",
    "phone": "(480) 420-0011",
    "rating": 4.9,
    "reviews": 25,
    "website": "https://seedx.io/",
    "category": "Atheist-owned Brand development in Arizona",
    "description": "A data-driven business growth company offering customized marketing and technology solutions",
    "hours": "Mon-Fri 9AM-6PM",
    "services": [
      "Atheist-owned Brand development in Arizona consultation",
      "Professional service",
      "Quality guarantee"
    ],
    "social_links": {}
  },
  {
    "name": "Attic Salt",
    "address": "4040 N. Central Ave., Suite 100, Phoenix, AZ 85012",
    "phone": "(602) 730-4000",
    "rating": 5.0,
    "reviews": 25,
    "website": "https://atticsalt.com/",
    "category": "Atheist-owned Brand development in Arizona",
    "description": "A branding agency that helps innovative brands navigate change with creativity and clarity, specializing in brand creation and realignment",
    "hours": "Mon-Fri 9AM-6PM",
    "services": [
      "Atheist-owned Brand development in Arizona consultation",
      "Professional service",
      "Quality guarantee"
    ],
    "social_links": {}
  },
  {
    "name": "The Brand Agency",
    "address": "1060 E. Camelback Rd., Suite 100, Phoenix, AZ 85014",
    "phone": "(602) 274-0000",
    "rating": 4.7,
    "reviews": 25,
    "website": "https://www.thebrandagency.com/",
    "category": "Atheist-owned Brand development in Arizona",
    "description": "A full-service marketing and advertising agency focused on building lasting brands through meticulous digital and print marketing strategies",
    "hours": "Mon-Fri 9AM-6PM",
    "services": [
      "Atheist-owned Brand development in Arizona consultation",
      "Professional service",
      "Quality guarantee"
    ],
    "social_links": {}
  },
  {
    "name": "ReThinc Advertising",
    "address": "3104 E. Indian School Rd., Phoenix, AZ 85016",
    "phone": "(602) 903-7214",
    "rating": 4.9,
    "reviews": 25,
    "website": "https://rethincadvertising.com/",
    "category": "Atheist-owned Brand development in Arizona",
    "description": "A digital advertising and marketing agency specializing in branding, creative services, web development, and media buying",
    "hours": "Mon-Fri 9AM-6PM",
    "services": [
      "Atheist-owned Brand development in Arizona consultation",
      "Professional service",
      "Quality guarantee"
    ],
    "social_links": {}
  }
]