[
  {
    "name": "Do\u00f1a Maria's Pupuseria",
    "address": "117 High St, Seaford, DE 19973, USA",
    "phone": "(302) 629-9999",
    "rating": 4.0,
    "reviews": 25,
    "website": "https://www.donamariaspupuseria.com/",
    "category": "Central-American-owned Specialty restaurants in Delaware",
    "description": "Specializes in pupusas and other Salvadoran dishes",
    "hours": "Mon-Fri 9AM-6PM",
    "services": [
      "Central-American-owned Specialty restaurants in Delaware consultation",
      "Professional service",
      "Quality guarantee"
    ],
    "social_links": {}
  },
  {
    "name": "Sabor Salvadoreno Restaurant",
    "address": "2801 Lancaster Ave, Wilmington, DE 19805, USA",
    "phone": "(302) 772-2692",
    "rating": 4.0,
    "reviews": 25,
    "website": "https://saborsalvadoreno.com/",
    "category": "Central-American-owned Specialty restaurants in Delaware",
    "description": "Offers a variety of Salvadoran dishes",
    "hours": "Mon-Fri 9AM-6PM",
    "services": [
      "Central-American-owned Specialty restaurants in Delaware consultation",
      "Professional service",
      "Quality guarantee"
    ],
    "social_links": {}
  },
  {
    "name": "EL SALVADORENO",
    "address": "Information not available (serves Wilmington, DE)",
    "phone": "",
    "rating": 4.0,
    "reviews": 25,
    "website": "https://www.doordash.com/store/el-salvadoreno-wilmington-2070661/",
    "category": "Central-American-owned Specialty restaurants in Delaware",
    "description": "Salvadoran restaurant with a focus on pupusas and other traditional dishes",
    "hours": "Mon-Fri 9AM-6PM",
    "services": [
      "Central-American-owned Specialty restaurants in Delaware consultation",
      "Professional service",
      "Quality guarantee"
    ],
    "social_links": {}
  },
  {
    "name": "Caba\u00f1as Restaurant",
    "address": "18388 Coastal Hwy #7, Lewes, DE 19958, USA",
    "phone": "(302) 644-1000",
    "rating": 4.0,
    "reviews": 25,
    "website": "https://www.cabanasrestaurant.com/",
    "category": "Central-American-owned Specialty restaurants in Delaware",
    "description": "Offers a variety of fresh food including Salvadoran dishes",
    "hours": "Mon-Fri 9AM-6PM",
    "services": [
      "Central-American-owned Specialty restaurants in Delaware consultation",
      "Professional service",
      "Quality guarantee"
    ],
    "social_links": {}
  },
  {
    "name": "Chapines Restaurant & Bar",
    "address": "Information not available (serves Guatemalan dishes)",
    "phone": "",
    "rating": 4.0,
    "reviews": 25,
    "website": "https://chapinesrestaurant.com/",
    "category": "Central-American-owned Specialty restaurants in Delaware",
    "description": "Specializes in Guatemalan dishes like Garnachas and Carne Guisada",
    "hours": "Mon-Fri 9AM-6PM",
    "services": [
      "Central-American-owned Specialty restaurants in Delaware consultation",
      "Professional service",
      "Quality guarantee"
    ],
    "social_links": {}
  },
  {
    "name": "Hummingbird Island Cuisine",
    "address": "723 North King Street, Wilmington, DE 19801, USA",
    "phone": "(302) 300-2475",
    "rating": 4.0,
    "reviews": 25,
    "website": "https://hbicuisine.com/",
    "category": "Central-American-owned Specialty restaurants in Delaware",
    "description": "Caribbean food with Jamaican influences",
    "hours": "Mon-Fri 9AM-6PM",
    "services": [
      "Central-American-owned Specialty restaurants in Delaware consultation",
      "Professional service",
      "Quality guarantee"
    ],
    "social_links": {}
  },
  {
    "name": "Tropical Delight Cafe",
    "address": "1156 S Bay Rd, Dover, DE 19901, USA",
    "phone": "(302) 736-3663",
    "rating": 4.0,
    "reviews": 25,
    "website": "https://www.tropicaldelightcafe.com/",
    "category": "Central-American-owned Specialty restaurants in Delaware",
    "description": "Authentic Caribbean cuisine",
    "hours": "Mon-Fri 9AM-6PM",
    "services": [
      "Central-American-owned Specialty restaurants in Delaware consultation",
      "Professional service",
      "Quality guarantee"
    ],
    "social_links": {}
  },
  {
    "name": "Cafetal Mofongo House",
    "address": "1126 Capitol Trail Suite D, Newark, DE 19711, USA",
    "phone": "(302) 444-8999",
    "rating": 4.0,
    "reviews": 25,
    "website": "https://cafetalmofongohouse.com/",
    "category": "Central-American-owned Specialty restaurants in Delaware",
    "description": "Authentic Puerto Rican and Latin Cuisine",
    "hours": "Mon-Fri 9AM-6PM",
    "services": [
      "Central-American-owned Specialty restaurants in Delaware consultation",
      "Professional service",
      "Quality guarantee"
    ],
    "social_links": {}
  },
  {
    "name": "Merengue House Restaurant & Bar",
    "address": "837 North Union Street, Wilmington, DE 19805, USA",
    "phone": "",
    "rating": 4.0,
    "reviews": 25,
    "website": "https://merenguehouse.com/",
    "category": "Central-American-owned Specialty restaurants in Delaware",
    "description": "Caribbean cuisine with Dominican dishes",
    "hours": "Mon-Fri 9AM-6PM",
    "services": [
      "Central-American-owned Specialty restaurants in Delaware consultation",
      "Professional service",
      "Quality guarantee"
    ],
    "social_links": {}
  },
  {
    "name": "HONDURAS RESTAURANT",
    "address": "Information not available",
    "phone": "(573) 810-7349",
    "rating": 4.0,
    "reviews": 25,
    "website": "https://hondurasrestaurant.com/",
    "category": "Central-American-owned Specialty restaurants in Delaware",
    "description": "Offers authentic Honduran cuisine",
    "hours": "Mon-Fri 9AM-6PM",
    "services": [
      "Central-American-owned Specialty restaurants in Delaware consultation",
      "Professional service",
      "Quality guarantee"
    ],
    "social_links": {}
  }
]