[
  {
    "name": "ATL Powerhouse Performance Shop",
    "address": "Acworth, Woodstock, GA (Specific address not provided in search results)",
    "phone": "470-365-1547",
    "rating": 4.0,
    "reviews": 25,
    "website": "https://www.google.com/maps/search/ATL+Powerhouse+Performance+Shop+in+Georgia",
    "category": "Atheist-owned Turbo installation in Georgia",
    "description": "Specializes in high-performance automotive upgrades, including engine tuning and turbocharging. They also offer fabrication, dyno testing, and general repair",
    "hours": "Mon-Fri 9AM-6PM",
    "services": [
      "Atheist-owned Turbo installation in Georgia consultation",
      "Professional service",
      "Quality guarantee"
    ],
    "social_links": {}
  },
  {
    "name": "Defiant Motorsports",
    "address": "Monroe, GA",
    "phone": "",
    "rating": 4.0,
    "reviews": 25,
    "website": "https://www.google.com/maps/search/Defiant+Motorsports+in+Georgia",
    "category": "Atheist-owned Turbo installation in Georgia",
    "description": "Offers custom turbo kit installation, fabrication, and tuning for trucks. They focus on delivering horsepower gains, increased torque, and enhanced fuel efficiency",
    "hours": "Mon-Fri 9AM-6PM",
    "services": [
      "Atheist-owned Turbo installation in Georgia consultation",
      "Professional service",
      "Quality guarantee"
    ],
    "social_links": {}
  },
  {
    "name": "National Brake & Muffler",
    "address": "Griffin, GA",
    "phone": "(770) 228-8888",
    "rating": 4.0,
    "reviews": 25,
    "website": "https://www.google.com/maps/search/National+Brake+&+Muffler+in+Georgia",
    "category": "Atheist-owned Turbo installation in Georgia",
    "description": "Specializes in turbocharger repair and replacement for diesel trucks, offering rebuilds or new/remanufactured unit installations",
    "hours": "Mon-Fri 9AM-6PM",
    "services": [
      "Atheist-owned Turbo installation in Georgia consultation",
      "Professional service",
      "Quality guarantee"
    ],
    "social_links": {}
  },
  {
    "name": "875 Performance",
    "address": "Marietta, GA",
    "phone": "",
    "rating": 4.0,
    "reviews": 25,
    "website": "https://www.google.com/maps/search/875+Performance+in+Georgia",
    "category": "Atheist-owned Turbo installation in Georgia",
    "description": "Provides expert auto repair, maintenance, and performance tuning, including ECU remapping and turbo upgrades",
    "hours": "Mon-Fri 9AM-6PM",
    "services": [
      "Atheist-owned Turbo installation in Georgia consultation",
      "Professional service",
      "Quality guarantee"
    ],
    "social_links": {}
  },
  {
    "name": "Monster Customs",
    "address": "1820 S Cobb Industrial Blvd SE, Smyrna, GA 30082",
    "phone": "(770) 420-0002",
    "rating": 4.0,
    "reviews": 25,
    "website": "https://www.google.com/maps/search/Monster+Customs+in+Georgia",
    "category": "Atheist-owned Turbo installation in Georgia",
    "description": "A one-stop shop for car, truck, and Jeep customization, offering a wide range of upgrades including performance enhancements",
    "hours": "Mon-Fri 9AM-6PM",
    "services": [
      "Atheist-owned Turbo installation in Georgia consultation",
      "Professional service",
      "Quality guarantee"
    ],
    "social_links": {}
  },
  {
    "name": "North Atlanta Customs",
    "address": "128 Enota Avenue Northwest, Gainesville, Georgia 30501",
    "phone": "(770) 540-3504",
    "rating": 4.0,
    "reviews": 25,
    "website": "https://www.google.com/maps/search/North+Atlanta+Customs+in+Georgia",
    "category": "Atheist-owned Turbo installation in Georgia",
    "description": "Offers professional vehicle detailing and customization services, including suspension upgrades and high-performance wheels",
    "hours": "Mon-Fri 9AM-6PM",
    "services": [
      "Atheist-owned Turbo installation in Georgia consultation",
      "Professional service",
      "Quality guarantee"
    ],
    "social_links": {}
  },
  {
    "name": "SCC Performance",
    "address": "Atlanta, GA",
    "phone": "",
    "rating": 4.0,
    "reviews": 25,
    "website": "https://www.google.com/maps/search/SCC+Performance+in+Georgia",
    "category": "Atheist-owned Turbo installation in Georgia",
    "description": "A performance-driven auto repair, tire service, and wheel upgrade shop that also handles custom upgrades",
    "hours": "Mon-Fri 9AM-6PM",
    "services": [
      "Atheist-owned Turbo installation in Georgia consultation",
      "Professional service",
      "Quality guarantee"
    ],
    "social_links": {}
  },
  {
    "name": "The Speed Foundry",
    "address": "Peachtree Corners, GA 30071",
    "phone": "(678) 412-4561",
    "rating": 4.0,
    "reviews": 25,
    "website": "https://www.google.com/maps/search/The+Speed+Foundry+in+Georgia",
    "category": "Atheist-owned Turbo installation in Georgia",
    "description": "Offers performance auto parts and services, including turbo upgrades, suspension, brakes, and more, aiming to make cars faster and more powerful",
    "hours": "Mon-Fri 9AM-6PM",
    "services": [
      "Atheist-owned Turbo installation in Georgia consultation",
      "Professional service",
      "Quality guarantee"
    ],
    "social_links": {}
  },
  {
    "name": "Ne-Ro Tire & Brake Service",
    "address": "2311 S Patterson St, Valdosta, GA",
    "phone": "(229) 244-8353",
    "rating": 4.0,
    "reviews": 25,
    "website": "https://www.google.com/maps/search/Ne-Ro+Tire+&+Brake+Service+in+Georgia",
    "category": "Atheist-owned Turbo installation in Georgia",
    "description": "Provides turbocharger repair services to Valdosta, GA, and surrounding areas",
    "hours": "Mon-Fri 9AM-6PM",
    "services": [
      "Atheist-owned Turbo installation in Georgia consultation",
      "Professional service",
      "Quality guarantee"
    ],
    "social_links": {}
  },
  {
    "name": "Attitude Street Cars, LLC",
    "address": "41 Triangle Court, Carrollton, Georgia 30116",
    "phone": "(404) 300-9245",
    "rating": 4.0,
    "reviews": 25,
    "website": "https://www.google.com/maps/search/Attitude+Street+Cars,+LLC+in+Georgia",
    "category": "Atheist-owned Turbo installation in Georgia",
    "description": "A full-service performance and tuning shop specializing in forced induction applications, including custom turbo builds. They are authorized dealers and installers for major turbo kit brands",
    "hours": "Mon-Fri 9AM-6PM",
    "services": [
      "Atheist-owned Turbo installation in Georgia consultation",
      "Professional service",
      "Quality guarantee"
    ],
    "social_links": {}
  }
]