[
  {
    "name": "The Siren Stylist Hair Extensions",
    "address": "Virginia Beach, VA (Specific address not publicly listed, consultations are by appointment only)",
    "phone": "(757) 771-0802",
    "rating": 5.0,
    "reviews": 25,
    "website": "https://www.thesirensylist.com/",
    "category": "African-American-owned Hair extensions in Virginia",
    "description": "Specializes in hand-tied wefts and keratin bond extensions, offering a range of modern solutions including toppers and wigs. They also provide color services",
    "hours": "Mon-Fri 9AM-6PM",
    "services": [
      "African-American-owned Hair extensions in Virginia consultation",
      "Professional service",
      "Quality guarantee"
    ],
    "social_links": {}
  },
  {
    "name": "Salt + Light Hair Co.",
    "address": "Northern VA (Specific address not publicly listed, consultations are by appointment only)",
    "phone": "(571) 312-2720",
    "rating": 5.0,
    "reviews": 25,
    "website": "https://saltandlighthair.com/",
    "category": "African-American-owned Hair extensions in Virginia",
    "description": "A luxury salon focusing on hair extensions, blondes, and custom coloring. They aim to create chic and unique looks",
    "hours": "Mon-Fri 9AM-6PM",
    "services": [
      "African-American-owned Hair extensions in Virginia consultation",
      "Professional service",
      "Quality guarantee"
    ],
    "social_links": {}
  },
  {
    "name": "Eugenia's Hair Studio",
    "address": "Virginia Beach, VA (Specific address not publicly listed, consultations are by appointment only)",
    "phone": "(757) 620-3934",
    "rating": 5.0,
    "reviews": 25,
    "website": "https://www.eugeniashair.com/",
    "category": "African-American-owned Hair extensions in Virginia",
    "description": "A premier hair extension and transformation studio with Dominican expertise, offering keratin extensions, balayage, and color services",
    "hours": "Mon-Fri 9AM-6PM",
    "services": [
      "African-American-owned Hair extensions in Virginia consultation",
      "Professional service",
      "Quality guarantee"
    ],
    "social_links": {}
  },
  {
    "name": "Color Splash Hair Studio",
    "address": "Chesapeake, VA (Specific address not publicly listed, consultations are by appointment only)",
    "phone": "(757) 482-0390",
    "rating": 5.0,
    "reviews": 25,
    "website": "https://colorsplashhairstudio.com/",
    "category": "African-American-owned Hair extensions in Virginia",
    "description": "Offers a range of hair extension techniques including Hand Tied Wefts, K-Tip, and Tape-In extensions, using high-quality brands",
    "hours": "Mon-Fri 9AM-6PM",
    "services": [
      "African-American-owned Hair extensions in Virginia consultation",
      "Professional service",
      "Quality guarantee"
    ],
    "social_links": {}
  },
  {
    "name": "Tousle By Dupr\u00e9's",
    "address": "Virginia Beach, VA (Specific address not publicly listed, consultations are by appointment only)",
    "phone": "(757) 631-1100",
    "rating": 5.0,
    "reviews": 25,
    "website": "https://www.touslebydupres.com/",
    "category": "African-American-owned Hair extensions in Virginia",
    "description": "Provides alternative hair solutions such as hair extensions, natural hair wigs, and hair loss restoration systems",
    "hours": "Mon-Fri 9AM-6PM",
    "services": [
      "African-American-owned Hair extensions in Virginia consultation",
      "Professional service",
      "Quality guarantee"
    ],
    "social_links": {}
  },
  {
    "name": "Envy Us Beauty Supply",
    "address": "Alexandria, VA (Specific address not publicly listed, shop in-store or order online)",
    "phone": "(571) 317-0284",
    "rating": 5.0,
    "reviews": 25,
    "website": "https://envyusbeautysupply.com/",
    "category": "African-American-owned Hair extensions in Virginia",
    "description": "A Black-owned beauty supply store offering wigs, braiding hair, natural hair care products, cosmetics, and accessories",
    "hours": "Mon-Fri 9AM-6PM",
    "services": [
      "African-American-owned Hair extensions in Virginia consultation",
      "Professional service",
      "Quality guarantee"
    ],
    "social_links": {}
  },
  {
    "name": "Tress Salon & Extension Bar",
    "address": "530 Belaire Ave #103, Chesapeake, VA 23320",
    "phone": "(757) 609-5005",
    "rating": 5.0,
    "reviews": 25,
    "website": "https://www.tresssalon.com/",
    "category": "African-American-owned Hair extensions in Virginia",
    "description": "Offers luxury hair extensions, haircuts, color, and hair replacement services",
    "hours": "Mon-Fri 9AM-6PM",
    "services": [
      "African-American-owned Hair extensions in Virginia consultation",
      "Professional service",
      "Quality guarantee"
    ],
    "social_links": {}
  },
  {
    "name": "Hair Creations By Knikki",
    "address": "Leesburg, VA (Specific address not publicly listed, consultations are by appointment only)",
    "phone": "(571) 313-8006",
    "rating": 5.0,
    "reviews": 25,
    "website": "https://www.haircreationsbyknikki.com/",
    "category": "African-American-owned Hair extensions in Virginia",
    "description": "A premier beauty salon offering hair extensions, weaves, coloring, and more, catering to all ethnicities",
    "hours": "Mon-Fri 9AM-6PM",
    "services": [
      "African-American-owned Hair extensions in Virginia consultation",
      "Professional service",
      "Quality guarantee"
    ],
    "social_links": {}
  },
  {
    "name": "Above & Beyond Beauty Salon",
    "address": "1104 W Mercury Blvd, Hampton, VA 23666 and 13116 Kingston Ave, Chester, VA 23836",
    "phone": "(757) 325-2019",
    "rating": 5.0,
    "reviews": 25,
    "website": "https://www.aboveandbeyondbeautysalon.com/",
    "category": "African-American-owned Hair extensions in Virginia",
    "description": "Specializes in natural hair care services designed to strengthen hair and promote healthy growth, with expertise in black hair",
    "hours": "Mon-Fri 9AM-6PM",
    "services": [
      "African-American-owned Hair extensions in Virginia consultation",
      "Professional service",
      "Quality guarantee"
    ],
    "social_links": {}
  },
  {
    "name": "Salon Noa",
    "address": "3780 Virginia Beach Blvd, Virginia Beach, VA 23452",
    "phone": "(757) 340-7555",
    "rating": 4.8,
    "reviews": 25,
    "website": "https://www.salonnao.com/",
    "category": "African-American-owned Hair extensions in Virginia",
    "description": "Focuses on natural and healthy hair, offering a range of services including treatments and styling",
    "hours": "Mon-Fri 9AM-6PM",
    "services": [
      "African-American-owned Hair extensions in Virginia consultation",
      "Professional service",
      "Quality guarantee"
    ],
    "social_links": {}
  }
]