[
  {
    "name": "Olsson Roofing Company",
    "address": "Multiple locations, including 1000 E. State Street, Geneva, IL 60134 (This is one of their main offices, but they serve the Midwest)",
    "phone": "(630) 892-0449",
    "rating": 4.0,
    "reviews": 25,
    "website": "https://www.olssonroofing.com/",
    "category": "Navajo-speaking Metal roofing in Illinois",
    "description": "Specializes in maintenance, installation, and repair of commercial and industrial roofing systems, and architectural sheet metal. They have been in business for over 100 years",
    "hours": "Mon-Fri 9AM-6PM",
    "services": [
      "Navajo-speaking Metal roofing in Illinois consultation",
      "Professional service",
      "Quality guarantee"
    ],
    "social_links": {}
  },
  {
    "name": "RestoreMasters",
    "address": "Chicago, Illinois (Specific street address not provided in search results, but they serve the Chicago metropolitan area)",
    "phone": "800-400-ROOF",
    "rating": 4.0,
    "reviews": 25,
    "website": "https://restoremasters.com/locations/chicago-metal-roofing-contractor/",
    "category": "Navajo-speaking Metal roofing in Illinois",
    "description": "A professional Chicago metal roofing company that handles all metal roofing services from repairs to complex systems and maintenance. They are a leading commercial roofing contractor",
    "hours": "Mon-Fri 9AM-6PM",
    "services": [
      "Navajo-speaking Metal roofing in Illinois consultation",
      "Professional service",
      "Quality guarantee"
    ],
    "social_links": {}
  },
  {
    "name": "DML USA Metal Roofing",
    "address": "708-345-3545 (Contact number provided, physical address not in search results but they are a manufacturer in Illinois)",
    "phone": "1-708-345-3545",
    "rating": 4.0,
    "reviews": 25,
    "website": "https://www.dmlusa.com/",
    "category": "Navajo-speaking Metal roofing in Illinois",
    "description": "A family-owned company manufacturing high-quality and affordable metal roofing products. They offer a 50-year warranty and 3-day lead time for production",
    "hours": "Mon-Fri 9AM-6PM",
    "services": [
      "Navajo-speaking Metal roofing in Illinois consultation",
      "Professional service",
      "Quality guarantee"
    ],
    "social_links": {}
  },
  {
    "name": "Metal Roofing Chicago",
    "address": "Chicago, Illinois (Specific street address not provided, but they serve the Chicagoland area)",
    "phone": "(773) 345-7243",
    "rating": 4.0,
    "reviews": 25,
    "website": "https://www.metalroofingchicago.com/",
    "category": "Navajo-speaking Metal roofing in Illinois",
    "description": "Installs, repairs, replaces, and coats metal roofs for residential and commercial buildings in the Chicago metropolitan area",
    "hours": "Mon-Fri 9AM-6PM",
    "services": [
      "Navajo-speaking Metal roofing in Illinois consultation",
      "Professional service",
      "Quality guarantee"
    ],
    "social_links": {}
  },
  {
    "name": "SMART Roofing Inc.",
    "address": "797-0404 (Contact number provided, specific street address not in search results, but they serve Chicago and surrounding areas like Winnetka)",
    "phone": "(847) 797-0404",
    "rating": 4.0,
    "reviews": 25,
    "website": "https://smartroofinginc.com/",
    "category": "Navajo-speaking Metal roofing in Illinois",
    "description": "A full-service roofing contractor specializing in metal and copper roofing, including standing seam systems. They offer services for residential and commercial properties",
    "hours": "Mon-Fri 9AM-6PM",
    "services": [
      "Navajo-speaking Metal roofing in Illinois consultation",
      "Professional service",
      "Quality guarantee"
    ],
    "social_links": {}
  },
  {
    "name": "ACA Roofing Companies Chicago",
    "address": "Chicago & suburbs, Illinois (Specific street address not provided, but they cover the entire Chicagoland area)",
    "phone": "",
    "rating": 4.0,
    "reviews": 25,
    "website": "https://www.acaroofingchicago.com/",
    "category": "Navajo-speaking Metal roofing in Illinois",
    "description": "Offers roof installation and replacement for residential and commercial properties, including metal roofing. They pride themselves on offering the best roofing solutions",
    "hours": "Mon-Fri 9AM-6PM",
    "services": [
      "Navajo-speaking Metal roofing in Illinois consultation",
      "Professional service",
      "Quality guarantee"
    ],
    "social_links": {}
  },
  {
    "name": "B & B Sheet Metal Company Inc.",
    "address": "25094 W. Old Rand Road, Wauconda, IL 60084",
    "phone": "(847) 469-6955",
    "rating": 4.0,
    "reviews": 25,
    "website": "https://www.google.com/maps/search/B+&+B+Sheet+Metal+Company+Inc.+in+Illinois",
    "category": "Navajo-speaking Metal roofing in Illinois",
    "description": "Offers architectural, commercial, industrial, light commercial, and residential roofing services",
    "hours": "Mon-Fri 9AM-6PM",
    "services": [
      "Navajo-speaking Metal roofing in Illinois consultation",
      "Professional service",
      "Quality guarantee"
    ],
    "social_links": {}
  },
  {
    "name": "Bennett & Brosseau Sheet Metal, Llc.",
    "address": "535 Anderson Drive, Romeoville, IL 60446",
    "phone": "(630) 759-0009",
    "rating": 4.0,
    "reviews": 25,
    "website": "https://www.bennettandbrosseau.com/",
    "category": "Navajo-speaking Metal roofing in Illinois",
    "description": "Provides architectural, commercial, commercial service, industrial, and light commercial roofing services",
    "hours": "Mon-Fri 9AM-6PM",
    "services": [
      "Navajo-speaking Metal roofing in Illinois consultation",
      "Professional service",
      "Quality guarantee"
    ],
    "social_links": {}
  },
  {
    "name": "Cottage Sheet Metal, LLC.",
    "address": "P. O. BOX 2068, Bridgeview, IL 60455",
    "phone": "(708) 599-2992",
    "rating": 4.0,
    "reviews": 25,
    "website": "https://www.cottagesheetmetal.com/",
    "category": "Navajo-speaking Metal roofing in Illinois",
    "description": "Offers HVAC and roofing services, including sheet metal work",
    "hours": "Mon-Fri 9AM-6PM",
    "services": [
      "Navajo-speaking Metal roofing in Illinois consultation",
      "Professional service",
      "Quality guarantee"
    ],
    "social_links": {}
  },
  {
    "name": "Fab-Rite Sheet Metal",
    "address": "74 Bradrock Drive, Des Plaines, IL 60018",
    "phone": "(847) 228-0300",
    "rating": 4.0,
    "reviews": 25,
    "website": "https://www.fab-rite.com/",
    "category": "Navajo-speaking Metal roofing in Illinois",
    "description": "Provides roofing and duct fabrication services, with other services including roof curbs",
    "hours": "Mon-Fri 9AM-6PM",
    "services": [
      "Navajo-speaking Metal roofing in Illinois consultation",
      "Professional service",
      "Quality guarantee"
    ],
    "social_links": {}
  }
]