[
  {
    "name": "Weissman Family Dental",
    "address": "2551 31st St, Boulder, CO 80301",
    "phone": "(303) 494-0101",
    "rating": 4.8,
    "reviews": 25,
    "website": "https://www.weissmanfamilydental.com/",
    "category": "Jewish-owned Dental implants in Colorado",
    "description": "Weissman Family Dental has been providing dental care to Boulder, CO since 1998, offering a comfortable environment and a team of specialists for various dental needs, including implant dentistry",
    "hours": "Mon-Fri 9AM-6PM",
    "services": [
      "Jewish-owned Dental implants in Colorado consultation",
      "Professional service",
      "Quality guarantee"
    ],
    "social_links": {}
  },
  {
    "name": "Family Precision Dental",
    "address": "1001\u0c4d\u0c30\u0c40 E Harmony Rd #101, Fort Collins, CO 80525",
    "phone": "(970) 223-5555",
    "rating": 4.9,
    "reviews": 25,
    "website": "https://www.familyprecisiondental.com/",
    "category": "Jewish-owned Dental implants in Colorado",
    "description": "Dr. Dinorah Moya and her team offer a comfortable and enjoyable dental experience, providing services such as cosmetic dentistry and dental implants",
    "hours": "Mon-Fri 9AM-6PM",
    "services": [
      "Jewish-owned Dental implants in Colorado consultation",
      "Professional service",
      "Quality guarantee"
    ],
    "social_links": {}
  },
  {
    "name": "Ulibarri Family Dentistry",
    "address": "4745 E Boardwalk Dr C-2, Fort Collins, CO 80525",
    "phone": "(970) 224-5599",
    "rating": 4.9,
    "reviews": 25,
    "website": "https://www.ulibarri.com/",
    "category": "Jewish-owned Dental implants in Colorado",
    "description": "Ulibarri Family Dentistry offers general, cosmetic, and sedation dentistry services, including dental implants, with a focus on personalized care",
    "hours": "Mon-Fri 9AM-6PM",
    "services": [
      "Jewish-owned Dental implants in Colorado consultation",
      "Professional service",
      "Quality guarantee"
    ],
    "social_links": {}
  },
  {
    "name": "Clear Creek Dental",
    "address": "1502 S Lemay Ave #101, Fort Collins, CO 80525",
    "phone": "(970) 221-5120",
    "rating": 4.9,
    "reviews": 25,
    "website": "https://www.clearcreekdental.com/",
    "category": "Jewish-owned Dental implants in Colorado",
    "description": "Serving the Fort Collins area since 1967, Clear Creek Dental provides high-quality service in a comfortable, stress-free environment, treating every patient like family",
    "hours": "Mon-Fri 9AM-6PM",
    "services": [
      "Jewish-owned Dental implants in Colorado consultation",
      "Professional service",
      "Quality guarantee"
    ],
    "social_links": {}
  },
  {
    "name": "Slootmaker Family Dental",
    "address": "111 N College Ave #101, Fort Collins, CO 80524",
    "phone": "(970) 482-4450",
    "rating": 4.9,
    "reviews": 25,
    "website": "https://www.slootmakerfamilydental.com/",
    "category": "Jewish-owned Dental implants in Colorado",
    "description": "Slootmaker Family Dental offers honest dental care that lasts, with a warm, comforting experience utilizing advanced technology and expertise, including implant services",
    "hours": "Mon-Fri 9AM-6PM",
    "services": [
      "Jewish-owned Dental implants in Colorado consultation",
      "Professional service",
      "Quality guarantee"
    ],
    "social_links": {}
  },
  {
    "name": "Weisbard Dental",
    "address": "5080 S Syracuse St #300, Greenwood Village, CO 80111",
    "phone": "(303) 770-5527",
    "rating": 4.8,
    "reviews": 25,
    "website": "https://weisbarddental.com/",
    "category": "Jewish-owned Dental implants in Colorado",
    "description": "Dr. Lee Weisbard and her team provide high-quality dental care, focusing on restorative, implant, and cosmetic dentistry, with a commitment to patient comfort and compassionate care",
    "hours": "Mon-Fri 9AM-6PM",
    "services": [
      "Jewish-owned Dental implants in Colorado consultation",
      "Professional service",
      "Quality guarantee"
    ],
    "social_links": {}
  },
  {
    "name": "City Roots Dental",
    "address": "2020 E 17th Ave, Denver, CO 80206",
    "phone": "(303) 547-1144",
    "rating": 4.9,
    "reviews": 25,
    "website": "https://www.cityrootsdental.com/",
    "category": "Jewish-owned Dental implants in Colorado",
    "description": "City Roots Dental offers a friendly and comfortable atmosphere with kindness and compassion, providing customized dental care and fostering community with neighbors",
    "hours": "Mon-Fri 9AM-6PM",
    "services": [
      "Jewish-owned Dental implants in Colorado consultation",
      "Professional service",
      "Quality guarantee"
    ],
    "social_links": {}
  },
  {
    "name": "Smile Studio Dental",
    "address": "100 S Madison St #100, Denver, CO 80209",
    "phone": "(303) 777-1261",
    "rating": 4.9,
    "reviews": 25,
    "website": "https://smilestudiodental.com/",
    "category": "Jewish-owned Dental implants in Colorado",
    "description": "Smile Studio Dental is a husband and wife general dentistry practice that excels in family dentistry, including advanced procedures like dental implants, with a focus on patient comfort and state-of-the-art air filtration",
    "hours": "Mon-Fri 9AM-6PM",
    "services": [
      "Jewish-owned Dental implants in Colorado consultation",
      "Professional service",
      "Quality guarantee"
    ],
    "social_links": {}
  },
  {
    "name": "Cherry Creek Oral Surgery",
    "address": "245 Steele St #300, Denver, CO 80206",
    "phone": "(303) 777-1603",
    "rating": 4.9,
    "reviews": 25,
    "website": "https://www.cherrycreekoralsurgery.com/",
    "category": "Jewish-owned Dental implants in Colorado",
    "description": "Cherry Creek Oral Surgery offers expert oral surgery and dental implant treatments in Denver, CO, with a focus on comprehensive and compassionate care",
    "hours": "Mon-Fri 9AM-6PM",
    "services": [
      "Jewish-owned Dental implants in Colorado consultation",
      "Professional service",
      "Quality guarantee"
    ],
    "social_links": {}
  },
  {
    "name": "All Smiles Dental Group",
    "address": "4660 Medical View, Colorado Springs, CO 80922",
    "phone": "(719) 637-1772",
    "rating": 4.7,
    "reviews": 25,
    "website": "https://www.allsmilescos.com/",
    "category": "Jewish-owned Dental implants in Colorado",
    "description": "All Smiles Dental Group in Colorado Springs is a family-friendly dental office with a staff of dental specialists, offering emergency and weekend appointments and utilizing the latest dental technologies",
    "hours": "Mon-Fri 9AM-6PM",
    "services": [
      "Jewish-owned Dental implants in Colorado consultation",
      "Professional service",
      "Quality guarantee"
    ],
    "social_links": {}
  }
]