[
  {
    "name": "Safelite AutoGlass",
    "address": "7001 Metropolitan Ave, Oklahoma City, OK 73149",
    "phone": "(405) 601-0777",
    "rating": 4.6,
    "reviews": 25,
    "website": "https://www.google.com/maps/search/Safelite+AutoGlass+in+Oklahoma",
    "category": "Asian-owned Auto glass replacement in Oklahoma",
    "description": "Offers windshield repair and replacement, recalibrating vehicle safety features after replacement. They also provide services for rear and side windows",
    "hours": "Mon-Fri 9AM-6PM",
    "services": [
      "Asian-owned Auto glass replacement in Oklahoma consultation",
      "Professional service",
      "Quality guarantee"
    ],
    "social_links": {}
  },
  {
    "name": "Auto Glass Now",
    "address": "5 S Council Rd, Oklahoma City, OK 73127",
    "phone": "(405) 451-0000",
    "rating": 4.2,
    "reviews": 25,
    "website": "https://www.google.com/maps/search/Auto+Glass+Now+in+Oklahoma",
    "category": "Asian-owned Auto glass replacement in Oklahoma",
    "description": "Provides full front, rear, and side auto glass services, including windshield replacement and ADAS calibration. They offer same-day repairs and mobile services",
    "hours": "Mon-Fri 9AM-6PM",
    "services": [
      "Asian-owned Auto glass replacement in Oklahoma consultation",
      "Professional service",
      "Quality guarantee"
    ],
    "social_links": {}
  },
  {
    "name": "Glass Doctor of Oklahoma City",
    "address": "1101 SW 59th St, Oklahoma City, OK 73119",
    "phone": "(405) 445-6001",
    "rating": 4.0,
    "reviews": 25,
    "website": "https://www.google.com/maps/search/Glass+Doctor+of+Oklahoma+City+in+Oklahoma",
    "category": "Asian-owned Auto glass replacement in Oklahoma",
    "description": "Offers windshield repair and replacement, with mobile services available. They work with insurance carriers and handle insurance filing",
    "hours": "Mon-Fri 9AM-6PM",
    "services": [
      "Asian-owned Auto glass replacement in Oklahoma consultation",
      "Professional service",
      "Quality guarantee"
    ],
    "social_links": {}
  },
  {
    "name": "Penn Auto Glass",
    "address": "4000 NW Britton Rd, Oklahoma City, OK 73120",
    "phone": "(405) 470-6926",
    "rating": 4.0,
    "reviews": 25,
    "website": "https://www.google.com/maps/search/Penn+Auto+Glass+in+Oklahoma",
    "category": "Asian-owned Auto glass replacement in Oklahoma",
    "description": "Provides windshield and auto glass services, including ADAS calibration. They offer quotes and service scheduling online",
    "hours": "Mon-Fri 9AM-6PM",
    "services": [
      "Asian-owned Auto glass replacement in Oklahoma consultation",
      "Professional service",
      "Quality guarantee"
    ],
    "social_links": {}
  },
  {
    "name": "Eagle 1 Auto Glass",
    "address": "501 S Broadway Ave, Moore, OK 73160",
    "phone": "(405) 54-GLASS",
    "rating": 4.0,
    "reviews": 25,
    "website": "https://www.google.com/maps/search/Eagle+1+Auto+Glass+in+Oklahoma",
    "category": "Asian-owned Auto glass replacement in Oklahoma",
    "description": "Offers windshield repair, replacement, and mobile glass services within a 30-mile radius of the greater Oklahoma City area",
    "hours": "Mon-Fri 9AM-6PM",
    "services": [
      "Asian-owned Auto glass replacement in Oklahoma consultation",
      "Professional service",
      "Quality guarantee"
    ],
    "social_links": {}
  },
  {
    "name": "Los Primos Auto Glass & Window Tint",
    "address": "2238 SW 29th St, Oklahoma City, OK 73119",
    "phone": "(405) 609-1999",
    "rating": 4.0,
    "reviews": 25,
    "website": "https://www.google.com/maps/search/Los+Primos+Auto+Glass+&+Window+Tint+in+Oklahoma",
    "category": "Asian-owned Auto glass replacement in Oklahoma",
    "description": "Provides auto glass replacement, windshield repair, and window tinting services for all types of vehicles. They offer same-day service",
    "hours": "Mon-Fri 9AM-6PM",
    "services": [
      "Asian-owned Auto glass replacement in Oklahoma consultation",
      "Professional service",
      "Quality guarantee"
    ],
    "social_links": {}
  },
  {
    "name": "OKC Auto Glass",
    "address": "Serves the Greater OKC Metro Area (mobile service)",
    "phone": "",
    "rating": 4.0,
    "reviews": 25,
    "website": "https://www.google.com/maps/search/OKC+Auto+Glass+in+Oklahoma",
    "category": "Asian-owned Auto glass replacement in Oklahoma",
    "description": "Offers mobile auto glass replacement and repair services for windshields, door glass, and chips. They guarantee their installations meet or exceed vehicle requirements",
    "hours": "Mon-Fri 9AM-6PM",
    "services": [
      "Asian-owned Auto glass replacement in Oklahoma consultation",
      "Professional service",
      "Quality guarantee"
    ],
    "social_links": {}
  },
  {
    "name": "Clayton's Glass of OKC",
    "address": "Serves Greater Oklahoma City and Canadian County (mobile service)",
    "phone": "(405) 470-6926",
    "rating": 4.0,
    "reviews": 25,
    "website": "https://www.google.com/maps/search/Clayton's+Glass+of+OKC+in+Oklahoma",
    "category": "Asian-owned Auto glass replacement in Oklahoma",
    "description": "Provides auto glass replacement and windshield repair services for all vehicles, including classic cars. They offer mobile service and assistance with insurance claims",
    "hours": "Mon-Fri 9AM-6PM",
    "services": [
      "Asian-owned Auto glass replacement in Oklahoma consultation",
      "Professional service",
      "Quality guarantee"
    ],
    "social_links": {}
  },
  {
    "name": "Auto Glass Now (Tulsa)",
    "address": "4020 S Peoria Ave, Tulsa, OK 74105",
    "phone": "(918) 901-2400",
    "rating": 4.9,
    "reviews": 25,
    "website": "https://www.google.com/maps/search/Auto+Glass+Now+(Tulsa)+in+Oklahoma",
    "category": "Asian-owned Auto glass replacement in Oklahoma",
    "description": "Offers windshield repair and replacement, ADAS calibration, and mobile auto glass repair services in Tulsa. They handle insurance claims",
    "hours": "Mon-Fri 9AM-6PM",
    "services": [
      "Asian-owned Auto glass replacement in Oklahoma consultation",
      "Professional service",
      "Quality guarantee"
    ],
    "social_links": {}
  },
  {
    "name": "Autoglass Outlet",
    "address": "4136 S 70th E Ave, Ste F, Tulsa, OK 74145",
    "phone": "(918) 834-3432",
    "rating": 4.0,
    "reviews": 25,
    "website": "https://www.google.com/maps/search/Autoglass+Outlet+in+Oklahoma",
    "category": "Asian-owned Auto glass replacement in Oklahoma",
    "description": "Provides windshield repair and replacement services, with a focus on affordable rates and quality workmanship. They offer free quotes and military discounts",
    "hours": "Mon-Fri 9AM-6PM",
    "services": [
      "Asian-owned Auto glass replacement in Oklahoma consultation",
      "Professional service",
      "Quality guarantee"
    ],
    "social_links": {}
  }
]