[
  {
    "name": "Alma Tractor & Equipment Inc.",
    "address": "1000 W Main St, Alma, AR 72921",
    "phone": "(479) 632-2051",
    "rating": 4.0,
    "reviews": 25,
    "website": "https://www.almatractor.com/",
    "category": "Catholic-owned Farm equipment rental in Arkansas",
    "description": "Offers a variety of new and pre-owned tractors and hay equipment for sale and rent. Their rental fleet includes newer, reliable machines",
    "hours": "Mon-Fri 9AM-6PM",
    "services": [
      "Catholic-owned Farm equipment rental in Arkansas consultation",
      "Professional service",
      "Quality guarantee"
    ],
    "social_links": {}
  },
  {
    "name": "Farmers Co-op",
    "address": "3026 E Heritage Pkwy, Farmington, AR 72730",
    "phone": "(479) 300-2120",
    "rating": 4.0,
    "reviews": 25,
    "website": "https://farmers-coop.com/",
    "category": "Catholic-owned Farm equipment rental in Arkansas",
    "description": "Provides equipment rental services including tractor implements, seeders, augers, brush hogs, tillers, and box blades",
    "hours": "Mon-Fri 9AM-6PM",
    "services": [
      "Catholic-owned Farm equipment rental in Arkansas consultation",
      "Professional service",
      "Quality guarantee"
    ],
    "social_links": {}
  },
  {
    "name": "Mitchell's Equipment Sales & Rentals",
    "address": "1000 Searcy Industrial Rd, Searcy, AR 72143",
    "phone": "(501) 268-5100",
    "rating": 5.0,
    "reviews": 25,
    "website": "https://www.mitchellsequipment.com/",
    "category": "Catholic-owned Farm equipment rental in Arkansas",
    "description": "Sells and rents heavy equipment, with a focus on customer service and well-maintained machinery",
    "hours": "Mon-Fri 9AM-6PM",
    "services": [
      "Catholic-owned Farm equipment rental in Arkansas consultation",
      "Professional service",
      "Quality guarantee"
    ],
    "social_links": {}
  },
  {
    "name": "Works Equipment Rental",
    "address": "Multiple locations, including Springdale, AR. (Specific address for Springdale not found in search results, but they serve Northwest Arkansas)",
    "phone": "(479) 750-7800 (Springdale main line)",
    "rating": 4.0,
    "reviews": 25,
    "website": "https://www.worksequipmentrental.com/",
    "category": "Catholic-owned Farm equipment rental in Arkansas",
    "description": "Offers a wide variety of machines, equipment, and attachments for rent, from mini-skids to excavators and wheel loaders",
    "hours": "Mon-Fri 9AM-6PM",
    "services": [
      "Catholic-owned Farm equipment rental in Arkansas consultation",
      "Professional service",
      "Quality guarantee"
    ],
    "social_links": {}
  },
  {
    "name": "River Valley Tractor",
    "address": "Multiple locations including Hot Springs, Bryant, Conway, and Russellville, AR. (Specific addresses vary by location)",
    "phone": "(501) 623-1665 (Hot Springs)",
    "rating": 4.0,
    "reviews": 25,
    "website": "https://www.rivervalleytractor.com/",
    "category": "Catholic-owned Farm equipment rental in Arkansas",
    "description": "Provides rental equipment for local businesses, including tractors, excavators, and loaders",
    "hours": "Mon-Fri 9AM-6PM",
    "services": [
      "Catholic-owned Farm equipment rental in Arkansas consultation",
      "Professional service",
      "Quality guarantee"
    ],
    "social_links": {}
  },
  {
    "name": "Hugg & Hall Equipment Company",
    "address": "Multiple locations across Arkansas, including Little Rock. (Specific address for Little Rock not found in search results)",
    "phone": "(501) 777-7777 (Little Rock main line)",
    "rating": 4.0,
    "reviews": 25,
    "website": "https://hugghall.com/",
    "category": "Catholic-owned Farm equipment rental in Arkansas",
    "description": "A leading equipment dealer offering sales, rental, parts, and service for construction, industrial, and material handling needs",
    "hours": "Mon-Fri 9AM-6PM",
    "services": [
      "Catholic-owned Farm equipment rental in Arkansas consultation",
      "Professional service",
      "Quality guarantee"
    ],
    "social_links": {}
  },
  {
    "name": "Gregg Farm Services (GFS)",
    "address": "1000 US-62, Mountain Home, AR 72653",
    "phone": "(870) 421-5115",
    "rating": 4.0,
    "reviews": 25,
    "website": "https://www.greggfarms.com/",
    "category": "Catholic-owned Farm equipment rental in Arkansas",
    "description": "Offers reliable equipment rental options, including excavators, backhoes, and loaders, serving homeowners, ranchers, landscapers, and contractors",
    "hours": "Mon-Fri 9AM-6PM",
    "services": [
      "Catholic-owned Farm equipment rental in Arkansas consultation",
      "Professional service",
      "Quality guarantee"
    ],
    "social_links": {}
  },
  {
    "name": "Hobbs Farm Implement",
    "address": "1700 S Washington St, Colt, AR 72326",
    "phone": "(870) 636-2000",
    "rating": 4.0,
    "reviews": 25,
    "website": "https://www.hobbscar.com/",
    "category": "Catholic-owned Farm equipment rental in Arkansas",
    "description": "A family-owned business offering new and used farm equipment from various industry-leading manufacturers. While primarily a dealer, they may offer rental options",
    "hours": "Mon-Fri 9AM-6PM",
    "services": [
      "Catholic-owned Farm equipment rental in Arkansas consultation",
      "Professional service",
      "Quality guarantee"
    ],
    "social_links": {}
  },
  {
    "name": "Trip H Rentals, LLC",
    "address": "Information not available from search results. (Listed as a heavy equipment rental business near Leslie, AR)",
    "phone": "",
    "rating": 4.0,
    "reviews": 25,
    "website": "https://www.google.com/maps/search/Trip+H+Rentals,+LLC+in+Arkansas",
    "category": "Catholic-owned Farm equipment rental in Arkansas",
    "description": "A heavy equipment rental business",
    "hours": "Mon-Fri 9AM-6PM",
    "services": [
      "Catholic-owned Farm equipment rental in Arkansas consultation",
      "Professional service",
      "Quality guarantee"
    ],
    "social_links": {}
  },
  {
    "name": "Fabick CAT",
    "address": "Multiple locations, including one near Leslie, AR. (Specific address for a rental location not found in search results)",
    "phone": "",
    "rating": 4.0,
    "reviews": 25,
    "website": "https://www.fabickcat.com/",
    "category": "Catholic-owned Farm equipment rental in Arkansas",
    "description": "Deals in construction and farm equipment, offering repair services and potentially rentals",
    "hours": "Mon-Fri 9AM-6PM",
    "services": [
      "Catholic-owned Farm equipment rental in Arkansas consultation",
      "Professional service",
      "Quality guarantee"
    ],
    "social_links": {}
  }
]