[
  {
    "name": "First Way Pregnancy Center",
    "address": "3501 N 16th St, Phoenix, AZ 85016",
    "phone": "(602) 261-7522",
    "rating": 4.0,
    "reviews": 25,
    "website": "https://www.google.com/maps/search/First+Way+Pregnancy+Center+in+Arizona",
    "category": "Catholic-owned Ultrasound services in Arizona",
    "description": "Offers free pregnancy tests, 3D/4D ultrasounds, peer counseling, and parenting classes",
    "hours": "Mon-Fri 9AM-6PM",
    "services": [
      "Catholic-owned Ultrasound services in Arizona consultation",
      "Professional service",
      "Quality guarantee"
    ],
    "social_links": {}
  },
  {
    "name": "Aid to Women Center",
    "address": "1328 E. Apache Blvd, Tempe, AZ 85281",
    "phone": "(480) 966-1902",
    "rating": 4.0,
    "reviews": 25,
    "website": "https://www.google.com/maps/search/Aid+to+Women+Center+in+Arizona",
    "category": "Catholic-owned Ultrasound services in Arizona",
    "description": "Provides resources and care for those facing planned or unplanned pregnancies, including free ultrasounds and pregnancy tests",
    "hours": "Mon-Fri 9AM-6PM",
    "services": [
      "Catholic-owned Ultrasound services in Arizona consultation",
      "Professional service",
      "Quality guarantee"
    ],
    "social_links": {}
  },
  {
    "name": "Life Choices Women's Clinics",
    "address": "Multiple locations, including 8326 N. 7th Street, Phoenix, AZ 85020 and 3516 W. McDowell, Phoenix, AZ 85009",
    "phone": "(602) 305-5100",
    "rating": 4.0,
    "reviews": 25,
    "website": "https://www.google.com/maps/search/Life+Choices+Women's+Clinics+in+Arizona",
    "category": "Catholic-owned Ultrasound services in Arizona",
    "description": "Offers free or low-cost healthcare, including pregnancy tests, counseling, ultrasounds, and STD tests",
    "hours": "Mon-Fri 9AM-6PM",
    "services": [
      "Catholic-owned Ultrasound services in Arizona consultation",
      "Professional service",
      "Quality guarantee"
    ],
    "social_links": {}
  },
  {
    "name": "Catholic Charities Community Services (Joining Hearts)",
    "address": "5119 N. 19th Ave, Phoenix, AZ 85015",
    "phone": "888-818-4445",
    "rating": 4.0,
    "reviews": 25,
    "website": "https://www.google.com/maps/search/Catholic+Charities+Community+Services+(Joining+Hearts)+in+Arizona",
    "category": "Catholic-owned Ultrasound services in Arizona",
    "description": "A full-service pregnancy and adoption agency offering free services, including life-affirming pregnancy support. They do not provide medical care or ultrasounds directly but connect clients to resources",
    "hours": "Mon-Fri 9AM-6PM",
    "services": [
      "Catholic-owned Ultrasound services in Arizona consultation",
      "Professional service",
      "Quality guarantee"
    ],
    "social_links": {}
  },
  {
    "name": "St. Joseph's Hospital and Medical Center",
    "address": "350 W Thomas Rd, Phoenix, AZ 85013",
    "phone": "(602) 406-6700",
    "rating": 4.0,
    "reviews": 25,
    "website": "https://www.google.com/maps/search/St.+Joseph's+Hospital+and+Medical+Center+in+Arizona",
    "category": "Catholic-owned Ultrasound services in Arizona",
    "description": "Offers comprehensive ultrasound imaging services, including abdominal, gynecological, and obstetrical ultrasounds",
    "hours": "Mon-Fri 9AM-6PM",
    "services": [
      "Catholic-owned Ultrasound services in Arizona consultation",
      "Professional service",
      "Quality guarantee"
    ],
    "social_links": {}
  },
  {
    "name": "Banner - University Medicine Advanced Imaging",
    "address": "Multiple locations, including Tucson, AZ",
    "phone": "(520) 335-6849 (for Southern Arizona Radiology Associates, a nearby facility)",
    "rating": 4.5,
    "reviews": 25,
    "website": "https://www.google.com/maps/search/Banner+-+University+Medicine+Advanced+Imaging+in+Arizona",
    "category": "Catholic-owned Ultrasound services in Arizona",
    "description": "Provides comprehensive medical imaging services, specializing in breast imaging, and is part of the Banner Health network",
    "hours": "Mon-Fri 9AM-6PM",
    "services": [
      "Catholic-owned Ultrasound services in Arizona consultation",
      "Professional service",
      "Quality guarantee"
    ],
    "social_links": {}
  },
  {
    "name": "Mayo Clinic",
    "address": "13400 E. Shea Blvd, Scottsdale, AZ 85259",
    "phone": "(480) 301-8000",
    "rating": 4.0,
    "reviews": 25,
    "website": "https://www.google.com/maps/search/Mayo+Clinic+in+Arizona",
    "category": "Catholic-owned Ultrasound services in Arizona",
    "description": "Offers a wide range of diagnostic testing and radiology imaging services, including ultrasound",
    "hours": "Mon-Fri 9AM-6PM",
    "services": [
      "Catholic-owned Ultrasound services in Arizona consultation",
      "Professional service",
      "Quality guarantee"
    ],
    "social_links": {}
  },
  {
    "name": "Pregnancy Resource Clinic of Arizona",
    "address": "Phoenix, AZ (specific address not provided in search results)",
    "phone": "480.694.5746",
    "rating": 4.0,
    "reviews": 25,
    "website": "https://www.google.com/maps/search/Pregnancy+Resource+Clinic+of+Arizona+in+Arizona",
    "category": "Catholic-owned Ultrasound services in Arizona",
    "description": "Offers free pregnancy tests, limited ultrasounds, and consultations regarding pregnancy options",
    "hours": "Mon-Fri 9AM-6PM",
    "services": [
      "Catholic-owned Ultrasound services in Arizona consultation",
      "Professional service",
      "Quality guarantee"
    ],
    "social_links": {}
  },
  {
    "name": "Miracle View Ultrasound",
    "address": "3519 East Shea Blvd. Suite 139, Phoenix, Arizona 85028",
    "phone": "1-480-421-BABY (2229)",
    "rating": 5.0,
    "reviews": 25,
    "website": "https://www.google.com/maps/search/Miracle+View+Ultrasound+in+Arizona",
    "category": "Catholic-owned Ultrasound services in Arizona",
    "description": "An elective prenatal imaging center offering 3D, 4D, and 5D/HD Live ultrasounds. They are referred by over 100 obstetricians and midwives",
    "hours": "Mon-Fri 9AM-6PM",
    "services": [
      "Catholic-owned Ultrasound services in Arizona consultation",
      "Professional service",
      "Quality guarantee"
    ],
    "social_links": {}
  },
  {
    "name": "Foundations of Life Pregnancy Centers of Catholic Charities",
    "address": "Multiple locations, including those affiliated with Catholic Charities",
    "phone": "",
    "rating": 4.0,
    "reviews": 25,
    "website": "https://www.google.com/maps/search/Foundations+of+Life+Pregnancy+Centers+of+Catholic+Charities+in+Arizona",
    "category": "Catholic-owned Ultrasound services in Arizona",
    "description": "Offers free limited ultrasounds, community resources, and support for women facing unplanned pregnancies",
    "hours": "Mon-Fri 9AM-6PM",
    "services": [
      "Catholic-owned Ultrasound services in Arizona consultation",
      "Professional service",
      "Quality guarantee"
    ],
    "social_links": {}
  }
]