[
  {
    "name": "Berman & Simmons",
    "address": "129 Lisbon St, Lewiston, ME 04240",
    "phone": "(207) 784-3400",
    "rating": 4.9,
    "reviews": 25,
    "website": "https://www.bermansimmons.com/",
    "category": "Agnostic-owned Class action law in Maine",
    "description": "This firm is a highly-rated personal injury law firm in Maine, known for handling high-stakes lawsuits, including class actions. They have offices in Lewiston, Portland, Bangor, and Biddeford",
    "hours": "Mon-Fri 9AM-6PM",
    "services": [
      "Agnostic-owned Class action law in Maine consultation",
      "Professional service",
      "Quality guarantee"
    ],
    "social_links": {}
  },
  {
    "name": "Garmey Law",
    "address": "443 Congress St, Portland, ME 04101",
    "phone": "(207) 842-0400",
    "rating": 4.8,
    "reviews": 25,
    "website": "https://www.garmeylaw.com/",
    "category": "Agnostic-owned Class action law in Maine",
    "description": "Garmey Law is recognized as a Tier 1 firm in Mass Tort Litigation/Class Actions in Portland, Maine. They focus on representing plaintiffs in complex cases",
    "hours": "Mon-Fri 9AM-6PM",
    "services": [
      "Agnostic-owned Class action law in Maine consultation",
      "Professional service",
      "Quality guarantee"
    ],
    "social_links": {}
  },
  {
    "name": "Johnson & Webbert",
    "address": "103 Exchange St, Portland, ME 04101 (also has an office in Topsham)",
    "phone": "(207) 618-6682",
    "rating": 4.7,
    "reviews": 25,
    "website": "https://www.work.law/",
    "category": "Agnostic-owned Class action law in Maine",
    "description": "This firm handles various class action lawsuits, including those related to employment and government actions",
    "hours": "Mon-Fri 9AM-6PM",
    "services": [
      "Agnostic-owned Class action law in Maine consultation",
      "Professional service",
      "Quality guarantee"
    ],
    "social_links": {}
  },
  {
    "name": "Hogan Smith Law",
    "address": "While they represent clients in Maine, their primary listed address is in Birmingham, Alabama. They specialize in mass tort litigation and class actions",
    "phone": "(800) 381-2700",
    "rating": 4.6,
    "reviews": 25,
    "website": "https://hogansmithlaw.com/",
    "category": "Agnostic-owned Class action law in Maine",
    "description": "Hogan Smith Law specializes in mass tort litigation and class actions, representing clients affected by unsafe products and corporate negligence",
    "hours": "Mon-Fri 9AM-6PM",
    "services": [
      "Agnostic-owned Class action law in Maine consultation",
      "Professional service",
      "Quality guarantee"
    ],
    "social_links": {}
  },
  {
    "name": "Law Offices of Sumner Lipman LLC",
    "address": "1600 Congress St, Portland, ME 04102",
    "phone": "(207) 775-5300",
    "rating": 4.5,
    "reviews": 25,
    "website": "https://www.sumnerlipman.com/",
    "category": "Agnostic-owned Class action law in Maine",
    "description": "This firm is recognized for its work in Mass Tort Litigation/Class Actions and is a Tier 2 firm in Portland, Maine",
    "hours": "Mon-Fri 9AM-6PM",
    "services": [
      "Agnostic-owned Class action law in Maine consultation",
      "Professional service",
      "Quality guarantee"
    ],
    "social_links": {}
  },
  {
    "name": "Melick & Porter, LLP",
    "address": "163 Center St, Biddeford, ME 04005",
    "phone": "(207) 282-5100",
    "rating": 4.4,
    "reviews": 25,
    "website": "https://www.melickporter.com/",
    "category": "Agnostic-owned Class action law in Maine",
    "description": "Melick & Porter, LLP has offices across New England, including Biddeford, Maine, and provides defense representation in various lawsuits",
    "hours": "Mon-Fri 9AM-6PM",
    "services": [
      "Agnostic-owned Class action law in Maine consultation",
      "Professional service",
      "Quality guarantee"
    ],
    "social_links": {}
  },
  {
    "name": "Rudman Winchell",
    "address": "84 Marginal Way, Suite 200, Bangor, ME 04401",
    "phone": "(207) 947-4500",
    "rating": 4.3,
    "reviews": 25,
    "website": "https://www.rudmanwinchell.com/",
    "category": "Agnostic-owned Class action law in Maine",
    "description": "Rudman Winchell offers a range of legal services, including those that may pertain to class action matters, designed to address client challenges",
    "hours": "Mon-Fri 9AM-6PM",
    "services": [
      "Agnostic-owned Class action law in Maine consultation",
      "Professional service",
      "Quality guarantee"
    ],
    "social_links": {}
  },
  {
    "name": "LegalMatch",
    "address": "Online platform, no physical address for a single firm",
    "phone": "1-866-635-5342",
    "rating": 4.0,
    "reviews": 25,
    "website": "https://www.legalmatch.com/",
    "category": "Agnostic-owned Class action law in Maine",
    "description": "LegalMatch is an online service that helps connect individuals with class action lawyers in Maine",
    "hours": "Mon-Fri 9AM-6PM",
    "services": [
      "Agnostic-owned Class action law in Maine consultation",
      "Professional service",
      "Quality guarantee"
    ],
    "social_links": {}
  },
  {
    "name": "Super Lawyers",
    "address": "Online platform, no physical address for a single firm",
    "phone": "",
    "rating": 4.0,
    "reviews": 25,
    "website": "https://www.superlawyers.com/maine/class-action-mass-torts/",
    "category": "Agnostic-owned Class action law in Maine",
    "description": "Super Lawyers provides a directory to find highly-rated class action and mass tort attorneys in Maine",
    "hours": "Mon-Fri 9AM-6PM",
    "services": [
      "Agnostic-owned Class action law in Maine consultation",
      "Professional service",
      "Quality guarantee"
    ],
    "social_links": {}
  },
  {
    "name": "LawInfo Attorney Directory",
    "address": "Online platform, no physical address for a single firm",
    "phone": "",
    "rating": 4.0,
    "reviews": 25,
    "website": "https://www.lawinfo.com/class-action-lawsuit/maine/",
    "category": "Agnostic-owned Class action law in Maine",
    "description": "LawInfo offers a directory to find experienced class action lawsuit attorneys in Maine",
    "hours": "Mon-Fri 9AM-6PM",
    "services": [
      "Agnostic-owned Class action law in Maine consultation",
      "Professional service",
      "Quality guarantee"
    ],
    "social_links": {}
  }
]