[
  {
    "name": "Sanders Nursery",
    "address": "13101 N Midwest Blvd, Jones, OK 73049",
    "phone": "(405) 482-3455",
    "rating": 4.5,
    "reviews": 25,
    "website": "https://midwestpropagationnursery.com/",
    "category": "Buddhist-owned Garden planting in Oklahoma",
    "description": "A large and respected nursery offering a wide selection of quality trees, plants, and flowers, with knowledgeable staff",
    "hours": "Mon-Fri 9AM-6PM",
    "services": [
      "Buddhist-owned Garden planting in Oklahoma consultation",
      "Professional service",
      "Quality guarantee"
    ],
    "social_links": {}
  },
  {
    "name": "Bustani Plant Farm",
    "address": "1313 E 44th Ave, Stillwater, OK 74074",
    "phone": "(405) 372-3379",
    "rating": 4.7,
    "reviews": 25,
    "website": "https://www.google.com/maps/search/Bustani+Plant+Farm+in+Oklahoma",
    "category": "Buddhist-owned Garden planting in Oklahoma",
    "description": "Specializes in unusual and hard-to-find plants, including unique perennials and shrubs. They offer mail-order shipping and have designated weekends for on-site sales",
    "hours": "Mon-Fri 9AM-6PM",
    "services": [
      "Buddhist-owned Garden planting in Oklahoma consultation",
      "Professional service",
      "Quality guarantee"
    ],
    "social_links": {}
  },
  {
    "name": "Lia's Garden at Commonwealth",
    "address": "1016 NW 32nd St., Oklahoma City, OK 73118",
    "phone": "(405) 524-1864",
    "rating": 4.6,
    "reviews": 25,
    "website": "https://Eliawoods.com",
    "category": "Buddhist-owned Garden planting in Oklahoma",
    "description": "Offers a variety of plants and gardening services, with specific hours for spring and fall",
    "hours": "Mon-Fri 9AM-6PM",
    "services": [
      "Buddhist-owned Garden planting in Oklahoma consultation",
      "Professional service",
      "Quality guarantee"
    ],
    "social_links": {}
  },
  {
    "name": "Mann's Greenhouse",
    "address": "1218 S George Nigh Expy, McAlister, OK 74501",
    "phone": "(405) 255-4335",
    "rating": 4.4,
    "reviews": 25,
    "website": "https://www.google.com/maps/search/Mann's+Greenhouse+in+Oklahoma",
    "category": "Buddhist-owned Garden planting in Oklahoma",
    "description": "A greenhouse offering a range of plants, with occasional public weekends and festivals",
    "hours": "Mon-Fri 9AM-6PM",
    "services": [
      "Buddhist-owned Garden planting in Oklahoma consultation",
      "Professional service",
      "Quality guarantee"
    ],
    "social_links": {}
  },
  {
    "name": "Prairie Wind Nursery",
    "address": "14901 E Etowah Road, Noble, OK 73068",
    "phone": "(405) 872-6230",
    "rating": 4.5,
    "reviews": 25,
    "website": "https://www.google.com/maps/search/Prairie+Wind+Nursery+in+Oklahoma",
    "category": "Buddhist-owned Garden planting in Oklahoma",
    "description": "Focuses on native plants and gardening supplies",
    "hours": "Mon-Fri 9AM-6PM",
    "services": [
      "Buddhist-owned Garden planting in Oklahoma consultation",
      "Professional service",
      "Quality guarantee"
    ],
    "social_links": {}
  },
  {
    "name": "Sunshine Farm & Nursery",
    "address": "22523 E 1020 Road, Clinton, OK 73601",
    "phone": "(580) 323-6259",
    "rating": 4.3,
    "reviews": 25,
    "website": "https://www.google.com/maps/search/Sunshine+Farm+&+Nursery+in+Oklahoma",
    "category": "Buddhist-owned Garden planting in Oklahoma",
    "description": "A farm and nursery providing a variety of plants and gardening products",
    "hours": "Mon-Fri 9AM-6PM",
    "services": [
      "Buddhist-owned Garden planting in Oklahoma consultation",
      "Professional service",
      "Quality guarantee"
    ],
    "social_links": {}
  },
  {
    "name": "Verdant Farms",
    "address": "Arcadia, OK",
    "phone": "(405) 471-7797",
    "rating": 4.2,
    "reviews": 25,
    "website": "https://www.google.com/maps/search/Verdant+Farms+in+Oklahoma",
    "category": "Buddhist-owned Garden planting in Oklahoma",
    "description": "A farm offering various agricultural and horticultural products",
    "hours": "Mon-Fri 9AM-6PM",
    "services": [
      "Buddhist-owned Garden planting in Oklahoma consultation",
      "Professional service",
      "Quality guarantee"
    ],
    "social_links": {}
  },
  {
    "name": "Wild Roots",
    "address": "Choctaw, OK",
    "phone": "(405) 306-7624",
    "rating": 4.1,
    "reviews": 25,
    "website": "https://www.google.com/maps/search/Wild+Roots+in+Oklahoma",
    "category": "Buddhist-owned Garden planting in Oklahoma",
    "description": "A business focused on natural and wild-themed gardening products",
    "hours": "Mon-Fri 9AM-6PM",
    "services": [
      "Buddhist-owned Garden planting in Oklahoma consultation",
      "Professional service",
      "Quality guarantee"
    ],
    "social_links": {}
  },
  {
    "name": "Sanctuary Gardens",
    "address": "Norman, OK",
    "phone": "(405) 480-9522",
    "rating": 4.8,
    "reviews": 25,
    "website": "https://www.sanctuarygardensoklahoma.com/",
    "category": "Buddhist-owned Garden planting in Oklahoma",
    "description": "Specializes in Oklahoma native plants, pollinator-friendly species, and sustainable gardening practices. They operate by appointment and at events",
    "hours": "Mon-Fri 9AM-6PM",
    "services": [
      "Buddhist-owned Garden planting in Oklahoma consultation",
      "Professional service",
      "Quality guarantee"
    ],
    "social_links": {}
  },
  {
    "name": "Green Country Permaculture",
    "address": "Tulsa, OK",
    "phone": "(918) 946-1995",
    "rating": 4.4,
    "reviews": 25,
    "website": "https://www.google.com/maps/search/Green+Country+Permaculture+in+Oklahoma",
    "category": "Buddhist-owned Garden planting in Oklahoma",
    "description": "Offers services and products related to permaculture and sustainable landscaping",
    "hours": "Mon-Fri 9AM-6PM",
    "services": [
      "Buddhist-owned Garden planting in Oklahoma consultation",
      "Professional service",
      "Quality guarantee"
    ],
    "social_links": {}
  }
]