[
  {
    "name": "Martin Pringle",
    "address": "Multiple locations including Wichita and Overland Park, Kansas",
    "phone": "(316) 261-2000 (Wichita)",
    "rating": 4.0,
    "reviews": 25,
    "website": "https://www.martinpringle.com/",
    "category": "Bengali-speaking Intellectual property protection in Kansas",
    "description": "This firm has attorneys experienced in intellectual property and information technology law, including trademarks, copyrights, and IP licensing",
    "hours": "Mon-Fri 9AM-6PM",
    "services": [
      "Bengali-speaking Intellectual property protection in Kansas consultation",
      "Professional service",
      "Quality guarantee"
    ],
    "social_links": {}
  },
  {
    "name": "Seigfreid Bingham",
    "address": "Kansas City, Missouri (serving Kansas)",
    "phone": "(816) 421-0000",
    "rating": 4.0,
    "reviews": 25,
    "website": "https://www.seigfreid.com/",
    "category": "Bengali-speaking Intellectual property protection in Kansas",
    "description": "A full-service law firm with expertise in intellectual property law, including trademarks, copyrights, patents, and trade secrets",
    "hours": "Mon-Fri 9AM-6PM",
    "services": [
      "Bengali-speaking Intellectual property protection in Kansas consultation",
      "Professional service",
      "Quality guarantee"
    ],
    "social_links": {}
  },
  {
    "name": "Ream Law Firm, L.L.C.",
    "address": "Ottawa, Kansas",
    "phone": "(913) 707-4377",
    "rating": 4.0,
    "reviews": 25,
    "website": "https://reamlawfirm.com/",
    "category": "Bengali-speaking Intellectual property protection in Kansas",
    "description": "Specializes in intellectual property law, including trademarks, copyrights, and patents, with a focus on helping companies protect their intellectual assets",
    "hours": "Mon-Fri 9AM-6PM",
    "services": [
      "Bengali-speaking Intellectual property protection in Kansas consultation",
      "Professional service",
      "Quality guarantee"
    ],
    "social_links": {}
  },
  {
    "name": "Law Office of Julie Scott LLC",
    "address": "Kansas City, Missouri (serving Kansas)",
    "phone": "(816) 396-3100",
    "rating": 4.0,
    "reviews": 25,
    "website": "https://www.juliescottlaw.com/",
    "category": "Bengali-speaking Intellectual property protection in Kansas",
    "description": "Offers legal services in intellectual property matters, including copyrights, patents, trade secrets, and trademarks",
    "hours": "Mon-Fri 9AM-6PM",
    "services": [
      "Bengali-speaking Intellectual property protection in Kansas consultation",
      "Professional service",
      "Quality guarantee"
    ],
    "social_links": {}
  },
  {
    "name": "Hovey Williams LLP",
    "address": "Overland Park, Kansas",
    "phone": "(913) 647-9050",
    "rating": 4.0,
    "reviews": 25,
    "website": "https://www.hoveywilliams.com/",
    "category": "Bengali-speaking Intellectual property protection in Kansas",
    "description": "An intellectual property law firm assisting clients nationally and internationally with patents, trademarks, copyrights, and trade secrets",
    "hours": "Mon-Fri 9AM-6PM",
    "services": [
      "Bengali-speaking Intellectual property protection in Kansas consultation",
      "Professional service",
      "Quality guarantee"
    ],
    "social_links": {}
  },
  {
    "name": "Foulston Siefkin LLP",
    "address": "Multiple locations including Wichita, Kansas",
    "phone": "(316) 267-6371 (Wichita)",
    "rating": 4.0,
    "reviews": 25,
    "website": "https://www.foulston.com/",
    "category": "Bengali-speaking Intellectual property protection in Kansas",
    "description": "Provides intellectual property services, including patents, trademarks, and copyrights, with a team experienced in IP protection and commercialization",
    "hours": "Mon-Fri 9AM-6PM",
    "services": [
      "Bengali-speaking Intellectual property protection in Kansas consultation",
      "Professional service",
      "Quality guarantee"
    ],
    "social_links": {}
  },
  {
    "name": "Adams Jones",
    "address": "Wichita, Kansas",
    "phone": "(316) 267-2000",
    "rating": 4.0,
    "reviews": 25,
    "website": "https://www.adamsjones.com/",
    "category": "Bengali-speaking Intellectual property protection in Kansas",
    "description": "Offers intellectual property services in Wichita, KS, focusing on patents, trademarks, and copyrights to protect innovations",
    "hours": "Mon-Fri 9AM-6PM",
    "services": [
      "Bengali-speaking Intellectual property protection in Kansas consultation",
      "Professional service",
      "Quality guarantee"
    ],
    "social_links": {}
  },
  {
    "name": "BRADLEY IP, LLC",
    "address": "Kansas City, Missouri (serving Kansas)",
    "phone": "(816) 753-0000",
    "rating": 4.0,
    "reviews": 25,
    "website": "https://www.bradleyip.com/",
    "category": "Bengali-speaking Intellectual property protection in Kansas",
    "description": "Provides intellectual property law services including patents, trademarks, copyrights, and trade secrets",
    "hours": "Mon-Fri 9AM-6PM",
    "services": [
      "Bengali-speaking Intellectual property protection in Kansas consultation",
      "Professional service",
      "Quality guarantee"
    ],
    "social_links": {}
  },
  {
    "name": "Avek IP",
    "address": "Kansas City, Missouri (serving Kansas)",
    "phone": "(816) 753-0000",
    "rating": 4.0,
    "reviews": 25,
    "website": "https://avekip.com/",
    "category": "Bengali-speaking Intellectual property protection in Kansas",
    "description": "An intellectual property law firm focused on protecting innovations and brands, with expertise in IP prosecution and litigation",
    "hours": "Mon-Fri 9AM-6PM",
    "services": [
      "Bengali-speaking Intellectual property protection in Kansas consultation",
      "Professional service",
      "Quality guarantee"
    ],
    "social_links": {}
  },
  {
    "name": "Lathrop GPM",
    "address": "Multiple locations including Overland Park, Kansas",
    "phone": "(913) 451-3200 (Overland Park)",
    "rating": 4.0,
    "reviews": 25,
    "website": "https://www.lathropgpm.com/",
    "category": "Bengali-speaking Intellectual property protection in Kansas",
    "description": "A full-service law firm with a strong intellectual property practice, including IP litigators, patent counsel, and expertise in licensing and patent procurement",
    "hours": "Mon-Fri 9AM-6PM",
    "services": [
      "Bengali-speaking Intellectual property protection in Kansas consultation",
      "Professional service",
      "Quality guarantee"
    ],
    "social_links": {}
  }
]