[
  {
    "name": "Texas Pride Painting LLC",
    "address": "19208 Scoria Dr, Pflugerville, TX, 78660",
    "phone": "737-340-5561",
    "rating": 4.0,
    "reviews": 25,
    "website": "https://www.google.com/maps/search/Texas+Pride+Painting+LLC+in+Texas",
    "category": "LGBT-owned Painting in Texas",
    "description": "This company offers interior and exterior painting services in the Austin area and emphasizes community focus and eco-friendly practices. While not explicitly stated as LGBT-owned, their name suggests a connection to pride",
    "hours": "Mon-Fri 9AM-6PM",
    "services": [
      "LGBT-owned Painting in Texas consultation",
      "Professional service",
      "Quality guarantee"
    ],
    "social_links": {}
  },
  {
    "name": "Spray Tex Painting",
    "address": "Serves the Dallas-Fort Worth area. Specific business address not readily available in search results",
    "phone": "",
    "rating": 4.0,
    "reviews": 25,
    "website": "https://www.google.com/maps/search/Spray+Tex+Painting+in+Texas",
    "category": "LGBT-owned Painting in Texas",
    "description": "A family-owned and operated painting company in the DFW area offering interior, exterior, and cabinet painting",
    "hours": "Mon-Fri 9AM-6PM",
    "services": [
      "LGBT-owned Painting in Texas consultation",
      "Professional service",
      "Quality guarantee"
    ],
    "social_links": {}
  },
  {
    "name": "Paint Works of Texas",
    "address": "3069 W. Walnut hill ln Suite 410, Irving, TX 75016",
    "phone": "469-328-8865",
    "rating": 4.0,
    "reviews": 25,
    "website": "https://www.google.com/maps/search/Paint+Works+of+Texas+in+Texas",
    "category": "LGBT-owned Painting in Texas",
    "description": "Specializes in faux painting and textures",
    "hours": "Mon-Fri 9AM-6PM",
    "services": [
      "LGBT-owned Painting in Texas consultation",
      "Professional service",
      "Quality guarantee"
    ],
    "social_links": {}
  },
  {
    "name": "Distinctive Art Productions",
    "address": "Bishop Arts District, Dallas, TX 75224",
    "phone": "945-200-1014",
    "rating": 4.0,
    "reviews": 25,
    "website": "https://www.google.com/maps/search/Distinctive+Art+Productions+in+Texas",
    "category": "LGBT-owned Painting in Texas",
    "description": "Rod Marsh specializes in custom murals and signage, with over 30 years of experience",
    "hours": "Mon-Fri 9AM-6PM",
    "services": [
      "LGBT-owned Painting in Texas consultation",
      "Professional service",
      "Quality guarantee"
    ],
    "social_links": {}
  },
  {
    "name": "Artistic Mural Works",
    "address": "19141 Stone Oak Pkwy, San Antonio, TX 78258",
    "phone": "210-376-7393",
    "rating": 4.0,
    "reviews": 25,
    "website": "https://www.google.com/maps/search/Artistic+Mural+Works+in+Texas",
    "category": "LGBT-owned Painting in Texas",
    "description": "Norma Ruffinelli creates murals and faux finishes with over 20 years of experience",
    "hours": "Mon-Fri 9AM-6PM",
    "services": [
      "LGBT-owned Painting in Texas consultation",
      "Professional service",
      "Quality guarantee"
    ],
    "social_links": {}
  },
  {
    "name": "Propertifix LLC",
    "address": "1920 N. Interstate 35E Suite 111, Lancaster, TX 75134",
    "phone": "214-210-1111",
    "rating": 4.0,
    "reviews": 25,
    "website": "https://www.google.com/maps/search/Propertifix+LLC+in+Texas",
    "category": "LGBT-owned Painting in Texas",
    "description": "Offers handyman, make-ready, and maintenance services, including painting",
    "hours": "Mon-Fri 9AM-6PM",
    "services": [
      "LGBT-owned Painting in Texas consultation",
      "Professional service",
      "Quality guarantee"
    ],
    "social_links": {}
  },
  {
    "name": "Stephanie Gonzalez (Artist)",
    "address": "Houston, TX (specific studio address not provided)",
    "phone": "",
    "rating": 4.0,
    "reviews": 25,
    "website": "https://www.google.com/maps/search/Stephanie+Gonzalez+(Artist)+in+Texas",
    "category": "LGBT-owned Painting in Texas",
    "description": "Creates mixed media abstract paintings, graphic design, murals, and interior design. She is an LGBT and LatinX artist",
    "hours": "Mon-Fri 9AM-6PM",
    "services": [
      "LGBT-owned Painting in Texas consultation",
      "Professional service",
      "Quality guarantee"
    ],
    "social_links": {}
  },
  {
    "name": "Wood Fancher Anthony (Artist)",
    "address": "Texas (specific location not provided)",
    "phone": "",
    "rating": 4.0,
    "reviews": 25,
    "website": "https://www.google.com/maps/search/Wood+Fancher+Anthony+(Artist)+in+Texas",
    "category": "LGBT-owned Painting in Texas",
    "description": "An artist inspired by his mother's homeland in Mexico, working primarily in oil. He is an LGBT and LatinX artist",
    "hours": "Mon-Fri 9AM-6PM",
    "services": [
      "LGBT-owned Painting in Texas consultation",
      "Professional service",
      "Quality guarantee"
    ],
    "social_links": {}
  },
  {
    "name": "Robin Baker (Artist)",
    "address": "Houston, TX (specific studio address not provided)",
    "phone": "",
    "rating": 4.0,
    "reviews": 25,
    "website": "https://www.google.com/maps/search/Robin+Baker+(Artist)+in+Texas",
    "category": "LGBT-owned Painting in Texas",
    "description": "A self-taught acrylic painter known for his black and white style. He is an LGBT and LatinX artist",
    "hours": "Mon-Fri 9AM-6PM",
    "services": [
      "LGBT-owned Painting in Texas consultation",
      "Professional service",
      "Quality guarantee"
    ],
    "social_links": {}
  },
  {
    "name": "Les Del Fuego and Taryn Wood (Artists)",
    "address": "Austin, TX (specific studio addresses not provided)",
    "phone": "",
    "rating": 4.0,
    "reviews": 25,
    "website": "https://www.google.com/maps/search/Les+Del+Fuego+and+Taryn+Wood+(Artists)+in+Texas",
    "category": "LGBT-owned Painting in Texas",
    "description": "These artists created a large trans pride mural in Austin",
    "hours": "Mon-Fri 9AM-6PM",
    "services": [
      "LGBT-owned Painting in Texas consultation",
      "Professional service",
      "Quality guarantee"
    ],
    "social_links": {}
  }
]