[
  {
    "name": "Midwest Heart & Vascular Specialists",
    "address": "Multiple locations throughout the Kansas City area, including 2330 E. Meyer Blvd., Suite 509, Kansas City, MO 64132",
    "phone": "(816) 276-4800",
    "rating": 4.0,
    "reviews": 25,
    "website": "https://www.hcamidwest.com/heart-and-vascular/midwest-heart-and-vascular-specialists",
    "category": "Catholic-owned Cardiovascular surgery in Kansas",
    "description": "This group offers comprehensive cardiovascular care, including surgical services, and is part of HCA Midwest Health",
    "hours": "Mon-Fri 9AM-6PM",
    "services": [
      "Catholic-owned Cardiovascular surgery in Kansas consultation",
      "Professional service",
      "Quality guarantee"
    ],
    "social_links": {}
  },
  {
    "name": "The University of Kansas Health System - Heart Surgery",
    "address": "3901 Rainbow Blvd, Kansas City, KS 66160",
    "phone": "(913) 588-1227",
    "rating": 4.0,
    "reviews": 25,
    "website": "https://www.kuhs.org/heart-care/heart-surgery/",
    "category": "Catholic-owned Cardiovascular surgery in Kansas",
    "description": "Offers a full range of heart surgery procedures, from minimally invasive to heart transplants, utilizing modern technology",
    "hours": "Mon-Fri 9AM-6PM",
    "services": [
      "Catholic-owned Cardiovascular surgery in Kansas consultation",
      "Professional service",
      "Quality guarantee"
    ],
    "social_links": {}
  },
  {
    "name": "Saint Luke's Mid America Heart Institute",
    "address": "4401 Wornall Rd, Kansas City, MO 64111",
    "phone": "(816) 931-1883",
    "rating": 4.0,
    "reviews": 25,
    "website": "https://www.saintlukeskc.org/heart-institute",
    "category": "Catholic-owned Cardiovascular surgery in Kansas",
    "description": "Provides comprehensive heart and vascular care, including cardiothoracic surgery, and is known for its advanced treatments and research",
    "hours": "Mon-Fri 9AM-6PM",
    "services": [
      "Catholic-owned Cardiovascular surgery in Kansas consultation",
      "Professional service",
      "Quality guarantee"
    ],
    "social_links": {}
  },
  {
    "name": "AdventHealth Medical Group Cardiology and Cardiovascular Surgery",
    "address": "9100 W 74th St, Merriam, KS 66204 (Shawnee Mission location)",
    "phone": "(913) 632-9400",
    "rating": 4.0,
    "reviews": 25,
    "website": "https://www.adventhealth.com/find-care/provider/adventhealth-medical-group-cardiology-and-cardiovascular-surgery-at-shawnee-mission-9100-w-74th-st-merriam-ks-66204",
    "category": "Catholic-owned Cardiovascular surgery in Kansas",
    "description": "Offers advanced cardiovascular care with a team of interventional cardiologists, cardiovascular and thoracic surgeons",
    "hours": "Mon-Fri 9AM-6PM",
    "services": [
      "Catholic-owned Cardiovascular surgery in Kansas consultation",
      "Professional service",
      "Quality guarantee"
    ],
    "social_links": {}
  },
  {
    "name": "Ascension Via Christi Cardiology",
    "address": "929 N Saint Francis Ave, Wichita, KS 67214",
    "phone": "(316) 684-5237",
    "rating": 4.0,
    "reviews": 25,
    "website": "https://www.ascension.org/locations/kansas/wichita/via-christi-cardiology",
    "category": "Catholic-owned Cardiovascular surgery in Kansas",
    "description": "Provides advanced heart and vascular testing, treatment, and procedures, with connections to surgical specialists",
    "hours": "Mon-Fri 9AM-6PM",
    "services": [
      "Catholic-owned Cardiovascular surgery in Kansas consultation",
      "Professional service",
      "Quality guarantee"
    ],
    "social_links": {}
  },
  {
    "name": "Wesley Healthcare - Heart and Vascular Surgery",
    "address": "550 N. Hillside, Wichita, KS 67214",
    "phone": "(316) 962-3000",
    "rating": 4.0,
    "reviews": 25,
    "website": "https://www. \u0a9cwesleyhealth.com/services/heart-and-vascular-surgery",
    "category": "Catholic-owned Cardiovascular surgery in Kansas",
    "description": "Offers expert cardiovascular surgeons and state-of-the-art technology for heart and vascular surgery in Wichita",
    "hours": "Mon-Fri 9AM-6PM",
    "services": [
      "Catholic-owned Cardiovascular surgery in Kansas consultation",
      "Professional service",
      "Quality guarantee"
    ],
    "social_links": {}
  },
  {
    "name": "HCA Midwest Physicians - Cardiovascular Surgery",
    "address": "Multiple locations, including 5100 West 110th St, 2nd Fl, Overland Park, KS 66211",
    "phone": "(913) 754-2800",
    "rating": 4.0,
    "reviews": 25,
    "website": "https://www.hcamidwest.com/doctors/cardiovascular-surgery",
    "category": "Catholic-owned Cardiovascular surgery in Kansas",
    "description": "Provides comprehensive cardiovascular care with a team of cardiothoracic surgeons experienced in various procedures",
    "hours": "Mon-Fri 9AM-6PM",
    "services": [
      "Catholic-owned Cardiovascular surgery in Kansas consultation",
      "Professional service",
      "Quality guarantee"
    ],
    "social_links": {}
  },
  {
    "name": "Saint Luke's Cardiovascular Consultants",
    "address": "Multiple locations, including 12330 Metcalf Ave, Suite 280, Overland Park, KS 66207",
    "phone": "(913) 319-9400",
    "rating": 4.0,
    "reviews": 25,
    "website": "https://www.saintlukeskc.org/locations/saint-lukes-cardiovascular-consultants-overland-park",
    "category": "Catholic-owned Cardiovascular surgery in Kansas",
    "description": "A group of cardiology specialists who work closely with cardiovascular surgeons to provide comprehensive cardiac care",
    "hours": "Mon-Fri 9AM-6PM",
    "services": [
      "Catholic-owned Cardiovascular surgery in Kansas consultation",
      "Professional service",
      "Quality guarantee"
    ],
    "social_links": {}
  },
  {
    "name": "North Kansas City Hospital - Heart & Vascular Care",
    "address": "2800 Clay Edwards Dr, North Kansas City, MO 64116",
    "phone": "(816) 691-2000",
    "rating": 4.0,
    "reviews": 25,
    "website": "https://www.nkch.org/heart-and-vascular-care/",
    "category": "Catholic-owned Cardiovascular surgery in Kansas",
    "description": "Offers a range of heart surgeries and vascular surgeries performed by board-certified cardiothoracic surgeons",
    "hours": "Mon-Fri 9AM-6PM",
    "services": [
      "Catholic-owned Cardiovascular surgery in Kansas consultation",
      "Professional service",
      "Quality guarantee"
    ],
    "social_links": {}
  },
  {
    "name": "Kansas City Heart and Vascular Specialists",
    "address": "7200 State Ave, Kansas City, KS 66112",
    "phone": "(913) 371-1000",
    "rating": 4.0,
    "reviews": 25,
    "website": "https://www.kcheartandvascular.com/",
    "category": "Catholic-owned Cardiovascular surgery in Kansas",
    "description": "Specializes in interventional cardiology and offers a range of cardiovascular services",
    "hours": "Mon-Fri 9AM-6PM",
    "services": [
      "Catholic-owned Cardiovascular surgery in Kansas consultation",
      "Professional service",
      "Quality guarantee"
    ],
    "social_links": {}
  }
]