[
  {
    "name": "China Lights Oriental Cuisine",
    "address": "9220 Old Seward Hwy, Anchorage, AK 99515",
    "phone": "(907) 563-2288",
    "rating": 4.0,
    "reviews": 25,
    "website": "https://www.chinalightsanchorage.com/",
    "category": "Chinese-American-owned Drop-off catering in Alaska",
    "description": "Offers a buffet and a la carte menu with Pan-Asian cuisine, and provides catering for events",
    "hours": "Mon-Fri 9AM-6PM",
    "services": [
      "Chinese-American-owned Drop-off catering in Alaska consultation",
      "Professional service",
      "Quality guarantee"
    ],
    "social_links": {}
  },
  {
    "name": "Sweet Pink Pepper",
    "address": "1553 S. Bragaw St, Anchorage, AK 99508",
    "phone": "(907) 276-0709",
    "rating": 4.0,
    "reviews": 25,
    "website": "https://www.sweetpinkpepper.com/",
    "category": "Chinese-American-owned Drop-off catering in Alaska",
    "description": "Specializes in gourmet Chinese cuisine and offers delivery and catering options for parties and gatherings",
    "hours": "Mon-Fri 9AM-6PM",
    "services": [
      "Chinese-American-owned Drop-off catering in Alaska consultation",
      "Professional service",
      "Quality guarantee"
    ],
    "social_links": {}
  },
  {
    "name": "Panda Express (North Muldoon Rd & Glenn Hwy)",
    "address": "1178 N Muldoon Rd, Anchorage, AK 99504",
    "phone": "(907) 337-7200",
    "rating": 4.0,
    "reviews": 25,
    "website": "https://www.pandaexpress.com/",
    "category": "Chinese-American-owned Drop-off catering in Alaska",
    "description": "Offers American-Chinese cuisine with various catering packages suitable for different group sizes, with options for delivery or pick-up",
    "hours": "Mon-Fri 9AM-6PM",
    "services": [
      "Chinese-American-owned Drop-off catering in Alaska consultation",
      "Professional service",
      "Quality guarantee"
    ],
    "social_links": {}
  },
  {
    "name": "Panda Express (Old Glenn Hwy)",
    "address": "12520 Old Glenn Hwy, Eagle River, AK 99577",
    "phone": "(907) 694-7200",
    "rating": 4.0,
    "reviews": 25,
    "website": "https://www.pandaexpress.com/",
    "category": "Chinese-American-owned Drop-off catering in Alaska",
    "description": "Provides American-Chinese cuisine catering services with flexible packages for various events, offering delivery or pick-up",
    "hours": "Mon-Fri 9AM-6PM",
    "services": [
      "Chinese-American-owned Drop-off catering in Alaska consultation",
      "Professional service",
      "Quality guarantee"
    ],
    "social_links": {}
  },
  {
    "name": "China Town Restaurant",
    "address": "501 W 5th Ave, Anchorage, AK 99501",
    "phone": "(907) 276-3333",
    "rating": 4.0,
    "reviews": 25,
    "website": "https://chinatownak.com/",
    "category": "Chinese-American-owned Drop-off catering in Alaska",
    "description": "Offers authentic and American Chinese cuisine with a focus on fresh ingredients and friendly service, and is a potential option for catering",
    "hours": "Mon-Fri 9AM-6PM",
    "services": [
      "Chinese-American-owned Drop-off catering in Alaska consultation",
      "Professional service",
      "Quality guarantee"
    ],
    "social_links": {}
  },
  {
    "name": "Mei's Kitchen",
    "address": "1001 E 5th Ave, Anchorage, AK 99501",
    "phone": "(907) 274-7777",
    "rating": 4.5,
    "reviews": 25,
    "website": "https://meis-kitchen.com/",
    "category": "Chinese-American-owned Drop-off catering in Alaska",
    "description": "Serves authentic Chinese cuisine with a variety of noodle soups and stir-fries, and offers online ordering for delivery. Catering information is not explicitly detailed but delivery services are available",
    "hours": "Mon-Fri 9AM-6PM",
    "services": [
      "Chinese-American-owned Drop-off catering in Alaska consultation",
      "Professional service",
      "Quality guarantee"
    ],
    "social_links": {}
  },
  {
    "name": "Dragon Seafood Restaurant & Grill",
    "address": "560 W Tudor Rd, Anchorage, AK 99503",
    "phone": "(907) 563-1888",
    "rating": 4.0,
    "reviews": 25,
    "website": "https://www.google.com/maps/search/Dragon+Seafood+Restaurant+&+Grill+in+Alaska",
    "category": "Chinese-American-owned Drop-off catering in Alaska",
    "description": "A Chinese and seafood restaurant that may offer catering services",
    "hours": "Mon-Fri 9AM-6PM",
    "services": [
      "Chinese-American-owned Drop-off catering in Alaska consultation",
      "Professional service",
      "Quality guarantee"
    ],
    "social_links": {}
  },
  {
    "name": "Arctic Sushi",
    "address": "3401 Arctic Blvd, Anchorage, AK 99503",
    "phone": "(907) 274-3333",
    "rating": 4.0,
    "reviews": 25,
    "website": "https://arcticsushi.com/",
    "category": "Chinese-American-owned Drop-off catering in Alaska",
    "description": "While primarily a sushi restaurant, it offers Asian cuisine and may provide catering services",
    "hours": "Mon-Fri 9AM-6PM",
    "services": [
      "Chinese-American-owned Drop-off catering in Alaska consultation",
      "Professional service",
      "Quality guarantee"
    ],
    "social_links": {}
  },
  {
    "name": "Jimmy's Asian Food Restaurant",
    "address": "3701 E 5th Ave, Anchorage, AK 99508",
    "phone": "(907) 276-1888",
    "rating": 4.0,
    "reviews": 25,
    "website": "https://www.google.com/maps/search/Jimmy's+Asian+Food+Restaurant+in+Alaska",
    "category": "Chinese-American-owned Drop-off catering in Alaska",
    "description": "An Asian food restaurant that could potentially offer catering",
    "hours": "Mon-Fri 9AM-6PM",
    "services": [
      "Chinese-American-owned Drop-off catering in Alaska consultation",
      "Professional service",
      "Quality guarantee"
    ],
    "social_links": {}
  },
  {
    "name": "China Lights Seafood Buffet",
    "address": "9220 Old Seward Hwy, Anchorage, AK 99515",
    "phone": "(907) 563-2288",
    "rating": 4.0,
    "reviews": 25,
    "website": "https://www.chinalightsanchorage.com/",
    "category": "Chinese-American-owned Drop-off catering in Alaska",
    "description": "Offers a buffet with Chinese and Asian fusion cuisine, and customers can order takeout or delivery. Catering services are likely available given their buffet and large group accommodations",
    "hours": "Mon-Fri 9AM-6PM",
    "services": [
      "Chinese-American-owned Drop-off catering in Alaska consultation",
      "Professional service",
      "Quality guarantee"
    ],
    "social_links": {}
  }
]