[
  {
    "name": "Cirque Art Studio",
    "address": "14300 Biscayne Blvd, North Miami Beach, FL 33181",
    "phone": "(305) 771-0707",
    "rating": 4.0,
    "reviews": 25,
    "website": "http://www.cirqueartstudio.com/",
    "category": "Arabic-speaking Aerialists in Florida",
    "description": "A circus performance arts school offering classes in various disciplines, including aerial silks and lyra",
    "hours": "Mon-Fri 9AM-6PM",
    "services": [
      "Arabic-speaking Aerialists in Florida consultation",
      "Professional service",
      "Quality guarantee"
    ],
    "social_links": {}
  },
  {
    "name": "Orlando Circus School",
    "address": "6809 Visitors Cir, Orlando, FL 32819",
    "phone": "(407) 340-2000",
    "rating": 4.0,
    "reviews": 25,
    "website": "https://orlandocircusschool.com/",
    "category": "Arabic-speaking Aerialists in Florida",
    "description": "Offers a variety of circus disciplines and physical development classes for children and adults",
    "hours": "Mon-Fri 9AM-6PM",
    "services": [
      "Arabic-speaking Aerialists in Florida consultation",
      "Professional service",
      "Quality guarantee"
    ],
    "social_links": {}
  },
  {
    "name": "The Circus Arts Conservatory",
    "address": "5851 Nathan Benderson Circle, Sarasota, FL 34235",
    "phone": "(941) 355-9805",
    "rating": 4.0,
    "reviews": 25,
    "website": "https://www.circussarasota.org/",
    "category": "Arabic-speaking Aerialists in Florida",
    "description": "Provides circus performances, world-class circus training, and educational programs",
    "hours": "Mon-Fri 9AM-6PM",
    "services": [
      "Arabic-speaking Aerialists in Florida consultation",
      "Professional service",
      "Quality guarantee"
    ],
    "social_links": {}
  },
  {
    "name": "Aerial Dragons",
    "address": "Tampa, FL (Specific address not provided in search results)",
    "phone": "",
    "rating": 4.0,
    "reviews": 25,
    "website": "https://www.aerialdragons.com/",
    "category": "Arabic-speaking Aerialists in Florida",
    "description": "Offers aerial acts and event production services, focusing on creating captivating performances",
    "hours": "Mon-Fri 9AM-6PM",
    "services": [
      "Arabic-speaking Aerialists in Florida consultation",
      "Professional service",
      "Quality guarantee"
    ],
    "social_links": {}
  },
  {
    "name": "Enchanted Circus Room",
    "address": "6554 44th Street North, #1007, Pinellas Park, Florida 33781",
    "phone": "",
    "rating": 4.0,
    "reviews": 25,
    "website": "https://www.enchantedcircusroom.com/",
    "category": "Arabic-speaking Aerialists in Florida",
    "description": "A circus aerial arts school offering classes for children, teens, and adults",
    "hours": "Mon-Fri 9AM-6PM",
    "services": [
      "Arabic-speaking Aerialists in Florida consultation",
      "Professional service",
      "Quality guarantee"
    ],
    "social_links": {}
  },
  {
    "name": "Flamethrower Ent LLC",
    "address": "Fort Lauderdale, FL (Specific address not provided in search results)",
    "phone": "(772) 208-9391",
    "rating": 5.0,
    "reviews": 25,
    "website": "https://www.flamethrowerentllc.com/",
    "category": "Arabic-speaking Aerialists in Florida",
    "description": "Provides aerial acrobatics performances for various events, including aerial silks and aerial hoop",
    "hours": "Mon-Fri 9AM-6PM",
    "services": [
      "Arabic-speaking Aerialists in Florida consultation",
      "Professional service",
      "Quality guarantee"
    ],
    "social_links": {}
  },
  {
    "name": "Aerial Trapeze Academy",
    "address": "West Palm Beach, FL (Specific address not provided in search results)",
    "phone": "",
    "rating": 4.0,
    "reviews": 25,
    "website": "https://www.aerialtrapezeacademy.com/",
    "category": "Arabic-speaking Aerialists in Florida",
    "description": "Offers circus entertainment, flying trapeze shows, and aerialist performances in South Florida",
    "hours": "Mon-Fri 9AM-6PM",
    "services": [
      "Arabic-speaking Aerialists in Florida consultation",
      "Professional service",
      "Quality guarantee"
    ],
    "social_links": {}
  },
  {
    "name": "Flying Arrow Productions",
    "address": "South Florida (Specific address not provided in search results)",
    "phone": "",
    "rating": 4.0,
    "reviews": 25,
    "website": "https://www.flyingarrowproductions.com/",
    "category": "Arabic-speaking Aerialists in Florida",
    "description": "A production company providing a wide range of live entertainment, including various aerialist acts",
    "hours": "Mon-Fri 9AM-6PM",
    "services": [
      "Arabic-speaking Aerialists in Florida consultation",
      "Professional service",
      "Quality guarantee"
    ],
    "social_links": {}
  },
  {
    "name": "Florida Aerial Dance & Circus Arts LLC",
    "address": "Stuart, FL (Specific address not provided in search results)",
    "phone": "",
    "rating": 4.0,
    "reviews": 25,
    "website": "https://www.floridaaerialdance.com/",
    "category": "Arabic-speaking Aerialists in Florida",
    "description": "Offers aerial dance and circus arts classes, including silk dancing",
    "hours": "Mon-Fri 9AM-6PM",
    "services": [
      "Arabic-speaking Aerialists in Florida consultation",
      "Professional service",
      "Quality guarantee"
    ],
    "social_links": {}
  },
  {
    "name": "Climbers Entertainment Group",
    "address": "Orlando, Florida (Specific address not provided in search results)",
    "phone": "(407) 504-0911 (for booking, ask for Austin)",
    "rating": 4.0,
    "reviews": 25,
    "website": "https://www.climbersaerial.com/",
    "category": "Arabic-speaking Aerialists in Florida",
    "description": "Provides Cirque-style specialty acts and aerial performances for various events",
    "hours": "Mon-Fri 9AM-6PM",
    "services": [
      "Arabic-speaking Aerialists in Florida consultation",
      "Professional service",
      "Quality guarantee"
    ],
    "social_links": {}
  }
]