[
  {
    "name": "Pacific Rims Optometry",
    "address": "3401 California St, San Francisco, CA 94118",
    "phone": "415-661-8253",
    "rating": 4.0,
    "reviews": 25,
    "website": "https://www.pacificrimsoptometry.com/",
    "category": "Asian-owned Contact lens fitting in California",
    "description": "Offers comprehensive eye exams, contact lens fittings, myopia management, and dry eye treatments",
    "hours": "Mon-Fri 9AM-6PM",
    "services": [
      "Asian-owned Contact lens fitting in California consultation",
      "Professional service",
      "Quality guarantee"
    ],
    "social_links": {}
  },
  {
    "name": "Golden Vision Optometry (Rowland Heights)",
    "address": "1015 S Nogales St, Suite 109, Rowland Heights, CA 91748",
    "phone": "626-956-3505",
    "rating": 4.0,
    "reviews": 25,
    "website": "https://www.goldenvisionoptometry.com/rowland-heights/",
    "category": "Asian-owned Contact lens fitting in California",
    "description": "Provides comprehensive eye exams, myopia control, specialty contact lens fittings, and LASIK co-management. Their team is multilingual, serving Mandarin- and Cantonese-speaking patients",
    "hours": "Mon-Fri 9AM-6PM",
    "services": [
      "Asian-owned Contact lens fitting in California consultation",
      "Professional service",
      "Quality guarantee"
    ],
    "social_links": {}
  },
  {
    "name": "Optikos Optometry",
    "address": "621 S Western Ave #201, Los Angeles, CA 90005",
    "phone": "213-380-1234",
    "rating": 4.0,
    "reviews": 25,
    "website": "https://www.optikosoptometry.com/",
    "category": "Asian-owned Contact lens fitting in California",
    "description": "Offers comprehensive eye exams, contact lens fittings, myopia management, dry eye management, and Ortho-K",
    "hours": "Mon-Fri 9AM-6PM",
    "services": [
      "Asian-owned Contact lens fitting in California consultation",
      "Professional service",
      "Quality guarantee"
    ],
    "social_links": {}
  },
  {
    "name": "South Bay Eye Care",
    "address": "2245 W Lomita Blvd, Lomita, CA 90717",
    "phone": "310-534-1873",
    "rating": 4.0,
    "reviews": 25,
    "website": "https://www.southbayeyecare.com/",
    "category": "Asian-owned Contact lens fitting in California",
    "description": "Provides personalized vision care, including comprehensive eye exams and contact lens services. They are fluent in Chinese and Taiwanese",
    "hours": "Mon-Fri 9AM-6PM",
    "services": [
      "Asian-owned Contact lens fitting in California consultation",
      "Professional service",
      "Quality guarantee"
    ],
    "social_links": {}
  },
  {
    "name": "The Contact Lens Institute",
    "address": "150 W Calaveras Blvd, Milpitas, CA 95035",
    "phone": "408-649-3007",
    "rating": 4.0,
    "reviews": 25,
    "website": "https://www.thecontactlensinstitute.com/",
    "category": "Asian-owned Contact lens fitting in California",
    "description": "Specializes in contact lens fitting and myopia control, offering a wide range of contact lens types",
    "hours": "Mon-Fri 9AM-6PM",
    "services": [
      "Asian-owned Contact lens fitting in California consultation",
      "Professional service",
      "Quality guarantee"
    ],
    "social_links": {}
  },
  {
    "name": "Eye Noon Optical",
    "address": "301 S Western Ave #103, Los Angeles, CA 90020",
    "phone": "213-388-1447",
    "rating": 4.0,
    "reviews": 25,
    "website": "https://www.eyenoonoptical.com/",
    "category": "Asian-owned Contact lens fitting in California",
    "description": "Offers designer sunglasses and eyeglasses, and also provides eye exams and contact lenses",
    "hours": "Mon-Fri 9AM-6PM",
    "services": [
      "Asian-owned Contact lens fitting in California consultation",
      "Professional service",
      "Quality guarantee"
    ],
    "social_links": {}
  },
  {
    "name": "California Eye Center Optometry",
    "address": "16000 Ventura Blvd Ste 110, Encino, CA 91316",
    "phone": "818-780-2020",
    "rating": 4.0,
    "reviews": 25,
    "website": "https://www.californiaeyecenter.com/",
    "category": "Asian-owned Contact lens fitting in California",
    "description": "Provides comprehensive eye exams, contact lens fittings, and eye surgery co-management",
    "hours": "Mon-Fri 9AM-6PM",
    "services": [
      "Asian-owned Contact lens fitting in California consultation",
      "Professional service",
      "Quality guarantee"
    ],
    "social_links": {}
  },
  {
    "name": "Beverly Plaza Optometric Center",
    "address": "8500 Beverly Blvd Ste 714, Los Angeles, CA 90048",
    "phone": "310-659-1771",
    "rating": 4.0,
    "reviews": 25,
    "website": "https://www.beverlyplazaoptometric.com/",
    "category": "Asian-owned Contact lens fitting in California",
    "description": "Offers comprehensive eye care, including contact lens fittings, dry eye treatment, and pediatric eye care",
    "hours": "Mon-Fri 9AM-6PM",
    "services": [
      "Asian-owned Contact lens fitting in California consultation",
      "Professional service",
      "Quality guarantee"
    ],
    "social_links": {}
  },
  {
    "name": "Visioncare Associates",
    "address": "9730 Wilshire Blvd Ste 509E, Beverly Hills, CA 90212",
    "phone": "310-271-3937",
    "rating": 4.0,
    "reviews": 25,
    "website": "https://www.visioncareassociates.com/",
    "category": "Asian-owned Contact lens fitting in California",
    "description": "Provides specialty contact lens fittings, including scleral lenses and myopia management, along with comprehensive eye exams",
    "hours": "Mon-Fri 9AM-6PM",
    "services": [
      "Asian-owned Contact lens fitting in California consultation",
      "Professional service",
      "Quality guarantee"
    ],
    "social_links": {}
  },
  {
    "name": "Golden Vision Optometry (San Francisco)",
    "address": "3255 Geary Blvd, San Francisco, CA 94118",
    "phone": "415-751-2020",
    "rating": 4.0,
    "reviews": 25,
    "website": "https://www.goldenvisionoptometry.com/san-francisco/",
    "category": "Asian-owned Contact lens fitting in California",
    "description": "Offers comprehensive eye exams, contact lens fittings, and treatment for various eye conditions",
    "hours": "Mon-Fri 9AM-6PM",
    "services": [
      "Asian-owned Contact lens fitting in California consultation",
      "Professional service",
      "Quality guarantee"
    ],
    "social_links": {}
  }
]