[
  {
    "name": "Prometheus Automotive",
    "address": "Serves the greater Kansas City area (specific address not publicly listed, mobile service)",
    "phone": "(816) 729-7113",
    "rating": 5.0,
    "reviews": 25,
    "website": "https://prometheusautomotive.com/",
    "category": "Arabic-speaking Mobile auto repair in Kansas",
    "description": "Offers full-service mobile auto repair and maintenance at your home or work. They provide a warranty on their services",
    "hours": "Mon-Fri 9AM-6PM",
    "services": [
      "Arabic-speaking Mobile auto repair in Kansas consultation",
      "Professional service",
      "Quality guarantee"
    ],
    "social_links": {}
  },
  {
    "name": "Mobile Mechanic-Topeka, Lawrence KS",
    "address": "Serves Topeka, Lawrence, and surrounding areas (mobile service)",
    "phone": "(785) 408-2365",
    "rating": 4.0,
    "reviews": 25,
    "website": "https://www.wrenchmobil.com/",
    "category": "Arabic-speaking Mobile auto repair in Kansas",
    "description": "Provides mobile automotive repair services including brake, engine, and battery services",
    "hours": "Mon-Fri 9AM-6PM",
    "services": [
      "Arabic-speaking Mobile auto repair in Kansas consultation",
      "Professional service",
      "Quality guarantee"
    ],
    "social_links": {}
  },
  {
    "name": "Lawrence Super Mobile Mechanic",
    "address": "Serves Lawrence, KS and Douglas County (mobile service)",
    "phone": "(785) 569-0185",
    "rating": 4.0,
    "reviews": 25,
    "website": "https://lawrencesupermobilemechanic.com/",
    "category": "Arabic-speaking Mobile auto repair in Kansas",
    "description": "Offers convenient mobile auto repair, diagnostics, and roadside assistance at your location",
    "hours": "Mon-Fri 9AM-6PM",
    "services": [
      "Arabic-speaking Mobile auto repair in Kansas consultation",
      "Professional service",
      "Quality guarantee"
    ],
    "social_links": {}
  },
  {
    "name": "Mobile Automotive Mechanics of Kansas City",
    "address": "Serves the Kansas City area (mobile service)",
    "phone": "(816) 550-3109",
    "rating": 4.0,
    "reviews": 25,
    "website": "https://www.mobileautomotivemechanicsofkc.com/",
    "category": "Arabic-speaking Mobile auto repair in Kansas",
    "description": "Provides mobile auto mechanics with over 30 years of experience, offering a 3-month labor warranty",
    "hours": "Mon-Fri 9AM-6PM",
    "services": [
      "Arabic-speaking Mobile auto repair in Kansas consultation",
      "Professional service",
      "Quality guarantee"
    ],
    "social_links": {}
  },
  {
    "name": "YourMechanic (Wichita)",
    "address": "Serves Wichita, KS (mobile service)",
    "phone": "(855) 757-0771",
    "rating": 4.0,
    "reviews": 25,
    "website": "https://www.yourmechanic.com/locations/ks/wichita",
    "category": "Arabic-speaking Mobile auto repair in Kansas",
    "description": "Offers over 600 repair, maintenance, and diagnostic services performed by certified mobile mechanics, with a 12-month/12,000-mile warranty",
    "hours": "Mon-Fri 9AM-6PM",
    "services": [
      "Arabic-speaking Mobile auto repair in Kansas consultation",
      "Professional service",
      "Quality guarantee"
    ],
    "social_links": {}
  },
  {
    "name": "Rhino Mobile Mechanics of Wichita",
    "address": "Serves Wichita, KS (mobile service)",
    "phone": "(316) 669-7441",
    "rating": 4.0,
    "reviews": 25,
    "website": "https://www.rhinomobilemechanicswichita.com/",
    "category": "Arabic-speaking Mobile auto repair in Kansas",
    "description": "Provides on-site auto repair services in the Wichita region, with experienced mechanics",
    "hours": "Mon-Fri 9AM-6PM",
    "services": [
      "Arabic-speaking Mobile auto repair in Kansas consultation",
      "Professional service",
      "Quality guarantee"
    ],
    "social_links": {}
  },
  {
    "name": "Mobile Mechanic Kansas City",
    "address": "Serves Kansas City, MO (mobile service)",
    "phone": "(816) 550-3109",
    "rating": 4.0,
    "reviews": 25,
    "website": "https://mobilemechanickansascity.com/",
    "category": "Arabic-speaking Mobile auto repair in Kansas",
    "description": "Offers reliable and affordable mobile auto repairs with certified technicians and on-site service",
    "hours": "Mon-Fri 9AM-6PM",
    "services": [
      "Arabic-speaking Mobile auto repair in Kansas consultation",
      "Professional service",
      "Quality guarantee"
    ],
    "social_links": {}
  },
  {
    "name": "Mobile Mechanics Topeka KS (Mobile Auto Repair Pros)",
    "address": "Serves Topeka, KS (mobile service)",
    "phone": "(785) 408-2365",
    "rating": 4.0,
    "reviews": 25,
    "website": "https://www.mobileautorepairpros.com/topeka-ks",
    "category": "Arabic-speaking Mobile auto repair in Kansas",
    "description": "Offers on-site car repair, emergency roadside assistance, tire, oil change, and brake services",
    "hours": "Mon-Fri 9AM-6PM",
    "services": [
      "Arabic-speaking Mobile auto repair in Kansas consultation",
      "Professional service",
      "Quality guarantee"
    ],
    "social_links": {}
  },
  {
    "name": "Astorga's Mobile Mechanic Shop",
    "address": "Serves Wichita, KS 67211 (mobile service)",
    "phone": "(316) 202-0123",
    "rating": 4.0,
    "reviews": 25,
    "website": "https://astorgasmobilemechanic.com/",
    "category": "Arabic-speaking Mobile auto repair in Kansas",
    "description": "Family-owned business with bilingual service (Spanish and English), offering reliable and high-quality automotive service",
    "hours": "Mon-Fri 9AM-6PM",
    "services": [
      "Arabic-speaking Mobile auto repair in Kansas consultation",
      "Professional service",
      "Quality guarantee"
    ],
    "social_links": {}
  },
  {
    "name": "Wrench (Olathe)",
    "address": "Serves Olathe, KS and Johnson County (mobile service)",
    "phone": "(855) 973-6241",
    "rating": 4.0,
    "reviews": 25,
    "website": "https://www.wrench.co/locations/olathe-ks",
    "category": "Arabic-speaking Mobile auto repair in Kansas",
    "description": "Offers convenient mobile auto repair and maintenance services at your home or office, with a 12-month/12,000-mile warranty",
    "hours": "Mon-Fri 9AM-6PM",
    "services": [
      "Arabic-speaking Mobile auto repair in Kansas consultation",
      "Professional service",
      "Quality guarantee"
    ],
    "social_links": {}
  }
]