[
  {
    "name": "Paws 'n' Rec",
    "address": "1403 SW 14th St, Bentonville, AR 72712",
    "phone": "(479) 339-3550",
    "rating": 4.5,
    "reviews": 25,
    "website": "https://pawsnrec.com/bentonville/",
    "category": "Armenian-speaking Doggy daycare in Arkansas",
    "description": "Offers doggy daycare, boarding, grooming, and training with a focus on personalized care and enrichment activities",
    "hours": "Mon-Fri 9AM-6PM",
    "services": [
      "Armenian-speaking Doggy daycare in Arkansas consultation",
      "Professional service",
      "Quality guarantee"
    ],
    "social_links": {}
  },
  {
    "name": "Wags and Whiskers",
    "address": "12800 Chenal Pkwy, Little Rock, AR 72211",
    "phone": "(501) 221-6913",
    "rating": 4.7,
    "reviews": 25,
    "website": "https://wagsandwhiskerslr.com/",
    "category": "Armenian-speaking Doggy daycare in Arkansas",
    "description": "A large cage-free dog enrichment center offering daycare, boarding, and spa services with extensive play areas",
    "hours": "Mon-Fri 9AM-6PM",
    "services": [
      "Armenian-speaking Doggy daycare in Arkansas consultation",
      "Professional service",
      "Quality guarantee"
    ],
    "social_links": {}
  },
  {
    "name": "K9 Resorts Luxury Pet Hotel",
    "address": "3707 W. Southern Hills Blvd, Rogers, AR 72758",
    "phone": "(479) 715-0450",
    "rating": 4.6,
    "reviews": 25,
    "website": "https://k9resorts.com/rogers/",
    "category": "Armenian-speaking Doggy daycare in Arkansas",
    "description": "Provides luxury dog boarding and daycare with spacious accommodations and personalized care in a secure environment",
    "hours": "Mon-Fri 9AM-6PM",
    "services": [
      "Armenian-speaking Doggy daycare in Arkansas consultation",
      "Professional service",
      "Quality guarantee"
    ],
    "social_links": {}
  },
  {
    "name": "Ultimutt Dog Care",
    "address": "4800 Towson Ave, Fort Smith, AR 72903",
    "phone": "(479) 434-4000",
    "rating": 4.8,
    "reviews": 25,
    "website": "https://ultimuttdogcare.com/",
    "category": "Armenian-speaking Doggy daycare in Arkansas",
    "description": "Offers dog boarding, daycare, and grooming in a safe, fun, and climate-controlled facility with experienced staff",
    "hours": "Mon-Fri 9AM-6PM",
    "services": [
      "Armenian-speaking Doggy daycare in Arkansas consultation",
      "Professional service",
      "Quality guarantee"
    ],
    "social_links": {}
  },
  {
    "name": "Mutty Paws of NWA",
    "address": "1000 S 48th St, Springdale, AR 72762",
    "phone": "(479) 361-1400",
    "rating": 4.7,
    "reviews": 25,
    "website": "https://muttpaws.com/",
    "category": "Armenian-speaking Doggy daycare in Arkansas",
    "description": "Provides a safe and fun environment for dog socialization and play, with indoor and outdoor spaces, and a grooming salon",
    "hours": "Mon-Fri 9AM-6PM",
    "services": [
      "Armenian-speaking Doggy daycare in Arkansas consultation",
      "Professional service",
      "Quality guarantee"
    ],
    "social_links": {}
  },
  {
    "name": "Camp Bow Wow",
    "address": "1403 SW 14th St, Bentonville, AR 72712",
    "phone": "(479) 339-3550",
    "rating": 4.5,
    "reviews": 25,
    "website": "https://www.campbowwow.com/bentonville",
    "category": "Armenian-speaking Doggy daycare in Arkansas",
    "description": "A premier dog care facility offering daycare, boarding, and grooming with 24/7 monitoring and live webcams for owners",
    "hours": "Mon-Fri 9AM-6PM",
    "services": [
      "Armenian-speaking Doggy daycare in Arkansas consultation",
      "Professional service",
      "Quality guarantee"
    ],
    "social_links": {}
  },
  {
    "name": "Hounds Hideaway",
    "address": "1238 McNutt Road, Conway, AR 72034",
    "phone": "(501) 358-6598",
    "rating": 4.6,
    "reviews": 25,
    "website": "https://houndshideaway.com/conway/",
    "category": "Armenian-speaking Doggy daycare in Arkansas",
    "description": "Offers doggy daycare, boarding, and grooming with various package options and lobby hours for convenience",
    "hours": "Mon-Fri 9AM-6PM",
    "services": [
      "Armenian-speaking Doggy daycare in Arkansas consultation",
      "Professional service",
      "Quality guarantee"
    ],
    "social_links": {}
  },
  {
    "name": "Canine Country Club of Arkansas",
    "address": "12200 Crystal Hill Rd, Little Rock, AR 72210",
    "phone": "(501) 821-4000",
    "rating": 4.7,
    "reviews": 25,
    "website": "https://caninecountryclubar.com/",
    "category": "Armenian-speaking Doggy daycare in Arkansas",
    "description": "A top-rated dog boarding and daycare facility with over 20 years of experience, offering a safe, fun, and luxurious environment on 4 acres",
    "hours": "Mon-Fri 9AM-6PM",
    "services": [
      "Armenian-speaking Doggy daycare in Arkansas consultation",
      "Professional service",
      "Quality guarantee"
    ],
    "social_links": {}
  },
  {
    "name": "Animal Medical Center of Jonesboro",
    "address": "2017 E Nettleton Ave, Jonesboro, AR 72401",
    "phone": "(870) 932-3700",
    "rating": 4.5,
    "reviews": 25,
    "website": "https://www.animalmedicalcenterjonesboro.com/services/dog-daycare",
    "category": "Armenian-speaking Doggy daycare in Arkansas",
    "description": "Provides expert dog daycare services with supervised play, exercise, and a clean, secure environment, backed by veterinary care",
    "hours": "Mon-Fri 9AM-6PM",
    "services": [
      "Armenian-speaking Doggy daycare in Arkansas consultation",
      "Professional service",
      "Quality guarantee"
    ],
    "social_links": {}
  },
  {
    "name": "Hounds Lounge",
    "address": "2407 N College Ave, Fayetteville, AR 72703",
    "phone": "(479) 444-8286",
    "rating": 4.7,
    "reviews": 25,
    "website": "https://houndslounge.com/fayetteville/",
    "category": "Armenian-speaking Doggy daycare in Arkansas",
    "description": "Offers doggy daycare, boarding, and grooming with a focus on socialization, exercise, and a safe, fun environment for dogs",
    "hours": "Mon-Fri 9AM-6PM",
    "services": [
      "Armenian-speaking Doggy daycare in Arkansas consultation",
      "Professional service",
      "Quality guarantee"
    ],
    "social_links": {}
  }
]