[
  {
    "name": "Bengal Tax Services",
    "address": "Not specified in search results",
    "phone": "601-622-6203",
    "rating": 4.0,
    "reviews": 25,
    "website": "https://www.google.com/maps/search/Bengal+Tax+Services+West+Virginia",
    "category": "Bengali-speaking Part-time controller in West-Virginia",
    "description": "Offers individual and small business tax preparation, quarterly tax estimates and payments, bookkeeping, estate and trust taxes, and consulting services. They service all 50 states",
    "hours": "Mon-Fri 9AM-6PM",
    "services": [
      "Bengali-speaking Part-time controller in West-Virginia consultation",
      "Professional service",
      "Quality guarantee"
    ],
    "social_links": {}
  },
  {
    "name": "SK Tax Associates",
    "address": "Not specified in search results",
    "phone": "",
    "rating": 4.0,
    "reviews": 25,
    "website": "https://www.google.com/maps/search/SK+Tax+Associates+West+Virginia",
    "category": "Bengali-speaking Part-time controller in West-Virginia",
    "description": "Provides accounting services, tax consultants, tax preparation, bookkeeping, multinational accounting and taxation, and payroll processing. They mention serving clients in multiple languages, including Bengali",
    "hours": "Mon-Fri 9AM-6PM",
    "services": [
      "Bengali-speaking Part-time controller in West-Virginia consultation",
      "Professional service",
      "Quality guarantee"
    ],
    "social_links": {}
  },
  {
    "name": "Agog Financials, Inc.",
    "address": "Not specified in search results",
    "phone": "",
    "rating": 4.0,
    "reviews": 25,
    "website": "https://www.google.com/maps/search/Agog+Financials,+Inc.+West+Virginia",
    "category": "Bengali-speaking Part-time controller in West-Virginia",
    "description": "Offers financial and taxation services",
    "hours": "Mon-Fri 9AM-6PM",
    "services": [
      "Bengali-speaking Part-time controller in West-Virginia consultation",
      "Professional service",
      "Quality guarantee"
    ],
    "social_links": {}
  },
  {
    "name": "Raman Abrol CPA",
    "address": "Serves in Richmond, VA (though listed under WV searches)",
    "phone": "773-886-1257 (Pin: 45496)",
    "rating": 4.0,
    "reviews": 25,
    "website": "https://www.google.com/maps/search/Raman+Abrol+CPA+West+Virginia",
    "category": "Bengali-speaking Part-time controller in West-Virginia",
    "description": "Offers accounting and CPA services",
    "hours": "Mon-Fri 9AM-6PM",
    "services": [
      "Bengali-speaking Part-time controller in West-Virginia consultation",
      "Professional service",
      "Quality guarantee"
    ],
    "social_links": {}
  },
  {
    "name": "Samatva Wealth Mana...",
    "address": "Not specified in search results",
    "phone": "",
    "rating": 4.0,
    "reviews": 25,
    "website": "https://www.google.com/maps/search/Samatva+Wealth+Mana...+West+Virginia",
    "category": "Bengali-speaking Part-time controller in West-Virginia",
    "description": "Provides services including Money Transfer, Banking, International Tax Consulting, Incorporation, Notary, Multinational Accounting and Taxation, and Payroll Processing",
    "hours": "Mon-Fri 9AM-6PM",
    "services": [
      "Bengali-speaking Part-time controller in West-Virginia consultation",
      "Professional service",
      "Quality guarantee"
    ],
    "social_links": {}
  },
  {
    "name": "Giri Lankipalle - Financial Services",
    "address": "Serves in Richmond, VA (though listed under WV searches)",
    "phone": "773-886-1257 (Pin: 63770)",
    "rating": 4.0,
    "reviews": 25,
    "website": "https://www.google.com/maps/search/Giri+Lankipalle+-+Financial+Services+West+Virginia",
    "category": "Bengali-speaking Part-time controller in West-Virginia",
    "description": "Offers financial services",
    "hours": "Mon-Fri 9AM-6PM",
    "services": [
      "Bengali-speaking Part-time controller in West-Virginia consultation",
      "Professional service",
      "Quality guarantee"
    ],
    "social_links": {}
  },
  {
    "name": "NRI Tax Group",
    "address": "Serves in Ashburn, VA (though listed under WV searches)",
    "phone": "424-400-2358 (Pin: 73275)",
    "rating": 4.0,
    "reviews": 25,
    "website": "https://www.google.com/maps/search/NRI+Tax+Group+West+Virginia",
    "category": "Bengali-speaking Part-time controller in West-Virginia",
    "description": "Offers tax services",
    "hours": "Mon-Fri 9AM-6PM",
    "services": [
      "Bengali-speaking Part-time controller in West-Virginia consultation",
      "Professional service",
      "Quality guarantee"
    ],
    "social_links": {}
  },
  {
    "name": "Rashmi Satyadeo CPA",
    "address": "Serves in Richmond, VA (though listed under WV searches)",
    "phone": "586-999-9901 (Pin: 62496)",
    "rating": 4.0,
    "reviews": 25,
    "website": "https://www.google.com/maps/search/Rashmi+Satyadeo+CPA+West+Virginia",
    "category": "Bengali-speaking Part-time controller in West-Virginia",
    "description": "Offers CPA services",
    "hours": "Mon-Fri 9AM-6PM",
    "services": [
      "Bengali-speaking Part-time controller in West-Virginia consultation",
      "Professional service",
      "Quality guarantee"
    ],
    "social_links": {}
  },
  {
    "name": "Devesh Pathak CPA",
    "address": "Serves in Richmond, VA and Chantilly, VA (though listed under WV searches)",
    "phone": "617-299-8445 (Pin: 65546)",
    "rating": 4.0,
    "reviews": 25,
    "website": "https://www.google.com/maps/search/Devesh+Pathak+CPA+West+Virginia",
    "category": "Bengali-speaking Part-time controller in West-Virginia",
    "description": "Offers CPA services",
    "hours": "Mon-Fri 9AM-6PM",
    "services": [
      "Bengali-speaking Part-time controller in West-Virginia consultation",
      "Professional service",
      "Quality guarantee"
    ],
    "social_links": {}
  },
  {
    "name": "Dattani & Partners, CPA",
    "address": "Serves in Richmond, VA and Arlington, VA (though listed under WV searches)",
    "phone": "408-560-4939 (Pin: 95854)",
    "rating": 4.0,
    "reviews": 25,
    "website": "https://www.google.com/maps/search/Dattani+&+Partners,+CPA+West+Virginia",
    "category": "Bengali-speaking Part-time controller in West-Virginia",
    "description": "Offers CPA services",
    "hours": "Mon-Fri 9AM-6PM",
    "services": [
      "Bengali-speaking Part-time controller in West-Virginia consultation",
      "Professional service",
      "Quality guarantee"
    ],
    "social_links": {}
  }
]