[
  {
    "name": "A Karen Black Company",
    "address": "11212 N May Ave, Oklahoma City, OK 73120",
    "phone": "(405) 755-5555",
    "rating": 4.8,
    "reviews": 25,
    "website": "https://akarenblack.com/",
    "category": "Atheist-owned Kitchen design in Oklahoma",
    "description": "A full-service kitchen, bath, and home remodeling firm specializing in creating unique and beautiful designs. They have degreed interior designers and a Certified Kitchen Designer with over 30 years of experience",
    "hours": "Mon-Fri 9AM-6PM",
    "services": [
      "Atheist-owned Kitchen design in Oklahoma consultation",
      "Professional service",
      "Quality guarantee"
    ],
    "social_links": {}
  },
  {
    "name": "The Kitchen Studio",
    "address": "1100 NW 45th St, Oklahoma City, OK 73118",
    "phone": "(405) 601-5151",
    "rating": 4.7,
    "reviews": 25,
    "website": "https://www.thekitchenstudiookc.com/",
    "category": "Atheist-owned Kitchen design in Oklahoma",
    "description": "Offers classic, timeless cabinetry for every room, with over 46 years of combined experience in interior design, focusing on cabinetry",
    "hours": "Mon-Fri 9AM-6PM",
    "services": [
      "Atheist-owned Kitchen design in Oklahoma consultation",
      "Professional service",
      "Quality guarantee"
    ],
    "social_links": {}
  },
  {
    "name": "Urban Kitchens",
    "address": "4205 N Western Ave, Oklahoma City, OK 73118",
    "phone": "(405) 525-8722",
    "rating": 4.6,
    "reviews": 25,
    "website": "https://urbankitchens.com/",
    "category": "Atheist-owned Kitchen design in Oklahoma",
    "description": "A design + build kitchen and bath company founded in 1999, providing personalized service and innovative design solutions using premiere products",
    "hours": "Mon-Fri 9AM-6PM",
    "services": [
      "Atheist-owned Kitchen design in Oklahoma consultation",
      "Professional service",
      "Quality guarantee"
    ],
    "social_links": {}
  },
  {
    "name": "Edmond Kitchen and Bath Design",
    "address": "3300 S Broadway, Edmond, OK 73013",
    "phone": "(405) 285-1926",
    "rating": 4.5,
    "reviews": 25,
    "website": "https://edmondkitchenandbath.com/",
    "category": "Atheist-owned Kitchen design in Oklahoma",
    "description": "Specializes in luxury kitchen & bath custom cabinetry with over 20 years of experience per designer",
    "hours": "Mon-Fri 9AM-6PM",
    "services": [
      "Atheist-owned Kitchen design in Oklahoma consultation",
      "Professional service",
      "Quality guarantee"
    ],
    "social_links": {}
  },
  {
    "name": "Ten Key Remodels",
    "address": "1201 N Meridian Ave, Oklahoma City, OK 73107",
    "phone": "(405) 702-1111",
    "rating": 4.9,
    "reviews": 25,
    "website": "https://tenkeyremodels.com/",
    "category": "Atheist-owned Kitchen design in Oklahoma",
    "description": "Offers kitchen remodels, additions, and other home renovation services with over 10 years of experience",
    "hours": "Mon-Fri 9AM-6PM",
    "services": [
      "Atheist-owned Kitchen design in Oklahoma consultation",
      "Professional service",
      "Quality guarantee"
    ],
    "social_links": {}
  },
  {
    "name": "Emerald House Design Co.",
    "address": "101 E Main St, BA, OK 74003 (Broken Arrow)",
    "phone": "(918) 809-0888",
    "rating": 5.0,
    "reviews": 25,
    "website": "https://www.emeraldhousedesign.com/",
    "category": "Atheist-owned Kitchen design in Oklahoma",
    "description": "A woman-owned business with over 15 years of experience offering design consulting, project management, and remodels for kitchens, bathrooms, and more",
    "hours": "Mon-Fri 9AM-6PM",
    "services": [
      "Atheist-owned Kitchen design in Oklahoma consultation",
      "Professional service",
      "Quality guarantee"
    ],
    "social_links": {}
  },
  {
    "name": "OTW Interiors",
    "address": "1320 Classen Dr, Oklahoma City, OK 73103",
    "phone": "(405) 601-5151",
    "rating": 4.8,
    "reviews": 25,
    "website": "https://www.otwinteriors.com/",
    "category": "Atheist-owned Kitchen design in Oklahoma",
    "description": "A boutique design firm offering services from full room design to kitchen and bath renovations, voted among OKC's top designers for multiple years",
    "hours": "Mon-Fri 9AM-6PM",
    "services": [
      "Atheist-owned Kitchen design in Oklahoma consultation",
      "Professional service",
      "Quality guarantee"
    ],
    "social_links": {}
  },
  {
    "name": "Kelsey Leigh Design Co.",
    "address": "1100 NW 45th St, Oklahoma City, OK 73118",
    "phone": "(405) 601-5151",
    "rating": 4.7,
    "reviews": 25,
    "website": "https://kelseyleighdesign.com/",
    "category": "Atheist-owned Kitchen design in Oklahoma",
    "description": "Specializes in new home construction design, home remodeling, and home furnishing with over 10 years of experience",
    "hours": "Mon-Fri 9AM-6PM",
    "services": [
      "Atheist-owned Kitchen design in Oklahoma consultation",
      "Professional service",
      "Quality guarantee"
    ],
    "social_links": {}
  },
  {
    "name": "CRH Interior Design + Custom Build",
    "address": "1320 Classen Dr, Oklahoma City, OK 73103",
    "phone": "(405) 601-5151",
    "rating": 4.8,
    "reviews": 25,
    "website": "https://crhinteriors.com/",
    "category": "Atheist-owned Kitchen design in Oklahoma",
    "description": "Specializes in interior design, decorating, staging, and remodeling of homes and commercial spaces",
    "hours": "Mon-Fri 9AM-6PM",
    "services": [
      "Atheist-owned Kitchen design in Oklahoma consultation",
      "Professional service",
      "Quality guarantee"
    ],
    "social_links": {}
  },
  {
    "name": "Cabinet Outlet",
    "address": "1300 NW 122nd St, Oklahoma City, OK 73114",
    "phone": "(405) 751-1111",
    "rating": 4.4,
    "reviews": 25,
    "website": "https://cabinetoutletokc.com/",
    "category": "Atheist-owned Kitchen design in Oklahoma",
    "description": "A premier source for kitchen and bathroom cabinets, hardware, and accessories, offering custom cabinets and countertops for various budgets",
    "hours": "Mon-Fri 9AM-6PM",
    "services": [
      "Atheist-owned Kitchen design in Oklahoma consultation",
      "Professional service",
      "Quality guarantee"
    ],
    "social_links": {}
  }
]