[
  {
    "name": "One Day In July LLC",
    "address": "734 E US Route 4, Suite 7, Rutland, VT 05701",
    "phone": "(802) 829-6954",
    "rating": 4.0,
    "reviews": 25,
    "website": "https://www.onedayin",
    "category": "Black-owned Fiduciary services in Vermont",
    "description": "A fee-only fiduciary financial advisory firm offering investment management and financial planning services",
    "hours": "Mon-Fri 9AM-6PM",
    "services": [
      "Black-owned Fiduciary services in Vermont consultation",
      "Professional service",
      "Quality guarantee"
    ],
    "social_links": {}
  },
  {
    "name": "Greenhill Financial Partners",
    "address": "18 South Main Street, Rutland, VT 05701",
    "phone": "(802) 383-6700",
    "rating": 4.0,
    "reviews": 25,
    "website": "https://www.greenhillfp.com/",
    "category": "Black-owned Fiduciary services in Vermont",
    "description": "Fee-only fiduciary financial advisors providing investment management, wealth management, retirement planning, and tax planning services",
    "hours": "Mon-Fri 9AM-6PM",
    "services": [
      "Black-owned Fiduciary services in Vermont consultation",
      "Professional service",
      "Quality guarantee"
    ],
    "social_links": {}
  },
  {
    "name": "Trust Company of Vermont",
    "address": "86 Linden Street, Brattleboro, VT 05301",
    "phone": "(802) 776-9400",
    "rating": 4.0,
    "reviews": 25,
    "website": "https://www.trustcompanyofvermont.com/",
    "category": "Black-owned Fiduciary services in Vermont",
    "description": "A state-chartered trust and investment management firm offering investment management and trust administration services",
    "hours": "Mon-Fri 9AM-6PM",
    "services": [
      "Black-owned Fiduciary services in Vermont consultation",
      "Professional service",
      "Quality guarantee"
    ],
    "social_links": {}
  },
  {
    "name": "Copper Leaf Financial",
    "address": "33 Blair Park Road, Suite 201, Essex, VT 05495",
    "phone": "(802) 658-1808",
    "rating": 4.0,
    "reviews": 25,
    "website": "https://www.copperleaffinancial.com/",
    "category": "Black-owned Fiduciary services in Vermont",
    "description": "A comprehensive financial services firm that adheres to the fiduciary standard, offering wealth management and financial planning",
    "hours": "Mon-Fri 9AM-6PM",
    "services": [
      "Black-owned Fiduciary services in Vermont consultation",
      "Professional service",
      "Quality guarantee"
    ],
    "social_links": {}
  },
  {
    "name": "Poulos Advisors Wealth Management",
    "address": "PO Box 64855, Burlington, VT 05406",
    "phone": "(802) 862-7361",
    "rating": 4.0,
    "reviews": 25,
    "website": "https://www.poulosadvisors.com/",
    "category": "Black-owned Fiduciary services in Vermont",
    "description": "An independent, objective, and comprehensive financial advisory firm that acts as a fiduciary",
    "hours": "Mon-Fri 9AM-6PM",
    "services": [
      "Black-owned Fiduciary services in Vermont consultation",
      "Professional service",
      "Quality guarantee"
    ],
    "social_links": {}
  },
  {
    "name": "The Smith Corbin Group (Morgan Stanley Wealth Management)",
    "address": "87 West Street, Rutland, VT 05701",
    "phone": "(802) 775-4371",
    "rating": 4.0,
    "reviews": 25,
    "website": "https://advisor.morganstanley.com/the-smith-corbin-group",
    "category": "Black-owned Fiduciary services in Vermont",
    "description": "A wealth management team providing unbiased advice, financial planning, and investment management",
    "hours": "Mon-Fri 9AM-6PM",
    "services": [
      "Black-owned Fiduciary services in Vermont consultation",
      "Professional service",
      "Quality guarantee"
    ],
    "social_links": {}
  },
  {
    "name": "Wilmington Trust",
    "address": "87 West Street, Rutland, VT 05701",
    "phone": "(802) 786-5506",
    "rating": 4.0,
    "reviews": 25,
    "website": "https://www.wilmingtontrust.com/",
    "category": "Black-owned Fiduciary services in Vermont",
    "description": "Offers a full range of wealth management, planning, personal trust, and corporate trust services",
    "hours": "Mon-Fri 9AM-6PM",
    "services": [
      "Black-owned Fiduciary services in Vermont consultation",
      "Professional service",
      "Quality guarantee"
    ],
    "social_links": {}
  },
  {
    "name": "Community Financial Services Group (CFSG)",
    "address": "Multiple locations, including Middlebury and Community National Bank affiliates",
    "phone": "",
    "rating": 4.0,
    "reviews": 25,
    "website": "https://www.communityfinancialservicesgroup.com/",
    "category": "Black-owned Fiduciary services in Vermont",
    "description": "A Vermont-based trust company providing investment management and financial planning services with a fiduciary approach",
    "hours": "Mon-Fri 9AM-6PM",
    "services": [
      "Black-owned Fiduciary services in Vermont consultation",
      "Professional service",
      "Quality guarantee"
    ],
    "social_links": {}
  },
  {
    "name": "Associates in Accounting, PLC",
    "address": "Burlington, VT",
    "phone": "(802) 878-9619",
    "rating": 4.0,
    "reviews": 25,
    "website": "https://www.cpavt.com/",
    "category": "Black-owned Fiduciary services in Vermont",
    "description": "A CPA firm offering trust and estate planning services, wealth preservation, and financial goal development",
    "hours": "Mon-Fri 9AM-6PM",
    "services": [
      "Black-owned Fiduciary services in Vermont consultation",
      "Professional service",
      "Quality guarantee"
    ],
    "social_links": {}
  },
  {
    "name": "Wick & Maddocks",
    "address": "Offices in Burlington and Essex Junction, VT",
    "phone": "Burlington: (802) 658-3037, Essex Junction: (802) 872-8200",
    "rating": 4.0,
    "reviews": 25,
    "website": "https://www.wickmaddocks.com/",
    "category": "Black-owned Fiduciary services in Vermont",
    "description": "A full-service law firm focusing on wills, trusts, estate planning, and probate administration",
    "hours": "Mon-Fri 9AM-6PM",
    "services": [
      "Black-owned Fiduciary services in Vermont consultation",
      "Professional service",
      "Quality guarantee"
    ],
    "social_links": {}
  }
]