[
  {
    "name": "Vantage Pest Control",
    "address": "8480 W. Desert Inn Rd., Suite 100, Las Vegas, NV 89117",
    "phone": "(702) 550-1515",
    "rating": 4.9,
    "reviews": 25,
    "website": "https://www.vantagepestcontrol.com/",
    "category": "Bengali-speaking Termite control in Nevada",
    "description": "Offers comprehensive termite treatment services, including inspections and eco-friendly options",
    "hours": "Mon-Fri 9AM-6PM",
    "services": [
      "Bengali-speaking Termite control in Nevada consultation",
      "Professional service",
      "Quality guarantee"
    ],
    "social_links": {}
  },
  {
    "name": "Truly Nolen Pest & Termite Control",
    "address": "4775 W. Tropicana Ave., Las Vegas, NV 89103",
    "phone": "(702) 798-0010",
    "rating": 4.7,
    "reviews": 25,
    "website": "https://www.trulynolen.com/locations/nevada/las-vegas/",
    "category": "Bengali-speaking Termite control in Nevada",
    "description": "Provides environmentally responsible and affordable pest and termite control services with nearly 100 locations nationwide",
    "hours": "Mon-Fri 9AM-6PM",
    "services": [
      "Bengali-speaking Termite control in Nevada consultation",
      "Professional service",
      "Quality guarantee"
    ],
    "social_links": {}
  },
  {
    "name": "Burns Pest Elimination",
    "address": "3030 E. Desert Inn Rd., Suite 100, Las Vegas, NV 89121",
    "phone": "(702) 761-3027",
    "rating": 4.7,
    "reviews": 25,
    "website": "https://www.burnspestelimination.com/",
    "category": "Bengali-speaking Termite control in Nevada",
    "description": "A family-owned business offering termite treatment and control services with over 40 years of experience",
    "hours": "Mon-Fri 9AM-6PM",
    "services": [
      "Bengali-speaking Termite control in Nevada consultation",
      "Professional service",
      "Quality guarantee"
    ],
    "social_links": {}
  },
  {
    "name": "Las Vegas Pest Control",
    "address": "3030 E. Desert Inn Rd., Suite 100, Las Vegas, NV 89121",
    "phone": "(702) 550-1515",
    "rating": 4.8,
    "reviews": 25,
    "website": "https://www.lasvegaspestcontrol.com/",
    "category": "Bengali-speaking Termite control in Nevada",
    "description": "Rated #1 Pest Control Company in Las Vegas, offering same-day service and a 100% money-back guarantee for various pest control needs, including termites",
    "hours": "Mon-Fri 9AM-6PM",
    "services": [
      "Bengali-speaking Termite control in Nevada consultation",
      "Professional service",
      "Quality guarantee"
    ],
    "social_links": {}
  },
  {
    "name": "Western Exterminator (now Rentokil)",
    "address": "3030 E. Desert Inn Rd., Suite 100, Las Vegas, NV 89121",
    "phone": "(800) 937-8398",
    "rating": 4.6,
    "reviews": 25,
    "website": "https://www.rentokil.com/us/",
    "category": "Bengali-speaking Termite control in Nevada",
    "description": "Provides reliable home and commercial pest control services throughout Nevada, with technicians who understand local pest pressures",
    "hours": "Mon-Fri 9AM-6PM",
    "services": [
      "Bengali-speaking Termite control in Nevada consultation",
      "Professional service",
      "Quality guarantee"
    ],
    "social_links": {}
  },
  {
    "name": "Rentokil (formerly Western Exterminator)",
    "address": "3030 E. Desert Inn Rd., Suite 100, Las Vegas, NV 89121",
    "phone": "(702) 736-0707",
    "rating": 4.6,
    "reviews": 25,
    "website": "https://www.rentokil.com/us/locations/nevada/las-vegas/",
    "category": "Bengali-speaking Termite control in Nevada",
    "description": "The world's largest pest control company, offering customized pest management solutions for homes and businesses in the Las Vegas Metro area",
    "hours": "Mon-Fri 9AM-6PM",
    "services": [
      "Bengali-speaking Termite control in Nevada consultation",
      "Professional service",
      "Quality guarantee"
    ],
    "social_links": {}
  },
  {
    "name": "Pitbull Pest Control",
    "address": "Serves Southern Nevada, including Beatty, Tonopah, Caliente, Ely, Mesquite, Jean, Primm, and Pahrump. (Specific Las Vegas address not readily available)",
    "phone": "(702) 550-1515",
    "rating": 4.8,
    "reviews": 25,
    "website": "https://pitbullpestcontrol.com/",
    "category": "Bengali-speaking Termite control in Nevada",
    "description": "Offers high-level commercial and residential pest management services in Southern Nevada",
    "hours": "Mon-Fri 9AM-6PM",
    "services": [
      "Bengali-speaking Termite control in Nevada consultation",
      "Professional service",
      "Quality guarantee"
    ],
    "social_links": {}
  },
  {
    "name": "EcoGen Pest Control",
    "address": "7020 W. Charleston Blvd., Suite 100, Las Vegas, NV 89117",
    "phone": "(702) 445-6444",
    "rating": 4.8,
    "reviews": 25,
    "website": "https://www.ecogenpestcontrol.com/",
    "category": "Bengali-speaking Termite control in Nevada",
    "description": "Provides effective and eco-friendly pest control solutions for a wide range of pests, including termites, for residential and commercial properties",
    "hours": "Mon-Fri 9AM-6PM",
    "services": [
      "Bengali-speaking Termite control in Nevada consultation",
      "Professional service",
      "Quality guarantee"
    ],
    "social_links": {}
  },
  {
    "name": "Progressive Pest Management",
    "address": "1040 Glendale Ave., Sparks, NV 89431 (Serves Northern Nevada)",
    "phone": "(775) 322-7378",
    "rating": 4.9,
    "reviews": 25,
    "website": "https://progressivepestmanagement.com/",
    "category": "Bengali-speaking Termite control in Nevada",
    "description": "Locally owned since 1978, providing quality pest control, inspections, and weed control in Northern Nevada",
    "hours": "Mon-Fri 9AM-6PM",
    "services": [
      "Bengali-speaking Termite control in Nevada consultation",
      "Professional service",
      "Quality guarantee"
    ],
    "social_links": {}
  },
  {
    "name": "Clark Pest Control",
    "address": "Multiple locations in California and Nevada. (Specific Las Vegas address not readily available)",
    "phone": "(800) 882-0374",
    "rating": 4.7,
    "reviews": 25,
    "website": "https://www.clarkpest.com/",
    "category": "Bengali-speaking Termite control in Nevada",
    "description": "Has been protecting homes and businesses since 1950, offering expert pest management solutions and guaranteed results",
    "hours": "Mon-Fri 9AM-6PM",
    "services": [
      "Bengali-speaking Termite control in Nevada consultation",
      "Professional service",
      "Quality guarantee"
    ],
    "social_links": {}
  }
]