[
  {
    "name": "Alamo Waterproofing Services, Inc.",
    "address": "10003 Wye Dr, San Antonio, TX 78217",
    "phone": "(210) 648-2100",
    "rating": 4.5,
    "reviews": 25,
    "website": "https://alamowaterproofingservices.com/",
    "category": "Armenian-speaking Caulking in Texas",
    "description": "Offers commercial caulking and sealants for interior and exterior surfaces, specializing in keeping water out of homes and businesses",
    "hours": "Mon-Fri 9AM-6PM",
    "services": [
      "Armenian-speaking Caulking in Texas consultation",
      "Professional service",
      "Quality guarantee"
    ],
    "social_links": {}
  },
  {
    "name": "C & D Commercial Services, Inc.",
    "address": "1000 Wycliff Ave, Dallas, TX 75208",
    "phone": "(214) 504-1070",
    "rating": 4.8,
    "reviews": 25,
    "website": "https://cdcommercialservices.com/",
    "category": "Armenian-speaking Caulking in Texas",
    "description": "Specializes in concrete and masonry caulking, including expansion joint services for commercial buildings in the Dallas-Fort Worth area",
    "hours": "Mon-Fri 9AM-6PM",
    "services": [
      "Armenian-speaking Caulking in Texas consultation",
      "Professional service",
      "Quality guarantee"
    ],
    "social_links": {}
  },
  {
    "name": "Pro-Caulk Construction",
    "address": "13314 Wisterwood St, Austin, TX 78729",
    "phone": "(512) 627-6899",
    "rating": 4.9,
    "reviews": 25,
    "website": "https://pro-caulk-construction.business.site/",
    "category": "Armenian-speaking Caulking in Texas",
    "description": "Professional caulking contractor with over 45 years of experience, offering new construction, restoration, and leak detection services in Austin and surrounding areas",
    "hours": "Mon-Fri 9AM-6PM",
    "services": [
      "Armenian-speaking Caulking in Texas consultation",
      "Professional service",
      "Quality guarantee"
    ],
    "social_links": {}
  },
  {
    "name": "Lions Caulking and Restoration",
    "address": "1001 Wycliff Ave, Dallas, TX 75208",
    "phone": "(469) 258-2199",
    "rating": 4.7,
    "reviews": 25,
    "website": "https://lionscaulking.com/",
    "category": "Armenian-speaking Caulking in Texas",
    "description": "Family-owned business providing a full range of caulking services throughout the Dallas-Fort Worth metroplex with a reputation for quality workmanship and reliability",
    "hours": "Mon-Fri 9AM-6PM",
    "services": [
      "Armenian-speaking Caulking in Texas consultation",
      "Professional service",
      "Quality guarantee"
    ],
    "social_links": {}
  },
  {
    "name": "Sir Grout Dallas Fort Worth",
    "address": "1000 Wycliff Ave, Dallas, TX 75208",
    "phone": "(972) 457-3116",
    "rating": 4.6,
    "reviews": 25,
    "website": "https://www.sirgrout.com/dallas-fort-worth/",
    "category": "Armenian-speaking Caulking in Texas",
    "description": "Leading hard surface restoration company offering professional caulking services for tile and grout in the Dallas-Fort Worth area, focused on preventing water damage and mold",
    "hours": "Mon-Fri 9AM-6PM",
    "services": [
      "Armenian-speaking Caulking in Texas consultation",
      "Professional service",
      "Quality guarantee"
    ],
    "social_links": {}
  },
  {
    "name": "Surface Solutions",
    "address": "7212 McNeil Dr #205, Austin, TX 78729",
    "phone": "(512) 926-7000",
    "rating": 4.8,
    "reviews": 25,
    "website": "https://surfacesolutionsaustin.com/",
    "category": "Armenian-speaking Caulking in Texas",
    "description": "Provides expert caulking and waterproofing services for commercial properties in Austin, TX, specializing in protecting buildings from water damage with high-quality materials",
    "hours": "Mon-Fri 9AM-6PM",
    "services": [
      "Armenian-speaking Caulking in Texas consultation",
      "Professional service",
      "Quality guarantee"
    ],
    "social_links": {}
  },
  {
    "name": "Squeegee Squad San Antonio Metro TX",
    "address": "10003 Wye Dr, San Antonio, TX 78217",
    "phone": "(210) 822-7200",
    "rating": 4.7,
    "reviews": 25,
    "website": "https://www.squeegeesquad.com/san-antonio-metro/",
    "category": "Armenian-speaking Caulking in Texas",
    "description": "Specializes in building restoration and commercial caulking services in the San Antonio Metro area, with experienced crews trained in craft and safety",
    "hours": "Mon-Fri 9AM-6PM",
    "services": [
      "Armenian-speaking Caulking in Texas consultation",
      "Professional service",
      "Quality guarantee"
    ],
    "social_links": {}
  },
  {
    "name": "Ranger Caulking And Waterproofing",
    "address": "6911 Cannonleague Dr, Austin, TX 78745",
    "phone": "(512) 430-3728",
    "rating": 4.9,
    "reviews": 25,
    "website": "https://rangercwp.com/",
    "category": "Armenian-speaking Caulking in Texas",
    "description": "A licensed and insured waterproofing contractor in Austin, TX, with over 30 years of combined experience in commercial and residential caulking and waterproofing",
    "hours": "Mon-Fri 9AM-6PM",
    "services": [
      "Armenian-speaking Caulking in Texas consultation",
      "Professional service",
      "Quality guarantee"
    ],
    "social_links": {}
  },
  {
    "name": "Parks Plaster & Stucco",
    "address": "1000 Wycliff Ave, Dallas, TX 75208",
    "phone": "(817) 779-0000",
    "rating": 4.6,
    "reviews": 25,
    "website": "https://parksplasterandstucco.com/",
    "category": "Armenian-speaking Caulking in Texas",
    "description": "Offers expert caulking services in the Dallas/Fort Worth area, focusing on inspecting and repairing damaged caulking to ensure a proper seal and optimal efficiency for homes and structures",
    "hours": "Mon-Fri 9AM-6PM",
    "services": [
      "Armenian-speaking Caulking in Texas consultation",
      "Professional service",
      "Quality guarantee"
    ],
    "social_links": {}
  },
  {
    "name": "Sir Grout Houston",
    "address": "10003 Wye Dr, Houston, TX 78717",
    "phone": "(713) 856-9586",
    "rating": 4.5,
    "reviews": 25,
    "website": "https://www.sirgrout.com/houston/",
    "category": "Armenian-speaking Caulking in Texas",
    "description": "Provides professional caulking services for tile and grout in Houston, TX, aiming to improve the look of bathrooms and prevent costly water damage repairs",
    "hours": "Mon-Fri 9AM-6PM",
    "services": [
      "Armenian-speaking Caulking in Texas consultation",
      "Professional service",
      "Quality guarantee"
    ],
    "social_links": {}
  }
]