[
  {
    "name": "Chop Chop Landscaping",
    "address": "(Not specified in search results, but serves Burlington, VT)",
    "phone": "(802) 323-1224",
    "rating": 4.0,
    "reviews": 25,
    "website": "https://www.google.com/maps/search/Chop+Chop+Landscaping+in+Vermont",
    "category": "Christian-owned Aeration in Vermont",
    "description": "Offers lawn aeration as part of a comprehensive suite of lawn care services, including weed control, fertilization, and overseeding",
    "hours": "Mon-Fri 9AM-6PM",
    "services": [
      "Christian-owned Aeration in Vermont consultation",
      "Professional service",
      "Quality guarantee"
    ],
    "social_links": {}
  },
  {
    "name": "NaturaLawn of America",
    "address": "(Not specified in search results, but serves Burlington, VT and surrounding areas)",
    "phone": "802-652-4063",
    "rating": 4.0,
    "reviews": 25,
    "website": "https://www.google.com/maps/search/NaturaLawn+of+America+in+Vermont",
    "category": "Christian-owned Aeration in Vermont",
    "description": "Provides organic-based lawn care services, including aeration, with a focus on environmentally responsible methods",
    "hours": "Mon-Fri 9AM-6PM",
    "services": [
      "Christian-owned Aeration in Vermont consultation",
      "Professional service",
      "Quality guarantee"
    ],
    "social_links": {}
  },
  {
    "name": "Homestead Landscaping",
    "address": "(Not specified in search results, but serves Stratton & Manchester, Vermont)",
    "phone": "",
    "rating": 4.0,
    "reviews": 25,
    "website": "https://www.google.com/maps/search/Homestead+Landscaping+in+Vermont",
    "category": "Christian-owned Aeration in Vermont",
    "description": "Offers core aeration as a service to improve root growth and reduce thatch and compaction",
    "hours": "Mon-Fri 9AM-6PM",
    "services": [
      "Christian-owned Aeration in Vermont consultation",
      "Professional service",
      "Quality guarantee"
    ],
    "social_links": {}
  },
  {
    "name": "Trim Team",
    "address": "(Not specified in search results, but serves Burlington, VT and surrounding areas)",
    "phone": "(813) 693-1171",
    "rating": 4.0,
    "reviews": 25,
    "website": "https://www.google.com/maps/search/Trim+Team+in+Vermont",
    "category": "Christian-owned Aeration in Vermont",
    "description": "Provides core aeration services for healthier lawns, starting at $85 per service",
    "hours": "Mon-Fri 9AM-6PM",
    "services": [
      "Christian-owned Aeration in Vermont consultation",
      "Professional service",
      "Quality guarantee"
    ],
    "social_links": {}
  },
  {
    "name": "Green Lawns of Vermont LLC",
    "address": "(Not specified in search results, but serves southern Vermont)",
    "phone": "(802) 375 \u2013 3051",
    "rating": 4.0,
    "reviews": 25,
    "website": "https://www.google.com/maps/search/Green+Lawns+of+Vermont+LLC+in+Vermont",
    "category": "Christian-owned Aeration in Vermont",
    "description": "Specializes in organic lawn care since 1989, offering core aeration and other services with an emphasis on environmentally responsible methods",
    "hours": "Mon-Fri 9AM-6PM",
    "services": [
      "Christian-owned Aeration in Vermont consultation",
      "Professional service",
      "Quality guarantee"
    ],
    "social_links": {}
  },
  {
    "name": "MJS Lawn Care & Lawnscape Inc.",
    "address": "(Serves Rockingham, VT and Keene, NH)",
    "phone": "(800) 660-4212",
    "rating": 4.0,
    "reviews": 25,
    "website": "https://www.google.com/maps/search/MJS+Lawn+Care+&+Lawnscape+Inc.+in+Vermont",
    "category": "Christian-owned Aeration in Vermont",
    "description": "Offers professional lawn care services, including turf management, and has been in business since 1982",
    "hours": "Mon-Fri 9AM-6PM",
    "services": [
      "Christian-owned Aeration in Vermont consultation",
      "Professional service",
      "Quality guarantee"
    ],
    "social_links": {}
  }
]