[
  {
    "name": "Native American Logistics",
    "address": "Not specified for Connecticut (operates nationally)",
    "phone": "+1 (877) 781-3006",
    "rating": 4.0,
    "reviews": 25,
    "website": "https://www.nalww.com/",
    "category": "American-Indian-owned Shipping services in Connecticut",
    "description": "A leading non-asset-based 3PL solutions provider specializing in optimizing supply chain management",
    "hours": "Mon-Fri 9AM-6PM",
    "services": [
      "American-Indian-owned Shipping services in Connecticut consultation",
      "Professional service",
      "Quality guarantee"
    ],
    "social_links": {}
  },
  {
    "name": "Tribe Transportation",
    "address": "Not specified for Connecticut (headquartered in Georgia, operates nationally)",
    "phone": "",
    "rating": 4.0,
    "reviews": 25,
    "website": "https://www.tribetrans.com/",
    "category": "American-Indian-owned Shipping services in Connecticut",
    "description": "A Native American woman-owned transportation business specializing in temperature-controlled and expedited services",
    "hours": "Mon-Fri 9AM-6PM",
    "services": [
      "American-Indian-owned Shipping services in Connecticut consultation",
      "Professional service",
      "Quality guarantee"
    ],
    "social_links": {}
  },
  {
    "name": "Laparkan - Bridgeport",
    "address": "128 Magnolia St, Bridgeport, CT 06610",
    "phone": "(203) 258-3548",
    "rating": 4.0,
    "reviews": 25,
    "website": "https://laparkan.com/",
    "category": "American-Indian-owned Shipping services in Connecticut",
    "description": "Offers shipping and transporting services to the Caribbean",
    "hours": "Mon-Fri 9AM-6PM",
    "services": [
      "American-Indian-owned Shipping services in Connecticut consultation",
      "Professional service",
      "Quality guarantee"
    ],
    "social_links": {}
  },
  {
    "name": "Laparkan - Bridgeport (Agent Ransford Jones)",
    "address": "121 Elmont Pl, Bridgeport, CT 06605",
    "phone": "(203) 895-6059",
    "rating": 4.0,
    "reviews": 25,
    "website": "https://laparkan.com/",
    "category": "American-Indian-owned Shipping services in Connecticut",
    "description": "An agent for Laparkan, providing shipping services",
    "hours": "Mon-Fri 9AM-6PM",
    "services": [
      "American-Indian-owned Shipping services in Connecticut consultation",
      "Professional service",
      "Quality guarantee"
    ],
    "social_links": {}
  },
  {
    "name": "Laparkan - Bridgeport (Agent Michael Smith)",
    "address": "254 Bronx Ave, Bridgeport, CT 06606",
    "phone": "(203) 394-2645",
    "rating": 4.0,
    "reviews": 25,
    "website": "https://laparkan.com/",
    "category": "American-Indian-owned Shipping services in Connecticut",
    "description": "An agent for Laparkan, providing shipping services",
    "hours": "Mon-Fri 9AM-6PM",
    "services": [
      "American-Indian-owned Shipping services in Connecticut consultation",
      "Professional service",
      "Quality guarantee"
    ],
    "social_links": {}
  },
  {
    "name": "Laparkan - Hartford",
    "address": "451 Wethersfield Ave, Hartford, CT 06114",
    "phone": "(860) 965-9938",
    "rating": 4.0,
    "reviews": 25,
    "website": "https://laparkan.com/",
    "category": "American-Indian-owned Shipping services in Connecticut",
    "description": "An agent for Laparkan, providing shipping services",
    "hours": "Mon-Fri 9AM-6PM",
    "services": [
      "American-Indian-owned Shipping services in Connecticut consultation",
      "Professional service",
      "Quality guarantee"
    ],
    "social_links": {}
  },
  {
    "name": "AIT Worldwide Logistics - Hartford",
    "address": "Not specified for a physical office in Hartford, but offers services in the area",
    "phone": "",
    "rating": 4.0,
    "reviews": 25,
    "website": "https://www.aitworldwide.com/locations/hartford/",
    "category": "American-Indian-owned Shipping services in Connecticut",
    "description": "Provides regional and global freight forwarding and logistics solutions",
    "hours": "Mon-Fri 9AM-6PM",
    "services": [
      "American-Indian-owned Shipping services in Connecticut consultation",
      "Professional service",
      "Quality guarantee"
    ],
    "social_links": {}
  },
  {
    "name": "AIT Worldwide Logistics - New Haven",
    "address": "Not specified for a physical office in New Haven, but offers services in the area",
    "phone": "",
    "rating": 4.0,
    "reviews": 25,
    "website": "https://www.aitworldwide.com/locations/new-haven/",
    "category": "American-Indian-owned Shipping services in Connecticut",
    "description": "Offers comprehensive air, ground, sea, and intermodal door-to-door services",
    "hours": "Mon-Fri 9AM-6PM",
    "services": [
      "American-Indian-owned Shipping services in Connecticut consultation",
      "Professional service",
      "Quality guarantee"
    ],
    "social_links": {}
  },
  {
    "name": "Moran Shipping - New Haven",
    "address": "900 Grand Avenue, Unit B, New Haven, CT 06511",
    "phone": "203-933-7855",
    "rating": 4.0,
    "reviews": 25,
    "website": "https://www.moranshipping.com/offices/new-haven-ct/",
    "category": "American-Indian-owned Shipping services in Connecticut",
    "description": "Provides a range of shipping and port services",
    "hours": "Mon-Fri 9AM-6PM",
    "services": [
      "American-Indian-owned Shipping services in Connecticut consultation",
      "Professional service",
      "Quality guarantee"
    ],
    "social_links": {}
  },
  {
    "name": "CJP Logistics LLC",
    "address": "Danielson, Connecticut 06239, US",
    "phone": "",
    "rating": 4.0,
    "reviews": 25,
    "website": "https://cjplogistics.net/",
    "category": "American-Indian-owned Shipping services in Connecticut",
    "description": "Specializes in global transportation and logistics services, including equipment and container transport. It is noted as a Disabled Veteran Owned enterprise",
    "hours": "Mon-Fri 9AM-6PM",
    "services": [
      "American-Indian-owned Shipping services in Connecticut consultation",
      "Professional service",
      "Quality guarantee"
    ],
    "social_links": {}
  }
]