[
  {
    "name": "Artisan Dental",
    "address": "9241 Old Keene Mill Rd, Burke, VA 22015",
    "phone": "(703) 455-7770",
    "rating": 5.0,
    "reviews": 25,
    "website": "https://www.google.com/maps/search/Artisan+Dental+in+Virginia",
    "category": "Arabic-speaking Dental insurance in Virginia",
    "description": "This practice has a dentist who speaks English and Arabic and offers a range of dental services",
    "hours": "Mon-Fri 9AM-6PM",
    "services": [
      "Arabic-speaking Dental insurance in Virginia consultation",
      "Professional service",
      "Quality guarantee"
    ],
    "social_links": {}
  },
  {
    "name": "Tysons Dental Associates",
    "address": "Vienna, Virginia (specific street address not provided in search results, but serves Northern Virginia, Maryland, and Washington D.C.)",
    "phone": "(703) 848-8906",
    "rating": 4.0,
    "reviews": 25,
    "website": "https://www.google.com/maps/search/Tysons+Dental+Associates+in+Virginia",
    "category": "Arabic-speaking Dental insurance in Virginia",
    "description": "This multilingual cosmetic dentistry practice has dentists who speak English, Spanish, Russian, French, and Arabic",
    "hours": "Mon-Fri 9AM-6PM",
    "services": [
      "Arabic-speaking Dental insurance in Virginia consultation",
      "Professional service",
      "Quality guarantee"
    ],
    "social_links": {}
  },
  {
    "name": "Ashburn Dental Care",
    "address": "Ashburn, Virginia (specific street address not provided in search results)",
    "phone": "703-858-1904",
    "rating": 4.0,
    "reviews": 25,
    "website": "https://www.google.com/maps/search/Ashburn+Dental+Care+in+Virginia",
    "category": "Arabic-speaking Dental insurance in Virginia",
    "description": "Their team includes members who speak English, Arabic, Persian, Hindi, Urdu, and Spanish, and they offer dental care services",
    "hours": "Mon-Fri 9AM-6PM",
    "services": [
      "Arabic-speaking Dental insurance in Virginia consultation",
      "Professional service",
      "Quality guarantee"
    ],
    "social_links": {}
  },
  {
    "name": "Smileville Family Dental",
    "address": "Sterling, Virginia (specific street address not provided in search results)",
    "phone": "703-665-3810",
    "rating": 4.0,
    "reviews": 25,
    "website": "https://www.google.com/maps/search/Smileville+Family+Dental+in+Virginia",
    "category": "Arabic-speaking Dental insurance in Virginia",
    "description": "This family-focused dental practice has a team that speaks various languages, including Arabic, to provide personalized care",
    "hours": "Mon-Fri 9AM-6PM",
    "services": [
      "Arabic-speaking Dental insurance in Virginia consultation",
      "Professional service",
      "Quality guarantee"
    ],
    "social_links": {}
  },
  {
    "name": "Hasan S. Osseiran, DDS",
    "address": "8150 Leesburg Pike Ste 900, Vienna, VA 22182",
    "phone": "(703) 288-7400",
    "rating": 4.0,
    "reviews": 25,
    "website": "https://www.google.com/maps/search/Hasan+S.+Osseiran,+DDS+in+Virginia",
    "category": "Arabic-speaking Dental insurance in Virginia",
    "description": "This general dentistry practice accepts new patients and has Arabic as an additional spoken language",
    "hours": "Mon-Fri 9AM-6PM",
    "services": [
      "Arabic-speaking Dental insurance in Virginia consultation",
      "Professional service",
      "Quality guarantee"
    ],
    "social_links": {}
  },
  {
    "name": "NaLa Smiles (Dr. Hisham Barakat)",
    "address": "901 N Washington Street, Suite 202, Alexandria, VA",
    "phone": "(703) 706-9564",
    "rating": 4.0,
    "reviews": 25,
    "website": "https://www.google.com/maps/search/NaLa+Smiles+(Dr.+Hisham+Barakat)+in+Virginia",
    "category": "Arabic-speaking Dental insurance in Virginia",
    "description": "Dr. Hisham Barakat is a highly certified implant dentist. The practice's website indicates they serve Alexandria, VA",
    "hours": "Mon-Fri 9AM-6PM",
    "services": [
      "Arabic-speaking Dental insurance in Virginia consultation",
      "Professional service",
      "Quality guarantee"
    ],
    "social_links": {}
  },
  {
    "name": "Smile Studio Dental (Dr. Eli Janabi)",
    "address": "7787 Leesburg Pike #200, Falls Church, VA 22043",
    "phone": "703-982-2222",
    "rating": 4.0,
    "reviews": 25,
    "website": "https://www.google.com/maps/search/Smile+Studio+Dental+(Dr.+Eli+Janabi)+in+Virginia",
    "category": "Arabic-speaking Dental insurance in Virginia",
    "description": "This dental practice offers a full range of services and has staff who speak Arabic, Farsi, French, Italian, Hebrew, and Spanish",
    "hours": "Mon-Fri 9AM-6PM",
    "services": [
      "Arabic-speaking Dental insurance in Virginia consultation",
      "Professional service",
      "Quality guarantee"
    ],
    "social_links": {}
  },
  {
    "name": "Dr. Ghada Hamid",
    "address": "Springfield, VA (specific street address not provided in search results, but practice is in Springfield, VA)",
    "phone": "",
    "rating": 4.0,
    "reviews": 25,
    "website": "https://www.google.com/maps/search/Dr.+Ghada+Hamid+in+Virginia",
    "category": "Arabic-speaking Dental insurance in Virginia",
    "description": "Dr. Ghada Hamid speaks English, Arabic, and Spanish and offers a wide range of dental services",
    "hours": "Mon-Fri 9AM-6PM",
    "services": [
      "Arabic-speaking Dental insurance in Virginia consultation",
      "Professional service",
      "Quality guarantee"
    ],
    "social_links": {}
  },
  {
    "name": "Dr. Arwa Abualsoud, DMD",
    "address": "3904 Hull Street Rd Ste A, Richmond, VA 23224",
    "phone": "",
    "rating": 4.0,
    "reviews": 25,
    "website": "https://www.google.com/maps/search/Dr.+Arwa+Abualsoud,+DMD+in+Virginia",
    "category": "Arabic-speaking Dental insurance in Virginia",
    "description": "Dr. Arwa Abualsoud, DMD practices dentistry in Richmond, VA, and speaks English and Arabic",
    "hours": "Mon-Fri 9AM-6PM",
    "services": [
      "Arabic-speaking Dental insurance in Virginia consultation",
      "Professional service",
      "Quality guarantee"
    ],
    "social_links": {}
  },
  {
    "name": "Purcellville Dental Care (Talib S Ali, DDS)",
    "address": "921 E Main St Ste C, Purcellville, VA 20132",
    "phone": "540-441-3861",
    "rating": 4.0,
    "reviews": 25,
    "website": "https://www.google.com/maps/search/Purcellville+Dental+Care+(Talib+S+Ali,+DDS)+in+Virginia",
    "category": "Arabic-speaking Dental insurance in Virginia",
    "description": "Dr. Talib S Ali speaks Arabic, Russian, and Spanish and is accepting new patients",
    "hours": "Mon-Fri 9AM-6PM",
    "services": [
      "Arabic-speaking Dental insurance in Virginia consultation",
      "Professional service",
      "Quality guarantee"
    ],
    "social_links": {}
  }
]