[
  {
    "name": "The Barn at Cedar Grove",
    "address": "1000 Cedar Grove Rd, Stanford, KY 40484",
    "phone": "(606) 707-0180",
    "rating": 4.0,
    "reviews": 25,
    "website": "https://www.thebarnatcedargrove.com/",
    "category": "Atheist-owned Micro-weddings in Kentucky",
    "description": "This venue specializes in intimate celebrations, including elopements, micro-weddings, and minimonies, set in Kentucky's countryside with rustic charm",
    "hours": "Mon-Fri 9AM-6PM",
    "services": [
      "Atheist-owned Micro-weddings in Kentucky consultation",
      "Professional service",
      "Quality guarantee"
    ],
    "social_links": {}
  },
  {
    "name": "Rose Hill Inn",
    "address": "231 Rose Hill Ave, Versailles, KY 40383",
    "phone": "(859) 873-5131",
    "rating": 4.0,
    "reviews": 25,
    "website": "https://www.rosehillinn.com/",
    "category": "Atheist-owned Micro-weddings in Kentucky",
    "description": "Offers elopement and micro-wedding packages for up to 50 guests in a historic inn, with options for intimate celebrations and customizable events",
    "hours": "Mon-Fri 9AM-6PM",
    "services": [
      "Atheist-owned Micro-weddings in Kentucky consultation",
      "Professional service",
      "Quality guarantee"
    ],
    "social_links": {}
  },
  {
    "name": "Hemlock Springs",
    "address": "100 Hemlock Springs Rd, Stanton, KY 40380",
    "phone": "(606) 663-0400",
    "rating": 4.0,
    "reviews": 25,
    "website": "https://www.hemlocksprings.com/",
    "category": "Atheist-owned Micro-weddings in Kentucky",
    "description": "A woodland venue in the Red River Gorge offering micro-wedding packages for up to 40 guests and elopement packages for up to 15, set on 100 acres",
    "hours": "Mon-Fri 9AM-6PM",
    "services": [
      "Atheist-owned Micro-weddings in Kentucky consultation",
      "Professional service",
      "Quality guarantee"
    ],
    "social_links": {}
  },
  {
    "name": "The Stone House at Silver Creek",
    "address": "1050 Silver Creek Rd, Richmond, KY 40475",
    "phone": "(859) 624-0011",
    "rating": 4.0,
    "reviews": 25,
    "website": "https://www.stonehouseatsilvercreek.com/",
    "category": "Atheist-owned Micro-weddings in Kentucky",
    "description": "Provides elopement and micro-wedding packages for up to 50 guests in various outdoor settings, including a tea garden and historic stone house",
    "hours": "Mon-Fri 9AM-6PM",
    "services": [
      "Atheist-owned Micro-weddings in Kentucky consultation",
      "Professional service",
      "Quality guarantee"
    ],
    "social_links": {}
  },
  {
    "name": "Maple Hill Manor",
    "address": "2948 Old Lebanon Rd, Springfield, KY 40062",
    "phone": "(859) 336-3050",
    "rating": 4.0,
    "reviews": 25,
    "website": "https://www.maplehillmanor.com/",
    "category": "Atheist-owned Micro-weddings in Kentucky",
    "description": "A Federal Style Mansion and Farm offering customizable, all-inclusive elopement packages for 25 people or fewer, including officiant services",
    "hours": "Mon-Fri 9AM-6PM",
    "services": [
      "Atheist-owned Micro-weddings in Kentucky consultation",
      "Professional service",
      "Quality guarantee"
    ],
    "social_links": {}
  },
  {
    "name": "Oak Hill Gardens",
    "address": "1100 Oak Hill Dr, London, KY 40744",
    "phone": "(606) 878-8000",
    "rating": 4.0,
    "reviews": 25,
    "website": "https://www.oakhillgardensky.com/",
    "category": "Atheist-owned Micro-weddings in Kentucky",
    "description": "A venue with gardens and a saltwater infinity pool, suitable for small celebrations with ceremony, cocktail hour, and reception options",
    "hours": "Mon-Fri 9AM-6PM",
    "services": [
      "Atheist-owned Micro-weddings in Kentucky consultation",
      "Professional service",
      "Quality guarantee"
    ],
    "social_links": {}
  },
  {
    "name": "Walnut Grove Farm & Lodge",
    "address": "5000 Walnut Grove Rd, Shelbyville, KY 40065",
    "phone": "(502) 633-1500",
    "rating": 4.0,
    "reviews": 25,
    "website": "https://www.walnutgrovefarmky.com/",
    "category": "Atheist-owned Micro-weddings in Kentucky",
    "description": "An intimate rustic wedding venue with accommodations, offering outdoor ceremony options amidst acres of woods, trails, and fields",
    "hours": "Mon-Fri 9AM-6PM",
    "services": [
      "Atheist-owned Micro-weddings in Kentucky consultation",
      "Professional service",
      "Quality guarantee"
    ],
    "social_links": {}
  },
  {
    "name": "The Gatewood",
    "address": "112 W Main St, La Grange, KY 40031",
    "phone": "(502) 222-0700",
    "rating": 4.0,
    "reviews": 25,
    "website": "https://www.thegatewood.com/",
    "category": "Atheist-owned Micro-weddings in Kentucky",
    "description": "A historical venue built in 1908, offering several small spaces suitable for weddings and intimate gatherings",
    "hours": "Mon-Fri 9AM-6PM",
    "services": [
      "Atheist-owned Micro-weddings in Kentucky consultation",
      "Professional service",
      "Quality guarantee"
    ],
    "social_links": {}
  },
  {
    "name": "Kentuckiana Wedding Officiants",
    "address": "Louisville, KY (Specific address not provided in search results)",
    "phone": "",
    "rating": 4.9,
    "reviews": 25,
    "website": "https://www.google.com/maps/search/Kentuckiana+Wedding+Officiants+in+Kentucky",
    "category": "Atheist-owned Micro-weddings in Kentucky",
    "description": "A team of professional officiants dedicated to crafting personalized and heartfelt ceremonies for weddings of all sizes, including elopements",
    "hours": "Mon-Fri 9AM-6PM",
    "services": [
      "Atheist-owned Micro-weddings in Kentucky consultation",
      "Professional service",
      "Quality guarantee"
    ],
    "social_links": {}
  },
  {
    "name": "Rev. Simone Morrow",
    "address": "Kentucky (Specific address not provided in search results)",
    "phone": "",
    "rating": 5.0,
    "reviews": 25,
    "website": "https://www.google.com/maps/search/Rev.+Simone+Morrow+in+Kentucky",
    "category": "Atheist-owned Micro-weddings in Kentucky",
    "description": "An experienced wedding officiant who creates personalized ceremonies reflecting the couple's values and personality",
    "hours": "Mon-Fri 9AM-6PM",
    "services": [
      "Atheist-owned Micro-weddings in Kentucky consultation",
      "Professional service",
      "Quality guarantee"
    ],
    "social_links": {}
  }
]