[
  {
    "name": "Southern Regional Medical Center - Respiratory Care",
    "address": "11\u05d9\u05dc\u05d5 Parkway, Riverdale, GA 30296",
    "phone": "770-991-8558",
    "rating": 4.0,
    "reviews": 25,
    "website": "https://www.southernregional.org/services/respiratory-care/",
    "category": "Asian-owned Respiratory therapy in Georgia",
    "description": "Provides respiratory care services to all hospital departments, focusing on patients with cardiac and pulmonary disorders",
    "hours": "Mon-Fri 9AM-6PM",
    "services": [
      "Asian-owned Respiratory therapy in Georgia consultation",
      "Professional service",
      "Quality guarantee"
    ],
    "social_links": {}
  },
  {
    "name": "Stephens County Hospital - Respiratory Therapy Services",
    "address": "163 Hospital Drive, Toccoa, Georgia 30577",
    "phone": "(706) 282-4200",
    "rating": 4.0,
    "reviews": 25,
    "website": "https://stephenscountry.org/respiratory-therapy-services/",
    "category": "Asian-owned Respiratory therapy in Georgia",
    "description": "Offers evaluations and management for a variety of pulmonary symptoms and chronic health conditions",
    "hours": "Mon-Fri 9AM-6PM",
    "services": [
      "Asian-owned Respiratory therapy in Georgia consultation",
      "Professional service",
      "Quality guarantee"
    ],
    "social_links": {}
  },
  {
    "name": "Colquitt Regional Health System - Respiratory Care",
    "address": "3131 S Main St, Moultrie, GA 31768",
    "phone": "229-985-3420",
    "rating": 4.0,
    "reviews": 25,
    "website": "https://www.colquittregional.com/services/respiratory-care/",
    "category": "Asian-owned Respiratory therapy in Georgia",
    "description": "Diagnoses and treats a wide range of heart and lung conditions using advanced testing and therapeutic approaches",
    "hours": "Mon-Fri 9AM-6PM",
    "services": [
      "Asian-owned Respiratory therapy in Georgia consultation",
      "Professional service",
      "Quality guarantee"
    ],
    "social_links": {}
  },
  {
    "name": "Piedmont Atlanta Hospital Pulmonary Rehabilitation",
    "address": "1968 Peachtree Rd NW, Building 77, 6th floor, Atlanta, GA 30309",
    "phone": "404-605-2994",
    "rating": 4.0,
    "reviews": 25,
    "website": "https://www.piedmont.org/services/pulmonary-rehabilitation",
    "category": "Asian-owned Respiratory therapy in Georgia",
    "description": "An individualized supervised program for patients with lung problems, including education, exercise, and support",
    "hours": "Mon-Fri 9AM-6PM",
    "services": [
      "Asian-owned Respiratory therapy in Georgia consultation",
      "Professional service",
      "Quality guarantee"
    ],
    "social_links": {}
  },
  {
    "name": "Southeastern Lung Care & The Sleep Disorders Centers",
    "address": "1462 Montreal Rd. Suite 201, Tucker, Ga. 30084",
    "phone": "",
    "rating": 4.0,
    "reviews": 25,
    "website": "https://www.southeasternlungcare.com/",
    "category": "Asian-owned Respiratory therapy in Georgia",
    "description": "Diagnoses and treats pulmonary and sleep disorders, with accredited sleep centers and a Sleep Education & PAP Clinic",
    "hours": "Mon-Fri 9AM-6PM",
    "services": [
      "Asian-owned Respiratory therapy in Georgia consultation",
      "Professional service",
      "Quality guarantee"
    ],
    "social_links": {}
  },
  {
    "name": "A New Well, Inc. - Respiratory Therapy",
    "address": "325 Country Club Dr. Stockbridge, GA 30281 (Corporate Office)",
    "phone": "800-341-0120",
    "rating": 4.0,
    "reviews": 25,
    "website": "https://anewwellinc.com/respiratory-therapy/",
    "category": "Asian-owned Respiratory therapy in Georgia",
    "description": "Provides home-based respiratory care, including nebulizers, CPAP/BiPAP equipment, and training for tracheotomy care",
    "hours": "Mon-Fri 9AM-6PM",
    "services": [
      "Asian-owned Respiratory therapy in Georgia consultation",
      "Professional service",
      "Quality guarantee"
    ],
    "social_links": {}
  },
  {
    "name": "Aveanna Healthcare | Medical Solutions - Respiratory Therapy",
    "address": "400 Interstate North Parkway, SE Suite 1600, Atlanta, GA 30339",
    "phone": "866-883-1188",
    "rating": 4.0,
    "reviews": 25,
    "website": "https://www.aveanna.com/medical-solutions/respiratory-therapy/",
    "category": "Asian-owned Respiratory therapy in Georgia",
    "description": "Offers a comprehensive respiratory program with equipment, supplies, and training for home use, with bilingual staff available",
    "hours": "Mon-Fri 9AM-6PM",
    "services": [
      "Asian-owned Respiratory therapy in Georgia consultation",
      "Professional service",
      "Quality guarantee"
    ],
    "social_links": {}
  },
  {
    "name": "Barnes Healthcare Services - Ventilation and Respiratory Therapy",
    "address": "PO Box 1187, Valdosta, GA 31603",
    "phone": "800-422-5059",
    "rating": 4.0,
    "reviews": 25,
    "website": "https://www.barneshealthcare.com/services/ventilation-and-respiratory-therapy/",
    "category": "Asian-owned Respiratory therapy in Georgia",
    "description": "Provides oxygen therapy, sleep therapy, and ventilation support with trained staff for education and setup",
    "hours": "Mon-Fri 9AM-6PM",
    "services": [
      "Asian-owned Respiratory therapy in Georgia consultation",
      "Professional service",
      "Quality guarantee"
    ],
    "social_links": {}
  },
  {
    "name": "Total Respiratory - Waycross, GA",
    "address": "1701 Boulevard Square Suite C, Waycross, GA 61501",
    "phone": "912-590-6546",
    "rating": 4.0,
    "reviews": 25,
    "website": "https://www.totalrespiratory.com/locations/waycross-ga/",
    "category": "Asian-owned Respiratory therapy in Georgia",
    "description": "Local offices staffed by experienced respiratory therapists offering expertise and personal care",
    "hours": "Mon-Fri 9AM-6PM",
    "services": [
      "Asian-owned Respiratory therapy in Georgia consultation",
      "Professional service",
      "Quality guarantee"
    ],
    "social_links": {}
  },
  {
    "name": "Respiratory Consultants of Georgia",
    "address": "Cartersville and Calhoun, GA locations. Specific addresses not detailed in search",
    "phone": "678-721-0705",
    "rating": 4.0,
    "reviews": 25,
    "website": "https://www.breathingbetter.com/",
    "category": "Asian-owned Respiratory therapy in Georgia",
    "description": "Focuses on building lasting relationships between patient and doctor for respiratory care, offering office and telemedicine appointments",
    "hours": "Mon-Fri 9AM-6PM",
    "services": [
      "Asian-owned Respiratory therapy in Georgia consultation",
      "Professional service",
      "Quality guarantee"
    ],
    "social_links": {}
  }
]