[
  {
    "name": "Elements Massage - Denver West",
    "address": "14015 W. Colfax Ave., Suite 100, Lakewood, CO 80401",
    "phone": "(303) 351-3333",
    "rating": 4.8,
    "reviews": 25,
    "website": "https://www.elementsmassage.com/denver-west/",
    "category": "Agnostic-owned Swedish massage in Colorado",
    "description": "Offers Swedish massage as a traditional modality focused on relaxation and therapeutic benefits like relieving muscle tension and increasing blood flow",
    "hours": "Mon-Fri 9AM-6PM",
    "services": [
      "Agnostic-owned Swedish massage in Colorado consultation",
      "Professional service",
      "Quality guarantee"
    ],
    "social_links": {}
  },
  {
    "name": "Massage Heights Briargate",
    "address": "1841 Briargate Pkwy, Colorado Springs, CO 80920",
    "phone": "(719) 259-3092",
    "rating": 4.7,
    "reviews": 25,
    "website": "https://www.massageheights.com/locations/briargate/",
    "category": "Agnostic-owned Swedish massage in Colorado",
    "description": "Provides a serene Swedish massage experience designed to soothe the mind and cater to specific body needs, offering therapeutic benefits for relaxation and circulation",
    "hours": "Mon-Fri 9AM-6PM",
    "services": [
      "Agnostic-owned Swedish massage in Colorado consultation",
      "Professional service",
      "Quality guarantee"
    ],
    "social_links": {}
  },
  {
    "name": "Elements Massage - Boulder",
    "address": "1750 15th St, Boulder, CO 80302",
    "phone": "(303) 449-9990",
    "rating": 4.8,
    "reviews": 25,
    "website": "https://www.elementsmassage.com/boulder/",
    "category": "Agnostic-owned Swedish massage in Colorado",
    "description": "Offers Swedish massage with a focus on therapeutic and relaxing outcomes, customizing sessions to client needs and blending modalities",
    "hours": "Mon-Fri 9AM-6PM",
    "services": [
      "Agnostic-owned Swedish massage in Colorado consultation",
      "Professional service",
      "Quality guarantee"
    ],
    "social_links": {}
  },
  {
    "name": "Denver Sports Medicine",
    "address": "13655 W Jewell Ave #201, Lakewood, CO 80228",
    "phone": "(720) 440-3979",
    "rating": 4.7,
    "reviews": 25,
    "website": "https://denversportsmedicine.com/",
    "category": "Agnostic-owned Swedish massage in Colorado",
    "description": "Offers Swedish massage therapy, known for its relaxation and physiological benefits such as decreasing stress hormones and improving circulation",
    "hours": "Mon-Fri 9AM-6PM",
    "services": [
      "Agnostic-owned Swedish massage in Colorado consultation",
      "Professional service",
      "Quality guarantee"
    ],
    "social_links": {}
  },
  {
    "name": "LaVida Massage of Fort Collins",
    "address": "100 W Olive St, Fort Collins, CO 80524",
    "phone": "(970) 221-1111",
    "rating": 4.6,
    "reviews": 25,
    "website": "https://www.lavidasalons.com/locations/fort-collins-co/",
    "category": "Agnostic-owned Swedish massage in Colorado",
    "description": "Provides relaxation/Swedish massage, described as the best-known form of massage, perfect for relaxation and stress relief through gentle pressure and muscle manipulation",
    "hours": "Mon-Fri 9AM-6PM",
    "services": [
      "Agnostic-owned Swedish massage in Colorado consultation",
      "Professional service",
      "Quality guarantee"
    ],
    "social_links": {}
  },
  {
    "name": "Massage Only Therapy",
    "address": "7300 W 56th Ave, Arvada, CO 80002",
    "phone": "(720) 515-7758",
    "rating": 5.0,
    "reviews": 25,
    "website": "https://www.massageonlytherapy.com/",
    "category": "Agnostic-owned Swedish massage in Colorado",
    "description": "Specializes in therapeutic massage, including Swedish massage, to relieve pain and tension with a holistic approach",
    "hours": "Mon-Fri 9AM-6PM",
    "services": [
      "Agnostic-owned Swedish massage in Colorado consultation",
      "Professional service",
      "Quality guarantee"
    ],
    "social_links": {}
  },
  {
    "name": "Yew Massage",
    "address": "14000 W 88th Ave, Thornton, CO 80023",
    "phone": "(720) 583-4462",
    "rating": 5.0,
    "reviews": 25,
    "website": "https://www.yewmassage.com/",
    "category": "Agnostic-owned Swedish massage in Colorado",
    "description": "Offers Swedish massage with a holistic approach, focusing on relaxation and stress relief in a calming environment",
    "hours": "Mon-Fri 9AM-6PM",
    "services": [
      "Agnostic-owned Swedish massage in Colorado consultation",
      "Professional service",
      "Quality guarantee"
    ],
    "social_links": {}
  },
  {
    "name": "Elements Massage - Arvada",
    "address": "7400 W 88th Ave, Arvada, CO 80005",
    "phone": "(303) 457-0500",
    "rating": 4.8,
    "reviews": 25,
    "website": "https://www.elementsmassage.com/arvada/",
    "category": "Agnostic-owned Swedish massage in Colorado",
    "description": "Provides Swedish massage sessions aimed at achieving therapeutic and relaxing objectives, with customizable options",
    "hours": "Mon-Fri 9AM-6PM",
    "services": [
      "Agnostic-owned Swedish massage in Colorado consultation",
      "Professional service",
      "Quality guarantee"
    ],
    "social_links": {}
  },
  {
    "name": "Denver South Chiropractic & Rehab",
    "address": "1780 S Bellaire St Suite 120, Denver, CO 80222",
    "phone": "(303) 757-7070",
    "rating": 4.7,
    "reviews": 25,
    "website": "https://denversouthchiro.com/massage-therapy/",
    "category": "Agnostic-owned Swedish massage in Colorado",
    "description": "Offers Swedish massage for relaxation and stress relief, with therapists trained to provide soothing treatments that improve blood flow and ease muscle soreness",
    "hours": "Mon-Fri 9AM-6PM",
    "services": [
      "Agnostic-owned Swedish massage in Colorado consultation",
      "Professional service",
      "Quality guarantee"
    ],
    "social_links": {}
  },
  {
    "name": "Saunders Massage Therapy",
    "address": "2480 S Downing St #206, Denver, CO 80210",
    "phone": "(720) 327-0110",
    "rating": 4.9,
    "reviews": 25,
    "website": "https://www.saundersmassagetherapy.com/",
    "category": "Agnostic-owned Swedish massage in Colorado",
    "description": "Provides Swedish massage, described as gentler than deep tissue, and well-suited for relaxation and tension relief",
    "hours": "Mon-Fri 9AM-6PM",
    "services": [
      "Agnostic-owned Swedish massage in Colorado consultation",
      "Professional service",
      "Quality guarantee"
    ],
    "social_links": {}
  }
]