[
  {
    "name": "Abney Law PLLC",
    "address": "101 E. Main Street, Suite 1400, Louisville, KY 40202",
    "phone": "(502) 584-5100",
    "rating": 4.0,
    "reviews": 25,
    "website": "https://www.abneylaw.com/",
    "category": "Agnostic-owned Legal representation in Kentucky",
    "description": "Focuses on protecting religious freedoms and handling religious discrimination cases in the workplace",
    "hours": "Mon-Fri 9AM-6PM",
    "services": [
      "Agnostic-owned Legal representation in Kentucky consultation",
      "Professional service",
      "Quality guarantee"
    ],
    "social_links": {}
  },
  {
    "name": "Robert Abell Law Office",
    "address": "120 N Upper St, Lexington, KY 40507",
    "phone": "(859) 254-7076",
    "rating": 4.0,
    "reviews": 25,
    "website": "https://www.robertabelllaw.com/",
    "category": "Agnostic-owned Legal representation in Kentucky",
    "description": "Handles employment discrimination cases, including sex, race, and age discrimination, as well as personal injury and complex civil cases",
    "hours": "Mon-Fri 9AM-6PM",
    "services": [
      "Agnostic-owned Legal representation in Kentucky consultation",
      "Professional service",
      "Quality guarantee"
    ],
    "social_links": {}
  },
  {
    "name": "Sanford Heisler Sharp McKnight, LLP",
    "address": "310 W. Liberty Street, Suite 500, Louisville, KY 40202",
    "phone": "(502) 553-0550",
    "rating": 4.0,
    "reviews": 25,
    "website": "https://www.sanfordheisler.com/",
    "category": "Agnostic-owned Legal representation in Kentucky",
    "description": "A national law firm advocating for victims of all types of discrimination",
    "hours": "Mon-Fri 9AM-6PM",
    "services": [
      "Agnostic-owned Legal representation in Kentucky consultation",
      "Professional service",
      "Quality guarantee"
    ],
    "social_links": {}
  },
  {
    "name": "Reinhardt & Associates PLC",
    "address": "101 W. Main Street, Suite 1400, Louisville, KY 40202",
    "phone": "(502) 583-1000",
    "rating": 4.0,
    "reviews": 25,
    "website": "https://www.reinhardtlaw.com/",
    "category": "Agnostic-owned Legal representation in Kentucky",
    "description": "Represents individuals in Lexington, Kentucky with religious discrimination issues",
    "hours": "Mon-Fri 9AM-6PM",
    "services": [
      "Agnostic-owned Legal representation in Kentucky consultation",
      "Professional service",
      "Quality guarantee"
    ],
    "social_links": {}
  },
  {
    "name": "Spitz, The Employee's Law Firm",
    "address": "101 W. Main Street, Suite 1400, Louisville, KY 40202",
    "phone": "(502) 584-0000",
    "rating": 4.0,
    "reviews": 25,
    "website": "https://www.employee-lawyer.com/",
    "category": "Agnostic-owned Legal representation in Kentucky",
    "description": "Has experience helping clients with religious discrimination needs in Lexington, Kentucky",
    "hours": "Mon-Fri 9AM-6PM",
    "services": [
      "Agnostic-owned Legal representation in Kentucky consultation",
      "Professional service",
      "Quality guarantee"
    ],
    "social_links": {}
  },
  {
    "name": "Legal Aid of the Bluegrass",
    "address": "300 East Main Street, Suite 110, Lexington, KY 40507",
    "phone": "(859) 431-8200",
    "rating": 4.0,
    "reviews": 25,
    "website": "https://lablaw.org/",
    "category": "Agnostic-owned Legal representation in Kentucky",
    "description": "Provides free legal assistance to low-income individuals and families in North and Northeastern Kentucky",
    "hours": "Mon-Fri 9AM-6PM",
    "services": [
      "Agnostic-owned Legal representation in Kentucky consultation",
      "Professional service",
      "Quality guarantee"
    ],
    "social_links": {}
  },
  {
    "name": "Legal Aid Society",
    "address": "416 W. Muhammad Ali Boulevard, Suite 300, Louisville, KY 40202",
    "phone": "(502) 584-1254",
    "rating": 4.0,
    "reviews": 25,
    "website": "https://laslou.org/",
    "category": "Agnostic-owned Legal representation in Kentucky",
    "description": "Offers free legal assistance to low-income individuals and families in Jefferson and surrounding counties",
    "hours": "Mon-Fri 9AM-6PM",
    "services": [
      "Agnostic-owned Legal representation in Kentucky consultation",
      "Professional service",
      "Quality guarantee"
    ],
    "social_links": {}
  },
  {
    "name": "AppalReD Legal Aid",
    "address": "120 N. Front Avenue, Prestonsburg, KY 41653",
    "phone": "(866) 277-5733",
    "rating": 4.0,
    "reviews": 25,
    "website": "https://www.appalred.org/",
    "category": "Agnostic-owned Legal representation in Kentucky",
    "description": "Provides free legal assistance to low-income individuals and families in Eastern and Southcentral Kentucky",
    "hours": "Mon-Fri 9AM-6PM",
    "services": [
      "Agnostic-owned Legal representation in Kentucky consultation",
      "Professional service",
      "Quality guarantee"
    ],
    "social_links": {}
  },
  {
    "name": "Kentucky Legal Aid",
    "address": "1700 Destiny Lane, Bowling Green, KY 42104",
    "phone": "(270) 782-1924",
    "rating": 4.0,
    "reviews": 25,
    "website": "https://kylawhelp.org/",
    "category": "Agnostic-owned Legal representation in Kentucky",
    "description": "Offers free legal assistance to low-income individuals and families in Southcentral and Western Kentucky",
    "hours": "Mon-Fri 9AM-6PM",
    "services": [
      "Agnostic-owned Legal representation in Kentucky consultation",
      "Professional service",
      "Quality guarantee"
    ],
    "social_links": {}
  },
  {
    "name": "Cooley & Offill Law Firm",
    "address": "2265 Executive Drive, Lexington, KY 40505",
    "phone": "(859) 488-1545",
    "rating": 4.0,
    "reviews": 25,
    "website": "https://www.cooleyoffill.com/",
    "category": "Agnostic-owned Legal representation in Kentucky",
    "description": "Offers client-focused representation in Owensboro, Louisville, and Lexington, Kentucky, with services including bankruptcy, criminal defense, and personal injury",
    "hours": "Mon-Fri 9AM-6PM",
    "services": [
      "Agnostic-owned Legal representation in Kentucky consultation",
      "Professional service",
      "Quality guarantee"
    ],
    "social_links": {}
  }
]