[
  {
    "name": "Nashville Acting Studio",
    "address": "810 Dominican Drive, Nashville, TN 37228",
    "phone": "(615) 420-0927",
    "rating": 4.8,
    "reviews": 25,
    "website": "https://www.nashvilleactingstudio.com/",
    "category": "Christian-owned Acting instruction in Tennessee",
    "description": "Offers classes for beginners and advanced performers, focusing on scene work, character development, and audition preparation",
    "hours": "Mon-Fri 9AM-6PM",
    "services": [
      "Christian-owned Acting instruction in Tennessee consultation",
      "Professional service",
      "Quality guarantee"
    ],
    "social_links": {}
  },
  {
    "name": "The 4th Wall Acting Studio",
    "address": "1006 17th Ave S, Nashville, TN 37212",
    "phone": "(615) 942-7171",
    "rating": 4.9,
    "reviews": 25,
    "website": "https://www.the4thwallactingstudio.com/",
    "category": "Christian-owned Acting instruction in Tennessee",
    "description": "Known for an immersive approach to actor training, focusing on emotional truth and authenticity for film and television",
    "hours": "Mon-Fri 9AM-6PM",
    "services": [
      "Christian-owned Acting instruction in Tennessee consultation",
      "Professional service",
      "Quality guarantee"
    ],
    "social_links": {}
  },
  {
    "name": "Actors Bridge Ensemble",
    "address": "1719 21st Ave S, Nashville, TN 37212",
    "phone": "(615) 321-3355",
    "rating": 4.7,
    "reviews": 25,
    "website": "https://www.actorsbridge.com/",
    "category": "Christian-owned Acting instruction in Tennessee",
    "description": "A theater company offering a dual-track actor training program focusing on the Meisner technique, improvisation, and scene study",
    "hours": "Mon-Fri 9AM-6PM",
    "services": [
      "Christian-owned Acting instruction in Tennessee consultation",
      "Professional service",
      "Quality guarantee"
    ],
    "social_links": {}
  },
  {
    "name": "Christian Youth Theater (CYT) Nashville",
    "address": "Various locations for classes and performances (check website for current schedule)",
    "phone": "(615) 733-1117",
    "rating": 4.8,
    "reviews": 25,
    "website": "https://www.cyinashville.org/",
    "category": "Christian-owned Acting instruction in Tennessee",
    "description": "An after-school theater arts training program for ages 4-18, focused on developing character and creativity through theater arts, reflecting Christian values",
    "hours": "Mon-Fri 9AM-6PM",
    "services": [
      "Christian-owned Acting instruction in Tennessee consultation",
      "Professional service",
      "Quality guarantee"
    ],
    "social_links": {}
  },
  {
    "name": "Grace Performing Arts Center (GPAC)",
    "address": "1000 N. Broadway, Knoxville, TN 37917",
    "phone": "(865) 525-7711",
    "rating": 4.9,
    "reviews": 25,
    "website": "https://www.gracebaptistknox.com/gpac",
    "category": "Christian-owned Acting instruction in Tennessee",
    "description": "Offers quality instruction in the arts for all ages, with a focus on honoring the Lord and developing artistic skills for God's glory",
    "hours": "Mon-Fri 9AM-6PM",
    "services": [
      "Christian-owned Acting instruction in Tennessee consultation",
      "Professional service",
      "Quality guarantee"
    ],
    "social_links": {}
  },
  {
    "name": "Jackson Christian School - Theatre and Drama Program",
    "address": "203 Jackson St, Jackson, TN 38301",
    "phone": "(731) 424-4506",
    "rating": 4.0,
    "reviews": 25,
    "website": "https://www. \u0a9ccksonchristian.org/theatre",
    "category": "Christian-owned Acting instruction in Tennessee",
    "description": "Open to middle and high school students, focusing on acting, stagecraft, and production in a Christ-centered environment",
    "hours": "Mon-Fri 9AM-6PM",
    "services": [
      "Christian-owned Acting instruction in Tennessee consultation",
      "Professional service",
      "Quality guarantee"
    ],
    "social_links": {}
  },
  {
    "name": "Trinity Christian Academy - Theatre",
    "address": "5177 W. Main St., Jackson, TN 38301",
    "phone": "(731) 664-5250",
    "rating": 4.0,
    "reviews": 25,
    "website": "https://www.trinityknights.org/theatre",
    "category": "Christian-owned Acting instruction in Tennessee",
    "description": "Equips students to honor God through theatre productions, focusing on Biblical worldview and performance skills",
    "hours": "Mon-Fri 9AM-6PM",
    "services": [
      "Christian-owned Acting instruction in Tennessee consultation",
      "Professional service",
      "Quality guarantee"
    ],
    "social_links": {}
  },
  {
    "name": "Providence Christian Academy - Theater",
    "address": "375 Old Murfreesboro Rd, Murfreesboro, TN 37130",
    "phone": "(615) 904-0902",
    "rating": 4.0,
    "reviews": 25,
    "website": "https://www.providenceca.org/arts/theater",
    "category": "Christian-owned Acting instruction in Tennessee",
    "description": "Dedicated to glorifying God through the dramatic arts, fostering teamwork, creativity, and an appreciation for storytelling",
    "hours": "Mon-Fri 9AM-6PM",
    "services": [
      "Christian-owned Acting instruction in Tennessee consultation",
      "Professional service",
      "Quality guarantee"
    ],
    "social_links": {}
  },
  {
    "name": "Adonai Arts Academy",
    "address": "Multiple locations including Nashville, Mt. Juliet, and Lebanon, TN. (Check website for specific class locations)",
    "phone": "(615) 904-0902 (Main Office)",
    "rating": 4.0,
    "reviews": 25,
    "website": "https://www.adonaiarts.org/",
    "category": "Christian-owned Acting instruction in Tennessee",
    "description": "Inspires creativity and confidence through high-quality instruction in art, music, dance, and theatre, rooted in values of excellence, character, and purpose to glorify God",
    "hours": "Mon-Fri 9AM-6PM",
    "services": [
      "Christian-owned Acting instruction in Tennessee consultation",
      "Professional service",
      "Quality guarantee"
    ],
    "social_links": {}
  },
  {
    "name": "Clarksville Christian School - Creative Arts Theatre",
    "address": "505 Highway 76, Clarksville, TN 37043",
    "phone": "(931) 647-8180",
    "rating": 4.0,
    "reviews": 25,
    "website": "https://www.clarksvillechristianschool.org/creative-arts",
    "category": "Christian-owned Acting instruction in Tennessee",
    "description": "Offers a drama program for students to explore theater, develop acting skills, and put on theatrical productions, emphasizing teamwork and self-expression",
    "hours": "Mon-Fri 9AM-6PM",
    "services": [
      "Christian-owned Acting instruction in Tennessee consultation",
      "Professional service",
      "Quality guarantee"
    ],
    "social_links": {}
  }
]