[
  {
    "name": "A. Santiago Consulting, Inc.",
    "address": "(Not specified in search results, but operates in Georgia)",
    "phone": "470-543-9592",
    "rating": 4.0,
    "reviews": 25,
    "website": "http://asantiagoconsulting.com",
    "category": "LGBT-owned Vendor negotiation in Georgia",
    "description": "Dedicated to helping LGBTQ+ individuals interested in starting their own business. This could potentially extend to business strategy and negotiation",
    "hours": "Mon-Fri 9AM-6PM",
    "services": [
      "LGBT-owned Vendor negotiation in Georgia consultation",
      "Professional service",
      "Quality guarantee"
    ],
    "social_links": {}
  },
  {
    "name": "OUT Georgia Business Alliance",
    "address": "(Not specified in search results, but serves Georgia)",
    "phone": "(404) 325-4600",
    "rating": 4.0,
    "reviews": 25,
    "website": "https://www.outgeorgia.org/",
    "category": "LGBT-owned Vendor negotiation in Georgia",
    "description": "An organization committed to developing programming that serves a diverse membership of students, professionals, business owners, and corporate partners, which may include resources or referrals for negotiation services",
    "hours": "Mon-Fri 9AM-6PM",
    "services": [
      "LGBT-owned Vendor negotiation in Georgia consultation",
      "Professional service",
      "Quality guarantee"
    ],
    "social_links": {}
  },
  {
    "name": "Baker Jenner",
    "address": "(Not specified in search results, but operates in Georgia)",
    "phone": "",
    "rating": 4.0,
    "reviews": 25,
    "website": "https://www.google.com/maps/search/Baker+Jenner+in+Georgia",
    "category": "LGBT-owned Vendor negotiation in Georgia",
    "description": "A business solutions law firm. Legal firms often handle contract negotiation",
    "hours": "Mon-Fri 9AM-6PM",
    "services": [
      "LGBT-owned Vendor negotiation in Georgia consultation",
      "Professional service",
      "Quality guarantee"
    ],
    "social_links": {}
  },
  {
    "name": "Cybernetixs Inc.",
    "address": "(Not specified in search results, but operates in Georgia)",
    "phone": "404-699-2005",
    "rating": 4.0,
    "reviews": 25,
    "website": "http://www.cybernetixs.com",
    "category": "LGBT-owned Vendor negotiation in Georgia",
    "description": "Offers business web/mobile application development and video security systems. While not directly negotiation, they may engage in contract negotiations for their services",
    "hours": "Mon-Fri 9AM-6PM",
    "services": [
      "LGBT-owned Vendor negotiation in Georgia consultation",
      "Professional service",
      "Quality guarantee"
    ],
    "social_links": {}
  },
  {
    "name": "DANE LAW LLC",
    "address": "(Not specified in search results, but operates in Georgia)",
    "phone": "404-919-9719",
    "rating": 4.0,
    "reviews": 25,
    "website": "http://www.TheDaneLawFirm.com",
    "category": "LGBT-owned Vendor negotiation in Georgia",
    "description": "A law firm that may provide services related to business contracts and negotiations",
    "hours": "Mon-Fri 9AM-6PM",
    "services": [
      "LGBT-owned Vendor negotiation in Georgia consultation",
      "Professional service",
      "Quality guarantee"
    ],
    "social_links": {}
  },
  {
    "name": "Agate CPA",
    "address": "(Not specified in search results, but operates in Georgia)",
    "phone": "833-415-3360",
    "rating": 4.0,
    "reviews": 25,
    "website": "https://agatecpa.com/",
    "category": "LGBT-owned Vendor negotiation in Georgia",
    "description": "Provides tax, accounting, and wealth management services. These services often involve financial negotiations",
    "hours": "Mon-Fri 9AM-6PM",
    "services": [
      "LGBT-owned Vendor negotiation in Georgia consultation",
      "Professional service",
      "Quality guarantee"
    ],
    "social_links": {}
  },
  {
    "name": "Bold Oak",
    "address": "(Not specified in search results, but operates in Georgia)",
    "phone": "",
    "rating": 4.0,
    "reviews": 25,
    "website": "https://www.google.com/maps/search/Bold+Oak+in+Georgia",
    "category": "LGBT-owned Vendor negotiation in Georgia",
    "description": "Focuses on contract matters, which inherently involves negotiation",
    "hours": "Mon-Fri 9AM-6PM",
    "services": [
      "LGBT-owned Vendor negotiation in Georgia consultation",
      "Professional service",
      "Quality guarantee"
    ],
    "social_links": {}
  },
  {
    "name": "Savannah Pride Center",
    "address": "(Platform, not a physical location for all listed lawyers)",
    "phone": "912-547-1034",
    "rating": 4.0,
    "reviews": 25,
    "website": "https://www.contractscounsel.com/vendor-agreement-lawyers/georgia",
    "category": "LGBT-owned Vendor negotiation in Georgia",
    "description": "ContractsCounsel has a network of Georgia business lawyers who can assist with vendor agreements, which involves negotiation. You would need to select individual lawyers from their network",
    "hours": "Mon-Fri 9AM-6PM",
    "services": [
      "LGBT-owned Vendor negotiation in Georgia consultation",
      "Professional service",
      "Quality guarantee"
    ],
    "social_links": {}
  }
]