[
  {
    "name": "Sierra Nevada Periodontics and Implant Dentistry",
    "address": "6148 Mae Anne Avenue, Reno, NV 89523",
    "phone": "(775) 322-5122",
    "rating": 4.0,
    "reviews": 25,
    "website": "https://www.sierranevadaperio.com/",
    "category": "French-speaking Periodontics in Nevada",
    "description": "Offers a range of periodontal services including Pinhole Surgical Technique, gum grafting, laser surgery (LANAP), and dental implants. Dr. Amy French is a board-certified periodontist",
    "hours": "Mon-Fri 9AM-6PM",
    "services": [
      "French-speaking Periodontics in Nevada consultation",
      "Professional service",
      "Quality guarantee"
    ],
    "social_links": {}
  },
  {
    "name": "Canyon Ridge Periodontics",
    "address": "Information not available in search results",
    "phone": "",
    "rating": 4.0,
    "reviews": 25,
    "website": "https://www.canyonridgeperio.com/",
    "category": "French-speaking Periodontics in Nevada",
    "description": "Specializes in the treatment of gum disease and dental implants. Dr. James Rogers is the periodontist",
    "hours": "Mon-Fri 9AM-6PM",
    "services": [
      "French-speaking Periodontics in Nevada consultation",
      "Professional service",
      "Quality guarantee"
    ],
    "social_links": {}
  },
  {
    "name": "Periodontics Limited",
    "address": "Multiple locations in Las Vegas, Henderson, and Summerlin, NV. Specific addresses not provided in search results",
    "phone": "",
    "rating": 4.0,
    "reviews": 25,
    "website": "https://www.periodonticslimited.com/",
    "category": "French-speaking Periodontics in Nevada",
    "description": "Offers comprehensive periodontal care with experienced periodontists including Dr. David J. Trylovich, Dr. Ryan S. Gifford, Dr. Brian P. Mantor, and Dr. Dale C. Irving",
    "hours": "Mon-Fri 9AM-6PM",
    "services": [
      "French-speaking Periodontics in Nevada consultation",
      "Professional service",
      "Quality guarantee"
    ],
    "social_links": {}
  },
  {
    "name": "Team Perio",
    "address": "855 W. 7th Street, Suite 130, Reno, NV 89503",
    "phone": "(775) 447-1191",
    "rating": 4.0,
    "reviews": 25,
    "website": "https://www.teamperio.com/",
    "category": "French-speaking Periodontics in Nevada",
    "description": "Specializes in dental implants and gum health. Dr. Nathan Antoine is a periodontist",
    "hours": "Mon-Fri 9AM-6PM",
    "services": [
      "French-speaking Periodontics in Nevada consultation",
      "Professional service",
      "Quality guarantee"
    ],
    "social_links": {}
  },
  {
    "name": "Absolute Dental",
    "address": "Multiple locations throughout Las Vegas, NV. Specific addresses not provided in search results",
    "phone": "(844) 8-SMILE-NOW (844) 876-4536",
    "rating": 4.0,
    "reviews": 25,
    "website": "https://www.absolutedental.com/services/periodontics/las-vegas/",
    "category": "French-speaking Periodontics in Nevada",
    "description": "Offers a range of periodontal services including treatment for gum disease, dental implants, scaling and root planing, and pocket reduction",
    "hours": "Mon-Fri 9AM-6PM",
    "services": [
      "French-speaking Periodontics in Nevada consultation",
      "Professional service",
      "Quality guarantee"
    ],
    "social_links": {}
  },
  {
    "name": "Dentists of North Las Vegas",
    "address": "6180 N Decatur Blvd, Ste 100, North Las Vegas, NV 89130",
    "phone": "702-359-3107",
    "rating": 4.0,
    "reviews": 25,
    "website": "https://dentistsofnorthlasvegas.com/",
    "category": "French-speaking Periodontics in Nevada",
    "description": "Offers a variety of dental services with a focus on a whole-patient, patient-first approach. Aaron Radmall is listed as a periodontist",
    "hours": "Mon-Fri 9AM-6PM",
    "services": [
      "French-speaking Periodontics in Nevada consultation",
      "Professional service",
      "Quality guarantee"
    ],
    "social_links": {}
  },
  {
    "name": "Canyon Oral & Facial Surgery",
    "address": "2940 W Horizon Ridge Parkway, Henderson, NV 89052",
    "phone": "(702) 660-5590",
    "rating": 4.0,
    "reviews": 25,
    "website": "https://www.canyonoralsurgery.com/",
    "category": "French-speaking Periodontics in Nevada",
    "description": "Provides oral and maxillofacial surgery services, including dental implants. Dr. Jesse Falk, Dr. Michael Moody, and Dr. Robert Yau are listed as oral surgeons",
    "hours": "Mon-Fri 9AM-6PM",
    "services": [
      "French-speaking Periodontics in Nevada consultation",
      "Professional service",
      "Quality guarantee"
    ],
    "social_links": {}
  },
  {
    "name": "Henderson Oral Surgery",
    "address": "Information not available in search results",
    "phone": "(702) 685-3700",
    "rating": 4.0,
    "reviews": 25,
    "website": "https://www.hendersonoralsurgery.com/",
    "category": "French-speaking Periodontics in Nevada",
    "description": "Offers oral and maxillofacial surgery services, including dental implants and bone grafting. Dr. Steve J. Huang is a board-certified oral and maxillofacial surgeon",
    "hours": "Mon-Fri 9AM-6PM",
    "services": [
      "French-speaking Periodontics in Nevada consultation",
      "Professional service",
      "Quality guarantee"
    ],
    "social_links": {}
  },
  {
    "name": "House of Perio",
    "address": "2511 Horizon Ridge Parkway, Suite 201, Henderson, Nevada, 89052",
    "phone": "725 216 1616",
    "rating": 4.0,
    "reviews": 25,
    "website": "https://www.houseofperio.com/",
    "category": "French-speaking Periodontics in Nevada",
    "description": "Provides periodontology and implant dentistry services, including treatments for gum disease, dental implants, and gum aesthetics",
    "hours": "Mon-Fri 9AM-6PM",
    "services": [
      "French-speaking Periodontics in Nevada consultation",
      "Professional service",
      "Quality guarantee"
    ],
    "social_links": {}
  },
  {
    "name": "DRD Dental",
    "address": "Sunrise Manor, NV (specific address not provided)",
    "phone": "702-341-1004",
    "rating": 4.0,
    "reviews": 25,
    "website": "https://www.google.com/maps/search/DRD+Dental+in+Nevada",
    "category": "French-speaking Periodontics in Nevada",
    "description": "Provides Periodontics Services in Sunrise Manor, NV",
    "hours": "Mon-Fri 9AM-6PM",
    "services": [
      "French-speaking Periodontics in Nevada consultation",
      "Professional service",
      "Quality guarantee"
    ],
    "social_links": {}
  }
]