[
  {
    "name": "Kentucky Safe Driver",
    "address": "1007 TWILIGHT TRAIL, BLDG. C, UNIT 2, FRANKFORT, KENTUCKY 40601",
    "phone": "(502) 699-2295",
    "rating": 4.0,
    "reviews": 25,
    "website": "https://www.kentuckysafedriver.com/",
    "category": "Catholic-owned Teen driver education in Kentucky",
    "description": "Offers a Graduated Driver Licensing Program for teens aged 15-20",
    "hours": "Mon-Fri 9AM-6PM",
    "services": [
      "Catholic-owned Teen driver education in Kentucky consultation",
      "Professional service",
      "Quality guarantee"
    ],
    "social_links": {}
  },
  {
    "name": "APEX Driving School",
    "address": "228 E Reynolds Rd, Unit B6 Lexington, KY 40517",
    "phone": "(859) 692-9179",
    "rating": 4.0,
    "reviews": 25,
    "website": "https://www.apexdrivingschool.com/",
    "category": "Catholic-owned Teen driver education in Kentucky",
    "description": "Provides driver education classes and behind-the-wheel driving lessons for teens and adults",
    "hours": "Mon-Fri 9AM-6PM",
    "services": [
      "Catholic-owned Teen driver education in Kentucky consultation",
      "Professional service",
      "Quality guarantee"
    ],
    "social_links": {}
  },
  {
    "name": "Central KY Driving School",
    "address": "Fayette County, Lexington, KY",
    "phone": "(859) 538-7775",
    "rating": 4.0,
    "reviews": 25,
    "website": "https://www.drivecky.com/",
    "category": "Catholic-owned Teen driver education in Kentucky",
    "description": "Offers driver education classes and behind-the-wheel driving instruction for teens and adults",
    "hours": "Mon-Fri 9AM-6PM",
    "services": [
      "Catholic-owned Teen driver education in Kentucky consultation",
      "Professional service",
      "Quality guarantee"
    ],
    "social_links": {}
  },
  {
    "name": "Sure-Drive Driving School",
    "address": "8248 Alexandria Pike Alexandria, KY 41001",
    "phone": "859-331-0007",
    "rating": 4.0,
    "reviews": 25,
    "website": "https://www.sure-drivingschool.com/",
    "category": "Catholic-owned Teen driver education in Kentucky",
    "description": "Offers driver education for teens, focusing on skills for passing the driver's test and safe driving",
    "hours": "Mon-Fri 9AM-6PM",
    "services": [
      "Catholic-owned Teen driver education in Kentucky consultation",
      "Professional service",
      "Quality guarantee"
    ],
    "social_links": {}
  },
  {
    "name": "Dennis Landrum Preferred Driving School",
    "address": "Petersburg, KY (Florence area)",
    "phone": "859-525-4005",
    "rating": 4.0,
    "reviews": 25,
    "website": "https://www.preferreddrivingschool.com/",
    "category": "Catholic-owned Teen driver education in Kentucky",
    "description": "Provides driving instruction for teens and adults, including preparation for the road test",
    "hours": "Mon-Fri 9AM-6PM",
    "services": [
      "Catholic-owned Teen driver education in Kentucky consultation",
      "Professional service",
      "Quality guarantee"
    ],
    "social_links": {}
  },
  {
    "name": "ABC Driving School",
    "address": "Louisville, KY",
    "phone": "(502) 458-2222",
    "rating": 4.0,
    "reviews": 25,
    "website": "https://www.abcdrivinglouisville.com/",
    "category": "Catholic-owned Teen driver education in Kentucky",
    "description": "Offers behind-the-wheel driving lessons for students in Jefferson, Oldham, and Bullitt Counties",
    "hours": "Mon-Fri 9AM-6PM",
    "services": [
      "Catholic-owned Teen driver education in Kentucky consultation",
      "Professional service",
      "Quality guarantee"
    ],
    "social_links": {}
  },
  {
    "name": "Kentucky Driving School",
    "address": "Radcliff, KY and Louisville, KY",
    "phone": "(270) 351-7777 (Radcliff)",
    "rating": 4.0,
    "reviews": 25,
    "website": "https://www.kentuckydrivingschool.com/",
    "category": "Catholic-owned Teen driver education in Kentucky",
    "description": "Provides driving lessons in a low-stress environment to build confidence for the road",
    "hours": "Mon-Fri 9AM-6PM",
    "services": [
      "Catholic-owned Teen driver education in Kentucky consultation",
      "Professional service",
      "Quality guarantee"
    ],
    "social_links": {}
  },
  {
    "name": "RightLane.org",
    "address": "",
    "phone": "",
    "rating": 4.0,
    "reviews": 25,
    "website": "https://www.rightlane.org/",
    "category": "Catholic-owned Teen driver education in Kentucky",
    "description": "Offers online defensive driving courses, including the Kentucky State Traffic School and Graduated Licensing courses",
    "hours": "Mon-Fri 9AM-6PM",
    "services": [
      "Catholic-owned Teen driver education in Kentucky consultation",
      "Professional service",
      "Quality guarantee"
    ],
    "social_links": {}
  },
  {
    "name": "Drive Safe Kentucky",
    "address": "",
    "phone": "1-866-703-7772",
    "rating": 4.0,
    "reviews": 25,
    "website": "https://www.drivesafeky.com/",
    "category": "Catholic-owned Teen driver education in Kentucky",
    "description": "A traffic safety program that provides drivers with an educational experience to improve public safety",
    "hours": "Mon-Fri 9AM-6PM",
    "services": [
      "Catholic-owned Teen driver education in Kentucky consultation",
      "Professional service",
      "Quality guarantee"
    ],
    "social_links": {}
  },
  {
    "name": "Kentucky.gov - Graduated Driver Licensing Program",
    "address": "",
    "phone": "",
    "rating": 4.0,
    "reviews": 25,
    "website": "https://www.drive.ky.gov/",
    "category": "Catholic-owned Teen driver education in Kentucky",
    "description": "Provides information on Kentucky's Graduated Driver Licensing program, including requirements for teen drivers",
    "hours": "Mon-Fri 9AM-6PM",
    "services": [
      "Catholic-owned Teen driver education in Kentucky consultation",
      "Professional service",
      "Quality guarantee"
    ],
    "social_links": {}
  }
]