[
  {
    "name": "Cardiac Surgery Clinic (UW Health)",
    "address": "600 Highland Ave, Madison, WI 53792",
    "phone": "(608) 915-0200",
    "rating": 4.0,
    "reviews": 25,
    "website": "https://www.uwhealth.org/",
    "category": "Chinese-speaking Cardiovascular surgery in Wisconsin",
    "description": "Offers a comprehensive range of cardiac surgery services, including coronary artery bypass grafting, valve repair, and minimally invasive procedures",
    "hours": "Mon-Fri 9AM-6PM",
    "services": [
      "Chinese-speaking Cardiovascular surgery in Wisconsin consultation",
      "Professional service",
      "Quality guarantee"
    ],
    "social_links": {}
  },
  {
    "name": "Aurora St. Luke's Medical Center - Heart & Vascular Services",
    "address": "2900 W Oklahoma Ave, Milwaukee, WI 53215",
    "phone": "(414) 649-5000",
    "rating": 4.0,
    "reviews": 25,
    "website": "https://www.aurorahealthcare.org/locations/hospital/st-lukes-medical-center",
    "category": "Chinese-speaking Cardiovascular surgery in Wisconsin",
    "description": "Flagship hospital for Aurora's cardiovascular program, offering advanced treatments, world-renowned experts, and groundbreaking research. Known for its TAVR program and heart transplant services",
    "hours": "Mon-Fri 9AM-6PM",
    "services": [
      "Chinese-speaking Cardiovascular surgery in Wisconsin consultation",
      "Professional service",
      "Quality guarantee"
    ],
    "social_links": {}
  },
  {
    "name": "Froedtert South - Cardiothoracic and Vascular Surgery Services",
    "address": "9555 76th Street, Pleasant Prairie, WI 53158",
    "phone": "(262) 653-5483 (Cardiothoracic Clinic)",
    "rating": 4.0,
    "reviews": 25,
    "website": "https://www.froedtertsouth.com/services/cardiothoracic-vascular-surgery",
    "category": "Chinese-speaking Cardiovascular surgery in Wisconsin",
    "description": "Offers minimally invasive robotic cardiothoracic surgery and a wide range of breakthrough procedures for cardiothoracic and vascular conditions",
    "hours": "Mon-Fri 9AM-6PM",
    "services": [
      "Chinese-speaking Cardiovascular surgery in Wisconsin consultation",
      "Professional service",
      "Quality guarantee"
    ],
    "social_links": {}
  },
  {
    "name": "Aspirus Heart & Lung Surgery",
    "address": "Multiple locations, including Wausau, WI. (Specific clinic addresses vary)",
    "phone": "(715) 847-2000 (General Aspirus number)",
    "rating": 4.0,
    "reviews": 25,
    "website": "https://www.aspirus.org/heart-lung-surgery",
    "category": "Chinese-speaking Cardiovascular surgery in Wisconsin",
    "description": "Provides a broad range of treatment options including coronary artery bypass grafting, open heart surgeries, TAVR, valve repair, and lung surgery",
    "hours": "Mon-Fri 9AM-6PM",
    "services": [
      "Chinese-speaking Cardiovascular surgery in Wisconsin consultation",
      "Professional service",
      "Quality guarantee"
    ],
    "social_links": {}
  },
  {
    "name": "Marshfield Clinic - Heart Surgery",
    "address": "1000 N. Oak Ave, Marshfield, WI 54449",
    "phone": "866-520-2510",
    "rating": 4.0,
    "reviews": 25,
    "website": "https://www.marshfieldclinic.org/specialties/heart-surgery",
    "category": "Chinese-speaking Cardiovascular surgery in Wisconsin",
    "description": "Offers cardiovascular and thoracic surgery, including minimally-invasive care through robotic surgery, for conditions affecting the heart, vessels, and lungs",
    "hours": "Mon-Fri 9AM-6PM",
    "services": [
      "Chinese-speaking Cardiovascular surgery in Wisconsin consultation",
      "Professional service",
      "Quality guarantee"
    ],
    "social_links": {}
  },
  {
    "name": "Aurora BayCare Cardiothoracic Surgery",
    "address": "2900 West Shore Drive, Green Bay, WI 54311",
    "phone": "(920) 288-8000",
    "rating": 4.0,
    "reviews": 25,
    "website": "https://baycare.net/services/heart-lung-surgery/",
    "category": "Chinese-speaking Cardiovascular surgery in Wisconsin",
    "description": "A leader in heart and lung surgery, offering advanced procedures and recognized for groundbreaking research and positive patient outcomes",
    "hours": "Mon-Fri 9AM-6PM",
    "services": [
      "Chinese-speaking Cardiovascular surgery in Wisconsin consultation",
      "Professional service",
      "Quality guarantee"
    ],
    "social_links": {}
  },
  {
    "name": "Prevea Health - Cardiothoracic Surgery (HSHS St. Vincent Hospital)",
    "address": "835 S Van Buren St, Green Bay, WI 54301",
    "phone": "(920) 468-5700",
    "rating": 4.0,
    "reviews": 25,
    "website": "https://www.prevea.com/services/cardiothoracic-surgery",
    "category": "Chinese-speaking Cardiovascular surgery in Wisconsin",
    "description": "Provides a full range of heart and lung care with a dedicated cardiovascular intensive care unit",
    "hours": "Mon-Fri 9AM-6PM",
    "services": [
      "Chinese-speaking Cardiovascular surgery in Wisconsin consultation",
      "Professional service",
      "Quality guarantee"
    ],
    "social_links": {}
  },
  {
    "name": "Dr. Zhaowei Ai (Ascension Wisconsin)",
    "address": "Multiple locations including Brookfield and Wauwatosa, WI. (Specific clinic addresses vary)",
    "phone": "414-443-6040 (Brookfield location)",
    "rating": 4.0,
    "reviews": 25,
    "website": "https://healthcare.ascension.org/doctors/1235447743/Zhaowei-Ai-Brookfield-WI",
    "category": "Chinese-speaking Cardiovascular surgery in Wisconsin",
    "description": "An interventional cardiologist who speaks English and Chinese, specializing in heart and blood vessel disease",
    "hours": "Mon-Fri 9AM-6PM",
    "services": [
      "Chinese-speaking Cardiovascular surgery in Wisconsin consultation",
      "Professional service",
      "Quality guarantee"
    ],
    "social_links": {}
  },
  {
    "name": "Dr. Yuting Chiang (Aurora Health Care)",
    "address": "975 Port Washington Rd, Ste 301, Grafton, WI 53024",
    "phone": "(262) 329-8150",
    "rating": 4.0,
    "reviews": 25,
    "website": "https://www.aurorahealthcare.org/doctors/yuting-chiang-md",
    "category": "Chinese-speaking Cardiovascular surgery in Wisconsin",
    "description": "A cardiothoracic surgeon providing services within the Aurora Health Care network",
    "hours": "Mon-Fri 9AM-6PM",
    "services": [
      "Chinese-speaking Cardiovascular surgery in Wisconsin consultation",
      "Professional service",
      "Quality guarantee"
    ],
    "social_links": {}
  },
  {
    "name": "UW Health - 1340 Charles St Clinic Heart Clinic Cardiothoracic Surgery",
    "address": "1340 Charles St, Madison, WI 53704",
    "phone": "(608) 263-9500",
    "rating": 4.0,
    "reviews": 25,
    "website": "https://www.uwhealth.org/locations/1340-charles-st-clinic-heart-clinic-cardiothoracic-surgery-2013",
    "category": "Chinese-speaking Cardiovascular surgery in Wisconsin",
    "description": "Provides advanced surgical care for a range of cardiothoracic conditions, committed to patient-centered care",
    "hours": "Mon-Fri 9AM-6PM",
    "services": [
      "Chinese-speaking Cardiovascular surgery in Wisconsin consultation",
      "Professional service",
      "Quality guarantee"
    ],
    "social_links": {}
  }
]