[
  {
    "name": "Rin se Luxury Salon",
    "address": "5600 Post Rd, East Greenwich, RI 02818",
    "phone": "(401) 473-7200",
    "rating": 4.0,
    "reviews": 25,
    "website": "https://www.rinseluxurysalon.com/",
    "category": "Bengali-speaking Balayage in Rhode-Island",
    "description": "Offers custom color, precision cuts, and luxurious extensions, specializing in balayage",
    "hours": "Mon-Fri 9AM-6PM",
    "services": [
      "Bengali-speaking Balayage in Rhode-Island consultation",
      "Professional service",
      "Quality guarantee"
    ],
    "social_links": {}
  },
  {
    "name": "Studio B Salon",
    "address": "1481 Pontiac Ave, Warwick, RI 02886",
    "phone": "(401) 737-8880",
    "rating": 4.0,
    "reviews": 25,
    "website": "https://www.studiobsalonri.com/",
    "category": "Bengali-speaking Balayage in Rhode-Island",
    "description": "Offers the latest hairstyles and coloring services, including balayage",
    "hours": "Mon-Fri 9AM-6PM",
    "services": [
      "Bengali-speaking Balayage in Rhode-Island consultation",
      "Professional service",
      "Quality guarantee"
    ],
    "social_links": {}
  },
  {
    "name": "Moss Salon",
    "address": "114 North Main Street, Providence, RI 02903",
    "phone": "(401) 751-8877",
    "rating": 4.0,
    "reviews": 25,
    "website": "https://www.mosssalon.com/",
    "category": "Bengali-speaking Balayage in Rhode-Island",
    "description": "Premier hair salon in Providence for styling and coloring, with expert colorists and stylists",
    "hours": "Mon-Fri 9AM-6PM",
    "services": [
      "Bengali-speaking Balayage in Rhode-Island consultation",
      "Professional service",
      "Quality guarantee"
    ],
    "social_links": {}
  },
  {
    "name": "La La Luxe Salon",
    "address": "1005 Main Street, Unit 2211, Pawtucket, RI 02860",
    "phone": "(401) 522-3148",
    "rating": 4.0,
    "reviews": 25,
    "website": "https://www.lalaluxesalon.com/",
    "category": "Bengali-speaking Balayage in Rhode-Island",
    "description": "Offers a full range of services, including balayage, lived-in haircolor, and low-maintenance color",
    "hours": "Mon-Fri 9AM-6PM",
    "services": [
      "Bengali-speaking Balayage in Rhode-Island consultation",
      "Professional service",
      "Quality guarantee"
    ],
    "social_links": {}
  },
  {
    "name": "BL Beauty",
    "address": "(Specific address not found, located in Woonsocket, RI)",
    "phone": "",
    "rating": 4.0,
    "reviews": 25,
    "website": "https://www.google.com/maps/search/BL+Beauty+Rhode+Island",
    "category": "Bengali-speaking Balayage in Rhode-Island",
    "description": "High-end beauty salon with stylists professionally trained in balayage/ombre",
    "hours": "Mon-Fri 9AM-6PM",
    "services": [
      "Bengali-speaking Balayage in Rhode-Island consultation",
      "Professional service",
      "Quality guarantee"
    ],
    "social_links": {}
  },
  {
    "name": "Sacarrha Salon",
    "address": "(Specific address not found, located in Pawtucket, RI)",
    "phone": "",
    "rating": 4.0,
    "reviews": 25,
    "website": "https://www.sacarrhasalon.com/",
    "category": "Bengali-speaking Balayage in Rhode-Island",
    "description": "Offers exceptional hair and beauty services with a focus on innovation and personalized care",
    "hours": "Mon-Fri 9AM-6PM",
    "services": [
      "Bengali-speaking Balayage in Rhode-Island consultation",
      "Professional service",
      "Quality guarantee"
    ],
    "social_links": {}
  },
  {
    "name": "SalonPROV",
    "address": "(Specific address not found, located on the East Side of Providence, RI 02906)",
    "phone": "",
    "rating": 4.0,
    "reviews": 25,
    "website": "https://www.salonprov.com/",
    "category": "Bengali-speaking Balayage in Rhode-Island",
    "description": "Innovative salon offering extensive hair, skin, and makeup services",
    "hours": "Mon-Fri 9AM-6PM",
    "services": [
      "Bengali-speaking Balayage in Rhode-Island consultation",
      "Professional service",
      "Quality guarantee"
    ],
    "social_links": {}
  },
  {
    "name": "Studio 101",
    "address": "(Specific address not found, located in Downtown Providence, RI)",
    "phone": "",
    "rating": 4.0,
    "reviews": 25,
    "website": "https://www.studio101prov.com/",
    "category": "Bengali-speaking Balayage in Rhode-Island",
    "description": "Offers luxury and sophistication with expertly trained stylists and exclusive product lines",
    "hours": "Mon-Fri 9AM-6PM",
    "services": [
      "Bengali-speaking Balayage in Rhode-Island consultation",
      "Professional service",
      "Quality guarantee"
    ],
    "social_links": {}
  },
  {
    "name": "Beaudee Salon",
    "address": "(Specific address not found, located in Cranston, RI)",
    "phone": "",
    "rating": 4.0,
    "reviews": 25,
    "website": "https://www.beaudeesalon.com/",
    "category": "Bengali-speaking Balayage in Rhode-Island",
    "description": "Offers a full range of glam services, including balayage",
    "hours": "Mon-Fri 9AM-6PM",
    "services": [
      "Bengali-speaking Balayage in Rhode-Island consultation",
      "Professional service",
      "Quality guarantee"
    ],
    "social_links": {}
  },
  {
    "name": "Indigo Hair Studio",
    "address": "210 Warren Ave, East Providence, RI 02914",
    "phone": "(401) 484-7573",
    "rating": 4.0,
    "reviews": 25,
    "website": "https://www.indigohairstudio.com/",
    "category": "Bengali-speaking Balayage in Rhode-Island",
    "description": "Specializes in custom lived-in styles, vivids, blonding, and corrective color services",
    "hours": "Mon-Fri 9AM-6PM",
    "services": [
      "Bengali-speaking Balayage in Rhode-Island consultation",
      "Professional service",
      "Quality guarantee"
    ],
    "social_links": {}
  }
]