[
  {
    "name": "Kilpatrick Townsend",
    "address": "1700 Lincoln St #2000, Denver, CO 80203",
    "phone": "(303) 861-7500",
    "rating": 4.0,
    "reviews": 25,
    "website": "https://www.kilpatricktownsend.com/",
    "category": "Asian-owned Patent law in Colorado",
    "description": "This firm has a significant concentration of intellectual property attorneys in Colorado and advises clients on all aspects of intellectual property procurement, protection, and litigation",
    "hours": "Mon-Fri 9AM-6PM",
    "services": [
      "Asian-owned Patent law in Colorado consultation",
      "Professional service",
      "Quality guarantee"
    ],
    "social_links": {}
  },
  {
    "name": "Leyendecker & Lemire, LLC",
    "address": "9350 East Arapahoe Rd, STE 300, Greenwood Village, CO 80112",
    "phone": "(303) 221-0000",
    "rating": 4.0,
    "reviews": 25,
    "website": "https://www.llip.com/",
    "category": "Asian-owned Patent law in Colorado",
    "description": "This firm specializes in patent, trademark, and copyright law, with over 60 years of combined experience. They handle intellectual property disputes and business transactions",
    "hours": "Mon-Fri 9AM-6PM",
    "services": [
      "Asian-owned Patent law in Colorado consultation",
      "Professional service",
      "Quality guarantee"
    ],
    "social_links": {}
  },
  {
    "name": "McCallum Law Firm P.C.",
    "address": "2525 Arapahoe Ave, Boulder, CO 80302",
    "phone": "(303) 443-1777",
    "rating": 4.0,
    "reviews": 25,
    "website": "https://www.mccallumlaw.com/",
    "category": "Asian-owned Patent law in Colorado",
    "description": "An international Intellectual Property Law Firm concentrating on biotechnology, pharmaceutical, nanotechnology, and medical device companies",
    "hours": "Mon-Fri 9AM-6PM",
    "services": [
      "Asian-owned Patent law in Colorado consultation",
      "Professional service",
      "Quality guarantee"
    ],
    "social_links": {}
  },
  {
    "name": "Husch Blackwell",
    "address": "1999 Broadway Suite 3100, Denver, CO 80202",
    "phone": "(303) 298-2400",
    "rating": 4.0,
    "reviews": 25,
    "website": "https://www.huschblackwell.com/",
    "category": "Asian-owned Patent law in Colorado",
    "description": "This firm has over 100 intellectual property attorneys with extensive experience in IP acquisition, maintenance, protection, enforcement, litigation, and commercialization",
    "hours": "Mon-Fri 9AM-6PM",
    "services": [
      "Asian-owned Patent law in Colorado consultation",
      "Professional service",
      "Quality guarantee"
    ],
    "social_links": {}
  },
  {
    "name": "Perkins Coie",
    "address": "1225 17th St #2300, Denver, CO 80202",
    "phone": "(303) 291-2300",
    "rating": 4.0,
    "reviews": 25,
    "website": "https://www.perkinscoie.com/",
    "category": "Asian-owned Patent law in Colorado",
    "description": "A leading international law firm known for providing high-value, strategic solutions in intellectual property law",
    "hours": "Mon-Fri 9AM-6PM",
    "services": [
      "Asian-owned Patent law in Colorado consultation",
      "Professional service",
      "Quality guarantee"
    ],
    "social_links": {}
  },
  {
    "name": "Brownstein Hyatt Farber Schreck",
    "address": "410 Seventeenth Street, Suite 2200, Denver, CO 80202",
    "phone": "(303) 223-1000",
    "rating": 4.0,
    "reviews": 25,
    "website": "https://www.bhfs.com/",
    "category": "Asian-owned Patent law in Colorado",
    "description": "An Intellectual Property Law company specializing in Intellectual Property Law and Real Estate Law",
    "hours": "Mon-Fri 9AM-6PM",
    "services": [
      "Asian-owned Patent law in Colorado consultation",
      "Professional service",
      "Quality guarantee"
    ],
    "social_links": {}
  },
  {
    "name": "Trenner Law Firm, LLC",
    "address": "1600 Broadway Suite 1600, Denver, CO 80202",
    "phone": "(303) 830-0200",
    "rating": 4.0,
    "reviews": 25,
    "website": "https://www.trennerlaw.com/",
    "category": "Asian-owned Patent law in Colorado",
    "description": "This firm specializes in trademark law, with a high client satisfaction rate for their efficient and knowledgeable IP law representation",
    "hours": "Mon-Fri 9AM-6PM",
    "services": [
      "Asian-owned Patent law in Colorado consultation",
      "Professional service",
      "Quality guarantee"
    ],
    "social_links": {}
  },
  {
    "name": "Holzer Patel Drennan (HPD Law)",
    "address": "1624 Market St #200, Denver, CO 80202",
    "phone": "(303) 573-1775",
    "rating": 4.0,
    "reviews": 25,
    "website": "https://www.hpdlaw.com/",
    "category": "Asian-owned Patent law in Colorado",
    "description": "This firm focuses on intellectual property and business law, helping clients protect their inventions, brands, and creative expressions",
    "hours": "Mon-Fri 9AM-6PM",
    "services": [
      "Asian-owned Patent law in Colorado consultation",
      "Professional service",
      "Quality guarantee"
    ],
    "social_links": {}
  },
  {
    "name": "Fish & Richardson",
    "address": "1700 Broadway Suite 1000, Denver, CO 80202",
    "phone": "(303) 749-2200",
    "rating": 4.0,
    "reviews": 25,
    "website": "https://www.fr.com/",
    "category": "Asian-owned Patent law in Colorado",
    "description": "This firm is recognized for patent law and offers services in intellectual property litigation and corporate law",
    "hours": "Mon-Fri 9AM-6PM",
    "services": [
      "Asian-owned Patent law in Colorado consultation",
      "Professional service",
      "Quality guarantee"
    ],
    "social_links": {}
  },
  {
    "name": "Duane Morris LLP",
    "address": "1660 Wynkoop St #700, Denver, CO 80202",
    "phone": "(303) 831-1100",
    "rating": 4.0,
    "reviews": 25,
    "website": "https://www.duanemorris.com/",
    "category": "Asian-owned Patent law in Colorado",
    "description": "A law firm with a presence in Asia, offering a range of legal services, including those related to intellectual property",
    "hours": "Mon-Fri 9AM-6PM",
    "services": [
      "Asian-owned Patent law in Colorado consultation",
      "Professional service",
      "Quality guarantee"
    ],
    "social_links": {}
  }
]