[
  {
    "name": "Omega Automotive",
    "address": "8601 Reseda Blvd, Northridge, CA 91324",
    "phone": "(818) 435-4609",
    "rating": 4.8,
    "reviews": 25,
    "website": "https://www.omegaautomotive.com/",
    "category": "Alaska-Native-owned Timing belt replacement in California",
    "description": "Offers timing belt replacement and repair services, emphasizing precision and quality parts",
    "hours": "Mon-Fri 9AM-6PM",
    "services": [
      "Alaska-Native-owned Timing belt replacement in California consultation",
      "Professional service",
      "Quality guarantee"
    ],
    "social_links": {}
  },
  {
    "name": "Moore's Garage",
    "address": "6045 Main Ave, Orangevale, CA 95662",
    "phone": "(916) 988-1500",
    "rating": 4.9,
    "reviews": 25,
    "website": "https://mooresgarage.net/",
    "category": "Alaska-Native-owned Timing belt replacement in California",
    "description": "Provides comprehensive timing belt replacement and inspection services for reliable engine health",
    "hours": "Mon-Fri 9AM-6PM",
    "services": [
      "Alaska-Native-owned Timing belt replacement in California consultation",
      "Professional service",
      "Quality guarantee"
    ],
    "social_links": {}
  },
  {
    "name": "Made in Japan-Made in America Car Care Center",
    "address": "7840 Madison Ave, Citrus Heights, CA 95610",
    "phone": "(916) 486-4100",
    "rating": 4.7,
    "reviews": 25,
    "website": "https://www.madeinjapanmadeinamerica.com/",
    "category": "Alaska-Native-owned Timing belt replacement in California",
    "description": "Offers timing belt replacement and inspection services, with a long history of reliable technicians",
    "hours": "Mon-Fri 9AM-6PM",
    "services": [
      "Alaska-Native-owned Timing belt replacement in California consultation",
      "Professional service",
      "Quality guarantee"
    ],
    "social_links": {}
  },
  {
    "name": "Specialized Auto Inc.",
    "address": "1219 Freedom Blvd, Watsonville, CA 95076",
    "phone": "(831) 722-3052",
    "rating": 4.8,
    "reviews": 25,
    "website": "https://www.specializedautoinc.com/",
    "category": "Alaska-Native-owned Timing belt replacement in California",
    "description": "Known for accurate and long-lasting timing belt replacements, serving the Watsonville and Santa Cruz areas since 1994",
    "hours": "Mon-Fri 9AM-6PM",
    "services": [
      "Alaska-Native-owned Timing belt replacement in California consultation",
      "Professional service",
      "Quality guarantee"
    ],
    "social_links": {}
  },
  {
    "name": "Karsten Imports",
    "address": "14130 Ventura Blvd, Sherman Oaks, CA 91423",
    "phone": "(818) 994-3311",
    "rating": 4.7,
    "reviews": 25,
    "website": "https://www.karstenimports.com/",
    "category": "Alaska-Native-owned Timing belt replacement in California",
    "description": "Specializes in timing belt replacement and other automotive services, with a history dating back to 1969",
    "hours": "Mon-Fri 9AM-6PM",
    "services": [
      "Alaska-Native-owned Timing belt replacement in California consultation",
      "Professional service",
      "Quality guarantee"
    ],
    "social_links": {}
  },
  {
    "name": "Alliance Auto Service",
    "address": "1115 Airport Blvd, Ukiah, CA 95482",
    "phone": "(707) 462-0200",
    "rating": 4.9,
    "reviews": 25,
    "website": "https://www.allianceautoserviceukiah.com/",
    "category": "Alaska-Native-owned Timing belt replacement in California",
    "description": "A AAA-approved facility offering timing belt replacement and other auto services with a focus on community contribution",
    "hours": "Mon-Fri 9AM-6PM",
    "services": [
      "Alaska-Native-owned Timing belt replacement in California consultation",
      "Professional service",
      "Quality guarantee"
    ],
    "social_links": {}
  },
  {
    "name": "Rocky's Commercial Auto",
    "address": "607 S Victory Blvd, Burbank, CA 91502",
    "phone": "(818) 846-2210",
    "rating": 4.6,
    "reviews": 25,
    "website": "https://rockyscommercialauto.com/",
    "category": "Alaska-Native-owned Timing belt replacement in California",
    "description": "Provides timing belt replacement services for various makes and models, emphasizing precision and proper synchronization",
    "hours": "Mon-Fri 9AM-6PM",
    "services": [
      "Alaska-Native-owned Timing belt replacement in California consultation",
      "Professional service",
      "Quality guarantee"
    ],
    "social_links": {}
  },
  {
    "name": "Toms Foreign Autohouse",
    "address": "42327 Rio Nedo #B, Temecula, CA 92590",
    "phone": "(951) 695-3077",
    "rating": 4.8,
    "reviews": 25,
    "website": "https://www.tomsforeignautohouse.com/",
    "category": "Alaska-Native-owned Timing belt replacement in California",
    "description": "Specializes in imported vehicles and offers dealer-quality automotive repair and maintenance, including timing belt services",
    "hours": "Mon-Fri 9AM-6PM",
    "services": [
      "Alaska-Native-owned Timing belt replacement in California consultation",
      "Professional service",
      "Quality guarantee"
    ],
    "social_links": {}
  },
  {
    "name": "Westlake Independent Automotive",
    "address": "30975 Russell Ranch Rd, Westlake Village, CA 91362",
    "phone": "(818) 879-1444",
    "rating": 4.7,
    "reviews": 25,
    "website": "https://www.westlakeindependent.com/",
    "category": "Alaska-Native-owned Timing belt replacement in California",
    "description": "A leading choice for Japanese automotive service and repair, offering comprehensive maintenance including timing belt replacements",
    "hours": "Mon-Fri 9AM-6PM",
    "services": [
      "Alaska-Native-owned Timing belt replacement in California consultation",
      "Professional service",
      "Quality guarantee"
    ],
    "social_links": {}
  },
  {
    "name": "Torrance Motors",
    "address": "3707 W 190th St, Torrance, CA 90504",
    "phone": "(310) 370-3471",
    "rating": 4.7,
    "reviews": 25,
    "website": "https://www.torrancemotors.com/",
    "category": "Alaska-Native-owned Timing belt replacement in California",
    "description": "Specializes in timing belt replacements for various major brands, using OEM parts and offering a comprehensive warranty",
    "hours": "Mon-Fri 9AM-6PM",
    "services": [
      "Alaska-Native-owned Timing belt replacement in California consultation",
      "Professional service",
      "Quality guarantee"
    ],
    "social_links": {}
  }
]