[
  {
    "name": "Express Employment Professionals",
    "address": "Multiple locations across Ohio, including 9155 North Dixie Drive, Dayton, OH 45414",
    "phone": "(937) 505-5000 (for Dayton location)",
    "rating": 4.1,
    "reviews": 25,
    "website": "https://www.expresspros.com/",
    "category": "Alaska-Native-owned Temporary staffing in Ohio",
    "description": "A large franchise with many locations, known for efficient job placement and a helpful staff",
    "hours": "Mon-Fri 9AM-6PM",
    "services": [
      "Alaska-Native-owned Temporary staffing in Ohio consultation",
      "Professional service",
      "Quality guarantee"
    ],
    "social_links": {}
  },
  {
    "name": "Cardinal Staffing Services",
    "address": "Multiple locations, including 6000 Emerald Pkwy, Dublin, OH 43016 (example location)",
    "phone": "(800) 821-5740",
    "rating": 4.0,
    "reviews": 25,
    "website": "https://cardinalstaffing.com/",
    "category": "Alaska-Native-owned Temporary staffing in Ohio",
    "description": "A recognized leader in the staffing business, focusing on making exceptional matches for both clients and candidates across various industries",
    "hours": "Mon-Fri 9AM-6PM",
    "services": [
      "Alaska-Native-owned Temporary staffing in Ohio consultation",
      "Professional service",
      "Quality guarantee"
    ],
    "social_links": {}
  },
  {
    "name": "Surge Staffing",
    "address": "Multiple locations, including 100 E. Broad St., Columbus, OH 43215 (example location)",
    "phone": "(614) 427-1111 (for Columbus location)",
    "rating": 4.0,
    "reviews": 25,
    "website": "https://www.surgestaffing.com/",
    "category": "Alaska-Native-owned Temporary staffing in Ohio",
    "description": "Awarded by Forbes for being a top temporary staffing and professional recruiting firm",
    "hours": "Mon-Fri 9AM-6PM",
    "services": [
      "Alaska-Native-owned Temporary staffing in Ohio consultation",
      "Professional service",
      "Quality guarantee"
    ],
    "social_links": {}
  },
  {
    "name": "Reliable Staffing Resources",
    "address": "Multiple locations, including 100 E. Broad St., Suite 1000, Columbus, OH 43215 (example location)",
    "phone": "(614) 221-0111 (for Columbus location)",
    "rating": 4.0,
    "reviews": 25,
    "website": "https://www.reliablestaffing.com/",
    "category": "Alaska-Native-owned Temporary staffing in Ohio",
    "description": "Focuses on understanding client needs and providing skilled temporary or permanent employees",
    "hours": "Mon-Fri 9AM-6PM",
    "services": [
      "Alaska-Native-owned Temporary staffing in Ohio consultation",
      "Professional service",
      "Quality guarantee"
    ],
    "social_links": {}
  },
  {
    "name": "Great Work!",
    "address": "Multiple locations in Northeast Ohio, including 175 S. Miller Rd., Suite 100, Akron, OH 44313 (example location)",
    "phone": "(330) 864-2200 (for Akron location)",
    "rating": 4.0,
    "reviews": 25,
    "website": "https://www.greatwork.cc/",
    "category": "Alaska-Native-owned Temporary staffing in Ohio",
    "description": "Has eight networked offices in Northeast Ohio, providing access to a diverse talent pool",
    "hours": "Mon-Fri 9AM-6PM",
    "services": [
      "Alaska-Native-owned Temporary staffing in Ohio consultation",
      "Professional service",
      "Quality guarantee"
    ],
    "social_links": {}
  },
  {
    "name": "Accurate Staffing",
    "address": "Multiple locations, including 1055 E. Market St., Akron, OH 44305 (example location)",
    "phone": "(330) 733-2000 (for Akron location)",
    "rating": 4.0,
    "reviews": 25,
    "website": "https://www.accuratestaffing.com/",
    "category": "Alaska-Native-owned Temporary staffing in Ohio",
    "description": "Aims to meet the needs of clients and employees/candidates with comprehensive recruiting and screening services",
    "hours": "Mon-Fri 9AM-6PM",
    "services": [
      "Alaska-Native-owned Temporary staffing in Ohio consultation",
      "Professional service",
      "Quality guarantee"
    ],
    "social_links": {}
  },
  {
    "name": "Work Place Consultants",
    "address": "Multiple locations, including 400 S. Main St., Suite 100, Akron, OH 44311 (example location)",
    "phone": "(330) 376-7777 (for Akron location)",
    "rating": 4.0,
    "reviews": 25,
    "website": "https://www.workplaceconsultants.com/",
    "category": "Alaska-Native-owned Temporary staffing in Ohio",
    "description": "Their team is described as hardworking, honest, and dedicated to helping people find dream careers and loyal employees",
    "hours": "Mon-Fri 9AM-6PM",
    "services": [
      "Alaska-Native-owned Temporary staffing in Ohio consultation",
      "Professional service",
      "Quality guarantee"
    ],
    "social_links": {}
  },
  {
    "name": "Mancan Staffing",
    "address": "Multiple locations across Ohio, including 1000 S. Washington St., Alliance, OH 44601 (example location)",
    "phone": "(330) 823-8100 (for Alliance location)",
    "rating": 4.0,
    "reviews": 25,
    "website": "https://www.mancan.com/",
    "category": "Alaska-Native-owned Temporary staffing in Ohio",
    "description": "A leader in the staffing industry offering short-term, long-term, temp-to-hire, and direct hire services, among others",
    "hours": "Mon-Fri 9AM-6PM",
    "services": [
      "Alaska-Native-owned Temporary staffing in Ohio consultation",
      "Professional service",
      "Quality guarantee"
    ],
    "social_links": {}
  },
  {
    "name": "Dawson Careers",
    "address": "75 Public Square, Suite 700, Cleveland, OH 44113 (example location)",
    "phone": "(216) 574-4100 (for Cleveland location)",
    "rating": 4.0,
    "reviews": 25,
    "website": "https://www.dawsoncareers.com/",
    "category": "Alaska-Native-owned Temporary staffing in Ohio",
    "description": "A workforce solutions company that has become experts in making employment matches",
    "hours": "Mon-Fri 9AM-6PM",
    "services": [
      "Alaska-Native-owned Temporary staffing in Ohio consultation",
      "Professional service",
      "Quality guarantee"
    ],
    "social_links": {}
  },
  {
    "name": "Armada Staffing Group",
    "address": "While they operate nationwide, they have a significant presence in Ohio. Specific Ohio office addresses may vary",
    "phone": "(866) 327-2323",
    "rating": 4.0,
    "reviews": 25,
    "website": "https://armadastaffing.com/",
    "category": "Alaska-Native-owned Temporary staffing in Ohio",
    "description": "Offers flexible workforce solutions including temporary staffing, temporary-to-hire, and direct hire services",
    "hours": "Mon-Fri 9AM-6PM",
    "services": [
      "Alaska-Native-owned Temporary staffing in Ohio consultation",
      "Professional service",
      "Quality guarantee"
    ],
    "social_links": {}
  }
]