[
  {
    "name": "Missouri Translation and Interpretation",
    "address": "Not specified, serves statewide",
    "phone": "800-785-8634",
    "rating": 4.0,
    "reviews": 25,
    "website": "https://www.albors-alnet.com/missouri-translation-interpretation/",
    "category": "Bengali-speaking Vendor management in Missouri",
    "description": "Offers translation and interpretation services in over 200 languages, including Bengali, for various industries",
    "hours": "Mon-Fri 9AM-6PM",
    "services": [
      "Bengali-speaking Vendor management in Missouri consultation",
      "Professional service",
      "Quality guarantee"
    ],
    "social_links": {}
  },
  {
    "name": "Interpreters Unlimited",
    "address": "Not specified, serves statewide",
    "phone": "800-726-9891",
    "rating": 4.0,
    "reviews": 25,
    "website": "https://www.interpreters.com/missouri-language-translator/",
    "category": "Bengali-speaking Vendor management in Missouri",
    "description": "Provides language translation and localization services in 200 foreign languages and American Sign Language (ASL)",
    "hours": "Mon-Fri 9AM-6PM",
    "services": [
      "Bengali-speaking Vendor management in Missouri consultation",
      "Professional service",
      "Quality guarantee"
    ],
    "social_links": {}
  },
  {
    "name": "Missouri Translation Services",
    "address": "Not specified, serves statewide",
    "phone": "",
    "rating": 4.0,
    "reviews": 25,
    "website": "https://www.missouritranslationservices.com/",
    "category": "Bengali-speaking Vendor management in Missouri",
    "description": "Offers professional translation services in 35 languages, including those in high demand",
    "hours": "Mon-Fri 9AM-6PM",
    "services": [
      "Bengali-speaking Vendor management in Missouri consultation",
      "Professional service",
      "Quality guarantee"
    ],
    "social_links": {}
  },
  {
    "name": "Crest Language Services",
    "address": "St. Joseph, Missouri",
    "phone": "888-551-8181",
    "rating": 4.0,
    "reviews": 25,
    "website": "https://crestls.com/",
    "category": "Bengali-speaking Vendor management in Missouri",
    "description": "Provides professional language translation and interpreting services in over 100 languages",
    "hours": "Mon-Fri 9AM-6PM",
    "services": [
      "Bengali-speaking Vendor management in Missouri consultation",
      "Professional service",
      "Quality guarantee"
    ],
    "social_links": {}
  },
  {
    "name": "Language Solutions Inc.",
    "address": "St. Louis, Missouri",
    "phone": "",
    "rating": 4.0,
    "reviews": 25,
    "website": "https://languagesolutionsinc.com/",
    "category": "Bengali-speaking Vendor management in Missouri",
    "description": "Offers translation and interpreting services in various languages, partnering with agencies to help them grow their business",
    "hours": "Mon-Fri 9AM-6PM",
    "services": [
      "Bengali-speaking Vendor management in Missouri consultation",
      "Professional service",
      "Quality guarantee"
    ],
    "social_links": {}
  },
  {
    "name": "Translation Excellence",
    "address": "Not specified, serves statewide",
    "phone": "",
    "rating": 4.0,
    "reviews": 25,
    "website": "https://translationexcellence.com/missouri-translation-services/",
    "category": "Bengali-speaking Vendor management in Missouri",
    "description": "Provides accurate and culturally sensitive translation services in over 100 languages",
    "hours": "Mon-Fri 9AM-6PM",
    "services": [
      "Bengali-speaking Vendor management in Missouri consultation",
      "Professional service",
      "Quality guarantee"
    ],
    "social_links": {}
  },
  {
    "name": "All Language Services",
    "address": "Not specified, serves statewide",
    "phone": "",
    "rating": 4.0,
    "reviews": 25,
    "website": "https://www.alllanguageservices.com/missouri-translation-services/",
    "category": "Bengali-speaking Vendor management in Missouri",
    "description": "Offers document translation and interpretation services in over 40 languages",
    "hours": "Mon-Fri 9AM-6PM",
    "services": [
      "Bengali-speaking Vendor management in Missouri consultation",
      "Professional service",
      "Quality guarantee"
    ],
    "social_links": {}
  },
  {
    "name": "Monarch Immigrant Services",
    "address": "St. Louis, Missouri",
    "phone": "314-645-7800, ext. 205",
    "rating": 4.0,
    "reviews": 25,
    "website": "https://www.monarchimmigration.org/services/language-services/",
    "category": "Bengali-speaking Vendor management in Missouri",
    "description": "Provides interpretation and translation solutions in over 50 languages, including Bengali",
    "hours": "Mon-Fri 9AM-6PM",
    "services": [
      "Bengali-speaking Vendor management in Missouri consultation",
      "Professional service",
      "Quality guarantee"
    ],
    "social_links": {}
  },
  {
    "name": "Interpreters Unlimited (Bengali Translation Services)",
    "address": "Nationwide service, with a focus on various states",
    "phone": "800-726-9891",
    "rating": 4.0,
    "reviews": 25,
    "website": "https://www.interpreters.com/bengali-translation-services/",
    "category": "Bengali-speaking Vendor management in Missouri",
    "description": "Specializes in Bengali translation and interpretation services, serving various industries",
    "hours": "Mon-Fri 9AM-6PM",
    "services": [
      "Bengali-speaking Vendor management in Missouri consultation",
      "Professional service",
      "Quality guarantee"
    ],
    "social_links": {}
  },
  {
    "name": "LinguaVox",
    "address": "Offices in the USA and Europe, serving Missouri",
    "phone": "",
    "rating": 4.0,
    "reviews": 25,
    "website": "https://www.linguavox.com/",
    "category": "Bengali-speaking Vendor management in Missouri",
    "description": "Offers translation and interpreting services in over 100 languages, including Bengali",
    "hours": "Mon-Fri 9AM-6PM",
    "services": [
      "Bengali-speaking Vendor management in Missouri consultation",
      "Professional service",
      "Quality guarantee"
    ],
    "social_links": {}
  }
]