[
  {
    "name": "Black Hills Paintless Dent Repair",
    "address": "1015 E North St, Rapid City, SD 57701",
    "phone": "(605) 716-9079",
    "rating": 5.0,
    "reviews": 25,
    "website": "https://www.blackhillspdr.com/",
    "category": "Chinese-speaking Paintless dent removal in South-Dakota",
    "description": "Family-operated, Veteran-owned business specializing in paintless dent repair for hail damage, door dings, and small impacts. They offer quick turnaround times and work with insurance companies",
    "hours": "Mon-Fri 9AM-6PM",
    "services": [
      "Chinese-speaking Paintless dent removal in South-Dakota consultation",
      "Professional service",
      "Quality guarantee"
    ],
    "social_links": {}
  },
  {
    "name": "Affordable Dent Repair",
    "address": "4901 W 41st St, Sioux Falls, SD 57106 (This is a general service area, specific shop address may vary)",
    "phone": "(605) 371-0000",
    "rating": 4.0,
    "reviews": 25,
    "website": "https://affordabledentrepair.com/",
    "category": "Chinese-speaking Paintless dent removal in South-Dakota",
    "description": "Specializes in fast, affordable paintless dent removal (PDR) for all vehicle makes and models, including hail damage, door dings, and minor fender benders. They serve Sioux Falls and surrounding areas and work with all insurance companies",
    "hours": "Mon-Fri 9AM-6PM",
    "services": [
      "Chinese-speaking Paintless dent removal in South-Dakota consultation",
      "Professional service",
      "Quality guarantee"
    ],
    "social_links": {}
  },
  {
    "name": "605 Dent Company",
    "address": "2201 S Ellis Rd #4, Sioux Falls, SD 57106",
    "phone": "(605) 521-9914",
    "rating": 4.0,
    "reviews": 25,
    "website": "https://605dentcompany.com/",
    "category": "Chinese-speaking Paintless dent removal in South-Dakota",
    "description": "Offers paintless dent repair, window tinting, auto detailing, and paint touch-up services. They are a family-owned and operated shop focused on high-quality services and customer service",
    "hours": "Mon-Fri 9AM-6PM",
    "services": [
      "Chinese-speaking Paintless dent removal in South-Dakota consultation",
      "Professional service",
      "Quality guarantee"
    ],
    "social_links": {}
  },
  {
    "name": "Quality Body Shop",
    "address": "1120 E Capitol Ave, Pierre, SD 57501",
    "phone": "(605) 224-5901",
    "rating": 4.0,
    "reviews": 25,
    "website": "https://www.qualitybodyshopsd.com/",
    "category": "Chinese-speaking Paintless dent removal in South-Dakota",
    "description": "Provides paintless dent repair (PDR) for minor dents and dings, using specialized tools to restore vehicle panels without paint. They offer free estimates and a lifetime guarantee on their repairs",
    "hours": "Mon-Fri 9AM-6PM",
    "services": [
      "Chinese-speaking Paintless dent removal in South-Dakota consultation",
      "Professional service",
      "Quality guarantee"
    ],
    "social_links": {}
  },
  {
    "name": "Denny Menholt Rapid Chevrolet",
    "address": "1215 E Omaha St, Rapid City, SD 57701",
    "phone": "(605) 593-4668 (Service Department)",
    "rating": 4.0,
    "reviews": 25,
    "website": "https://www.dennymenholtcars.com/paintless-dent-repair.html",
    "category": "Chinese-speaking Paintless dent removal in South-Dakota",
    "description": "Offers paintless dent repair (PDR) for hail damage, door dings, and small dents on any make or model of vehicle. They provide free estimates and fast, friendly service",
    "hours": "Mon-Fri 9AM-6PM",
    "services": [
      "Chinese-speaking Paintless dent removal in South-Dakota consultation",
      "Professional service",
      "Quality guarantee"
    ],
    "social_links": {}
  },
  {
    "name": "ABRA Auto Body & Collision Repair",
    "address": "2601 S Carolyn Ave, Sioux Falls, SD 57106",
    "phone": "(605) 336-0400",
    "rating": 4.0,
    "reviews": 25,
    "website": "https://www.abraauto.com/locations/sioux-falls-south/",
    "category": "Chinese-speaking Paintless dent removal in South-Dakota",
    "description": "Provides a range of auto body services, including paintless dent repairs, auto glass repairs, and collision repairs. They are conveniently located for other shopping and services",
    "hours": "Mon-Fri 9AM-6PM",
    "services": [
      "Chinese-speaking Paintless dent removal in South-Dakota consultation",
      "Professional service",
      "Quality guarantee"
    ],
    "social_links": {}
  },
  {
    "name": "Pierre's Body Shop",
    "address": "400 N Cliff Ave, Sioux Falls, SD 57103",
    "phone": "(605) 336-0400",
    "rating": 4.0,
    "reviews": 25,
    "website": "https://pierresbodyshop.com/",
    "category": "Chinese-speaking Paintless dent removal in South-Dakota",
    "description": "Offers comprehensive auto body repair and collision services, including paintless dent repair. They are a direct repair facility for most major insurance companies and provide a written lifetime warranty",
    "hours": "Mon-Fri 9AM-6PM",
    "services": [
      "Chinese-speaking Paintless dent removal in South-Dakota consultation",
      "Professional service",
      "Quality guarantee"
    ],
    "social_links": {}
  },
  {
    "name": "Ty's Body Shop & Auto Glass",
    "address": "401 N Cliff Ave, Harrisburg, SD 57032",
    "phone": "(605) 421-5000",
    "rating": 4.0,
    "reviews": 25,
    "website": "https://www.tysbodyshop.com/",
    "category": "Chinese-speaking Paintless dent removal in South-Dakota",
    "description": "Provides paintless dent repair (PDR) for dents and dings without repainting. They also offer mobile windshield replacement and auto glass repair. They handle insurance claims and offer a free loaner vehicle",
    "hours": "Mon-Fri 9AM-6PM",
    "services": [
      "Chinese-speaking Paintless dent removal in South-Dakota consultation",
      "Professional service",
      "Quality guarantee"
    ],
    "social_links": {}
  },
  {
    "name": "Precision Autobody",
    "address": "4901 W 41st St, Tea, SD 57064",
    "phone": "(605) 368-5805",
    "rating": 4.0,
    "reviews": 25,
    "website": "https://precisionautobody.net/",
    "category": "Chinese-speaking Paintless dent removal in South-Dakota",
    "description": "Offers automotive body shop services, including dent repairs, scratch removal, and collision repairs. They aim to provide quality service for all makes and models",
    "hours": "Mon-Fri 9AM-6PM",
    "services": [
      "Chinese-speaking Paintless dent removal in South-Dakota consultation",
      "Professional service",
      "Quality guarantee"
    ],
    "social_links": {}
  },
  {
    "name": "Boxy's Paint & Body Inc.",
    "address": "25731 Cottonwood Ave, Sioux Falls, SD 57107",
    "phone": "(605) 543-5568",
    "rating": 4.0,
    "reviews": 25,
    "website": "https://boxyspaintandbody.com/",
    "category": "Chinese-speaking Paintless dent removal in South-Dakota",
    "description": "Provides expert auto body repair, collision repair, and paint services, including paintless dent repair. They serve Sioux Falls and surrounding areas and offer free estimates and a lifetime warranty",
    "hours": "Mon-Fri 9AM-6PM",
    "services": [
      "Chinese-speaking Paintless dent removal in South-Dakota consultation",
      "Professional service",
      "Quality guarantee"
    ],
    "social_links": {}
  }
]