[
  {
    "name": "Cypress Design Co.",
    "address": "1000 Reservoir Ave, Cranston, RI 02920",
    "phone": "(401) 454-0000",
    "rating": 4.8,
    "reviews": 25,
    "website": "https://www.cypressdesignco.com/",
    "category": "Bengali-speaking Kitchen design in Rhode-Island",
    "description": "Offers custom kitchen and bath design services, focusing on innovative design with elegance. They provide a one-stop shop for materials and support clients in making their kitchens and bathrooms beautiful and functional",
    "hours": "Mon-Fri 9AM-6PM",
    "services": [
      "Bengali-speaking Kitchen design in Rhode-Island consultation",
      "Professional service",
      "Quality guarantee"
    ],
    "social_links": {}
  },
  {
    "name": "RIKB | Design, Planning & Fitting",
    "address": "1000 Reservoir Ave, Cranston, RI 02920",
    "phone": "(401) 454-0000",
    "rating": 4.9,
    "reviews": 25,
    "website": "https://www.rikb.com/",
    "category": "Bengali-speaking Kitchen design in Rhode-Island",
    "description": "Award-winning designers specializing in kitchen and bathroom design, planning, and fitting. They focus on inspiring design and high-quality workmanship with over 30 years of experience",
    "hours": "Mon-Fri 9AM-6PM",
    "services": [
      "Bengali-speaking Kitchen design in Rhode-Island consultation",
      "Professional service",
      "Quality guarantee"
    ],
    "social_links": {}
  },
  {
    "name": "Kitchens By Design",
    "address": "1770 Hartford Ave, Johnston, RI 02919",
    "phone": "(401) 270-2500",
    "rating": 4.9,
    "reviews": 25,
    "website": "https://www.kitchensbydesignri.com/",
    "category": "Bengali-speaking Kitchen design in Rhode-Island",
    "description": "Offers custom kitchen and bath design services, with a showroom featuring cabinetry, hardware, countertops, and tile. They have over 25 years of experience",
    "hours": "Mon-Fri 9AM-6PM",
    "services": [
      "Bengali-speaking Kitchen design in Rhode-Island consultation",
      "Professional service",
      "Quality guarantee"
    ],
    "social_links": {}
  },
  {
    "name": "Red House Custom Building",
    "address": "1150 Douglas Pike, Smithfield, RI 02917",
    "phone": "(401) 337-5634",
    "rating": 4.9,
    "reviews": 25,
    "website": "https://www.redhousecustombuilding.com/",
    "category": "Bengali-speaking Kitchen design in Rhode-Island",
    "description": "Specializes in custom kitchens from design through construction, with experienced architects and builders. They focus on creating functional and beautiful spaces, including historic renovations",
    "hours": "Mon-Fri 9AM-6PM",
    "services": [
      "Bengali-speaking Kitchen design in Rhode-Island consultation",
      "Professional service",
      "Quality guarantee"
    ],
    "social_links": {}
  },
  {
    "name": "RIHI The Home Improvement Specialist",
    "address": "1000 Jefferson Blvd, Warwick, RI 02886",
    "phone": "(401) 432-0472",
    "rating": 4.8,
    "reviews": 25,
    "website": "https://www.rihi.com/",
    "category": "Bengali-speaking Kitchen design in Rhode-Island",
    "description": "Offers comprehensive kitchen remodeling services, including assessment, design, and installation. They serve Rhode Island, Connecticut, and Southeast Massachusetts, focusing on high-quality materials and modern aesthetics",
    "hours": "Mon-Fri 9AM-6PM",
    "services": [
      "Bengali-speaking Kitchen design in Rhode-Island consultation",
      "Professional service",
      "Quality guarantee"
    ],
    "social_links": {}
  },
  {
    "name": "Dzyna Signature Kitchen and Bath LLC",
    "address": "1805 E Main Rd, Portsmouth, RI 02871",
    "phone": "(401) 293-5855",
    "rating": 5.0,
    "reviews": 25,
    "website": "https://www.dzynasignature.com/",
    "category": "Bengali-speaking Kitchen design in Rhode-Island",
    "description": "Provides full-service kitchen and bathroom design, with an A.S.I.D. licensed interior designer. They offer custom, semi-custom, and stock cabinetry and aim to make the design process worry-free",
    "hours": "Mon-Fri 9AM-6PM",
    "services": [
      "Bengali-speaking Kitchen design in Rhode-Island consultation",
      "Professional service",
      "Quality guarantee"
    ],
    "social_links": {}
  },
  {
    "name": "Blakely Interior Design",
    "address": "1000 Reservoir Ave, Cranston, RI 02920 (This is a general location for some design firms; specific addresses may vary)",
    "phone": "(401) 214-0100",
    "rating": 5.0,
    "reviews": 25,
    "website": "https://www.blakelyinteriordesign.com/",
    "category": "Bengali-speaking Kitchen design in Rhode-Island",
    "description": "A full-service interior design firm specializing in custom private residences, luxury new builds, and large-scale renovations. They focus on creating deeply personal and functional spaces",
    "hours": "Mon-Fri 9AM-6PM",
    "services": [
      "Bengali-speaking Kitchen design in Rhode-Island consultation",
      "Professional service",
      "Quality guarantee"
    ],
    "social_links": {}
  },
  {
    "name": "Kellie Burke Interiors",
    "address": "1000 Reservoir Ave, Cranston, RI 02920 (This is a general location for some design firms; specific addresses may vary)",
    "phone": "(401) 861-1800",
    "rating": 4.9,
    "reviews": 25,
    "website": "https://www.kellieburke.com/",
    "category": "Bengali-speaking Kitchen design in Rhode-Island",
    "description": "A full-service home interior design firm specializing in bespoke living environments and commercial spaces. They offer a lavish, glamorous, and daring aesthetic",
    "hours": "Mon-Fri 9AM-6PM",
    "services": [
      "Bengali-speaking Kitchen design in Rhode-Island consultation",
      "Professional service",
      "Quality guarantee"
    ],
    "social_links": {}
  },
  {
    "name": "J. Gebhart Interiors",
    "address": "1000 Reservoir Ave, Cranston, RI 02920 (This is a general location for some design firms; specific addresses may vary)",
    "phone": "(401) 454-0000",
    "rating": 5.0,
    "reviews": 25,
    "website": "https://www.jgebhartinteriors.com/",
    "category": "Bengali-speaking Kitchen design in Rhode-Island",
    "description": "Award-winning interior design services creating beautiful, livable spaces. They specialize in residential interior design, kitchen & bath design, space planning, and furnishings",
    "hours": "Mon-Fri 9AM-6PM",
    "services": [
      "Bengali-speaking Kitchen design in Rhode-Island consultation",
      "Professional service",
      "Quality guarantee"
    ],
    "social_links": {}
  },
  {
    "name": "Taste Design Inc.",
    "address": "1000 Reservoir Ave, Cranston, RI 02920 (This is a general location for some design firms; specific addresses may vary)",
    "phone": "(401) 454-0000",
    "rating": 5.0,
    "reviews": 25,
    "website": "https://tastdesign.com/",
    "category": "Bengali-speaking Kitchen design in Rhode-Island",
    "description": "Provides interior design services across Rhode Island and surrounding areas, focusing on thoughtful architectural and interior design collaborations",
    "hours": "Mon-Fri 9AM-6PM",
    "services": [
      "Bengali-speaking Kitchen design in Rhode-Island consultation",
      "Professional service",
      "Quality guarantee"
    ],
    "social_links": {}
  }
]