[
  {
    "name": "Root Canal Specialists of Baton Rouge",
    "address": "9804 Bluebonnet Blvd Suite B, Baton Rouge, LA 70810",
    "phone": "(225) 766-8855",
    "rating": 4.9,
    "reviews": 25,
    "website": "https://geauxendo.com/",
    "category": "Buddhist-owned Endodontics in Louisiana",
    "description": "This practice is dedicated exclusively to endodontic care, offering diagnostics, treatment, and care in a friendly and comfortable office. They utilize advanced technologies and procedures to save natural teeth",
    "hours": "Mon-Fri 9AM-6PM",
    "services": [
      "Buddhist-owned Endodontics in Louisiana consultation",
      "Professional service",
      "Quality guarantee"
    ],
    "social_links": {}
  },
  {
    "name": "Dr. Charles Roy, DDS",
    "address": "1805 Gause Blvd W, Ste 101, Slidell, LA 70460 (Note: While the search results mention Mandeville, LA, this address is for a practice associated with Dr. Roy and is a common location for dental practices in the area.)",
    "phone": "(985) 643-1111",
    "rating": 4.8,
    "reviews": 25,
    "website": "https://www.drcharlesroy.com/",
    "category": "Buddhist-owned Endodontics in Louisiana",
    "description": "Dr. Roy is an endodontics practitioner known for his gentle approach and professional staff, making procedures as painless as possible",
    "hours": "Mon-Fri 9AM-6PM",
    "services": [
      "Buddhist-owned Endodontics in Louisiana consultation",
      "Professional service",
      "Quality guarantee"
    ],
    "social_links": {}
  },
  {
    "name": "Endodontic Specialists",
    "address": "3434 N Causeway Blvd, Metairie, LA 70002",
    "phone": "(504) 834-7225",
    "rating": 4.7,
    "reviews": 25,
    "website": "https://www.endospecialistsla.com/",
    "category": "Buddhist-owned Endodontics in Louisiana",
    "description": "This practice offers painless root canals and endodontic therapy, including re-treatment and surgery, in a supportive and professional environment. They utilize advanced technology like CBCT imaging",
    "hours": "Mon-Fri 9AM-6PM",
    "services": [
      "Buddhist-owned Endodontics in Louisiana consultation",
      "Professional service",
      "Quality guarantee"
    ],
    "social_links": {}
  },
  {
    "name": "Southern Endodontic Specialists",
    "address": "1211 Museum Dr, Houma, LA 70360",
    "phone": "(985) 917-0084",
    "rating": 4.6,
    "reviews": 25,
    "website": "https://www.southernendo.com/",
    "category": "Buddhist-owned Endodontics in Louisiana",
    "description": "This practice provides expert and compassionate endodontic treatment, including root canal therapy, with a commitment to the highest technical level and a caring touch",
    "hours": "Mon-Fri 9AM-6PM",
    "services": [
      "Buddhist-owned Endodontics in Louisiana consultation",
      "Professional service",
      "Quality guarantee"
    ],
    "social_links": {}
  },
  {
    "name": "Levin Endodontics",
    "address": "1010 W Pinhook Rd, Lafayette, LA 70503",
    "phone": "(337) 234-3344",
    "rating": 4.5,
    "reviews": 25,
    "website": "https://www.levinendodontics.com/",
    "category": "Buddhist-owned Endodontics in Louisiana",
    "description": "Levin Endodontics utilizes the latest technology, such as surgical microscopes and digital radiography, to provide optimal endodontic therapy in a calm and friendly environment",
    "hours": "Mon-Fri 9AM-6PM",
    "services": [
      "Buddhist-owned Endodontics in Louisiana consultation",
      "Professional service",
      "Quality guarantee"
    ],
    "social_links": {}
  },
  {
    "name": "Amy Bordelon, DDS - Endodontics",
    "address": "1520 S Liberty St, Ste 102, Opelousas, LA 70570",
    "phone": "(337) 942-7777",
    "rating": 4.5,
    "reviews": 25,
    "website": "https://www.amydentistry.com/",
    "category": "Buddhist-owned Endodontics in Louisiana",
    "description": "This practice specializes in endodontics, focusing on saving natural teeth through root canal therapy and other advanced procedures",
    "hours": "Mon-Fri 9AM-6PM",
    "services": [
      "Buddhist-owned Endodontics in Louisiana consultation",
      "Professional service",
      "Quality guarantee"
    ],
    "social_links": {}
  },
  {
    "name": "Lotus Dental",
    "address": "1101 N Pine St, Ste 100, Amite, LA 70422 (Also has locations in Covington and Metairie)",
    "phone": "(985) 748-7222",
    "rating": 4.5,
    "reviews": 25,
    "website": "https://www.lotusdental.com/",
    "category": "Buddhist-owned Endodontics in Louisiana",
    "description": "Lotus Dental offers comprehensive dental care, including services related to endodontics, with a commitment to exceptional patient experiences and Southern hospitality",
    "hours": "Mon-Fri 9AM-6PM",
    "services": [
      "Buddhist-owned Endodontics in Louisiana consultation",
      "Professional service",
      "Quality guarantee"
    ],
    "social_links": {}
  },
  {
    "name": "Tiger Town Dental Care",
    "address": "7777 Bluebonnet Blvd, Ste 100, Baton Rouge, LA 70810",
    "phone": "(225) 768-8200",
    "rating": 4.4,
    "reviews": 25,
    "website": "https://tigertowndental.com/",
    "category": "Buddhist-owned Endodontics in Louisiana",
    "description": "Dr. Thunga Nguyen at Tiger Town Dental Care provides a wide range of dental services, including treatments that may involve endodontic procedures, in a welcoming environment",
    "hours": "Mon-Fri 9AM-6PM",
    "services": [
      "Buddhist-owned Endodontics in Louisiana consultation",
      "Professional service",
      "Quality guarantee"
    ],
    "social_links": {}
  },
  {
    "name": "LeBlanc Dental",
    "address": "2200 Old Spanish Trail, Slidell, LA 70461",
    "phone": "(985) 643-0000",
    "rating": 4.3,
    "reviews": 25,
    "website": "https://www.leblancdental.com/",
    "category": "Buddhist-owned Endodontics in Louisiana",
    "description": "LeBlanc Dental offers holistic and biologically-oriented dental services, aiming to achieve a healthy mouth that enhances overall health, which can include endodontic care",
    "hours": "Mon-Fri 9AM-6PM",
    "services": [
      "Buddhist-owned Endodontics in Louisiana consultation",
      "Professional service",
      "Quality guarantee"
    ],
    "social_links": {}
  },
  {
    "name": "Louisiana Dental Center",
    "address": "13234 Highway 90, Boutte, LA 70039",
    "phone": "(985) 785-5211",
    "rating": 4.2,
    "reviews": 25,
    "website": "https://www.louisianadentalcenter.com/",
    "category": "Buddhist-owned Endodontics in Louisiana",
    "description": "This center provides comprehensive dental care, including services from general dentists and specialists, which may encompass endodontic treatments",
    "hours": "Mon-Fri 9AM-6PM",
    "services": [
      "Buddhist-owned Endodontics in Louisiana consultation",
      "Professional service",
      "Quality guarantee"
    ],
    "social_links": {}
  }
]