[
  {
    "name": "Qin Spa",
    "address": "607 W. Northern Lights Blvd., #3, Anchorage, AK 99503",
    "phone": "907-222-7727",
    "rating": 4.0,
    "reviews": 25,
    "website": "https://www.google.com/maps/search/Qin+Spa+in+Alaska",
    "category": "Chinese-speaking Couples massage in Alaska",
    "description": "Offers full-body, hot body oil Swedish, and Chinese deep-tissue massage. They welcome men and women and offer table showers and hot towel service",
    "hours": "Mon-Fri 9AM-6PM",
    "services": [
      "Chinese-speaking Couples massage in Alaska consultation",
      "Professional service",
      "Quality guarantee"
    ],
    "social_links": {}
  },
  {
    "name": "Massage Spa",
    "address": "945 E. 5th Ave., #10, Anchorage, AK 99501",
    "phone": "907-764-5687",
    "rating": 4.0,
    "reviews": 25,
    "website": "https://www.google.com/maps/search/Massage+Spa+in+Alaska",
    "category": "Chinese-speaking Couples massage in Alaska",
    "description": "Offers full-body massage, including deep-tissue, back-walking, and hot towel service. They welcome men and women and offer heated massage tables",
    "hours": "Mon-Fri 9AM-6PM",
    "services": [
      "Chinese-speaking Couples massage in Alaska consultation",
      "Professional service",
      "Quality guarantee"
    ],
    "social_links": {}
  },
  {
    "name": "Sun Chinese Massage",
    "address": "6311 DeBarr Rd, Anchorage, Alaska 99504",
    "phone": "907-891-1676",
    "rating": 4.0,
    "reviews": 25,
    "website": "https://sunmassage.wixsite.com/sunmassage",
    "category": "Chinese-speaking Couples massage in Alaska",
    "description": "Offers Swedish, foot, and full-body massages with a professional approach and warm attitude. They are known for high-quality massage techniques",
    "hours": "Mon-Fri 9AM-6PM",
    "services": [
      "Chinese-speaking Couples massage in Alaska consultation",
      "Professional service",
      "Quality guarantee"
    ],
    "social_links": {}
  },
  {
    "name": "Chinese Massage",
    "address": "3431 Airport Way, Fairbanks, AK",
    "phone": "",
    "rating": 4.0,
    "reviews": 25,
    "website": "https://www.google.com/maps/search/Chinese+Massage+in+Alaska",
    "category": "Chinese-speaking Couples massage in Alaska",
    "description": "Offers traditional Chinese massage services, described as a good place to stop after a long day",
    "hours": "Mon-Fri 9AM-6PM",
    "services": [
      "Chinese-speaking Couples massage in Alaska consultation",
      "Professional service",
      "Quality guarantee"
    ],
    "social_links": {}
  },
  {
    "name": "Oriental Massage",
    "address": "951 S Hermon Rd, Wasilla, Alaska 99654",
    "phone": "907-357-8897",
    "rating": 4.0,
    "reviews": 25,
    "website": "https://www.google.com/maps/search/Oriental+Massage+in+Alaska",
    "category": "Chinese-speaking Couples massage in Alaska",
    "description": "Offers massage services with options for 30 and 60-minute sessions",
    "hours": "Mon-Fri 9AM-6PM",
    "services": [
      "Chinese-speaking Couples massage in Alaska consultation",
      "Professional service",
      "Quality guarantee"
    ],
    "social_links": {}
  },
  {
    "name": "Jasmine Spa",
    "address": "3957 W Machen Rd, Wasilla, Alaska 99654",
    "phone": "907-671-0966",
    "rating": 4.0,
    "reviews": 25,
    "website": "https://www.google.com/maps/search/Jasmine+Spa+in+Alaska",
    "category": "Chinese-speaking Couples massage in Alaska",
    "description": "Offers massage services with options for 30 and 60-minute sessions, and includes a sauna",
    "hours": "Mon-Fri 9AM-6PM",
    "services": [
      "Chinese-speaking Couples massage in Alaska consultation",
      "Professional service",
      "Quality guarantee"
    ],
    "social_links": {}
  },
  {
    "name": "Tonnie's Touch Therapeutic",
    "address": "1213 Ocean Dr #1, Homer, AK 99603",
    "phone": "907-235-2109",
    "rating": 4.0,
    "reviews": 25,
    "website": "https://www.google.com/maps/search/Tonnie's+Touch+Therapeutic+in+Alaska",
    "category": "Chinese-speaking Couples massage in Alaska",
    "description": "Offers a range of services tailored to revitalize the body and soul, from classic Asian therapeutic techniques to spa treatments",
    "hours": "Mon-Fri 9AM-6PM",
    "services": [
      "Chinese-speaking Couples massage in Alaska consultation",
      "Professional service",
      "Quality guarantee"
    ],
    "social_links": {}
  },
  {
    "name": "Jenny's Therapeutic Touch",
    "address": "35021 Kenai Spur Hwy, Soldotna, AK 99669",
    "phone": "907-513-1402",
    "rating": 4.0,
    "reviews": 25,
    "website": "https://www.google.com/maps/search/Jenny's+Therapeutic+Touch+in+Alaska",
    "category": "Chinese-speaking Couples massage in Alaska",
    "description": "Offers services designed to revitalize the body and soul, from classic Asian therapeutic techniques to spa treatments, in an oasis of relaxation",
    "hours": "Mon-Fri 9AM-6PM",
    "services": [
      "Chinese-speaking Couples massage in Alaska consultation",
      "Professional service",
      "Quality guarantee"
    ],
    "social_links": {}
  },
  {
    "name": "Mountain Magic Massage",
    "address": "Soldotna, AK, 99669 (Offers outcall services)",
    "phone": "907-953-8477",
    "rating": 4.0,
    "reviews": 25,
    "website": "https://www.google.com/maps/search/Mountain+Magic+Massage+in+Alaska",
    "category": "Chinese-speaking Couples massage in Alaska",
    "description": "Provides excellent massage services, including deep tissue, hot stone, and Swedish massage. They specialize in releasing neck and shoulder tension, headaches, and lower back pain, and offer couples massages",
    "hours": "Mon-Fri 9AM-6PM",
    "services": [
      "Chinese-speaking Couples massage in Alaska consultation",
      "Professional service",
      "Quality guarantee"
    ],
    "social_links": {}
  },
  {
    "name": "Sama Massage Therapy",
    "address": "Wasilla, AK (Offers in-home or studio sessions)",
    "phone": "907-308-0664",
    "rating": 4.0,
    "reviews": 25,
    "website": "https://www.google.com/maps/search/Sama+Massage+Therapy+in+Alaska",
    "category": "Chinese-speaking Couples massage in Alaska",
    "description": "Offers mobile massage therapy and a Couples Massage designed for a shared, blissful experience",
    "hours": "Mon-Fri 9AM-6PM",
    "services": [
      "Chinese-speaking Couples massage in Alaska consultation",
      "Professional service",
      "Quality guarantee"
    ],
    "social_links": {}
  }
]