[
  {
    "name": "Complete Association Management Company (CAMCO)",
    "address": "4775 West Teco Avenue, Suite 140, Las Vegas, NV 89118",
    "phone": "(702) 949-0040",
    "rating": 4.5,
    "reviews": 25,
    "website": "https://www.camconevada.com/",
    "category": "Central-American-owned HOA management in Nevada",
    "description": "CAMCO is one of Nevada's most respected community association management companies, offering efficient, affordable, and professional management care with over twenty years of experience",
    "hours": "Mon-Fri 9AM-6PM",
    "services": [
      "Central-American-owned HOA management in Nevada consultation",
      "Professional service",
      "Quality guarantee"
    ],
    "social_links": {}
  },
  {
    "name": "FirstService Residential",
    "address": "Multiple locations including Reno and Las Vegas. For specific office addresses, please visit their website",
    "phone": "1-855-333-5149 (General Inquiries)",
    "rating": 4.4,
    "reviews": 25,
    "website": "https://www.fsresidential.com/",
    "category": "Central-American-owned HOA management in Nevada",
    "description": "A leading property management company in North America, offering tailored management solutions for various community types across Nevada",
    "hours": "Mon-Fri 9AM-6PM",
    "services": [
      "Central-American-owned HOA management in Nevada consultation",
      "Professional service",
      "Quality guarantee"
    ],
    "social_links": {}
  },
  {
    "name": "The Management Trust",
    "address": "Multiple locations including Henderson. For specific office addresses, please visit their website",
    "phone": "702-835-6904",
    "rating": 4.3,
    "reviews": 25,
    "website": "https://www.managementtrust.com/",
    "category": "Central-American-owned HOA management in Nevada",
    "description": "An employee-owned firm providing comprehensive community association management services with over 30 years of industry experience",
    "hours": "Mon-Fri 9AM-6PM",
    "services": [
      "Central-American-owned HOA management in Nevada consultation",
      "Professional service",
      "Quality guarantee"
    ],
    "social_links": {}
  },
  {
    "name": "Sage Management, LLC",
    "address": "Multiple locations in Northern and Southern Nevada. For specific office addresses, please visit their website",
    "phone": "(702) 737-4377",
    "rating": 4.2,
    "reviews": 25,
    "website": "https://www.sagemanagement.com/",
    "category": "Central-American-owned HOA management in Nevada",
    "description": "A community association management company providing full-service solutions with a focus on aligning services with community needs and building healthy relationships",
    "hours": "Mon-Fri 9AM-6PM",
    "services": [
      "Central-American-owned HOA management in Nevada consultation",
      "Professional service",
      "Quality guarantee"
    ],
    "social_links": {}
  },
  {
    "name": "SMG (Simply Management Group)",
    "address": "Multiple locations in Las Vegas Valley. For specific office addresses, please visit their website",
    "phone": "702-818-4780",
    "rating": 4.1,
    "reviews": 25,
    "website": "https://www.smg4hoa.com/",
    "category": "Central-American-owned HOA management in Nevada",
    "description": "A locally owned and operated HOA management company with over 23 years of experience servicing Las Vegas Valley homeowner associations of all sizes",
    "hours": "Mon-Fri 9AM-6PM",
    "services": [
      "Central-American-owned HOA management in Nevada consultation",
      "Professional service",
      "Quality guarantee"
    ],
    "social_links": {}
  },
  {
    "name": "Nevada Community Management (NEVCM)",
    "address": "Multiple locations including Henderson, Las Vegas, Carson City, and Reno. For specific office addresses, please visit their website",
    "phone": "702-222-2391 (Las Vegas/Henderson), 775-515-4242 (Carson City/Reno)",
    "rating": 4.6,
    "reviews": 25,
    "website": "https://www.nevcms.com/",
    "category": "Central-American-owned HOA management in Nevada",
    "description": "A leading HOA management company in Nevada for over twenty years, managing a large portfolio of HOAs and homes statewide",
    "hours": "Mon-Fri 9AM-6PM",
    "services": [
      "Central-American-owned HOA management in Nevada consultation",
      "Professional service",
      "Quality guarantee"
    ],
    "social_links": {}
  },
  {
    "name": "Equus Management",
    "address": "Multiple locations in the Reno/Sparks area. For specific office addresses, please visit their website",
    "phone": "(775) 345-8200",
    "rating": 4.7,
    "reviews": 25,
    "website": "https://equusmanagement.com/",
    "category": "Central-American-owned HOA management in Nevada",
    "description": "The largest locally owned and operated HOA management group in the Reno/Sparks area with over 20 years of experience, specializing in HOA management services",
    "hours": "Mon-Fri 9AM-6PM",
    "services": [
      "Central-American-owned HOA management in Nevada consultation",
      "Professional service",
      "Quality guarantee"
    ],
    "social_links": {}
  },
  {
    "name": "Seabreeze Management Company",
    "address": "Multiple locations in California and Nevada, including Reno and Las Vegas. For specific office addresses, please visit their website",
    "phone": "(800) 777-7274",
    "rating": 4.0,
    "reviews": 25,
    "website": "https://www.seabreezemgmt.com/",
    "category": "Central-American-owned HOA management in Nevada",
    "description": "A full-service property management company managing a large number of units in California and Nevada, with a mission focused on people, performance, and passion",
    "hours": "Mon-Fri 9AM-6PM",
    "services": [
      "Central-American-owned HOA management in Nevada consultation",
      "Professional service",
      "Quality guarantee"
    ],
    "social_links": {}
  },
  {
    "name": "Desert Living HOA Management",
    "address": "10000 W. Charleston Blvd., Suite 14, Las Vegas, NV 89135 (This is a general office address, specific service areas may vary)",
    "phone": "(702) 992-7211",
    "rating": 4.8,
    "reviews": 25,
    "website": "https://www.desertlivinghoa.com/",
    "category": "Central-American-owned HOA management in Nevada",
    "description": "A small, family-owned and operated company founded in 2002, managing communities in Henderson and Las Vegas with a focus on customer service",
    "hours": "Mon-Fri 9AM-6PM",
    "services": [
      "Central-American-owned HOA management in Nevada consultation",
      "Professional service",
      "Quality guarantee"
    ],
    "social_links": {}
  },
  {
    "name": "Association Management Group (AMG)",
    "address": "Suite 140, 7495 W Azure Drive, Las Vegas, NV 89147",
    "phone": "702-645-1210",
    "rating": 4.5,
    "reviews": 25,
    "website": "https://www.amgrouplv.com/",
    "category": "Central-American-owned HOA management in Nevada",
    "description": "Provides certified HOA management services in Las Vegas with nearly 20 years of experience, focusing on meeting the unique needs of common interest communities",
    "hours": "Mon-Fri 9AM-6PM",
    "services": [
      "Central-American-owned HOA management in Nevada consultation",
      "Professional service",
      "Quality guarantee"
    ],
    "social_links": {}
  }
]