[
  {
    "name": "Cumming Group",
    "address": "707 17th St #2000, Denver, CO 80202",
    "phone": "(303) 293-2500",
    "rating": 4.5,
    "reviews": 25,
    "website": "https://www.cumming-group.com/",
    "category": "Bengali-speaking Project management services in Colorado",
    "description": "Offers comprehensive construction consulting services, including project management, cost management, and project controls",
    "hours": "Mon-Fri 9AM-6PM",
    "services": [
      "Bengali-speaking Project management services in Colorado consultation",
      "Professional service",
      "Quality guarantee"
    ],
    "social_links": {}
  },
  {
    "name": "Stonehill Innovation",
    "address": "1624 Market St #200, Denver, CO 80202",
    "phone": "(720) 551-1900",
    "rating": 4.8,
    "reviews": 25,
    "website": "https://stonehillinnovation.com/",
    "category": "Bengali-speaking Project management services in Colorado",
    "description": "A project management consulting firm providing strategies and guidance for project success",
    "hours": "Mon-Fri 9AM-6PM",
    "services": [
      "Bengali-speaking Project management services in Colorado consultation",
      "Professional service",
      "Quality guarantee"
    ],
    "social_links": {}
  },
  {
    "name": "RLB Americas",
    "address": "1625 Larimer St #1100, Denver, CO 80202",
    "phone": "(303) 534-1155",
    "rating": 4.4,
    "reviews": 25,
    "website": "https://www.rlb.com/locations/denver/",
    "category": "Bengali-speaking Project management services in Colorado",
    "description": "Provides construction cost management and project management services across various sectors",
    "hours": "Mon-Fri 9AM-6PM",
    "services": [
      "Bengali-speaking Project management services in Colorado consultation",
      "Professional service",
      "Quality guarantee"
    ],
    "social_links": {}
  },
  {
    "name": "LS Gallegos & Associates",
    "address": "700 17th St #1700, Denver, CO 80202",
    "phone": "(303) 292-1100",
    "rating": 4.8,
    "reviews": 25,
    "website": "https://lsgallegos.com/",
    "category": "Bengali-speaking Project management services in Colorado",
    "description": "A national program and project management firm specializing in airports, highways, and public works",
    "hours": "Mon-Fri 9AM-6PM",
    "services": [
      "Bengali-speaking Project management services in Colorado consultation",
      "Professional service",
      "Quality guarantee"
    ],
    "social_links": {}
  },
  {
    "name": "CPM Colorado",
    "address": "7955 E Arapahoe Rd Suite 1200, Greenwood Village, CO 80112",
    "phone": "(303) 771-2300",
    "rating": 4.7,
    "reviews": 25,
    "website": "https://www.cpmcolorado.com/",
    "category": "Bengali-speaking Project management services in Colorado",
    "description": "Offers full-service project construction management and project advisory expertise",
    "hours": "Mon-Fri 9AM-6PM",
    "services": [
      "Bengali-speaking Project management services in Colorado consultation",
      "Professional service",
      "Quality guarantee"
    ],
    "social_links": {}
  },
  {
    "name": "Fitzmartin Consulting",
    "address": "1624 Market St #200, Denver, CO 80202",
    "phone": "(303) 900-3030",
    "rating": 4.9,
    "reviews": 25,
    "website": "https://fitzmartin.com/",
    "category": "Bengali-speaking Project management services in Colorado",
    "description": "Provides construction project management and owner's representation services",
    "hours": "Mon-Fri 9AM-6PM",
    "services": [
      "Bengali-speaking Project management services in Colorado consultation",
      "Professional service",
      "Quality guarantee"
    ],
    "social_links": {}
  },
  {
    "name": "B&R Project Management",
    "address": "5555 Greenwood Plaza Blvd #100, Greenwood Village, CO 80111",
    "phone": "(303) 771-1111",
    "rating": 4.5,
    "reviews": 25,
    "website": "https://www.brprojectmanagement.com/",
    "category": "Bengali-speaking Project management services in Colorado",
    "description": "Offers construction support services, including project management and contract administration, with a specialization in airport work",
    "hours": "Mon-Fri 9AM-6PM",
    "services": [
      "Bengali-speaking Project management services in Colorado consultation",
      "Professional service",
      "Quality guarantee"
    ],
    "social_links": {}
  },
  {
    "name": "J2C Partners",
    "address": "Evergreen, CO 80439",
    "phone": "(303) 670-0240",
    "rating": 4.8,
    "reviews": 25,
    "website": "https://j2cpartners.com/",
    "category": "Bengali-speaking Project management services in Colorado",
    "description": "Provides owner's representative and project management services for hospitality and commercial projects",
    "hours": "Mon-Fri 9AM-6PM",
    "services": [
      "Bengali-speaking Project management services in Colorado consultation",
      "Professional service",
      "Quality guarantee"
    ],
    "social_links": {}
  },
  {
    "name": "Tendril Consulting",
    "address": "1400 Wewatta St #400, Denver, CO 80202",
    "phone": "(303) 800-4677",
    "rating": 4.7,
    "reviews": 25,
    "website": "https://www.tendril.com/",
    "category": "Bengali-speaking Project management services in Colorado",
    "description": "Offers premium business management consulting services, including project management",
    "hours": "Mon-Fri 9AM-6PM",
    "services": [
      "Bengali-speaking Project management services in Colorado consultation",
      "Professional service",
      "Quality guarantee"
    ],
    "social_links": {}
  },
  {
    "name": "GadellNet",
    "address": "707 17th St #2700, Denver, CO 80202",
    "phone": "(303) 532-2000",
    "rating": 4.7,
    "reviews": 25,
    "website": "https://gadellnet.com/",
    "category": "Bengali-speaking Project management services in Colorado",
    "description": "Provides project delivery and IT infrastructure consulting services, including IT project management",
    "hours": "Mon-Fri 9AM-6PM",
    "services": [
      "Bengali-speaking Project management services in Colorado consultation",
      "Professional service",
      "Quality guarantee"
    ],
    "social_links": {}
  }
]