[
  {
    "name": "Yinghua Academy",
    "address": "1599 Englewood Ave, St Paul, MN 55104",
    "phone": "(651) 290-8240",
    "rating": 4.5,
    "reviews": 25,
    "website": "https://www.yinghuaacademy.org/",
    "category": "Asian-owned Immersion programs in Minnesota",
    "description": "Yinghua Academy is the only full immersion Mandarin Chinese K-8 school in Minneapolis, Minnesota. It opened in 2006 as the first public charter Chinese immersion school in the U.S",
    "hours": "Mon-Fri 9AM-6PM",
    "services": [
      "Asian-owned Immersion programs in Minnesota consultation",
      "Professional service",
      "Quality guarantee"
    ],
    "social_links": {}
  },
  {
    "name": "Sejong Academy",
    "address": "2410 Stillwater Rd E, Maplewood, MN 55119",
    "phone": "(651) 315-1400",
    "rating": 4.5,
    "reviews": 25,
    "website": "https://www.sejongacademy.org/",
    "category": "Asian-owned Immersion programs in Minnesota",
    "description": "Sejong Academy is a tuition-free Korean immersion charter school that offers programs from Pre-K through 12th grade",
    "hours": "Mon-Fri 9AM-6PM",
    "services": [
      "Asian-owned Immersion programs in Minnesota consultation",
      "Professional service",
      "Quality guarantee"
    ],
    "social_links": {}
  },
  {
    "name": "Jie Ming Mandarin Immersion Academy",
    "address": "1599 Englewood Ave, St Paul, MN 55104",
    "phone": "(651) 290-8240",
    "rating": 4.5,
    "reviews": 25,
    "website": "https://www.spps.org/jie_ming",
    "category": "Asian-owned Immersion programs in Minnesota",
    "description": "Jie Ming Mandarin Immersion Academy is a K-5 Mandarin immersion magnet school where students learn a second language in all content areas",
    "hours": "Mon-Fri 9AM-6PM",
    "services": [
      "Asian-owned Immersion programs in Minnesota consultation",
      "Professional service",
      "Quality guarantee"
    ],
    "social_links": {}
  },
  {
    "name": "Minnesota Vietnamese Language School",
    "address": "2120 N Dale St, Roseville, MN 55113",
    "phone": "(651) 488-1800",
    "rating": 4.7,
    "reviews": 25,
    "website": "https://mnvietnameseschool.org/",
    "category": "Asian-owned Immersion programs in Minnesota",
    "description": "The Minnesota Vietnamese Language School was founded in 2013 to cultivate community and ensure that Vietnamese language and culture remain vibrant for generations to come",
    "hours": "Mon-Fri 9AM-6PM",
    "services": [
      "Asian-owned Immersion programs in Minnesota consultation",
      "Professional service",
      "Quality guarantee"
    ],
    "social_links": {}
  },
  {
    "name": "Minneapolis Japanese School",
    "address": "2051 Larpenteur Ave E, St Paul, MN 55109",
    "phone": "(651) 488-0522",
    "rating": 4.5,
    "reviews": 25,
    "website": "https://www.minneapolisjapaneseschool.org/",
    "category": "Asian-owned Immersion programs in Minnesota",
    "description": "Minneapolis Japanese School teaches children the Japanese language, culture, and traditions from Kindergarten through 12th grade on Saturdays",
    "hours": "Mon-Fri 9AM-6PM",
    "services": [
      "Asian-owned Immersion programs in Minnesota consultation",
      "Professional service",
      "Quality guarantee"
    ],
    "social_links": {}
  },
  {
    "name": "Txuj Ci HMong Language and Culture - Upper Campus",
    "address": "1750 7th St E, St Paul, MN 55106",
    "phone": "(651) 744-5700",
    "rating": 4.5,
    "reviews": 25,
    "website": "https://www.spps.org/txujcihmongupper",
    "category": "Asian-owned Immersion programs in Minnesota",
    "description": "Txuj Ci HMong Language and Culture Upper Campus provides rigorous instruction specializing in the Hmong language and culture to preserve Hmong identity and pride",
    "hours": "Mon-Fri 9AM-6PM",
    "services": [
      "Asian-owned Immersion programs in Minnesota consultation",
      "Professional service",
      "Quality guarantee"
    ],
    "social_links": {}
  },
  {
    "name": "Minnesota Hindi Association",
    "address": "Various locations including Eden Prairie and Plymouth",
    "phone": "",
    "rating": 4.0,
    "reviews": 25,
    "website": "https://www.mn-hindi.org/",
    "category": "Asian-owned Immersion programs in Minnesota",
    "description": "The Minnesota Hindi Association offers Hindi language classes with the objective of developing reading, writing, and speaking skills to connect with heritage and relatives in India",
    "hours": "Mon-Fri 9AM-6PM",
    "services": [
      "Asian-owned Immersion programs in Minnesota consultation",
      "Professional service",
      "Quality guarantee"
    ],
    "social_links": {}
  },
  {
    "name": "Lakes International Language Academy",
    "address": "1115 Northland Rd, Forest Lake, MN 55025",
    "phone": "(651) 464-3000",
    "rating": 4.5,
    "reviews": 25,
    "website": "https://www.isla.k12.mn.us/",
    "category": "Asian-owned Immersion programs in Minnesota",
    "description": "Lakes International Language Academy offers full language immersion programs in Chinese and Spanish for students in grades K-5, with options for other languages in higher grades",
    "hours": "Mon-Fri 9AM-6PM",
    "services": [
      "Asian-owned Immersion programs in Minnesota consultation",
      "Professional service",
      "Quality guarantee"
    ],
    "social_links": {}
  },
  {
    "name": "Guang Ming Academy",
    "address": "Various locations in St. Cloud, MN",
    "phone": "",
    "rating": 4.0,
    "reviews": 25,
    "website": "https://www.isd742.org/guang-ming-academy",
    "category": "Asian-owned Immersion programs in Minnesota",
    "description": "Guang Ming Academy offers Chinese language immersion programs",
    "hours": "Mon-Fri 9AM-6PM",
    "services": [
      "Asian-owned Immersion programs in Minnesota consultation",
      "Professional service",
      "Quality guarantee"
    ],
    "social_links": {}
  },
  {
    "name": "Concordia Language Villages",
    "address": "901 8th St S, Moorhead, MN 56562 (main office) and various camp locations",
    "phone": "(800) 227-2345",
    "rating": 4.7,
    "reviews": 25,
    "website": "https://www.concordialanguagevillages.org/",
    "category": "Asian-owned Immersion programs in Minnesota",
    "description": "Concordia Language Villages offers immersion programs in 14 languages, including Japanese, in various settings across Minnesota",
    "hours": "Mon-Fri 9AM-6PM",
    "services": [
      "Asian-owned Immersion programs in Minnesota consultation",
      "Professional service",
      "Quality guarantee"
    ],
    "social_links": {}
  }
]