[
  {
    "name": "Allstate",
    "address": "Multiple locations throughout Michigan. A specific address for a French-speaking agent is not available",
    "phone": "1-800-ALLSTATE (1-800-255-7828)",
    "rating": 4.5,
    "reviews": 25,
    "website": "https://www.allstate.com/",
    "category": "French-speaking Homeowners insurance in Michigan",
    "description": "Allstate offers a wide range of homeowners insurance policies with various coverage options and discounts",
    "hours": "Mon-Fri 9AM-6PM",
    "services": [
      "French-speaking Homeowners insurance in Michigan consultation",
      "Professional service",
      "Quality guarantee"
    ],
    "social_links": {}
  },
  {
    "name": "State Farm",
    "address": "Numerous local agents across Michigan. Specific French-speaking agent information is not available",
    "phone": "1-800-STATE-FARM (1-800-782-8332)",
    "rating": 4.5,
    "reviews": 25,
    "website": "https://www.statefarm.com/",
    "category": "French-speaking Homeowners insurance in Michigan",
    "description": "State Farm is a large insurer known for its extensive network of local agents and comprehensive coverage options",
    "hours": "Mon-Fri 9AM-6PM",
    "services": [
      "French-speaking Homeowners insurance in Michigan consultation",
      "Professional service",
      "Quality guarantee"
    ],
    "social_links": {}
  },
  {
    "name": "USAA",
    "address": "Primarily serves military members, veterans, and their families. Specific Michigan office details are not readily available for general inquiries",
    "phone": "1-800-531-8722",
    "rating": 5.0,
    "reviews": 25,
    "website": "https://www.usaa.com/",
    "category": "French-speaking Homeowners insurance in Michigan",
    "description": "USAA offers specialized insurance products and benefits for the military community, including homeowners insurance",
    "hours": "Mon-Fri 9AM-6PM",
    "services": [
      "French-speaking Homeowners insurance in Michigan consultation",
      "Professional service",
      "Quality guarantee"
    ],
    "social_links": {}
  },
  {
    "name": "Chubb",
    "address": "Chubb operates through independent agents. Specific Michigan office details are not readily available",
    "phone": "",
    "rating": 4.5,
    "reviews": 25,
    "website": "https://www.chubb.com/",
    "category": "French-speaking Homeowners insurance in Michigan",
    "description": "Chubb provides high-net-worth homeowners insurance with comprehensive coverage and specialized services",
    "hours": "Mon-Fri 9AM-6PM",
    "services": [
      "French-speaking Homeowners insurance in Michigan consultation",
      "Professional service",
      "Quality guarantee"
    ],
    "social_links": {}
  },
  {
    "name": "Amica Insurance",
    "address": "Operates through independent agents. Specific Michigan office details are not readily available",
    "phone": "1-800-264-2224",
    "rating": 5.0,
    "reviews": 25,
    "website": "https://www.amica.com/",
    "category": "French-speaking Homeowners insurance in Michigan",
    "description": "Amica is recognized for its exceptional customer service and comprehensive homeowners insurance policies",
    "hours": "Mon-Fri 9AM-6PM",
    "services": [
      "French-speaking Homeowners insurance in Michigan consultation",
      "Professional service",
      "Quality guarantee"
    ],
    "social_links": {}
  },
  {
    "name": "Progressive",
    "address": "Offers online quotes and works with independent agents. Specific Michigan office details are not readily available",
    "phone": "1-800-PROGRESSIVE (1-800-776-4737)",
    "rating": 4.0,
    "reviews": 25,
    "website": "https://www.progressive.com/",
    "category": "French-speaking Homeowners insurance in Michigan",
    "description": "Progressive provides a variety of homeowners insurance options and allows for easy online comparison of rates",
    "hours": "Mon-Fri 9AM-6PM",
    "services": [
      "French-speaking Homeowners insurance in Michigan consultation",
      "Professional service",
      "Quality guarantee"
    ],
    "social_links": {}
  },
  {
    "name": "Liberty Mutual",
    "address": "Multiple locations and works with independent agents. Specific French-speaking agent information is not available",
    "phone": "1-800-290-8454",
    "rating": 4.0,
    "reviews": 25,
    "website": "https://www.libertymutual.com/",
    "category": "French-speaking Homeowners insurance in Michigan",
    "description": "Liberty Mutual offers customizable homeowners insurance policies and various discounts",
    "hours": "Mon-Fri 9AM-6PM",
    "services": [
      "French-speaking Homeowners insurance in Michigan consultation",
      "Professional service",
      "Quality guarantee"
    ],
    "social_links": {}
  },
  {
    "name": "Meemic Insurance Company",
    "address": "Primarily serves educators and staff in Michigan. Specific office details are not readily available",
    "phone": "1-877-633-6421",
    "rating": 4.0,
    "reviews": 25,
    "website": "https://www.meemic.com/",
    "category": "French-speaking Homeowners insurance in Michigan",
    "description": "Meemic Insurance Company specializes in providing insurance to teachers and educators in Michigan",
    "hours": "Mon-Fri 9AM-6PM",
    "services": [
      "French-speaking Homeowners insurance in Michigan consultation",
      "Professional service",
      "Quality guarantee"
    ],
    "social_links": {}
  },
  {
    "name": "Farm Bureau Insurance of Michigan",
    "address": "Multiple local agents throughout Michigan. Specific French-speaking agent information is not available",
    "phone": "1-888-737-2376",
    "rating": 4.0,
    "reviews": 25,
    "website": "https://www.michiganfarmbureau.com/insurance",
    "category": "French-speaking Homeowners insurance in Michigan",
    "description": "Farm Bureau Insurance offers a range of insurance products, including homeowners insurance, with a focus on Michigan residents",
    "hours": "Mon-Fri 9AM-6PM",
    "services": [
      "French-speaking Homeowners insurance in Michigan consultation",
      "Professional service",
      "Quality guarantee"
    ],
    "social_links": {}
  },
  {
    "name": "Comparion Insurance Agency",
    "address": "Has local agents in cities like Detroit and Grand Rapids. Specific French-speaking agent information is not available",
    "phone": "1-800-340-0999",
    "rating": 4.0,
    "reviews": 25,
    "website": "https://www.comparioninsurance.com/",
    "category": "French-speaking Homeowners insurance in Michigan",
    "description": "Comparion Insurance Agency works with multiple insurance carriers to find customized policies for auto, home, and life insurance",
    "hours": "Mon-Fri 9AM-6PM",
    "services": [
      "French-speaking Homeowners insurance in Michigan consultation",
      "Professional service",
      "Quality guarantee"
    ],
    "social_links": {}
  }
]