[
  {
    "name": "Battery Service, Inc.",
    "address": "4000 Statesville Rd, Charlotte, NC 28269",
    "phone": "(704) 392-1231",
    "rating": 4.5,
    "reviews": 25,
    "website": "http://www.batteryserviceinc.com/",
    "category": "Bengali-speaking Battery service in North-Carolina",
    "description": "Locally owned company with over 25 years of experience, offering a wide selection of batteries for various applications, including automotive, powersports, and industrial equipment. They also buy junk batteries",
    "hours": "Mon-Fri 9AM-6PM",
    "services": [
      "Bengali-speaking Battery service in North-Carolina consultation",
      "Professional service",
      "Quality guarantee"
    ],
    "social_links": {}
  },
  {
    "name": "Assurance Tire and Service",
    "address": "8681 Marvino Ln, Raleigh, NC 27617",
    "phone": "(919) 364-6769",
    "rating": 4.7,
    "reviews": 25,
    "website": "https://www.assurancetire.com/",
    "category": "Bengali-speaking Battery service in North-Carolina",
    "description": "Offers car battery replacement services with ASE-certified technicians. They provide same-day replacements and are a Carfax top-rated repair center",
    "hours": "Mon-Fri 9AM-6PM",
    "services": [
      "Bengali-speaking Battery service in North-Carolina consultation",
      "Professional service",
      "Quality guarantee"
    ],
    "social_links": {}
  },
  {
    "name": "New LIFE Automotive",
    "address": "446 W Main St, Franklin, NC 28734",
    "phone": "(828) 349-5555",
    "rating": 4.9,
    "reviews": 25,
    "website": "https://newlifeautomotive.com/",
    "category": "Bengali-speaking Battery service in North-Carolina",
    "description": "Specializes in diagnosing and repairing complex auto electrical issues, including battery problems. They have ASE-certified technicians and offer a 36-month/36,000-mile warranty",
    "hours": "Mon-Fri 9AM-6PM",
    "services": [
      "Bengali-speaking Battery service in North-Carolina consultation",
      "Professional service",
      "Quality guarantee"
    ],
    "social_links": {}
  },
  {
    "name": "Mr. Nobody Tire Pros",
    "address": "2020 E Franklin Blvd, Gastonia, NC 28054",
    "phone": "(704) 864-0041",
    "rating": 4.5,
    "reviews": 25,
    "website": "https://mrnobodytirepros.com/",
    "category": "Bengali-speaking Battery service in North-Carolina",
    "description": "Provides auto electrical service, including diagnosing and repairing electrical issues, wiring, and replacing electrical parts. They offer comprehensive car battery replacement and electrical system repairs",
    "hours": "Mon-Fri 9AM-6PM",
    "services": [
      "Bengali-speaking Battery service in North-Carolina consultation",
      "Professional service",
      "Quality guarantee"
    ],
    "social_links": {}
  },
  {
    "name": "Mobile Mechanic Pros Durham",
    "address": "3007 Guess Rd, Durham, NC 27705",
    "phone": "(919) 627-1110",
    "rating": 4.8,
    "reviews": 25,
    "website": "https://mobilemechanicpros.com/durham-nc/",
    "category": "Bengali-speaking Battery service in North-Carolina",
    "description": "Offers mobile car battery replacement services in Durham, NC. They provide battery evaluations and replacements, and can also assist with jump-starts",
    "hours": "Mon-Fri 9AM-6PM",
    "services": [
      "Bengali-speaking Battery service in North-Carolina consultation",
      "Professional service",
      "Quality guarantee"
    ],
    "social_links": {}
  },
  {
    "name": "Buddy Isles Tire and Automotive",
    "address": "501 W Littleton Blvd, Littleton, NC 27850",
    "phone": "(252) 586-4111",
    "rating": 4.7,
    "reviews": 25,
    "website": "https://buddyislesauto.com/",
    "category": "Bengali-speaking Battery service in North-Carolina",
    "description": "Offers professional battery replacement services with expert technicians and advanced diagnostic equipment. They are a TechNet-certified facility",
    "hours": "Mon-Fri 9AM-6PM",
    "services": [
      "Bengali-speaking Battery service in North-Carolina consultation",
      "Professional service",
      "Quality guarantee"
    ],
    "social_links": {}
  },
  {
    "name": "Battery Service & Supply Company",
    "address": "3100 Freedom Dr, Charlotte, NC 28208",
    "phone": "(704) 394-5353",
    "rating": 4.6,
    "reviews": 25,
    "website": "https://www.bsscc.com/",
    "category": "Bengali-speaking Battery service in North-Carolina",
    "description": "A family-owned business with over 40 years of experience, offering discounted prices on new, used, and refurbished batteries for various uses, including automotive, golf carts, and lawn and garden equipment. They also offer free battery testing and buy scrap batteries",
    "hours": "Mon-Fri 9AM-6PM",
    "services": [
      "Bengali-speaking Battery service in North-Carolina consultation",
      "Professional service",
      "Quality guarantee"
    ],
    "social_links": {}
  },
  {
    "name": "Firestone Complete Auto Care",
    "address": "Multiple locations in Raleigh and Charlotte, NC. (Example: 5909 Glenwood Ave, Raleigh, NC 27612)",
    "phone": "(919) 787-0200 (for Raleigh location)",
    "rating": 4.4,
    "reviews": 25,
    "website": "https://www.firestonecompleteautocare.com/",
    "category": "Bengali-speaking Battery service in North-Carolina",
    "description": "Offers battery checks, diagnostics, and replacement services. They provide comprehensive vehicle care and have a wide selection of tires and batteries",
    "hours": "Mon-Fri 9AM-6PM",
    "services": [
      "Bengali-speaking Battery service in North-Carolina consultation",
      "Professional service",
      "Quality guarantee"
    ],
    "social_links": {}
  },
  {
    "name": "Batteries Plus",
    "address": "4907 Atlantic Ave, Raleigh, NC 27604",
    "phone": "(919) 850-0000",
    "rating": 4.5,
    "reviews": 25,
    "website": "https://www.batteriesplus.com/",
    "category": "Bengali-speaking Battery service in North-Carolina",
    "description": "Offers a wide range of batteries for vehicles, electronics, and power tools, as well as battery installation services. They also provide device repair services",
    "hours": "Mon-Fri 9AM-6PM",
    "services": [
      "Bengali-speaking Battery service in North-Carolina consultation",
      "Professional service",
      "Quality guarantee"
    ],
    "social_links": {}
  },
  {
    "name": "Sturdivant's Tire Pros & Auto",
    "address": "3104 W Hwy 54, Chapel Hill, NC 27516",
    "phone": "(919) 942-8473",
    "rating": 4.6,
    "reviews": 25,
    "website": "https://www.sturdivantstire.com/",
    "category": "Bengali-speaking Battery service in North-Carolina",
    "description": "Provides vehicle battery service, starting system service, and charging system service. They can diagnose battery issues and perform replacements",
    "hours": "Mon-Fri 9AM-6PM",
    "services": [
      "Bengali-speaking Battery service in North-Carolina consultation",
      "Professional service",
      "Quality guarantee"
    ],
    "social_links": {}
  }
]