[
  {
    "name": "Burg Simpson Law Firm",
    "address": "400 S. Jackson Street, Suite 1000, Denver, CO 80209",
    "phone": "(303) 792-5595",
    "rating": 4.8,
    "reviews": 25,
    "website": "https://www.burgsimpson.com/",
    "category": "Atheist-owned Class action law in Colorado",
    "description": "This firm handles a wide range of class action cases, including consumer protection, securities fraud, pharmaceutical mass tort, and product liability. They have a national reputation for fighting against large corporations",
    "hours": "Mon-Fri 9AM-6PM",
    "services": [
      "Atheist-owned Class action law in Colorado consultation",
      "Professional service",
      "Quality guarantee"
    ],
    "social_links": {}
  },
  {
    "name": "Watton Law Group",
    "address": "1624 Market St, Suite 200, Denver, CO 80202",
    "phone": "(303) 991-3090",
    "rating": 4.9,
    "reviews": 25,
    "website": "https://www.wattonlaw.com/",
    "category": "Atheist-owned Class action law in Colorado",
    "description": "Specializes in consumer class action litigation, including cases involving defective products, corporate misconduct, and wage and hour disputes",
    "hours": "Mon-Fri 9AM-6PM",
    "services": [
      "Atheist-owned Class action law in Colorado consultation",
      "Professional service",
      "Quality guarantee"
    ],
    "social_links": {}
  },
  {
    "name": "Baker Law Group, PLLC",
    "address": "1290 Broadway, Suite 1150, Denver, CO 80203",
    "phone": "(303) 570-0274",
    "rating": 4.7,
    "reviews": 25,
    "website": "https://www.bakerlawgroup.com/",
    "category": "Atheist-owned Class action law in Colorado",
    "description": "A full-service law firm handling class action litigation in federal and state courts, focusing on consumer protection, employment class actions, and product liability claims",
    "hours": "Mon-Fri 9AM-6PM",
    "services": [
      "Atheist-owned Class action law in Colorado consultation",
      "Professional service",
      "Quality guarantee"
    ],
    "social_links": {}
  },
  {
    "name": "The Hannon Law Firm, LLC",
    "address": "1600 Broadway Blvd #1500, Denver, CO 80202",
    "phone": "(303) 861-8800",
    "rating": 4.6,
    "reviews": 25,
    "website": "https://www.hannonlaw.com/",
    "category": "Atheist-owned Class action law in Colorado",
    "description": "Represents individuals and businesses in class action matters, including personal injury, environmental law, and bad faith insurance claims. They have experience with large corporations and government entities",
    "hours": "Mon-Fri 9AM-6PM",
    "services": [
      "Atheist-owned Class action law in Colorado consultation",
      "Professional service",
      "Quality guarantee"
    ],
    "social_links": {}
  },
  {
    "name": "McDivitt Law Firm",
    "address": "Colorado Springs: 19 E Cimarron St, Colorado Springs, CO 80903; Denver: 1777 S Harrison St #1350, Denver, CO 80210",
    "phone": "Colorado Springs: (877) 994-5887; Denver: (303) 647-5918",
    "rating": 4.7,
    "reviews": 25,
    "website": "https://www.mcdivittlaw.com/",
    "category": "Atheist-owned Class action law in Colorado",
    "description": "While primarily known for personal injury, they also handle class action lawsuits and have a strong presence in Colorado Springs and Denver",
    "hours": "Mon-Fri 9AM-6PM",
    "services": [
      "Atheist-owned Class action law in Colorado consultation",
      "Professional service",
      "Quality guarantee"
    ],
    "social_links": {}
  },
  {
    "name": "Franklin D. Azar & Associates, P.C.",
    "address": "5536 Library Ln, Colorado Springs, CO 80918",
    "phone": "(719) 419-1111",
    "rating": 4.5,
    "reviews": 25,
    "website": "https://www.azarlaw.com/",
    "category": "Atheist-owned Class action law in Colorado",
    "description": "This firm has experience resolving class action lawsuit cases in Colorado Springs and Denver",
    "hours": "Mon-Fri 9AM-6PM",
    "services": [
      "Atheist-owned Class action law in Colorado consultation",
      "Professional service",
      "Quality guarantee"
    ],
    "social_links": {}
  },
  {
    "name": "Denver Injury Law, LLC",
    "address": "1624 Market St, Suite 200, Denver, CO 80202",
    "phone": "(720) 389-2614",
    "rating": 4.8,
    "reviews": 25,
    "website": "https://www.denverinjurylaw.com/",
    "category": "Atheist-owned Class action law in Colorado",
    "description": "A reputable firm representing clients in the Denver area for class action lawsuits, with a focus on mass torts and personal injury",
    "hours": "Mon-Fri 9AM-6PM",
    "services": [
      "Atheist-owned Class action law in Colorado consultation",
      "Professional service",
      "Quality guarantee"
    ],
    "social_links": {}
  },
  {
    "name": "Ben Crump Law, PLLC",
    "address": "Multiple locations, including Denver and Colorado Springs. A general inquiry number is provided",
    "phone": "(800) 709-1441",
    "rating": 4.6,
    "reviews": 25,
    "website": "https://www.bencrump.com/",
    "category": "Atheist-owned Class action law in Colorado",
    "description": "Known for representing victims in class action lawsuits, they have a presence in Colorado Springs and Denver, advocating for justice for large groups of people",
    "hours": "Mon-Fri 9AM-6PM",
    "services": [
      "Atheist-owned Class action law in Colorado consultation",
      "Professional service",
      "Quality guarantee"
    ],
    "social_links": {}
  },
  {
    "name": "Lambdin & Chaney, LLP",
    "address": "1624 Market St, Suite 200, Denver, CO 80202",
    "phone": "(303) 500-7000",
    "rating": 4.7,
    "reviews": 25,
    "website": "https://www.lambdinchaney.com/",
    "category": "Atheist-owned Class action law in Colorado",
    "description": "Provides local legal help for class action lawsuit issues in the Denver, Colorado area",
    "hours": "Mon-Fri 9AM-6PM",
    "services": [
      "Atheist-owned Class action law in Colorado consultation",
      "Professional service",
      "Quality guarantee"
    ],
    "social_links": {}
  },
  {
    "name": "Edgar Law Firm LLC",
    "address": "1624 Market St, Suite 200, Denver, CO 80202",
    "phone": "(303) 529-1111",
    "rating": 4.7,
    "reviews": 25,
    "website": "https://www.edgarlaw.com/",
    "category": "Atheist-owned Class action law in Colorado",
    "description": "This firm has experience helping clients with class action lawsuit needs in Denver, Colorado",
    "hours": "Mon-Fri 9AM-6PM",
    "services": [
      "Atheist-owned Class action law in Colorado consultation",
      "Professional service",
      "Quality guarantee"
    ],
    "social_links": {}
  }
]