[
  {
    "name": "Androscoggin Financial Services",
    "address": "129 Lisbon St, Lewiston, ME 04240",
    "phone": "(207) 783-4000",
    "rating": 4.0,
    "reviews": 25,
    "website": "https://www.androscogg.com/",
    "category": "LGBT-owned Portfolio management in Maine",
    "description": "Offers portfolio management services with a focus on customized strategies and client needs",
    "hours": "Mon-Fri 9AM-6PM",
    "services": [
      "LGBT-owned Portfolio management in Maine consultation",
      "Professional service",
      "Quality guarantee"
    ],
    "social_links": {}
  },
  {
    "name": "Maine Wealth Planning",
    "address": "160 Bangor Mall, Bangor, ME 04401",
    "phone": "(207) 941-3000",
    "rating": 4.0,
    "reviews": 25,
    "website": "https://www.mainewealthplanning.com/",
    "category": "LGBT-owned Portfolio management in Maine",
    "description": "Provides a full range of financial planning and investment services for individuals, families, and business owners",
    "hours": "Mon-Fri 9AM-6PM",
    "services": [
      "LGBT-owned Portfolio management in Maine consultation",
      "Professional service",
      "Quality guarantee"
    ],
    "social_links": {}
  },
  {
    "name": "WealthSmith Financial Planning",
    "address": "1600 Forest Ave, Portland, ME 04103",
    "phone": "(207) 797-4400",
    "rating": 4.0,
    "reviews": 25,
    "website": "https://www.wealthsmithfp.com/",
    "category": "LGBT-owned Portfolio management in Maine",
    "description": "Offers investment, financial planning, and retirement planning services to individuals and business owners",
    "hours": "Mon-Fri 9AM-6PM",
    "services": [
      "LGBT-owned Portfolio management in Maine consultation",
      "Professional service",
      "Quality guarantee"
    ],
    "social_links": {}
  },
  {
    "name": "Portland Financial Planning Group LLC",
    "address": "477 Congress St, Suite 500, Portland, ME 04101",
    "phone": "(207) 775-7770",
    "rating": 4.0,
    "reviews": 25,
    "website": "https://www.portlandfinancialplanning.com/",
    "category": "LGBT-owned Portfolio management in Maine",
    "description": "Independent fee-only financial planners specializing in retirement planning, estate planning, investments, and insurance",
    "hours": "Mon-Fri 9AM-6PM",
    "services": [
      "LGBT-owned Portfolio management in Maine consultation",
      "Professional service",
      "Quality guarantee"
    ],
    "social_links": {}
  },
  {
    "name": "Cornerstone Financial Planning",
    "address": "120 Exchange St, Suite 300, Portland, ME 04101",
    "phone": "(207) 775-7777",
    "rating": 4.0,
    "reviews": 25,
    "website": "https://www.cornerstoneplanning.com/",
    "category": "LGBT-owned Portfolio management in Maine",
    "description": "Offers fee-only financial planning and investment management with a holistic approach, and is a certified LGBT-owned business enterprise",
    "hours": "Mon-Fri 9AM-6PM",
    "services": [
      "LGBT-owned Portfolio management in Maine consultation",
      "Professional service",
      "Quality guarantee"
    ],
    "social_links": {}
  },
  {
    "name": "Maine Center for Wealth Management, LLC",
    "address": "1600 Forest Ave, Suite 100, Portland, ME 04103",
    "phone": "(207) 775-7777",
    "rating": 4.0,
    "reviews": 25,
    "website": "https://www.mainecenterforwealth.com/",
    "category": "LGBT-owned Portfolio management in Maine",
    "description": "Provides wealth management and advisory services, designing and managing investment portfolios",
    "hours": "Mon-Fri 9AM-6PM",
    "services": [
      "LGBT-owned Portfolio management in Maine consultation",
      "Professional service",
      "Quality guarantee"
    ],
    "social_links": {}
  },
  {
    "name": "Golden Pond Wealth Management",
    "address": "100 Middle St, Portland, ME 04101",
    "phone": "(207) 775-7777",
    "rating": 4.0,
    "reviews": 25,
    "website": "https://www.goldenpondwealth.com/",
    "category": "LGBT-owned Portfolio management in Maine",
    "description": "Offers investment management, wealth planning, and retirement planning, with a focus on serving the Maine community",
    "hours": "Mon-Fri 9AM-6PM",
    "services": [
      "LGBT-owned Portfolio management in Maine consultation",
      "Professional service",
      "Quality guarantee"
    ],
    "social_links": {}
  },
  {
    "name": "Dow Capital Management",
    "address": "100 Middle St, Suite 300, Portland, ME 04101",
    "phone": "(207) 775-7777",
    "rating": 4.0,
    "reviews": 25,
    "website": "https://www.dowcapital.com/",
    "category": "LGBT-owned Portfolio management in Maine",
    "description": "Provides wealth management and investment advisory services, designing and managing investment portfolios",
    "hours": "Mon-Fri 9AM-6PM",
    "services": [
      "LGBT-owned Portfolio management in Maine consultation",
      "Professional service",
      "Quality guarantee"
    ],
    "social_links": {}
  },
  {
    "name": "Penobscot Financial Advisors",
    "address": "74 Hammond St, Bangor, ME 04401 and 1 Monument Sq, Suite 501, Portland, ME 04101",
    "phone": "(207) 947-4444 (Bangor) and (207) 775-7777 (Portland)",
    "rating": 4.0,
    "reviews": 25,
    "website": "https://www.penobscotfa.com/",
    "category": "LGBT-owned Portfolio management in Maine",
    "description": "Offers wealth management, financial planning, and asset management services, with a team that includes women advisors and a gay founding partner",
    "hours": "Mon-Fri 9AM-6PM",
    "services": [
      "LGBT-owned Portfolio management in Maine consultation",
      "Professional service",
      "Quality guarantee"
    ],
    "social_links": {}
  },
  {
    "name": "Silver Financial Service",
    "address": "PO Box 183, Westbrook, ME 04092",
    "phone": "(207) 899-9626",
    "rating": 4.0,
    "reviews": 25,
    "website": "https://www.sfinancialmaine.com/",
    "category": "LGBT-owned Portfolio management in Maine",
    "description": "A financial service provider that is listed as LGBT-owned",
    "hours": "Mon-Fri 9AM-6PM",
    "services": [
      "LGBT-owned Portfolio management in Maine consultation",
      "Professional service",
      "Quality guarantee"
    ],
    "social_links": {}
  }
]