[
  {
    "name": "NOW CFO - Bend Office",
    "address": "1500 NW 12th St, Bend, OR 97703",
    "phone": "(541) 323-3110",
    "rating": 4.8,
    "reviews": 25,
    "website": "https://nowcfo.com/locations/bend-oregon/",
    "category": "Agnostic-owned Interim controller in Oregon",
    "description": "Offers fractional CFO and accounting services, including interim controller support for businesses of all sizes",
    "hours": "Mon-Fri 9AM-6PM",
    "services": [
      "Agnostic-owned Interim controller in Oregon consultation",
      "Professional service",
      "Quality guarantee"
    ],
    "social_links": {}
  },
  {
    "name": "NOW CFO - Portland Office",
    "address": "1000 SW Broadway Suite 1670, Portland, OR 97205",
    "phone": "(503) 451-0001",
    "rating": 4.7,
    "reviews": 25,
    "website": "https://nowcfo.com/locations/portland-oregon/",
    "category": "Agnostic-owned Interim controller in Oregon",
    "description": "Provides outsourced accounting services at the CFO, controller, and staff accountant levels, including interim solutions",
    "hours": "Mon-Fri 9AM-6PM",
    "services": [
      "Agnostic-owned Interim controller in Oregon consultation",
      "Professional service",
      "Quality guarantee"
    ],
    "social_links": {}
  },
  {
    "name": "Perpetual CPA",
    "address": "1020 SW Taylor St Suite 200, Portland, OR 97205",
    "phone": "(503) 217-4114",
    "rating": 4.9,
    "reviews": 25,
    "website": "https://perpetualcpa.com/",
    "category": "Agnostic-owned Interim controller in Oregon",
    "description": "A full-service CPA firm offering fractional CFO and outsourced accounting services, which can include interim controller roles",
    "hours": "Mon-Fri 9AM-6PM",
    "services": [
      "Agnostic-owned Interim controller in Oregon consultation",
      "Professional service",
      "Quality guarantee"
    ],
    "social_links": {}
  },
  {
    "name": "Selden Fox",
    "address": "While they have a Chicago office, they serve clients across Oregon virtually. Their Portland presence is noted for virtual CFO services",
    "phone": "(630) 540-7000 (main office)",
    "rating": 4.8,
    "reviews": 25,
    "website": "https://www.seldenfox.com/",
    "category": "Agnostic-owned Interim controller in Oregon",
    "description": "Offers outsourced accounting and virtual CFO services, adaptable to interim controller needs for businesses in Oregon",
    "hours": "Mon-Fri 9AM-6PM",
    "services": [
      "Agnostic-owned Interim controller in Oregon consultation",
      "Professional service",
      "Quality guarantee"
    ],
    "social_links": {}
  },
  {
    "name": "CFO Strategic Consulting, LLC",
    "address": "Serves the Portland Metropolitan Area. Specific office address not publicly listed for general inquiries",
    "phone": "(503) 740-0071",
    "rating": 4.0,
    "reviews": 25,
    "website": "https://cfostrategicconsulting.com/",
    "category": "Agnostic-owned Interim controller in Oregon",
    "description": "Provides outsourced financial services, including interim controller support for nonprofits, government, and small businesses in the Portland area",
    "hours": "Mon-Fri 9AM-6PM",
    "services": [
      "Agnostic-owned Interim controller in Oregon consultation",
      "Professional service",
      "Quality guarantee"
    ],
    "social_links": {}
  },
  {
    "name": "Independent Accounting Services",
    "address": "Primarily serves the Portland metropolitan area. Specific office address not publicly listed for general inquiries",
    "phone": "(503) 702-5100",
    "rating": 4.0,
    "reviews": 25,
    "website": "https://www.ias-portland.com/",
    "category": "Agnostic-owned Interim controller in Oregon",
    "description": "Offers full-charge bookkeeping and consulting services, capable of providing interim controller functions for small to medium-sized businesses",
    "hours": "Mon-Fri 9AM-6PM",
    "services": [
      "Agnostic-owned Interim controller in Oregon consultation",
      "Professional service",
      "Quality guarantee"
    ],
    "social_links": {}
  },
  {
    "name": "ProfitDocs",
    "address": "2150 Commercial St SE Suite 200, Salem, OR 97302",
    "phone": "(971) 940-1040",
    "rating": 4.0,
    "reviews": 25,
    "website": "https://profitdocs.pro/",
    "category": "Agnostic-owned Interim controller in Oregon",
    "description": "Provides outsourced accounting services, including bookkeeping, payroll, and financial consulting, which can encompass interim controller responsibilities",
    "hours": "Mon-Fri 9AM-6PM",
    "services": [
      "Agnostic-owned Interim controller in Oregon consultation",
      "Professional service",
      "Quality guarantee"
    ],
    "social_links": {}
  },
  {
    "name": "Dark Horse CPAs",
    "address": "While they have multiple locations, they offer outsourced accounting services nationwide, including Oregon",
    "phone": "(801) 845-0043 (main contact)",
    "rating": 4.9,
    "reviews": 25,
    "website": "https://darkhorsecpas.com/outsourced-accounting/",
    "category": "Agnostic-owned Interim controller in Oregon",
    "description": "Offers a turnkey accounting function that can scale to provide interim controller services for businesses",
    "hours": "Mon-Fri 9AM-6PM",
    "services": [
      "Agnostic-owned Interim controller in Oregon consultation",
      "Professional service",
      "Quality guarantee"
    ],
    "social_links": {}
  },
  {
    "name": "Cathy Kemnitz Consulting",
    "address": "Portland, Oregon (virtual services offered)",
    "phone": "(503) 702-5100",
    "rating": 4.0,
    "reviews": 25,
    "website": "https://www.ckennitzconsulting.com/",
    "category": "Agnostic-owned Interim controller in Oregon",
    "description": "Offers fractional CFO services, which can include interim controller support, with a focus on personalized solutions",
    "hours": "Mon-Fri 9AM-6PM",
    "services": [
      "Agnostic-owned Interim controller in Oregon consultation",
      "Professional service",
      "Quality guarantee"
    ],
    "social_links": {}
  },
  {
    "name": "Armanino",
    "address": "While they have offices in various states, they provide interim finance and accounting professionals nationwide, including Oregon",
    "phone": "(855) 427-6264",
    "rating": 4.5,
    "reviews": 25,
    "website": "https://www.armanino.com/services/interim-management/",
    "category": "Agnostic-owned Interim controller in Oregon",
    "description": "Specializes in providing interim finance and accounting professionals, including controllers, to work as part of client management teams",
    "hours": "Mon-Fri 9AM-6PM",
    "services": [
      "Agnostic-owned Interim controller in Oregon consultation",
      "Professional service",
      "Quality guarantee"
    ],
    "social_links": {}
  }
]