[
  {
    "name": "Yonder Aerials & Dance",
    "address": "405 Western Rd #35, Reno, NV 89506",
    "phone": "(775) 813-7442",
    "rating": 4.0,
    "reviews": 25,
    "website": "https://www.google.com/maps/search/Yonder+Aerials+&+Dance+in+Nevada",
    "category": "Christian-owned Aerialists in Nevada",
    "description": "Offers aerial silks and dance classes for all skill levels, focusing on building strength and flexibility",
    "hours": "Mon-Fri 9AM-6PM",
    "services": [
      "Christian-owned Aerialists in Nevada consultation",
      "Professional service",
      "Quality guarantee"
    ],
    "social_links": {}
  },
  {
    "name": "Pole Kisses Bungee & Aerial Fitness Studio",
    "address": "4280 N Rancho Dr Suite 107, Las Vegas, NV 89130",
    "phone": "(702) 399-4841",
    "rating": 4.0,
    "reviews": 25,
    "website": "https://www.google.com/maps/search/Pole+Kisses+Bungee+&+Aerial+Fitness+Studio+in+Nevada",
    "category": "Christian-owned Aerialists in Nevada",
    "description": "Premier pole dancing, bungee fitness, and aerial fitness studio offering classes for all levels in a beginner-friendly environment",
    "hours": "Mon-Fri 9AM-6PM",
    "services": [
      "Christian-owned Aerialists in Nevada consultation",
      "Professional service",
      "Quality guarantee"
    ],
    "social_links": {}
  },
  {
    "name": "Shine Fitness",
    "address": "7337 W Sahara Ave Suite 100, Las Vegas, NV 89117",
    "phone": "(702) 778-1111",
    "rating": 4.0,
    "reviews": 25,
    "website": "https://www.google.com/maps/search/Shine+Fitness+in+Nevada",
    "category": "Christian-owned Aerialists in Nevada",
    "description": "Offers a variety of fun fitness classes including pole, aerial yoga, and boxing, with options for individuals and groups",
    "hours": "Mon-Fri 9AM-6PM",
    "services": [
      "Christian-owned Aerialists in Nevada consultation",
      "Professional service",
      "Quality guarantee"
    ],
    "social_links": {}
  },
  {
    "name": "Crash Academy LV",
    "address": "3655 S Durango Dr Suite 104, Las Vegas, NV 89147",
    "phone": "(702) 800-0010",
    "rating": 4.0,
    "reviews": 25,
    "website": "https://www.google.com/maps/search/Crash+Academy+LV+in+Nevada",
    "category": "Christian-owned Aerialists in Nevada",
    "description": "Las Vegas' premier pole fitness and aerial studio specializing in pole dance, acrobatics, and aerial maneuvers to increase strength and confidence",
    "hours": "Mon-Fri 9AM-6PM",
    "services": [
      "Christian-owned Aerialists in Nevada consultation",
      "Professional service",
      "Quality guarantee"
    ],
    "social_links": {}
  },
  {
    "name": "Las Vegas Circus Center",
    "address": "6425 S Jones Blvd Suite 102, Las Vegas, NV 89118",
    "phone": "(833) 324-7287",
    "rating": 4.0,
    "reviews": 25,
    "website": "https://www.google.com/maps/search/Las+Vegas+Circus+Center+in+Nevada",
    "category": "Christian-owned Aerialists in Nevada",
    "description": "A premier circus training center offering a variety of classes including aerial arts, flying trapeze, and tumbling for all ages and levels",
    "hours": "Mon-Fri 9AM-6PM",
    "services": [
      "Christian-owned Aerialists in Nevada consultation",
      "Professional service",
      "Quality guarantee"
    ],
    "social_links": {}
  },
  {
    "name": "Aerial Athletica",
    "address": "7337 W Sahara Ave Suite 100, Las Vegas, NV 89117",
    "phone": "(702) 778-1111",
    "rating": 4.0,
    "reviews": 25,
    "website": "https://www.google.com/maps/search/Aerial+Athletica+in+Nevada",
    "category": "Christian-owned Aerialists in Nevada",
    "description": "Offers aerial silks, pole fitness, aerial hammock, and more in a friendly, fun fitness community, also providing private party experiences",
    "hours": "Mon-Fri 9AM-6PM",
    "services": [
      "Christian-owned Aerialists in Nevada consultation",
      "Professional service",
      "Quality guarantee"
    ],
    "social_links": {}
  },
  {
    "name": "Dance & Aerial Addiction",
    "address": "1451 Centerfold Dr, Henderson, NV 89014",
    "phone": "(702) 558-0600",
    "rating": 4.0,
    "reviews": 25,
    "website": "https://www.google.com/maps/search/Dance+&+Aerial+Addiction+in+Nevada",
    "category": "Christian-owned Aerialists in Nevada",
    "description": "Offers dance and aerial classes for all ages, including aerial silks and hoop, in a family-oriented studio",
    "hours": "Mon-Fri 9AM-6PM",
    "services": [
      "Christian-owned Aerialists in Nevada consultation",
      "Professional service",
      "Quality guarantee"
    ],
    "social_links": {}
  },
  {
    "name": "AGC Las Vegas",
    "address": "7455 W Azure Dr Suite 110, Las Vegas, NV 89130",
    "phone": "(702) 778-1111",
    "rating": 4.0,
    "reviews": 25,
    "website": "https://www.google.com/maps/search/AGC+Las+Vegas+in+Nevada",
    "category": "Christian-owned Aerialists in Nevada",
    "description": "Provides aerial gymnastics classes, acrobatics, and other gymnastics disciplines for children and adults, founded by a Cirque du Soleil acrobat and an Olympic coach",
    "hours": "Mon-Fri 9AM-6PM",
    "services": [
      "Christian-owned Aerialists in Nevada consultation",
      "Professional service",
      "Quality guarantee"
    ],
    "social_links": {}
  },
  {
    "name": "Aerial Fitness LLC",
    "address": "5240 S Decatur Blvd Suite 5, Las Vegas, NV 89118",
    "phone": "(702) 886-2250",
    "rating": 4.0,
    "reviews": 25,
    "website": "https://www.google.com/maps/search/Aerial+Fitness+LLC+in+Nevada",
    "category": "Christian-owned Aerialists in Nevada",
    "description": "Offers training in aerial fitness, acrobatics, flexibility, and contortion, focusing on proper technique to build strength and flexibility",
    "hours": "Mon-Fri 9AM-6PM",
    "services": [
      "Christian-owned Aerialists in Nevada consultation",
      "Professional service",
      "Quality guarantee"
    ],
    "social_links": {}
  },
  {
    "name": "Acro Enso",
    "address": "4001 S Virginia St Suite B, Reno, NV 89502",
    "phone": "(775) 440-1033",
    "rating": 4.0,
    "reviews": 25,
    "website": "https://www.google.com/maps/search/Acro+Enso+in+Nevada",
    "category": "Christian-owned Aerialists in Nevada",
    "description": "Provides a nurturing environment for individuals of all skill levels to explore movement and circus arts, including aerial silks, hand balancing, and Cyr wheel",
    "hours": "Mon-Fri 9AM-6PM",
    "services": [
      "Christian-owned Aerialists in Nevada consultation",
      "Professional service",
      "Quality guarantee"
    ],
    "social_links": {}
  }
]