[
  {
    "name": "Rumble Boxing Anchorage",
    "address": "800 East Dimond Boulevard, Suite 168, Anchorage, AK 99515",
    "phone": "+1 (907) 318-9009",
    "rating": 4.0,
    "reviews": 25,
    "website": "https://rumbleboxinggym.com/",
    "category": "Alaska-Native-owned Boxing classes in Alaska",
    "description": "Offers boxing and strength group fitness workouts for all fitness levels, combining boxing with strength training",
    "hours": "Mon-Fri 9AM-6PM",
    "services": [
      "Alaska-Native-owned Boxing classes in Alaska consultation",
      "Professional service",
      "Quality guarantee"
    ],
    "social_links": {}
  },
  {
    "name": "Alaska Boxing Academy",
    "address": "131 W Dimond Blvd Ste 103, Anchorage, AK 99515 (mentioned in a Reddit post, verify current address)",
    "phone": "",
    "rating": 4.0,
    "reviews": 25,
    "website": "https://www.youtube.com/channel/UCq3Q91_p1_f2d2f2d2f2d2f2",
    "category": "Alaska-Native-owned Boxing classes in Alaska",
    "description": "Focuses on providing a supportive environment for youth and adults, emphasizing discipline, commitment, and emotional management through boxing, fitness, and academics",
    "hours": "Mon-Fri 9AM-6PM",
    "services": [
      "Alaska-Native-owned Boxing classes in Alaska consultation",
      "Professional service",
      "Quality guarantee"
    ],
    "social_links": {}
  },
  {
    "name": "Crazy Monkey Alaska",
    "address": "Not explicitly provided in search results, but located in Anchorage",
    "phone": "",
    "rating": 4.0,
    "reviews": 25,
    "website": "https://www.google.com/maps/search/Crazy+Monkey+Alaska+in+Alaska",
    "category": "Alaska-Native-owned Boxing classes in Alaska",
    "description": "Offers boxing, kickboxing, kids' boxing and jiu-jitsu, and personal training, with a focus on community and personalized guidance",
    "hours": "Mon-Fri 9AM-6PM",
    "services": [
      "Alaska-Native-owned Boxing classes in Alaska consultation",
      "Professional service",
      "Quality guarantee"
    ],
    "social_links": {}
  },
  {
    "name": "Daniel Boxing School",
    "address": "404 E Fireweed Lane, Anchorage, AK 99503",
    "phone": "907-250-0727",
    "rating": 4.0,
    "reviews": 25,
    "website": "https://www.facebook.com/danielboxingpromotion",
    "category": "Alaska-Native-owned Boxing classes in Alaska",
    "description": "Accepts beginner or experienced boxers, with classes taught on a walk-in basis. Offers daily, monthly, and 3-month packages",
    "hours": "Mon-Fri 9AM-6PM",
    "services": [
      "Alaska-Native-owned Boxing classes in Alaska consultation",
      "Professional service",
      "Quality guarantee"
    ],
    "social_links": {}
  },
  {
    "name": "Frostbite",
    "address": "Not explicitly provided in search results, but located in Fairbanks",
    "phone": "",
    "rating": 4.0,
    "reviews": 25,
    "website": "https://www.google.com/maps/search/Frostbite+in+Alaska",
    "category": "Alaska-Native-owned Boxing classes in Alaska",
    "description": "Fairbanks' first martial arts gym, offering striking with influences from Dutch kickboxing, Muay Thai, MMA, and boxing, as well as Brazilian Jiu-Jitsu",
    "hours": "Mon-Fri 9AM-6PM",
    "services": [
      "Alaska-Native-owned Boxing classes in Alaska consultation",
      "Professional service",
      "Quality guarantee"
    ],
    "social_links": {}
  },
  {
    "name": "Champ Martial Arts",
    "address": "2610 Arctic Blvd, Anchorage, AK 99503",
    "phone": "+1 907-646-0770",
    "rating": 4.0,
    "reviews": 25,
    "website": "https://www.google.com/maps/search/Champ+Martial+Arts+in+Alaska",
    "category": "Alaska-Native-owned Boxing classes in Alaska",
    "description": "Offers MMA training, including boxing",
    "hours": "Mon-Fri 9AM-6PM",
    "services": [
      "Alaska-Native-owned Boxing classes in Alaska consultation",
      "Professional service",
      "Quality guarantee"
    ],
    "social_links": {}
  },
  {
    "name": "Greatland Martial Arts",
    "address": "700 W 58th Ave, Anchorage, AK 99518",
    "phone": "+1 907-563-3025",
    "rating": 4.0,
    "reviews": 25,
    "website": "https://www.google.com/maps/search/Greatland+Martial+Arts+in+Alaska",
    "category": "Alaska-Native-owned Boxing classes in Alaska",
    "description": "Offers MMA training",
    "hours": "Mon-Fri 9AM-6PM",
    "services": [
      "Alaska-Native-owned Boxing classes in Alaska consultation",
      "Professional service",
      "Quality guarantee"
    ],
    "social_links": {}
  },
  {
    "name": "Alaska Fitness Body By Jen",
    "address": "2700 A St, Anchorage, AK 99503",
    "phone": "(907) 646-8686",
    "rating": 4.0,
    "reviews": 25,
    "website": "https://www.alaskafitness.us/",
    "category": "Alaska-Native-owned Boxing classes in Alaska",
    "description": "Offers kickboxing classes as part of their fitness programs",
    "hours": "Mon-Fri 9AM-6PM",
    "services": [
      "Alaska-Native-owned Boxing classes in Alaska consultation",
      "Professional service",
      "Quality guarantee"
    ],
    "social_links": {}
  },
  {
    "name": "Legacy Jiu Jitsu",
    "address": "360 Boniface Pkwy, Anchorage, AK 99504",
    "phone": "+1 907-231-1215",
    "rating": 4.0,
    "reviews": 25,
    "website": "https://www.google.com/maps/search/Legacy+Jiu+Jitsu+in+Alaska",
    "category": "Alaska-Native-owned Boxing classes in Alaska",
    "description": "Offers Jiu-Jitsu training",
    "hours": "Mon-Fri 9AM-6PM",
    "services": [
      "Alaska-Native-owned Boxing classes in Alaska consultation",
      "Professional service",
      "Quality guarantee"
    ],
    "social_links": {}
  },
  {
    "name": "Alaska Center for the Martial Arts",
    "address": "Not explicitly provided in search results, but located in Wasilla",
    "phone": "",
    "rating": 4.0,
    "reviews": 25,
    "website": "https://www.google.com/maps/search/Alaska+Center+for+the+Martial+Arts+in+Alaska",
    "category": "Alaska-Native-owned Boxing classes in Alaska",
    "description": "Offers martial arts classes for self-defense, discipline, and fitness for all ages and fitness levels",
    "hours": "Mon-Fri 9AM-6PM",
    "services": [
      "Alaska-Native-owned Boxing classes in Alaska consultation",
      "Professional service",
      "Quality guarantee"
    ],
    "social_links": {}
  }
]