[
  {
    "name": "Sandy Salon & Spa",
    "address": "1022 19th Ave NW, Fargo, ND 58103",
    "phone": "(701) 232-7256",
    "rating": 4.5,
    "reviews": 25,
    "website": "https://sandysalonandspa.com/",
    "category": "Arabic-speaking Hair extensions in North-Dakota",
    "description": "Offers a variety of hair services, including hair extensions, wigs, and custom wigs",
    "hours": "Mon-Fri 9AM-6PM",
    "services": [
      "Arabic-speaking Hair extensions in North-Dakota consultation",
      "Professional service",
      "Quality guarantee"
    ],
    "social_links": {}
  },
  {
    "name": "The Blush Collective Salon + Wellness Spa",
    "address": "1133 36th St S, Fargo, ND 58104",
    "phone": "(701) 540-0018",
    "rating": 4.8,
    "reviews": 25,
    "website": "https://www.theblushcollectivenfargo.com/",
    "category": "Arabic-speaking Hair extensions in North-Dakota",
    "description": "Specializes in premium hair extensions, offering tape-ins and other methods for length and volume",
    "hours": "Mon-Fri 9AM-6PM",
    "services": [
      "Arabic-speaking Hair extensions in North-Dakota consultation",
      "Professional service",
      "Quality guarantee"
    ],
    "social_links": {}
  },
  {
    "name": "Hair Addiction Salon",
    "address": "3130 45th St S, Fargo, ND 58104",
    "phone": "(701) 540-0018",
    "rating": 4.9,
    "reviews": 25,
    "website": "https://www.hairaddictionsalonfargo.com/",
    "category": "Arabic-speaking Hair extensions in North-Dakota",
    "description": "Full-service salon specializing in hair extensions, color, and lash extensions",
    "hours": "Mon-Fri 9AM-6PM",
    "services": [
      "Arabic-speaking Hair extensions in North-Dakota consultation",
      "Professional service",
      "Quality guarantee"
    ],
    "social_links": {}
  },
  {
    "name": "Evolve Salon and Spa",
    "address": "1001 West Interstate Avenue #100, Bismarck, ND 58503",
    "phone": "(701) 751-7990",
    "rating": 4.6,
    "reviews": 25,
    "website": "https://evolvebismarck.com/",
    "category": "Arabic-speaking Hair extensions in North-Dakota",
    "description": "Offers a wide range of hair, nail, and facial services, including hair extensions",
    "hours": "Mon-Fri 9AM-6PM",
    "services": [
      "Arabic-speaking Hair extensions in North-Dakota consultation",
      "Professional service",
      "Quality guarantee"
    ],
    "social_links": {}
  },
  {
    "name": "Salt and Sparrow Salon",
    "address": "510 N 4th St, Bismarck, ND 58501",
    "phone": "(701) 751-4000",
    "rating": 4.7,
    "reviews": 25,
    "website": "https://saltandsparrowsalon.com/",
    "category": "Arabic-speaking Hair extensions in North-Dakota",
    "description": "Offers luxury hair services, including Vomor hair extensions, cuts, and color",
    "hours": "Mon-Fri 9AM-6PM",
    "services": [
      "Arabic-speaking Hair extensions in North-Dakota consultation",
      "Professional service",
      "Quality guarantee"
    ],
    "social_links": {}
  },
  {
    "name": "Escape on Third Salon",
    "address": "113 N 3rd St, Bismarck, ND 58501",
    "phone": "(701) 751-5555",
    "rating": 4.8,
    "reviews": 25,
    "website": "https://escapeonthird.com/",
    "category": "Arabic-speaking Hair extensions in North-Dakota",
    "description": "Specializes in custom hair color and extensions, offering a personalized touch",
    "hours": "Mon-Fri 9AM-6PM",
    "services": [
      "Arabic-speaking Hair extensions in North-Dakota consultation",
      "Professional service",
      "Quality guarantee"
    ],
    "social_links": {}
  },
  {
    "name": "Avant Hair & Skin Care Studio",
    "address": "3150 32nd Ave S, Grand Forks, ND 58201",
    "phone": "(701) 746-8000",
    "rating": 4.5,
    "reviews": 25,
    "website": "https://avantsalon.com/",
    "category": "Arabic-speaking Hair extensions in North-Dakota",
    "description": "Full-service Aveda salon offering Bellami Hair Extensions and other beauty services",
    "hours": "Mon-Fri 9AM-6PM",
    "services": [
      "Arabic-speaking Hair extensions in North-Dakota consultation",
      "Professional service",
      "Quality guarantee"
    ],
    "social_links": {}
  },
  {
    "name": "The Beautiful You",
    "address": "1725 14th Ave SW, Grand Forks, ND 58201",
    "phone": "(701) 741-8148",
    "rating": 4.7,
    "reviews": 25,
    "website": "https://www.thebeautifulyougf.com/",
    "category": "Arabic-speaking Hair extensions in North-Dakota",
    "description": "Offers wigs, hair extensions, and complete salon services",
    "hours": "Mon-Fri 9AM-6PM",
    "services": [
      "Arabic-speaking Hair extensions in North-Dakota consultation",
      "Professional service",
      "Quality guarantee"
    ],
    "social_links": {}
  },
  {
    "name": "AE Hair Studio",
    "address": "4315 9th Ave W, Williston, ND 58801",
    "phone": "(701) 572-7777",
    "rating": 4.9,
    "reviews": 25,
    "website": "https://www.aehairstudio.com/",
    "category": "Arabic-speaking Hair extensions in North-Dakota",
    "description": "Hair salon offering hair extensions, coloring, and cutting services",
    "hours": "Mon-Fri 9AM-6PM",
    "services": [
      "Arabic-speaking Hair extensions in North-Dakota consultation",
      "Professional service",
      "Quality guarantee"
    ],
    "social_links": {}
  },
  {
    "name": "Urban Charm",
    "address": "1007 24th Street West, Williston, ND 58801",
    "phone": "(701) 580-0435",
    "rating": 4.8,
    "reviews": 25,
    "website": "https://www.urbancharm.salon/",
    "category": "Arabic-speaking Hair extensions in North-Dakota",
    "description": "Offers beaded weft extension services, hair cuts, and spray tans",
    "hours": "Mon-Fri 9AM-6PM",
    "services": [
      "Arabic-speaking Hair extensions in North-Dakota consultation",
      "Professional service",
      "Quality guarantee"
    ],
    "social_links": {}
  }
]