[
  {
    "name": "All American Home Service",
    "address": "2793 Sherwood Lane, Juneau, AK 99801",
    "phone": "(833) 676-9777",
    "rating": 4.0,
    "reviews": 25,
    "website": "https://www.allamericanph.com/",
    "category": "Central-American-owned General home repairs in Alaska",
    "description": "Provides plumbing and heating services, including sewer and drain clearing, water heater repair, fixture installation, and heating system maintenance",
    "hours": "Mon-Fri 9AM-6PM",
    "services": [
      "Central-American-owned General home repairs in Alaska consultation",
      "Professional service",
      "Quality guarantee"
    ],
    "social_links": {}
  },
  {
    "name": "Repairing Alaska",
    "address": "Fairbanks, AK (specific street address not provided in search results)",
    "phone": "907-457-3993",
    "rating": 4.0,
    "reviews": 25,
    "website": "https://www.repairingalaska.com/",
    "category": "Central-American-owned General home repairs in Alaska",
    "description": "Offers residential and commercial general contractor services, including major structural repairs, alterations, interior remodeling, and finishing work",
    "hours": "Mon-Fri 9AM-6PM",
    "services": [
      "Central-American-owned General home repairs in Alaska consultation",
      "Professional service",
      "Quality guarantee"
    ],
    "social_links": {}
  },
  {
    "name": "Heritage General Contracting",
    "address": "275 Richardson Hwy, Delta Junction, AK 99737",
    "phone": "907-895-9889",
    "rating": 4.0,
    "reviews": 25,
    "website": "https://heritagecontracting.us/",
    "category": "Central-American-owned General home repairs in Alaska",
    "description": "A full-service general contractor with extensive experience in vertical and horizontal construction for various sectors, including government, commercial, and industrial",
    "hours": "Mon-Fri 9AM-6PM",
    "services": [
      "Central-American-owned General home repairs in Alaska consultation",
      "Professional service",
      "Quality guarantee"
    ],
    "social_links": {}
  },
  {
    "name": "Friend Contractors, LLC",
    "address": "1623 Mill Bay Rd, Suite 5, Kodiak, AK 99615",
    "phone": "(907) 486-3908",
    "rating": 4.0,
    "reviews": 25,
    "website": "https://friendcontractors.com/",
    "category": "Central-American-owned General home repairs in Alaska",
    "description": "Provides construction building and consulting services, specializing in metal building systems and home energy ratings. They are a US SBA, 8(a) Certified Firm and one of the few Native American owned and operated commercial construction companies",
    "hours": "Mon-Fri 9AM-6PM",
    "services": [
      "Central-American-owned General home repairs in Alaska consultation",
      "Professional service",
      "Quality guarantee"
    ],
    "social_links": {}
  },
  {
    "name": "CLI Construction Inc.",
    "address": "PO Box 191, Cantwell, Alaska 99729",
    "phone": "(907) 768-2008",
    "rating": 4.0,
    "reviews": 25,
    "website": "https://cliconstructioninc.com/",
    "category": "Central-American-owned General home repairs in Alaska",
    "description": "A locally owned and operated General Contractor offering excavation, roads and foundation site prep, septic systems, and more. They are a Native American/Alaskan Native company, woman-owned, HUBZone certified, and State of Alaska Disadvantaged Business Enterprise (DBE) certified",
    "hours": "Mon-Fri 9AM-6PM",
    "services": [
      "Central-American-owned General home repairs in Alaska consultation",
      "Professional service",
      "Quality guarantee"
    ],
    "social_links": {}
  },
  {
    "name": "Roy Briley General Contracting",
    "address": "Anchorage, AK (specific street address not provided in search results)",
    "phone": "",
    "rating": 4.0,
    "reviews": 25,
    "website": "https://roybrileys.com/",
    "category": "Central-American-owned General home repairs in Alaska",
    "description": "Offers kitchen, bathroom, and home remodeling, roofing, foundation repair, and fire and water damage mitigation",
    "hours": "Mon-Fri 9AM-6PM",
    "services": [
      "Central-American-owned General home repairs in Alaska consultation",
      "Professional service",
      "Quality guarantee"
    ],
    "social_links": {}
  },
  {
    "name": "ABC Home Services",
    "address": "Anchorage, AK 99504 (specific street address not provided in search results)",
    "phone": "(907) 414-2489",
    "rating": 4.0,
    "reviews": 25,
    "website": "https://abchomeservices907.com/",
    "category": "Central-American-owned General home repairs in Alaska",
    "description": "Provides handyman services, home repair, remodeling, and installations, including flooring, painting, deck work, plumbing, and electrical. They emphasize being locally owned and operated",
    "hours": "Mon-Fri 9AM-6PM",
    "services": [
      "Central-American-owned General home repairs in Alaska consultation",
      "Professional service",
      "Quality guarantee"
    ],
    "social_links": {}
  },
  {
    "name": "CGC Services, LLC",
    "address": "2261 Cinnabar Loop, Anchorage, AK 99507",
    "phone": "(907) 414-9040",
    "rating": 4.0,
    "reviews": 25,
    "website": "https://www.google.com/maps/search/CGC+Services,+LLC+in+Alaska",
    "category": "Central-American-owned General home repairs in Alaska",
    "description": "Listed as a general contractor in the Associated General Contractors of Alaska directory",
    "hours": "Mon-Fri 9AM-6PM",
    "services": [
      "Central-American-owned General home repairs in Alaska consultation",
      "Professional service",
      "Quality guarantee"
    ],
    "social_links": {}
  },
  {
    "name": "Caliber Construction Alaska LLC",
    "address": "PO BOX 110829, Anchorage, AK 99511",
    "phone": "(907) 764-6433",
    "rating": 4.0,
    "reviews": 25,
    "website": "https://www.google.com/maps/search/Caliber+Construction+Alaska+LLC+in+Alaska",
    "category": "Central-American-owned General home repairs in Alaska",
    "description": "Listed as a general contractor in the Associated General Contractors of Alaska directory",
    "hours": "Mon-Fri 9AM-6PM",
    "services": [
      "Central-American-owned General home repairs in Alaska consultation",
      "Professional service",
      "Quality guarantee"
    ],
    "social_links": {}
  },
  {
    "name": "Commercial Contractors, Inc.",
    "address": "4920 Fairbanks St., Anchorage, AK 99503",
    "phone": "(907) 563-1911",
    "rating": 4.0,
    "reviews": 25,
    "website": "https://www.google.com/maps/search/Commercial+Contractors,+Inc.+in+Alaska",
    "category": "Central-American-owned General home repairs in Alaska",
    "description": "Listed as a general contractor in the Associated General Contractors of Alaska directory",
    "hours": "Mon-Fri 9AM-6PM",
    "services": [
      "Central-American-owned General home repairs in Alaska consultation",
      "Professional service",
      "Quality guarantee"
    ],
    "social_links": {}
  }
]