[
  {
    "name": "Springer Professional Home Services",
    "address": "1320 NE 60th Ave, Des Moines, IA 50313",
    "phone": "(515) 262-9229",
    "rating": 4.7,
    "reviews": 25,
    "website": "https://www.springerpest.com/",
    "category": "Catholic-owned Wasp control in Iowa",
    "description": "Offers comprehensive pest control services, including bee, wasp, and hornet removal, serving central Iowa since 1989",
    "hours": "Mon-Fri 9AM-6PM",
    "services": [
      "Catholic-owned Wasp control in Iowa consultation",
      "Professional service",
      "Quality guarantee"
    ],
    "social_links": {}
  },
  {
    "name": "Bobcat Wildlife & Pest Management",
    "address": "(Serves Iowa City and nearby communities)",
    "phone": "",
    "rating": 4.0,
    "reviews": 25,
    "website": "https://bobcatpest.com/",
    "category": "Catholic-owned Wasp control in Iowa",
    "description": "Provides complete wasp pest control services in Iowa City, focusing on immediate threat removal and long-term protection",
    "hours": "Mon-Fri 9AM-6PM",
    "services": [
      "Catholic-owned Wasp control in Iowa consultation",
      "Professional service",
      "Quality guarantee"
    ],
    "social_links": {}
  },
  {
    "name": "Miller Pest & Solutions",
    "address": "(Serves Midwest homes, including Iowa)",
    "phone": "",
    "rating": 4.9,
    "reviews": 25,
    "website": "https://www.millerpestsolutions.com/",
    "category": "Catholic-owned Wasp control in Iowa",
    "description": "Offers expert hornet and wasp control services with over 24 years of trusted service, known for being family-owned and locally rooted",
    "hours": "Mon-Fri 9AM-6PM",
    "services": [
      "Catholic-owned Wasp control in Iowa consultation",
      "Professional service",
      "Quality guarantee"
    ],
    "social_links": {}
  },
  {
    "name": "Family Pest Control LLC",
    "address": "(Serves Greater Des Moines, Iowa, and surrounding areas)",
    "phone": "(641) 757-9115",
    "rating": 4.0,
    "reviews": 25,
    "website": "https://www.familypestcontrolllc.com/",
    "category": "Catholic-owned Wasp control in Iowa",
    "description": "A family-owned pest control company serving central Iowa, offering free estimates and a 2-year price lock",
    "hours": "Mon-Fri 9AM-6PM",
    "services": [
      "Catholic-owned Wasp control in Iowa consultation",
      "Professional service",
      "Quality guarantee"
    ],
    "social_links": {}
  },
  {
    "name": "Above All Pest Control",
    "address": "Based in Ottumwa, IA, and serving surrounding areas in Southeast Iowa",
    "phone": "641-226-7501",
    "rating": 4.0,
    "reviews": 25,
    "website": "https://aboveallpestcontrol.com/",
    "category": "Catholic-owned Wasp control in Iowa",
    "description": "A family-owned business providing commercial and residential pest control services in Southeast Iowa, including insect and rodent control",
    "hours": "Mon-Fri 9AM-6PM",
    "services": [
      "Catholic-owned Wasp control in Iowa consultation",
      "Professional service",
      "Quality guarantee"
    ],
    "social_links": {}
  },
  {
    "name": "C-Cat Inc.",
    "address": "Burlington & Mt. Pleasant, Wapello, IA",
    "phone": "",
    "rating": 4.0,
    "reviews": 25,
    "website": "https://www.c-catinc.com/",
    "category": "Catholic-owned Wasp control in Iowa",
    "description": "Offers commercial and residential pest control, termite, and rodent control services in Southeast Iowa",
    "hours": "Mon-Fri 9AM-6PM",
    "services": [
      "Catholic-owned Wasp control in Iowa consultation",
      "Professional service",
      "Quality guarantee"
    ],
    "social_links": {}
  },
  {
    "name": "Hawkeye Exterminators",
    "address": "Des Moines, IA (serving communities throughout central Iowa)",
    "phone": "",
    "rating": 4.0,
    "reviews": 25,
    "website": "https://www.hawkeyeexterminators.com/",
    "category": "Catholic-owned Wasp control in Iowa",
    "description": "Provides professional and affordable pest control services for residential and commercial properties, using eco-friendly methods",
    "hours": "Mon-Fri 9AM-6PM",
    "services": [
      "Catholic-owned Wasp control in Iowa consultation",
      "Professional service",
      "Quality guarantee"
    ],
    "social_links": {}
  },
  {
    "name": "Orkin",
    "address": "6 Locations in Iowa",
    "phone": "855-833-7518",
    "rating": 4.0,
    "reviews": 25,
    "website": "https://www.orkin.com/",
    "category": "Catholic-owned Wasp control in Iowa",
    "description": "A large and trusted pest control company offering a comprehensive service portfolio, with technicians completing extensive training",
    "hours": "Mon-Fri 9AM-6PM",
    "services": [
      "Catholic-owned Wasp control in Iowa consultation",
      "Professional service",
      "Quality guarantee"
    ],
    "social_links": {}
  },
  {
    "name": "Terminix",
    "address": "3 Locations in Iowa",
    "phone": "866-520-5394",
    "rating": 4.0,
    "reviews": 25,
    "website": "https://www.terminix.com/",
    "category": "Catholic-owned Wasp control in Iowa",
    "description": "Highly specialized in pests and termites, with 90 years of experience and available 24/7 support",
    "hours": "Mon-Fri 9AM-6PM",
    "services": [
      "Catholic-owned Wasp control in Iowa consultation",
      "Professional service",
      "Quality guarantee"
    ],
    "social_links": {}
  },
  {
    "name": "Critter Control",
    "address": "1 Location in Iowa",
    "phone": "866-750-3177",
    "rating": 4.0,
    "reviews": 25,
    "website": "https://www.crittercontrol.com/",
    "category": "Catholic-owned Wasp control in Iowa",
    "description": "An industry leader in humane wildlife management, trapping, and removal services",
    "hours": "Mon-Fri 9AM-6PM",
    "services": [
      "Catholic-owned Wasp control in Iowa consultation",
      "Professional service",
      "Quality guarantee"
    ],
    "social_links": {}
  }
]