[
  {
    "name": "Montana Plumbing Paramedic",
    "address": "(Not specified in search results, but serves Montana)",
    "phone": "(406) 751-8478",
    "rating": 4.0,
    "reviews": 25,
    "website": "https://www.google.com/maps/search/Montana+Plumbing+Paramedic+in+Montana",
    "category": "Arabic-speaking Emergency repair services in Montana",
    "description": "Offers 24-hour emergency plumbing services for leaks, flooding, and drainage problems",
    "hours": "Mon-Fri 9AM-6PM",
    "services": [
      "Arabic-speaking Emergency repair services in Montana consultation",
      "Professional service",
      "Quality guarantee"
    ],
    "social_links": {}
  },
  {
    "name": "Montana Lock & Security",
    "address": "Missoula, MT and Helena, MT",
    "phone": "Missoula: (406) 542-2472, Helena: (406) 449-4555",
    "rating": 4.0,
    "reviews": 25,
    "website": "https://www.google.com/maps/search/Montana+Lock+&+Security+in+Montana",
    "category": "Arabic-speaking Emergency repair services in Montana",
    "description": "Provides 24-hour emergency locksmith and security alarm services for residential and commercial properties",
    "hours": "Mon-Fri 9AM-6PM",
    "services": [
      "Arabic-speaking Emergency repair services in Montana consultation",
      "Professional service",
      "Quality guarantee"
    ],
    "social_links": {}
  },
  {
    "name": "Emergency Roofing Services in Montana",
    "address": "Statewide Montana",
    "phone": "(844) 533-0839",
    "rating": 4.0,
    "reviews": 25,
    "website": "https://www.google.com/maps/search/Emergency+Roofing+Services+in+Montana+in+Montana",
    "category": "Arabic-speaking Emergency repair services in Montana",
    "description": "Offers 24-hour emergency roof leak repair, storm damage repair, and temporary roof tarp installation",
    "hours": "Mon-Fri 9AM-6PM",
    "services": [
      "Arabic-speaking Emergency repair services in Montana consultation",
      "Professional service",
      "Quality guarantee"
    ],
    "social_links": {}
  },
  {
    "name": "J Safe and Lock",
    "address": "Missoula, MT",
    "phone": "(406) 546-7722",
    "rating": 4.0,
    "reviews": 25,
    "website": "https://www.google.com/maps/search/J+Safe+and+Lock+in+Montana",
    "category": "Arabic-speaking Emergency repair services in Montana",
    "description": "A 24-hour emergency locksmith service specializing in safes, vaults, and locks for commercial and residential properties",
    "hours": "Mon-Fri 9AM-6PM",
    "services": [
      "Arabic-speaking Emergency repair services in Montana consultation",
      "Professional service",
      "Quality guarantee"
    ],
    "social_links": {}
  },
  {
    "name": "Premier Systems (HVAC)",
    "address": "Bozeman, MT",
    "phone": "(406) 708-4601 or (406) 823-3602 or (406) 629-1583",
    "rating": 4.0,
    "reviews": 25,
    "website": "https://www.google.com/maps/search/Premier+Systems+(HVAC)+in+Montana",
    "category": "Arabic-speaking Emergency repair services in Montana",
    "description": "Provides 24/7 emergency HVAC repair services for heating and air conditioning systems",
    "hours": "Mon-Fri 9AM-6PM",
    "services": [
      "Arabic-speaking Emergency repair services in Montana consultation",
      "Professional service",
      "Quality guarantee"
    ],
    "social_links": {}
  },
  {
    "name": "Plumbing Experts 247",
    "address": "Statewide Montana",
    "phone": "(877) 565-3933",
    "rating": 4.0,
    "reviews": 25,
    "website": "https://www.google.com/maps/search/Plumbing+Experts+247+in+Montana",
    "category": "Arabic-speaking Emergency repair services in Montana",
    "description": "Offers 24/7 emergency plumbing services for burst pipes, flooding, and urgent repairs",
    "hours": "Mon-Fri 9AM-6PM",
    "services": [
      "Arabic-speaking Emergency repair services in Montana consultation",
      "Professional service",
      "Quality guarantee"
    ],
    "social_links": {}
  },
  {
    "name": "Art and Ray's Locksmith",
    "address": "Missoula, MT (Serving Western Montana)",
    "phone": "",
    "rating": 4.0,
    "reviews": 25,
    "website": "https://www.google.com/maps/search/Art+and+Ray's+Locksmith+in+Montana",
    "category": "Arabic-speaking Emergency repair services in Montana",
    "description": "Provides 24-hour emergency locksmith services, including lock-out assistance, key duplication, and safe services",
    "hours": "Mon-Fri 9AM-6PM",
    "services": [
      "Arabic-speaking Emergency repair services in Montana consultation",
      "Professional service",
      "Quality guarantee"
    ],
    "social_links": {}
  },
  {
    "name": "Dayspring Damage Restoration Experts",
    "address": "Bozeman, Missoula, Kalispell, and other cities in Montana",
    "phone": "(844) 967-4911",
    "rating": 4.7,
    "reviews": 25,
    "website": "https://www.google.com/maps/search/Dayspring+Damage+Restoration+Experts+in+Montana",
    "category": "Arabic-speaking Emergency repair services in Montana",
    "description": "Offers 24/7 emergency response restoration services for fire, flood, storm, and water damage",
    "hours": "Mon-Fri 9AM-6PM",
    "services": [
      "Arabic-speaking Emergency repair services in Montana consultation",
      "Professional service",
      "Quality guarantee"
    ],
    "social_links": {}
  },
  {
    "name": "House Electric LLC (Electrical Services)",
    "address": "Stillwater County, Montana",
    "phone": "(406) 321-1886",
    "rating": 4.0,
    "reviews": 25,
    "website": "https://www.google.com/maps/search/House+Electric+LLC+(Electrical+Services)+in+Montana",
    "category": "Arabic-speaking Emergency repair services in Montana",
    "description": "Provides 24-hour emergency electrical services for power outages, electrical panel issues, and exposed wires",
    "hours": "Mon-Fri 9AM-6PM",
    "services": [
      "Arabic-speaking Emergency repair services in Montana consultation",
      "Professional service",
      "Quality guarantee"
    ],
    "social_links": {}
  },
  {
    "name": "Powermen Electric LLC (Electrical Services)",
    "address": "Serves the region",
    "phone": "(406) 210-8188",
    "rating": 4.0,
    "reviews": 25,
    "website": "https://www.google.com/maps/search/Powermen+Electric+LLC+(Electrical+Services)+in+Montana",
    "category": "Arabic-speaking Emergency repair services in Montana",
    "description": "Offers fast, affordable 24-hour emergency electrical services with licensed and bonded electricians",
    "hours": "Mon-Fri 9AM-6PM",
    "services": [
      "Arabic-speaking Emergency repair services in Montana consultation",
      "Professional service",
      "Quality guarantee"
    ],
    "social_links": {}
  }
]