[
  {
    "name": "Retreat Acupuncture",
    "address": "1801 Bush Street Suite 106, San Francisco, CA 94109",
    "phone": "415-441-7200",
    "rating": 4.0,
    "reviews": 25,
    "website": "https://www.retreatacupuncture.com/",
    "category": "Chinese-speaking Breath work sessions in California",
    "description": "Offers breathwork sessions as part of their integrative services, focusing on stress reduction and emotional release. They also provide acupuncture and other Traditional Chinese Medicine services",
    "hours": "Mon-Fri 9AM-6PM",
    "services": [
      "Chinese-speaking Breath work sessions in California consultation",
      "Professional service",
      "Quality guarantee"
    ],
    "social_links": {}
  },
  {
    "name": "T.Y. Wellness Center",
    "address": "1100 Wilshire Blvd Ste 1210, Los Angeles, CA 90017",
    "phone": "(213) 380-1000",
    "rating": 4.0,
    "reviews": 25,
    "website": "https://www.tywellnessla.com/",
    "category": "Chinese-speaking Breath work sessions in California",
    "description": "Focuses on Traditional Chinese Medicine, including acupuncture and herbal therapy, which can complement breathwork for stress and emotional well-being",
    "hours": "Mon-Fri 9AM-6PM",
    "services": [
      "Chinese-speaking Breath work sessions in California consultation",
      "Professional service",
      "Quality guarantee"
    ],
    "social_links": {}
  },
  {
    "name": "Art of Wellness Acupuncture & Traditional Chinese Medicine",
    "address": "12001 W. Olympic Blvd., Suite 204, Los Angeles, CA 90064",
    "phone": "(310) 477-1100",
    "rating": 4.0,
    "reviews": 25,
    "website": "https://www.artofwellnessla.com/",
    "category": "Chinese-speaking Breath work sessions in California",
    "description": "Offers holistic healthcare through acupuncture and Traditional Chinese Medicine, aiming to balance mind, body, and spirit. They emphasize the connection between Qi and healing",
    "hours": "Mon-Fri 9AM-6PM",
    "services": [
      "Chinese-speaking Breath work sessions in California consultation",
      "Professional service",
      "Quality guarantee"
    ],
    "social_links": {}
  },
  {
    "name": "Qigong You",
    "address": "Thousand Oaks, CA 91362",
    "phone": "(805) 870-5318",
    "rating": 4.0,
    "reviews": 25,
    "website": "https://www.qigongyou.com/",
    "category": "Chinese-speaking Breath work sessions in California",
    "description": "Provides Qigong-based energy healing, guided breathwork, and mindful movement to address imbalances in body, Qi, and spirit",
    "hours": "Mon-Fri 9AM-6PM",
    "services": [
      "Chinese-speaking Breath work sessions in California consultation",
      "Professional service",
      "Quality guarantee"
    ],
    "social_links": {}
  },
  {
    "name": "Art of Chinese Healing",
    "address": "100 N. Brand Blvd., Suite 101, Glendale, CA 91203",
    "phone": "(818) 507-0888",
    "rating": 4.0,
    "reviews": 25,
    "website": "https://www.artofchinesehealing.com/",
    "category": "Chinese-speaking Breath work sessions in California",
    "description": "Offers holistic healthcare using Traditional Chinese Medicine, including acupuncture, herbal medicine, and nutrition therapy, to treat root causes of illness and promote wellness",
    "hours": "Mon-Fri 9AM-6PM",
    "services": [
      "Chinese-speaking Breath work sessions in California consultation",
      "Professional service",
      "Quality guarantee"
    ],
    "social_links": {}
  },
  {
    "name": "The Wellness Principle",
    "address": "1200 First St, Napa, CA 94559",
    "phone": "(707) 603-1030",
    "rating": 4.0,
    "reviews": 25,
    "website": "https://www.thewellnessprinciple.com/",
    "category": "Chinese-speaking Breath work sessions in California",
    "description": "Integrates Traditional Chinese Medicine therapies like acupuncture and herbal medicine to help the body achieve balance and harmony of mind, body, and spirit",
    "hours": "Mon-Fri 9AM-6PM",
    "services": [
      "Chinese-speaking Breath work sessions in California consultation",
      "Professional service",
      "Quality guarantee"
    ],
    "social_links": {}
  },
  {
    "name": "Body & Brain Valley",
    "address": "7619 White Oak Ave, Reseda, CA 91335",
    "phone": "(818) 343-6960",
    "rating": 4.0,
    "reviews": 25,
    "website": "https://www.bodynbrain.com/locations/reseda-ca",
    "category": "Chinese-speaking Breath work sessions in California",
    "description": "Offers a blend of Qigong, Tai Chi, and meditation classes designed to harmonize body, mind, and spirit, making practices accessible to all fitness levels",
    "hours": "Mon-Fri 9AM-6PM",
    "services": [
      "Chinese-speaking Breath work sessions in California consultation",
      "Professional service",
      "Quality guarantee"
    ],
    "social_links": {}
  },
  {
    "name": "Bay Area Integrative Health Care",
    "address": "3756 Florence Street, Redwood City, CA 94063",
    "phone": "(650) 368-8899",
    "rating": 4.0,
    "reviews": 25,
    "website": "https://www.bayareaihc.com/",
    "category": "Chinese-speaking Breath work sessions in California",
    "description": "Utilizes Traditional Chinese Medicine treatments to heal the whole person, mind, body, and spirit, addressing conditions from pain to mental health issues",
    "hours": "Mon-Fri 9AM-6PM",
    "services": [
      "Chinese-speaking Breath work sessions in California consultation",
      "Professional service",
      "Quality guarantee"
    ],
    "social_links": {}
  },
  {
    "name": "Wu's Healing Center",
    "address": "1400 Geary Blvd, Suite 220, San Francisco, CA 94109",
    "phone": "(415) 870-9933",
    "rating": 4.0,
    "reviews": 25,
    "website": "https://www.wushealing.com/",
    "category": "Chinese-speaking Breath work sessions in California",
    "description": "Treats body, mind, and spirit through Traditional Chinese Medicine, including acupuncture and self-care practices, aiming to harmonize the Five Elements",
    "hours": "Mon-Fri 9AM-6PM",
    "services": [
      "Chinese-speaking Breath work sessions in California consultation",
      "Professional service",
      "Quality guarantee"
    ],
    "social_links": {}
  },
  {
    "name": "Indigo Dragon Center",
    "address": "451 La Veta Avenue, Encinitas, CA 92024",
    "phone": "(760) 652-1116",
    "rating": 4.0,
    "reviews": 25,
    "website": "https://www.indigodragoncenter.com/",
    "category": "Chinese-speaking Breath work sessions in California",
    "description": "Offers breathwork classes, with one session led by a certified breathwork coach and doctoral candidate in Chinese Medicine, focusing on performance and well-being",
    "hours": "Mon-Fri 9AM-6PM",
    "services": [
      "Chinese-speaking Breath work sessions in California consultation",
      "Professional service",
      "Quality guarantee"
    ],
    "social_links": {}
  }
]