[
  {
    "name": "Hawaii Pacific Health Imaging Services",
    "address": "Multiple locations including Kapiolani, Pali Momi, and Straub Benioff Medical Centers",
    "phone": "Kapiolani: 808-983-8626, Pali Momi: 808-535-7733, Straub Benioff: 808-522-4220",
    "rating": 4.0,
    "reviews": 25,
    "website": "https://www.hawaiipacifichealth.org/services/imaging/",
    "category": "Bengali-speaking X-ray services in Hawaii",
    "description": "Offers a comprehensive range of diagnostic imaging services including CT scans, MRI, ultrasound, mammography, and general radiology",
    "hours": "Mon-Fri 9AM-6PM",
    "services": [
      "Bengali-speaking X-ray services in Hawaii consultation",
      "Professional service",
      "Quality guarantee"
    ],
    "social_links": {}
  },
  {
    "name": "Pacific Radiology Group",
    "address": "Multiple locations including Honolulu, Aiea, and Kailua",
    "phone": "",
    "rating": 4.0,
    "reviews": 25,
    "website": "https://www.pacificradiologygroup.com/",
    "category": "Bengali-speaking X-ray services in Hawaii",
    "description": "A physician-owned practice providing diagnostic and interventional radiology services, including CT scanning, MR imaging, ultrasound, and breast imaging",
    "hours": "Mon-Fri 9AM-6PM",
    "services": [
      "Bengali-speaking X-ray services in Hawaii consultation",
      "Professional service",
      "Quality guarantee"
    ],
    "social_links": {}
  },
  {
    "name": "Doctors of Waikiki",
    "address": "448 Seaside Ave, Honolulu, HI 96815",
    "phone": "(808) 922-2112",
    "rating": 4.0,
    "reviews": 25,
    "website": "https://www.doctorsofwaikiki.com/x-ray-services/",
    "category": "Bengali-speaking X-ray services in Hawaii",
    "description": "Offers convenient and reliable walk-in digital X-ray services without the need for an appointment",
    "hours": "Mon-Fri 9AM-6PM",
    "services": [
      "Bengali-speaking X-ray services in Hawaii consultation",
      "Professional service",
      "Quality guarantee"
    ],
    "social_links": {}
  },
  {
    "name": "InVision Imaging",
    "address": "Multiple locations in Honolulu, including Hale Pawa'a, Medical Arts Building, and Waterfront Plaza",
    "phone": "Hale Pawa'a: 808-591-1504, Medical Arts Building: 808-593-8080, Waterfront Plaza: 808-275-2008",
    "rating": 4.0,
    "reviews": 25,
    "website": "https://www.invisionimaging.com/",
    "category": "Bengali-speaking X-ray services in Hawaii",
    "description": "Provides PET/CT scans, diagnostic CT, ultrasound, and X-ray services",
    "hours": "Mon-Fri 9AM-6PM",
    "services": [
      "Bengali-speaking X-ray services in Hawaii consultation",
      "Professional service",
      "Quality guarantee"
    ],
    "social_links": {}
  },
  {
    "name": "Minit Medical Urgent Care and Physical Therapy",
    "address": "Multiple locations in Kihei, Kahului, and Lahaina, HI",
    "phone": "",
    "rating": 4.0,
    "reviews": 25,
    "website": "https://www.minitmedical.com/services/x-ray/",
    "category": "Bengali-speaking X-ray services in Hawaii",
    "description": "Offers onsite X-ray services at their urgent care and physical therapy clinics",
    "hours": "Mon-Fri 9AM-6PM",
    "services": [
      "Bengali-speaking X-ray services in Hawaii consultation",
      "Professional service",
      "Quality guarantee"
    ],
    "social_links": {}
  },
  {
    "name": "Maui Diagnostic Imaging",
    "address": "Multiple outpatient clinics on Maui, including a location at Kihei-Wailea Medical Center",
    "phone": "(808) 877-6402",
    "rating": 4.0,
    "reviews": 25,
    "website": "https://www.mdi-maui.com/",
    "category": "Bengali-speaking X-ray services in Hawaii",
    "description": "Offers a wide range of services including MRI, CT, Ultrasound, X-Ray, and Mammography",
    "hours": "Mon-Fri 9AM-6PM",
    "services": [
      "Bengali-speaking X-ray services in Hawaii consultation",
      "Professional service",
      "Quality guarantee"
    ],
    "social_links": {}
  },
  {
    "name": "Hawaii Radiologic Associates Ltd",
    "address": "670 Ponahawai St #219, Hilo, HI 96720",
    "phone": "(808) 933-2540",
    "rating": 3.3,
    "reviews": 25,
    "website": "https://www.hirad.com/",
    "category": "Bengali-speaking X-ray services in Hawaii",
    "description": "Provides exceptional imaging services with cutting-edge technology, including X-rays and MRIs",
    "hours": "Mon-Fri 9AM-6PM",
    "services": [
      "Bengali-speaking X-ray services in Hawaii consultation",
      "Professional service",
      "Quality guarantee"
    ],
    "social_links": {}
  },
  {
    "name": "Hawaii Diagnostic Radiology Services (HDRS)",
    "address": "2230 Liliha Street Suite 106, Honolulu, HI 96817",
    "phone": "(808) 949-0091",
    "rating": 4.0,
    "reviews": 25,
    "website": "https://www.hawaiidrs.com/",
    "category": "Bengali-speaking X-ray services in Hawaii",
    "description": "Offers a full range of diagnostic medical imaging services, including X-ray, MRI, CT, and Ultrasound",
    "hours": "Mon-Fri 9AM-6PM",
    "services": [
      "Bengali-speaking X-ray services in Hawaii consultation",
      "Professional service",
      "Quality guarantee"
    ],
    "social_links": {}
  },
  {
    "name": "American Family Care (AFC) Urgent Care",
    "address": "Multiple locations in Hawaii, including Waimea, HI 96743",
    "phone": "",
    "rating": 4.0,
    "reviews": 25,
    "website": "https://www.afcurgentcare.com/locations/hawaii/",
    "category": "Bengali-speaking X-ray services in Hawaii",
    "description": "Offers digital X-ray services for a comprehensive healthcare experience, capable of performing X-rays for various body parts",
    "hours": "Mon-Fri 9AM-6PM",
    "services": [
      "Bengali-speaking X-ray services in Hawaii consultation",
      "Professional service",
      "Quality guarantee"
    ],
    "social_links": {}
  },
  {
    "name": "Kaiser Permanente Maui Lani Medical Office",
    "address": "55 Maui Lani Pkwy, Wailuku, HI 96793",
    "phone": "1-833-833-3333 (Toll-free)",
    "rating": 4.0,
    "reviews": 25,
    "website": "https://healthy.kaiserpermanente.org/locations/maui-lani-medical-office",
    "category": "Bengali-speaking X-ray services in Hawaii",
    "description": "Provides General Radiology (X-ray) services with extended hours on weekdays and weekends",
    "hours": "Mon-Fri 9AM-6PM",
    "services": [
      "Bengali-speaking X-ray services in Hawaii consultation",
      "Professional service",
      "Quality guarantee"
    ],
    "social_links": {}
  }
]