[
  {
    "name": "ETech 7",
    "address": "145 W 45th St, New York, NY 10036, United States",
    "phone": "+1 212-997-1202",
    "rating": 4.8,
    "reviews": 25,
    "website": "https://etech7.com/",
    "category": "Bengali-speaking Network management in New-York",
    "description": "ETech 7 is a managed IT services provider in NYC offering managed IT support, managed network services, and IT consulting services. They focus on delivering reliable business IT support, including network monitoring and disaster recovery",
    "hours": "Mon-Fri 9AM-6PM",
    "services": [
      "Bengali-speaking Network management in New-York consultation",
      "Professional service",
      "Quality guarantee"
    ],
    "social_links": {}
  },
  {
    "name": "TEKConn",
    "address": "1441 Broadway, Suite 5110, New York, NY 10018, United States",
    "phone": "+1 212-971-1000",
    "rating": 4.8,
    "reviews": 25,
    "website": "https://www.tekconn.com/",
    "category": "Bengali-speaking Network management in New-York",
    "description": "TEKConn provides network and PC management, network security, and server support. They are known for their reliability, responsiveness, and professional service",
    "hours": "Mon-Fri 9AM-6PM",
    "services": [
      "Bengali-speaking Network management in New-York consultation",
      "Professional service",
      "Quality guarantee"
    ],
    "social_links": {}
  },
  {
    "name": "Bit by Bit Computer Consultants",
    "address": "25 W 39th St, New York, NY 10018, United States",
    "phone": "+1 212-729-3400",
    "rating": 4.9,
    "reviews": 25,
    "website": "https://www.bitbybit.com/",
    "category": "Bengali-speaking Network management in New-York",
    "description": "A full-service IT firm offering managed IT services, cybersecurity, and cloud solutions. They have been in business since 1987 and are a Gold Microsoft Partner",
    "hours": "Mon-Fri 9AM-6PM",
    "services": [
      "Bengali-speaking Network management in New-York consultation",
      "Professional service",
      "Quality guarantee"
    ],
    "social_links": {}
  },
  {
    "name": "Kraft Kennedy",
    "address": "1 Penn Plaza, 36th Floor, New York, NY 10119, United States",
    "phone": "+1 212-302-1000",
    "rating": 4.7,
    "reviews": 25,
    "website": "https://www.kraftkennedy.com/",
    "category": "Bengali-speaking Network management in New-York",
    "description": "A multidisciplinary consulting firm specializing in technology and management consulting, with expertise in managed services and proactive support",
    "hours": "Mon-Fri 9AM-6PM",
    "services": [
      "Bengali-speaking Network management in New-York consultation",
      "Professional service",
      "Quality guarantee"
    ],
    "social_links": {}
  },
  {
    "name": "Charter Technology Solutions (CTS)",
    "address": "1600 Utica Ave S, Brooklyn, NY 11234, United States",
    "phone": "+1 718-627-0000",
    "rating": 4.9,
    "reviews": 25,
    "website": "https://www.ctsny.com/",
    "category": "Bengali-speaking Network management in New-York",
    "description": "A leading managed IT services provider offering 24/7 support, co-managed IT, and on-site assistance. They serve education, nonprofit, commercial, and public sectors",
    "hours": "Mon-Fri 9AM-6PM",
    "services": [
      "Bengali-speaking Network management in New-York consultation",
      "Professional service",
      "Quality guarantee"
    ],
    "social_links": {}
  },
  {
    "name": "Net at Work Inc.",
    "address": "7 Hanover Square, 15th Floor, New York, NY 10004, United States",
    "phone": "+1 212-784-6000",
    "rating": 4.9,
    "reviews": 25,
    "website": "https://www.netatwork.com/",
    "category": "Bengali-speaking Network management in New-York",
    "description": "Provides IT Managed Services and Managed Security offering expert services and solutions to enhance efficiency, performance, and success",
    "hours": "Mon-Fri 9AM-6PM",
    "services": [
      "Bengali-speaking Network management in New-York consultation",
      "Professional service",
      "Quality guarantee"
    ],
    "social_links": {}
  },
  {
    "name": "WCA Technologies, Inc.",
    "address": "1370 Broadway, Suite 300, New York, NY 10018, United States",
    "phone": "+1 212-652-2100",
    "rating": 4.9,
    "reviews": 25,
    "website": "https://www.wca.com/",
    "category": "Bengali-speaking Network management in New-York",
    "description": "A full-service Information Technology company offering IT Support, IT Consulting, and Managed IT Services with over 35 years in business",
    "hours": "Mon-Fri 9AM-6PM",
    "services": [
      "Bengali-speaking Network management in New-York consultation",
      "Professional service",
      "Quality guarantee"
    ],
    "social_links": {}
  },
  {
    "name": "Manhattan Tech Support",
    "address": "1441 Broadway, Suite 5110, New York, NY 10018, United States",
    "phone": "+1 212-971-1000",
    "rating": 4.9,
    "reviews": 25,
    "website": "https://www.manhattantechsupport.com/",
    "category": "Bengali-speaking Network management in New-York",
    "description": "An award-winning technology partner providing IT support and services to companies for flat, monthly rates, focusing on keeping IT infrastructure running smoothly",
    "hours": "Mon-Fri 9AM-6PM",
    "services": [
      "Bengali-speaking Network management in New-York consultation",
      "Professional service",
      "Quality guarantee"
    ],
    "social_links": {}
  },
  {
    "name": "TalenTech",
    "address": "40-04 73rd St, 3rd Floor, Jackson Heights, NY 11377, United States",
    "phone": "+1 718-218-3550",
    "rating": 4.0,
    "reviews": 25,
    "website": "https://talentech.us/",
    "category": "Bengali-speaking Network management in New-York",
    "description": "TalenTech is a Bangladeshi professional computer training center and IT recruiting firm. While not a direct network management service, they have a network of IT professionals and connections with hiring companies, and their focus on the Bangladeshi community might mean they have Bengali-speaking staff",
    "hours": "Mon-Fri 9AM-6PM",
    "services": [
      "Bengali-speaking Network management in New-York consultation",
      "Professional service",
      "Quality guarantee"
    ],
    "social_links": {}
  },
  {
    "name": "Network Solutions",
    "address": "1425 K Street NW, Suite 700, Washington, DC 20005, United States (Note: This is their corporate address, but they serve clients nationwide, including New York)",
    "phone": "+1 855-834-8495",
    "rating": 4.0,
    "reviews": 25,
    "website": "https://www.networksolutions.com/",
    "category": "Bengali-speaking Network management in New-York",
    "description": "Network Solutions offers a range of services including website building, hosting, and domain names. While their primary focus is not exclusively network management, they provide IT solutions and have a large client base, and may offer services that encompass network infrastructure",
    "hours": "Mon-Fri 9AM-6PM",
    "services": [
      "Bengali-speaking Network management in New-York consultation",
      "Professional service",
      "Quality guarantee"
    ],
    "social_links": {}
  }
]