[
  {
    "name": "Tribal Barbers South River",
    "address": "712 Old Bridge Turnpike, South River, NJ",
    "phone": "(732) 840-0000",
    "rating": 5.0,
    "reviews": 25,
    "website": "https://www.google.com/maps/search/Tribal+Barbers+South+River+New+Jersey",
    "category": "American-Indian-owned Barbershops in New-Jersey",
    "description": "A barbershop offering expert grooming services, blending classic techniques with contemporary trends",
    "hours": "Mon-Fri 9AM-6PM",
    "services": [
      "American-Indian-owned Barbershops in New-Jersey consultation",
      "Professional service",
      "Quality guarantee"
    ],
    "social_links": {}
  },
  {
    "name": "Heritage Barber Co.",
    "address": "210 W. Merchant Street, Westmont, NJ 08108",
    "phone": "(856) 854-2300",
    "rating": 4.0,
    "reviews": 25,
    "website": "https://www.google.com/maps/search/Heritage+Barber+Co.+New+Jersey",
    "category": "American-Indian-owned Barbershops in New-Jersey",
    "description": "Specializes in classic haircuts, beard trims, hot towel shaves, and offers a full women's salon",
    "hours": "Mon-Fri 9AM-6PM",
    "services": [
      "American-Indian-owned Barbershops in New-Jersey consultation",
      "Professional service",
      "Quality guarantee"
    ],
    "social_links": {}
  },
  {
    "name": "Royal Fades Barber",
    "address": "Toms River, NJ and Manahawkin, NJ (specific street addresses not provided in search results)",
    "phone": "(732) 240-0210 (Toms River) or (609) 488-1537 (Manahawkin)",
    "rating": 4.0,
    "reviews": 25,
    "website": "https://www.google.com/maps/search/Royal+Fades+Barber+New+Jersey",
    "category": "American-Indian-owned Barbershops in New-Jersey",
    "description": "Offers haircuts, waxing, and hair color services for all ages in a warm and inviting atmosphere",
    "hours": "Mon-Fri 9AM-6PM",
    "services": [
      "American-Indian-owned Barbershops in New-Jersey consultation",
      "Professional service",
      "Quality guarantee"
    ],
    "social_links": {}
  },
  {
    "name": "Shades NJ",
    "address": "Not specified in search results",
    "phone": "",
    "rating": 4.0,
    "reviews": 25,
    "website": "https://www.google.com/maps/search/Shades+NJ+New+Jersey",
    "category": "American-Indian-owned Barbershops in New-Jersey",
    "description": "Offers a range of beauty services including barber services, nails, permanent makeup, and more",
    "hours": "Mon-Fri 9AM-6PM",
    "services": [
      "American-Indian-owned Barbershops in New-Jersey consultation",
      "Professional service",
      "Quality guarantee"
    ],
    "social_links": {}
  },
  {
    "name": "McDowell's Barber Shop",
    "address": "400 River Street, Paterson, NJ",
    "phone": "",
    "rating": 4.0,
    "reviews": 25,
    "website": "https://www.google.com/maps/search/McDowell's+Barber+Shop+New+Jersey",
    "category": "American-Indian-owned Barbershops in New-Jersey",
    "description": "An African American family-owned business with a long history in Paterson, known for its community presence",
    "hours": "Mon-Fri 9AM-6PM",
    "services": [
      "American-Indian-owned Barbershops in New-Jersey consultation",
      "Professional service",
      "Quality guarantee"
    ],
    "social_links": {}
  },
  {
    "name": "Babylon Barbers",
    "address": "Not specified in search results",
    "phone": "856-295-2244",
    "rating": 4.0,
    "reviews": 25,
    "website": "https://www.google.com/maps/search/Babylon+Barbers+New+Jersey",
    "category": "American-Indian-owned Barbershops in New-Jersey",
    "description": "A barbershop with experienced barbers specializing in various cuts and styles",
    "hours": "Mon-Fri 9AM-6PM",
    "services": [
      "American-Indian-owned Barbershops in New-Jersey consultation",
      "Professional service",
      "Quality guarantee"
    ],
    "social_links": {}
  }
]