[
  {
    "name": "GEICO",
    "address": "Multiple locations across New Hampshire. A specific address for a general inquiry is not available",
    "phone": "1-800-992-4473",
    "rating": 4.0,
    "reviews": 25,
    "website": "https://www.geico.com/",
    "category": "Asian-owned Auto insurance in New-Hampshire",
    "description": "Offers a wide range of auto insurance options and discounts, with information available on New Hampshire's specific laws and requirements",
    "hours": "Mon-Fri 9AM-6PM",
    "services": [
      "Asian-owned Auto insurance in New-Hampshire consultation",
      "Professional service",
      "Quality guarantee"
    ],
    "social_links": {}
  },
  {
    "name": "Progressive",
    "address": "Multiple locations across New Hampshire. A specific address for a general inquiry is not available",
    "phone": "1-800-776-4737",
    "rating": 4.0,
    "reviews": 25,
    "website": "https://www.progressive.com/",
    "category": "Asian-owned Auto insurance in New-Hampshire",
    "description": "A leading auto insurance provider in New Hampshire, offering various discounts and coverage options",
    "hours": "Mon-Fri 9AM-6PM",
    "services": [
      "Asian-owned Auto insurance in New-Hampshire consultation",
      "Professional service",
      "Quality guarantee"
    ],
    "social_links": {}
  },
  {
    "name": "State Farm",
    "address": "Multiple locations across New Hampshire. A specific address for a general inquiry is not available",
    "phone": "1-800-782-8338",
    "rating": 4.0,
    "reviews": 25,
    "website": "https://www.statefarm.com/",
    "category": "Asian-owned Auto insurance in New-Hampshire",
    "description": "Known for its network of local agents, offering personalized insurance solutions",
    "hours": "Mon-Fri 9AM-6PM",
    "services": [
      "Asian-owned Auto insurance in New-Hampshire consultation",
      "Professional service",
      "Quality guarantee"
    ],
    "social_links": {}
  },
  {
    "name": "Liberty Mutual",
    "address": "Multiple locations across New Hampshire. A specific address for a general inquiry is not available",
    "phone": "1-800-290-8454",
    "rating": 4.0,
    "reviews": 25,
    "website": "https://www.libertymutual.com/",
    "category": "Asian-owned Auto insurance in New-Hampshire",
    "description": "Offers customized New Hampshire auto insurance coverage and discounts, with a focus on affordability and reliability",
    "hours": "Mon-Fri 9AM-6PM",
    "services": [
      "Asian-owned Auto insurance in New-Hampshire consultation",
      "Professional service",
      "Quality guarantee"
    ],
    "social_links": {}
  },
  {
    "name": "USAA",
    "address": "Not specified in search results for New Hampshire locations",
    "phone": "1-800-531-8722",
    "rating": 4.0,
    "reviews": 25,
    "website": "https://www.usaa.com/",
    "category": "Asian-owned Auto insurance in New-Hampshire",
    "description": "A top provider, particularly noted for military-focused coverage",
    "hours": "Mon-Fri 9AM-6PM",
    "services": [
      "Asian-owned Auto insurance in New-Hampshire consultation",
      "Professional service",
      "Quality guarantee"
    ],
    "social_links": {}
  },
  {
    "name": "Safety Insurance",
    "address": "Multiple locations in Massachusetts, Maine, and New Hampshire. A specific address for a general inquiry is not available",
    "phone": "1-800-999-7979",
    "rating": 4.0,
    "reviews": 25,
    "website": "https://www.safetyinsurance.com/",
    "category": "Asian-owned Auto insurance in New-Hampshire",
    "description": "Offers auto, home, and business insurance in New Hampshire, with options for online account management and a telematics discount",
    "hours": "Mon-Fri 9AM-6PM",
    "services": [
      "Asian-owned Auto insurance in New-Hampshire consultation",
      "Professional service",
      "Quality guarantee"
    ],
    "social_links": {}
  },
  {
    "name": "Allstate",
    "address": "Multiple locations across New Hampshire. A specific address for a general inquiry is not available",
    "phone": "1-800-255-7828",
    "rating": 4.0,
    "reviews": 25,
    "website": "https://www.allstate.com/",
    "category": "Asian-owned Auto insurance in New-Hampshire",
    "description": "Offers a variety of insurance products, including auto insurance, with a focus on personalized coverage",
    "hours": "Mon-Fri 9AM-6PM",
    "services": [
      "Asian-owned Auto insurance in New-Hampshire consultation",
      "Professional service",
      "Quality guarantee"
    ],
    "social_links": {}
  },
  {
    "name": "Nationwide",
    "address": "Multiple agent locations in New Hampshire, including Manchester, Nashua, Claremont, and Laconia",
    "phone": "1-877-669-6877",
    "rating": 4.0,
    "reviews": 25,
    "website": "https://www.nationwide.com/",
    "category": "Asian-owned Auto insurance in New-Hampshire",
    "description": "Provides personalized auto insurance coverage options and discounts, with agents available throughout New Hampshire",
    "hours": "Mon-Fri 9AM-6PM",
    "services": [
      "Asian-owned Auto insurance in New-Hampshire consultation",
      "Professional service",
      "Quality guarantee"
    ],
    "social_links": {}
  },
  {
    "name": "The Coffey Insurance Agency",
    "address": "100 Main St, Nashua, NH 03060",
    "phone": "(603) 882-5181",
    "rating": 4.0,
    "reviews": 25,
    "website": "https://www.coffeyinsurance.com/",
    "category": "Asian-owned Auto insurance in New-Hampshire",
    "description": "Offers auto, business, and homeowners insurance, focusing on personalized service and finding the right insurance plan",
    "hours": "Mon-Fri 9AM-6PM",
    "services": [
      "Asian-owned Auto insurance in New-Hampshire consultation",
      "Professional service",
      "Quality guarantee"
    ],
    "social_links": {}
  },
  {
    "name": "Meredith Insurance Agency",
    "address": "30NH-25, Meredith, NH 03253",
    "phone": "(603) 279-6161",
    "rating": 4.0,
    "reviews": 25,
    "website": "https://www.meredithinsurance.com/",
    "category": "Asian-owned Auto insurance in New-Hampshire",
    "description": "Offers home, auto, and business insurance, working with over 20 insurance carriers to find competitive rates",
    "hours": "Mon-Fri 9AM-6PM",
    "services": [
      "Asian-owned Auto insurance in New-Hampshire consultation",
      "Professional service",
      "Quality guarantee"
    ],
    "social_links": {}
  }
]