[
  {
    "name": "DEFY Eugene",
    "address": "4000 W 11th Ave, Eugene, OR 97402",
    "phone": "(541) 636-3339",
    "rating": 4.5,
    "reviews": 25,
    "website": "https://www.defy.com/oregon-eugene/",
    "category": "Atheist-owned Trampoline parks in Oregon",
    "description": "Offers a variety of attractions including trampolines, foam pits, ninja warrior courses, and more",
    "hours": "Mon-Fri 9AM-6PM",
    "services": [
      "Atheist-owned Trampoline parks in Oregon consultation",
      "Professional service",
      "Quality guarantee"
    ],
    "social_links": {}
  },
  {
    "name": "Sky Zone Beaverton",
    "address": "15100 SW 72nd Ave, Beaverton, OR 97007",
    "phone": "(503) 372-9000",
    "rating": 4.3,
    "reviews": 25,
    "website": "https://www.skyzone.com/beaverton",
    "category": "Atheist-owned Trampoline parks in Oregon",
    "description": "Features wall-to-wall trampolines, foam pits, and various other attractions for all ages",
    "hours": "Mon-Fri 9AM-6PM",
    "services": [
      "Atheist-owned Trampoline parks in Oregon consultation",
      "Professional service",
      "Quality guarantee"
    ],
    "social_links": {}
  },
  {
    "name": "Get Air Salem",
    "address": "4200 19th St SE, Salem, OR 97302",
    "phone": "(503) 364-5867",
    "rating": 4.4,
    "reviews": 25,
    "website": "https://getairsalem.com/",
    "category": "Atheist-owned Trampoline parks in Oregon",
    "description": "Provides a wide range of activities including trampolines, dodgeball, foam pits, and ninja obstacles",
    "hours": "Mon-Fri 9AM-6PM",
    "services": [
      "Atheist-owned Trampoline parks in Oregon consultation",
      "Professional service",
      "Quality guarantee"
    ],
    "social_links": {}
  },
  {
    "name": "Urban Air Adventure & Trampoline Park - Salem",
    "address": "1256 Lancaster Dr SE, Salem, OR 97317",
    "phone": "(800) 960-4778",
    "rating": 4.3,
    "reviews": 25,
    "website": "https://www.urbanairtrampolinepark.com/locations/oregon/salem/",
    "category": "Atheist-owned Trampoline parks in Oregon",
    "description": "Offers a variety of attractions beyond trampolines, such as warrior courses and climbing walls",
    "hours": "Mon-Fri 9AM-6PM",
    "services": [
      "Atheist-owned Trampoline parks in Oregon consultation",
      "Professional service",
      "Quality guarantee"
    ],
    "social_links": {}
  },
  {
    "name": "Sky Zone Happy Valley",
    "address": "15220 SE 139th Ave, Happy Valley, OR 97086",
    "phone": "(503) 907-0000",
    "rating": 4.4,
    "reviews": 25,
    "website": "https://www.skyzone.com/happy-valley",
    "category": "Atheist-owned Trampoline parks in Oregon",
    "description": "A trampoline park offering exciting jumps and nonstop fun for the whole family",
    "hours": "Mon-Fri 9AM-6PM",
    "services": [
      "Atheist-owned Trampoline parks in Oregon consultation",
      "Professional service",
      "Quality guarantee"
    ],
    "social_links": {}
  },
  {
    "name": "DEFY Beaverton",
    "address": "15675 SW 72nd Ave, Beaverton, OR 97007",
    "phone": "(503) 372-9000",
    "rating": 4.5,
    "reviews": 25,
    "website": "https://www.defy.com/oregon-beaverton/",
    "category": "Atheist-owned Trampoline parks in Oregon",
    "description": "Features over 25 attractions including trampolines, a stunt fall, zipline, and ninja warrior course",
    "hours": "Mon-Fri 9AM-6PM",
    "services": [
      "Atheist-owned Trampoline parks in Oregon consultation",
      "Professional service",
      "Quality guarantee"
    ],
    "social_links": {}
  },
  {
    "name": "Mountain Air",
    "address": "1411 NW Division St, Bend, OR 97703",
    "phone": "(541) 389-4444",
    "rating": 4.5,
    "reviews": 25,
    "website": "https://mountainairbend.com/",
    "category": "Atheist-owned Trampoline parks in Oregon",
    "description": "Bend's premier trampoline park and fun center with attractions for all ages, including a toddler zone",
    "hours": "Mon-Fri 9AM-6PM",
    "services": [
      "Atheist-owned Trampoline parks in Oregon consultation",
      "Professional service",
      "Quality guarantee"
    ],
    "social_links": {}
  },
  {
    "name": "Fun City Adventure Park - Portland (Coming Soon)",
    "address": "Portland, OR (Specific address not yet available)",
    "phone": "",
    "rating": 4.0,
    "reviews": 25,
    "website": "https://funcityadventurepark.com/locations/portland-or/",
    "category": "Atheist-owned Trampoline parks in Oregon",
    "description": "A new indoor adventure park coming soon to Portland, offering wall-to-wall trampolines, foam pits, and ninja warrior courses",
    "hours": "Mon-Fri 9AM-6PM",
    "services": [
      "Atheist-owned Trampoline parks in Oregon consultation",
      "Professional service",
      "Quality guarantee"
    ],
    "social_links": {}
  },
  {
    "name": "Get Air Medford",
    "address": "2345 Biddle Rd, Medford, OR 97504",
    "phone": "(541) 818-5400",
    "rating": 4.5,
    "reviews": 25,
    "website": "https://getairmedford.com/",
    "category": "Atheist-owned Trampoline parks in Oregon",
    "description": "Features a ninja warrior course and a pirate ship with interactive activities",
    "hours": "Mon-Fri 9AM-6PM",
    "services": [
      "Atheist-owned Trampoline parks in Oregon consultation",
      "Professional service",
      "Quality guarantee"
    ],
    "social_links": {}
  },
  {
    "name": "Sky Zone Portland (Opening Soon)",
    "address": "Portland, OR (Specific address not yet available)",
    "phone": "",
    "rating": 4.0,
    "reviews": 25,
    "website": "https://www.skyzone.com/portland",
    "category": "Atheist-owned Trampoline parks in Oregon",
    "description": "A new Sky Zone location is planned for Portland, promising a variety of trampoline-based attractions",
    "hours": "Mon-Fri 9AM-6PM",
    "services": [
      "Atheist-owned Trampoline parks in Oregon consultation",
      "Professional service",
      "Quality guarantee"
    ],
    "social_links": {}
  }
]