[
  {
    "name": "Rehbock & Wilson",
    "address": "401 E. Northern Lights Blvd., Suite 210, Anchorage, AK 99503",
    "phone": "(907) 279-9132",
    "rating": 4.0,
    "reviews": 25,
    "website": "https://www.rehbockwilson.com/",
    "category": "Armenian-speaking Workers' compensation in Alaska",
    "description": "This firm represents clients throughout Alaska in workers' compensation cases",
    "hours": "Mon-Fri 9AM-6PM",
    "services": [
      "Armenian-speaking Workers' compensation in Alaska consultation",
      "Professional service",
      "Quality guarantee"
    ],
    "social_links": {}
  },
  {
    "name": "The Law Office of Lee D. Goodman",
    "address": "Anchorage, AK (Specific street address not provided in search results)",
    "phone": "(907) 302-3817",
    "rating": 4.0,
    "reviews": 25,
    "website": "https://www.leegoodmanlaw.com/",
    "category": "Armenian-speaking Workers' compensation in Alaska",
    "description": "Provides legal counsel to clients involved in Alaska's workers' compensation system",
    "hours": "Mon-Fri 9AM-6PM",
    "services": [
      "Armenian-speaking Workers' compensation in Alaska consultation",
      "Professional service",
      "Quality guarantee"
    ],
    "social_links": {}
  },
  {
    "name": "Carlson Law Group, LLC",
    "address": "Serves multiple locations including Wasilla, Palmer, Kenai, Juneau, Fairbanks, and Soldotna, AK. (Specific street addresses for each location not provided in search results.)",
    "phone": "(907) 677-8111",
    "rating": 4.0,
    "reviews": 25,
    "website": "https://www.carlsonlawgroup.com/",
    "category": "Armenian-speaking Workers' compensation in Alaska",
    "description": "Offers workers' compensation representation across various Alaskan cities",
    "hours": "Mon-Fri 9AM-6PM",
    "services": [
      "Armenian-speaking Workers' compensation in Alaska consultation",
      "Professional service",
      "Quality guarantee"
    ],
    "social_links": {}
  },
  {
    "name": "Law Office of Justin S. Eppler, LLC",
    "address": "Anchorage, AK (Specific street address not provided in search results)",
    "phone": "",
    "rating": 4.0,
    "reviews": 25,
    "website": "https://www.epplerlaw.com/",
    "category": "Armenian-speaking Workers' compensation in Alaska",
    "description": "Focuses on helping individuals obtain financial benefits through workers' compensation",
    "hours": "Mon-Fri 9AM-6PM",
    "services": [
      "Armenian-speaking Workers' compensation in Alaska consultation",
      "Professional service",
      "Quality guarantee"
    ],
    "social_links": {}
  },
  {
    "name": "Jason Weiner & Associates, P.C.",
    "address": "Offices in Fairbanks and Anchorage, AK. (Specific street addresses not provided in search results.)",
    "phone": "Fairbanks: (907) 452-5196; Anchorage: (907) 375-7905",
    "rating": 4.0,
    "reviews": 25,
    "website": "https://www.jasonweinerlaw.com/",
    "category": "Armenian-speaking Workers' compensation in Alaska",
    "description": "Offers a range of legal services including workers' compensation",
    "hours": "Mon-Fri 9AM-6PM",
    "services": [
      "Armenian-speaking Workers' compensation in Alaska consultation",
      "Professional service",
      "Quality guarantee"
    ],
    "social_links": {}
  },
  {
    "name": "Meshke Paddock & Budzinski",
    "address": "1500 W. 33rd Avenue, Suite 200, Anchorage, AK 99503-3505",
    "phone": "(907) 258-1747",
    "rating": 4.0,
    "reviews": 25,
    "website": "https://www.mpblaw.com/",
    "category": "Armenian-speaking Workers' compensation in Alaska",
    "description": "A large workers' compensation defense firm for employers and carriers statewide",
    "hours": "Mon-Fri 9AM-6PM",
    "services": [
      "Armenian-speaking Workers' compensation in Alaska consultation",
      "Professional service",
      "Quality guarantee"
    ],
    "social_links": {}
  },
  {
    "name": "Honeycutt Law",
    "address": "Alaska (Specific street address not provided in search results)",
    "phone": "",
    "rating": 4.0,
    "reviews": 25,
    "website": "https://www.honeycuttlaw.com/",
    "category": "Armenian-speaking Workers' compensation in Alaska",
    "description": "Focuses on guiding clients through the workers' compensation process",
    "hours": "Mon-Fri 9AM-6PM",
    "services": [
      "Armenian-speaking Workers' compensation in Alaska consultation",
      "Professional service",
      "Quality guarantee"
    ],
    "social_links": {}
  },
  {
    "name": "Dolifka & Mery",
    "address": "Soldotna, AK (Specific street address not provided in search results)",
    "phone": "",
    "rating": 4.0,
    "reviews": 25,
    "website": "https://www.dolifkamery.com/",
    "category": "Armenian-speaking Workers' compensation in Alaska",
    "description": "Serves residents of Soldotna and the Kenai Peninsula with legal needs, including personal injury",
    "hours": "Mon-Fri 9AM-6PM",
    "services": [
      "Armenian-speaking Workers' compensation in Alaska consultation",
      "Professional service",
      "Quality guarantee"
    ],
    "social_links": {}
  },
  {
    "name": "Joe Kashi \u2013 Attorney At Law",
    "address": "Soldotna, AK (Specific street address not provided in search results)",
    "phone": "",
    "rating": 4.0,
    "reviews": 25,
    "website": "https://www.kashilaw.com/",
    "category": "Armenian-speaking Workers' compensation in Alaska",
    "description": "Trial lawyer focusing on personal injury and accident claims in Soldotna and surrounding areas",
    "hours": "Mon-Fri 9AM-6PM",
    "services": [
      "Armenian-speaking Workers' compensation in Alaska consultation",
      "Professional service",
      "Quality guarantee"
    ],
    "social_links": {}
  },
  {
    "name": "Robert A. Sparks, Attorney at Law",
    "address": "Fairbanks, AK (Specific street address not provided in search results)",
    "phone": "(907) 451-0875",
    "rating": 4.0,
    "reviews": 25,
    "website": "https://www.robertasparks.com/",
    "category": "Armenian-speaking Workers' compensation in Alaska",
    "description": "Provides legal services in labor and employment law, personal injury, business law, and real estate",
    "hours": "Mon-Fri 9AM-6PM",
    "services": [
      "Armenian-speaking Workers' compensation in Alaska consultation",
      "Professional service",
      "Quality guarantee"
    ],
    "social_links": {}
  }
]