[
  {
    "name": "Center for Vein Restoration - Fort Wayne",
    "address": "7230 Engle Road, Suite 101, Fort Wayne, Indiana 46804",
    "phone": "(260) 222-0170",
    "rating": 4.0,
    "reviews": 25,
    "website": "https://www.centerforvein.com/locations/fort-wayne-indiana/",
    "category": "African-American-owned Vein treatment in Indiana",
    "description": "Offers treatment for varicose veins, spider veins, and other vein conditions",
    "hours": "Mon-Fri 9AM-6PM",
    "services": [
      "African-American-owned Vein treatment in Indiana consultation",
      "Professional service",
      "Quality guarantee"
    ],
    "social_links": {}
  },
  {
    "name": "Indiana Vein & Lymphatic",
    "address": "11590 N. Meridian Street, Suite 270, Carmel, IN 46032",
    "phone": "317-348-3020",
    "rating": 4.0,
    "reviews": 25,
    "website": "https://www.indianavein.com/",
    "category": "African-American-owned Vein treatment in Indiana",
    "description": "Focuses on venous and lymphatic health, offering diagnosis and treatment for various vein conditions",
    "hours": "Mon-Fri 9AM-6PM",
    "services": [
      "African-American-owned Vein treatment in Indiana consultation",
      "Professional service",
      "Quality guarantee"
    ],
    "social_links": {}
  },
  {
    "name": "Indiana Vein Specialists (part of Indiana Vein Solutions)",
    "address": "11876 Olio Rd Ste 700, Fishers, IN 46037",
    "phone": "",
    "rating": 4.0,
    "reviews": 25,
    "website": "https://www.indianaveinsolutions.com/",
    "category": "African-American-owned Vein treatment in Indiana",
    "description": "Provides treatments for vein conditions, with a focus on patient understanding and a welcoming atmosphere",
    "hours": "Mon-Fri 9AM-6PM",
    "services": [
      "African-American-owned Vein treatment in Indiana consultation",
      "Professional service",
      "Quality guarantee"
    ],
    "social_links": {}
  },
  {
    "name": "Center for Vein Restoration - Greenwood",
    "address": "33 E. County Line Road, Suite D, Greenwood, Indiana 46143",
    "phone": "(317) 348-3020",
    "rating": 4.0,
    "reviews": 25,
    "website": "https://www.centerforvein.com/locations/greenwood-indiana/",
    "category": "African-American-owned Vein treatment in Indiana",
    "description": "Treats varicose veins, spider veins, and deep vein thrombosis (DVT)",
    "hours": "Mon-Fri 9AM-6PM",
    "services": [
      "African-American-owned Vein treatment in Indiana consultation",
      "Professional service",
      "Quality guarantee"
    ],
    "social_links": {}
  },
  {
    "name": "USA Vein Clinics - Indianapolis",
    "address": "Not explicitly stated in the search result, but serves the Indianapolis area",
    "phone": "(847) 580-1285",
    "rating": 4.0,
    "reviews": 25,
    "website": "https://www.usaveinclinics.com/locations/indianapolis/",
    "category": "African-American-owned Vein treatment in Indiana",
    "description": "Offers minimally invasive treatments for varicose and spider veins",
    "hours": "Mon-Fri 9AM-6PM",
    "services": [
      "African-American-owned Vein treatment in Indiana consultation",
      "Professional service",
      "Quality guarantee"
    ],
    "social_links": {}
  },
  {
    "name": "Center for Vein Restoration - Avon",
    "address": "105 S. Raceway Road, Suite 135, Indianapolis, Indiana 46231",
    "phone": "240-249-8250",
    "rating": 4.0,
    "reviews": 25,
    "website": "https://www.centerforvein.com/locations/avon-indiana/",
    "category": "African-American-owned Vein treatment in Indiana",
    "description": "Provides expert vein care for venous insufficiency, varicose veins, and spider veins",
    "hours": "Mon-Fri 9AM-6PM",
    "services": [
      "African-American-owned Vein treatment in Indiana consultation",
      "Professional service",
      "Quality guarantee"
    ],
    "social_links": {}
  },
  {
    "name": "Indiana Vein & Laser Center",
    "address": "Not explicitly stated in the search result, but serves Fort Wayne and Fishers",
    "phone": "",
    "rating": 4.0,
    "reviews": 25,
    "website": "https://www.indianaveinandlaser.com/",
    "category": "African-American-owned Vein treatment in Indiana",
    "description": "Offers personalized care for venous disease, focusing on pain relief and improved quality of life",
    "hours": "Mon-Fri 9AM-6PM",
    "services": [
      "African-American-owned Vein treatment in Indiana consultation",
      "Professional service",
      "Quality guarantee"
    ],
    "social_links": {}
  },
  {
    "name": "Legacy Vein Clinic",
    "address": "Not explicitly stated in the search result, but serves Mishawaka, Indiana",
    "phone": "(574) 335-6060",
    "rating": 4.0,
    "reviews": 25,
    "website": "https://www.legacyveinclinic.com/",
    "category": "African-American-owned Vein treatment in Indiana",
    "description": "Provides minimally invasive treatments for varicose and spider veins",
    "hours": "Mon-Fri 9AM-6PM",
    "services": [
      "African-American-owned Vein treatment in Indiana consultation",
      "Professional service",
      "Quality guarantee"
    ],
    "social_links": {}
  },
  {
    "name": "Center for Vein Restoration - Evansville",
    "address": "6540 Logan Drive, Suite 2, Evansville, Indiana 47715",
    "phone": "(812) 214-0140",
    "rating": 4.0,
    "reviews": 25,
    "website": "https://www.centerforvein.com/locations/evansville-indiana/",
    "category": "African-American-owned Vein treatment in Indiana",
    "description": "Offers comprehensive vein care for various vein disorders",
    "hours": "Mon-Fri 9AM-6PM",
    "services": [
      "African-American-owned Vein treatment in Indiana consultation",
      "Professional service",
      "Quality guarantee"
    ],
    "social_links": {}
  },
  {
    "name": "Center for Vein Restoration - Hobart",
    "address": "1400 S. Lake Park Avenue, Hobart, Indiana 46342",
    "phone": "(219) 322-7070",
    "rating": 4.0,
    "reviews": 25,
    "website": "https://www.centerforvein.com/locations/hobart-indiana/",
    "category": "African-American-owned Vein treatment in Indiana",
    "description": "Provides treatment for varicose veins and other vein conditions",
    "hours": "Mon-Fri 9AM-6PM",
    "services": [
      "African-American-owned Vein treatment in Indiana consultation",
      "Professional service",
      "Quality guarantee"
    ],
    "social_links": {}
  }
]