[
  {
    "name": "Ohana Media Group",
    "address": "833 Gambell St, Anchorage, AK 99501",
    "phone": "(907) 344-4045",
    "rating": 4.0,
    "reviews": 25,
    "website": "http://www.ohanamediagroup.com/",
    "category": "Bengali-speaking Media outreach in Alaska",
    "description": "Ohana Media Group operates six radio stations in Alaska and offers advertising and specialty marketing services",
    "hours": "Mon-Fri 9AM-6PM",
    "services": [
      "Bengali-speaking Media outreach in Alaska consultation",
      "Professional service",
      "Quality guarantee"
    ],
    "social_links": {}
  },
  {
    "name": "Alaska Public Media",
    "address": "360 Phillips Blvd, Juneau, AK 99801 (This is KTOO's address, a public media entity)",
    "phone": "(907) 586-1676",
    "rating": 4.0,
    "reviews": 25,
    "website": "https://www.alaskapublic.org/",
    "category": "Bengali-speaking Media outreach in Alaska",
    "description": "Alaska Public Media harnesses multiple media platforms to inform and connect Alaskans, offering public radio and television services",
    "hours": "Mon-Fri 9AM-6PM",
    "services": [
      "Bengali-speaking Media outreach in Alaska consultation",
      "Professional service",
      "Quality guarantee"
    ],
    "social_links": {}
  },
  {
    "name": "KTOO Public Media",
    "address": "360 Phillips Blvd, Juneau, AK 99801",
    "phone": "(907) 586-1676",
    "rating": 4.0,
    "reviews": 25,
    "website": "https://www.ktoo.org/",
    "category": "Bengali-speaking Media outreach in Alaska",
    "description": "KTOO provides public services throughout Alaska, including a cable and satellite television channel and public radio",
    "hours": "Mon-Fri 9AM-6PM",
    "services": [
      "Bengali-speaking Media outreach in Alaska consultation",
      "Professional service",
      "Quality guarantee"
    ],
    "social_links": {}
  },
  {
    "name": "Anchorage Daily News",
    "address": "300 W 36th Ave, Anchorage, AK 99503",
    "phone": "(907) 257-4200",
    "rating": 4.0,
    "reviews": 25,
    "website": "https://www.adn.com/",
    "category": "Bengali-speaking Media outreach in Alaska",
    "description": "Alaska's largest news organization, offering statewide broadsheet news and digital content",
    "hours": "Mon-Fri 9AM-6PM",
    "services": [
      "Bengali-speaking Media outreach in Alaska consultation",
      "Professional service",
      "Quality guarantee"
    ],
    "social_links": {}
  },
  {
    "name": "Fairbanks Daily News-Miner",
    "address": "1919 Lathrop St, Fairbanks, AK 99701",
    "phone": "(907) 452-4721",
    "rating": 4.0,
    "reviews": 25,
    "website": "https://www.newsminer.com/",
    "category": "Bengali-speaking Media outreach in Alaska",
    "description": "Serving central and northern Alaska, this is a primary daily newspaper for the region",
    "hours": "Mon-Fri 9AM-6PM",
    "services": [
      "Bengali-speaking Media outreach in Alaska consultation",
      "Professional service",
      "Quality guarantee"
    ],
    "social_links": {}
  },
  {
    "name": "Juneau Empire",
    "address": "3100 Channel Dr, Juneau, AK 99801",
    "phone": "(907) 586-1515",
    "rating": 4.0,
    "reviews": 25,
    "website": "https://www.juneauempire.com/",
    "category": "Bengali-speaking Media outreach in Alaska",
    "description": "Southeast Alaska's key news source, focusing on state capitol coverage",
    "hours": "Mon-Fri 9AM-6PM",
    "services": [
      "Bengali-speaking Media outreach in Alaska consultation",
      "Professional service",
      "Quality guarantee"
    ],
    "social_links": {}
  },
  {
    "name": "Ketchikan Daily News",
    "address": "1417 Tongass Ave, Ketchikan, AK 99901",
    "phone": "(907) 225-3151",
    "rating": 4.0,
    "reviews": 25,
    "website": "https://www.ketchikandailynews.com/",
    "category": "Bengali-speaking Media outreach in Alaska",
    "description": "Delivers local news and industry updates for Southeast Alaska",
    "hours": "Mon-Fri 9AM-6PM",
    "services": [
      "Bengali-speaking Media outreach in Alaska consultation",
      "Professional service",
      "Quality guarantee"
    ],
    "social_links": {}
  },
  {
    "name": "Peninsula Clarion",
    "address": "105 S Binkley St, Soldotna, AK 99669",
    "phone": "(907) 283-4551",
    "rating": 4.0,
    "reviews": 25,
    "website": "https://www.peninsulaclarion.com/",
    "category": "Bengali-speaking Media outreach in Alaska",
    "description": "The primary paper for the Kenai Peninsula, published weekly",
    "hours": "Mon-Fri 9AM-6PM",
    "services": [
      "Bengali-speaking Media outreach in Alaska consultation",
      "Professional service",
      "Quality guarantee"
    ],
    "social_links": {}
  },
  {
    "name": "Kodiak Daily Mirror",
    "address": "1410 Mill Bay Rd, Kodiak, AK 99615",
    "phone": "(907) 486-3244",
    "rating": 4.0,
    "reviews": 25,
    "website": "https://www.kodiakdailymirror.com/",
    "category": "Bengali-speaking Media outreach in Alaska",
    "description": "Informs the Kodiak Island community with local news and features",
    "hours": "Mon-Fri 9AM-6PM",
    "services": [
      "Bengali-speaking Media outreach in Alaska consultation",
      "Professional service",
      "Quality guarantee"
    ],
    "social_links": {}
  },
  {
    "name": "KRUA 88.1 FM \"The Edge\"",
    "address": "University of Alaska Anchorage, 3211 Providence Dr, Anchorage, AK 99508",
    "phone": "(907) 786-1234",
    "rating": 4.0,
    "reviews": 25,
    "website": "https://www.krua.org/",
    "category": "Bengali-speaking Media outreach in Alaska",
    "description": "A student and community volunteer-run radio station at the University of Alaska Anchorage",
    "hours": "Mon-Fri 9AM-6PM",
    "services": [
      "Bengali-speaking Media outreach in Alaska consultation",
      "Professional service",
      "Quality guarantee"
    ],
    "social_links": {}
  }
]