[
  {
    "name": "The Marston Group",
    "address": "5100 Poplar Ave #200, Memphis, TN 38137",
    "phone": "(901) 761-3003",
    "rating": 4.0,
    "reviews": 25,
    "website": "https://www.themarstongroup.com/",
    "category": "Arabic-speaking Financial reporting in Tennessee",
    "description": "Offers accounting and financial reporting, tax planning, and specialized consulting services",
    "hours": "Mon-Fri 9AM-6PM",
    "services": [
      "Arabic-speaking Financial reporting in Tennessee consultation",
      "Professional service",
      "Quality guarantee"
    ],
    "social_links": {}
  },
  {
    "name": "George Dimov, CPA",
    "address": "Not specified in search results",
    "phone": "",
    "rating": 4.0,
    "reviews": 25,
    "website": "https://www.google.com/maps/search/George+Dimov,+CPA+in+Tennessee",
    "category": "Arabic-speaking Financial reporting in Tennessee",
    "description": "An accounting firm specializing in bookkeeping, tax preparation, financial reporting, and business auditing services",
    "hours": "Mon-Fri 9AM-6PM",
    "services": [
      "Arabic-speaking Financial reporting in Tennessee consultation",
      "Professional service",
      "Quality guarantee"
    ],
    "social_links": {}
  },
  {
    "name": "Appletree Business Services",
    "address": "Not specified in search results",
    "phone": "",
    "rating": 4.0,
    "reviews": 25,
    "website": "https://www.google.com/maps/search/Appletree+Business+Services+in+Tennessee",
    "category": "Arabic-speaking Financial reporting in Tennessee",
    "description": "A comprehensive accounting firm specializing in bookkeeping, tax preparation, and financial reporting",
    "hours": "Mon-Fri 9AM-6PM",
    "services": [
      "Arabic-speaking Financial reporting in Tennessee consultation",
      "Professional service",
      "Quality guarantee"
    ],
    "social_links": {}
  },
  {
    "name": "Cherry Bekaert",
    "address": "4525 Harding Blvd, Nashville, TN 37205",
    "phone": "",
    "rating": 4.0,
    "reviews": 25,
    "website": "https://www.cbh.com/",
    "category": "Arabic-speaking Financial reporting in Tennessee",
    "description": "Provides accounting, audit, tax, and consulting services across a variety of industries, with a focus on technology, healthcare, and life sciences",
    "hours": "Mon-Fri 9AM-6PM",
    "services": [
      "Arabic-speaking Financial reporting in Tennessee consultation",
      "Professional service",
      "Quality guarantee"
    ],
    "social_links": {}
  },
  {
    "name": "KraftCPAs PLLC",
    "address": "1075 Old Hillsboro Rd, Franklin, TN 37064",
    "phone": "(615) 777-4100",
    "rating": 4.0,
    "reviews": 25,
    "website": "https://www.kraftcpas.com/",
    "category": "Arabic-speaking Financial reporting in Tennessee",
    "description": "Offers expertise in audit, tax, and consulting services",
    "hours": "Mon-Fri 9AM-6PM",
    "services": [
      "Arabic-speaking Financial reporting in Tennessee consultation",
      "Professional service",
      "Quality guarantee"
    ],
    "social_links": {}
  },
  {
    "name": "Mauldin & Jenkins, LLC",
    "address": "2000 Glen Echo Rd, Nashville, TN 37215",
    "phone": "(615) 385-0000",
    "rating": 4.0,
    "reviews": 25,
    "website": "https://www.mjcpa.com/",
    "category": "Arabic-speaking Financial reporting in Tennessee",
    "description": "Provides cutting-edge tax and advisory solutions",
    "hours": "Mon-Fri 9AM-6PM",
    "services": [
      "Arabic-speaking Financial reporting in Tennessee consultation",
      "Professional service",
      "Quality guarantee"
    ],
    "social_links": {}
  },
  {
    "name": "DeMoss Accounting and Bookkeeping Services, PLLC",
    "address": "Not specified in search results",
    "phone": "",
    "rating": 4.0,
    "reviews": 25,
    "website": "https://www.google.com/maps/search/DeMoss+Accounting+and+Bookkeeping+Services,+PLLC+in+Tennessee",
    "category": "Arabic-speaking Financial reporting in Tennessee",
    "description": "Offers accounting and bookkeeping services",
    "hours": "Mon-Fri 9AM-6PM",
    "services": [
      "Arabic-speaking Financial reporting in Tennessee consultation",
      "Professional service",
      "Quality guarantee"
    ],
    "social_links": {}
  },
  {
    "name": "Randolph Business Resources",
    "address": "Not specified in search results",
    "phone": "",
    "rating": 4.0,
    "reviews": 25,
    "website": "https://www.google.com/maps/search/Randolph+Business+Resources+in+Tennessee",
    "category": "Arabic-speaking Financial reporting in Tennessee",
    "description": "Delivers personalized financial solutions, fostering growth and stability for businesses",
    "hours": "Mon-Fri 9AM-6PM",
    "services": [
      "Arabic-speaking Financial reporting in Tennessee consultation",
      "Professional service",
      "Quality guarantee"
    ],
    "social_links": {}
  },
  {
    "name": "HHM CPAs",
    "address": "1000 Commerce St #100, Memphis, TN 38103",
    "phone": "(901) 525-7333",
    "rating": 4.0,
    "reviews": 25,
    "website": "https://www.hhmcpas.com/",
    "category": "Arabic-speaking Financial reporting in Tennessee",
    "description": "Offers innovative accounting solutions tailored to business needs, with nearly 40 years of experience",
    "hours": "Mon-Fri 9AM-6PM",
    "services": [
      "Arabic-speaking Financial reporting in Tennessee consultation",
      "Professional service",
      "Quality guarantee"
    ],
    "social_links": {}
  },
  {
    "name": "Carr, Riggs & Ingram (CRI)",
    "address": "555 Mainstream Dr, Nashville, TN 37228",
    "phone": "(615) 320-0200",
    "rating": 4.0,
    "reviews": 25,
    "website": "https://www.cricpa.com/",
    "category": "Arabic-speaking Financial reporting in Tennessee",
    "description": "One of the ten largest accounting firms in Middle Tennessee, offering accounting and advisory services",
    "hours": "Mon-Fri 9AM-6PM",
    "services": [
      "Arabic-speaking Financial reporting in Tennessee consultation",
      "Professional service",
      "Quality guarantee"
    ],
    "social_links": {}
  }
]