[
  {
    "name": "Lutheran Services in Iowa (LSI)",
    "address": "Multiple locations across Iowa. Their main office is at 3116 University Ave, Des Moines, IA 50311",
    "phone": "(515) 271-7400",
    "rating": 4.0,
    "reviews": 25,
    "website": "https://www.lsiowa.org/",
    "category": "Asian-owned Vocational training in Iowa",
    "description": "LSI offers various programs for immigrants and refugees, including work readiness training, English language classes, and career pathways. They aim to help individuals achieve economic self-sufficiency",
    "hours": "Mon-Fri 9AM-6PM",
    "services": [
      "Asian-owned Vocational training in Iowa consultation",
      "Professional service",
      "Quality guarantee"
    ],
    "social_links": {}
  },
  {
    "name": "Multicultural Development Center of Iowa (MDC Iowa)",
    "address": "1000 23rd St, Des Moines, IA 50314",
    "phone": "(515) 244-5636",
    "rating": 4.0,
    "reviews": 25,
    "website": "https://www.mdciowa.org/",
    "category": "Asian-owned Vocational training in Iowa",
    "description": "MDC Iowa focuses on empowering diverse communities through programs addressing socioeconomic barriers. They offer STEM training, business accelerator programs, and mentoring, with a focus on underrepresented groups",
    "hours": "Mon-Fri 9AM-6PM",
    "services": [
      "Asian-owned Vocational training in Iowa consultation",
      "Professional service",
      "Quality guarantee"
    ],
    "social_links": {}
  },
  {
    "name": "Iowa Workforce Development (IWD)",
    "address": "Various IowaWORKS Centers across the state. Main office: 1000 E Grand Ave, Des Moines, IA 50319",
    "phone": "1-866-239-0843",
    "rating": 4.0,
    "reviews": 25,
    "website": "https://www.iowaworkforcedevelopment.gov/",
    "category": "Asian-owned Vocational training in Iowa",
    "description": "IWD provides a wide range of services for job seekers, including vocational counseling, training opportunities, and assistance for migrant and seasonal farm workers. They also offer programs like SNAP Employment and Training and support for dislocated workers",
    "hours": "Mon-Fri 9AM-6PM",
    "services": [
      "Asian-owned Vocational training in Iowa consultation",
      "Professional service",
      "Quality guarantee"
    ],
    "social_links": {}
  },
  {
    "name": "Kirkwood Community College",
    "address": "6301 Kirkwood Blvd SW, Cedar Rapids, IA 52404",
    "phone": "(319) 398-5411",
    "rating": 4.0,
    "reviews": 25,
    "website": "https://www.kirkwood.edu/",
    "category": "Asian-owned Vocational training in Iowa",
    "description": "Kirkwood offers numerous vocational and technical programs in areas like manufacturing, trades, and transportation. They have a high rating and provide hands-on training for in-demand careers",
    "hours": "Mon-Fri 9AM-6PM",
    "services": [
      "Asian-owned Vocational training in Iowa consultation",
      "Professional service",
      "Quality guarantee"
    ],
    "social_links": {}
  },
  {
    "name": "Des Moines Area Community College (DMACC)",
    "address": "Multiple campuses, main one at 2006 S Ankeny Blvd, Ankeny, IA 50023",
    "phone": "(515) 964-6200",
    "rating": 4.0,
    "reviews": 25,
    "website": "https://www.dmacc.edu/",
    "category": "Asian-owned Vocational training in Iowa",
    "description": "DMACC's Workforce Training Academy offers short-term certificate programs in high-demand fields, providing pathways to better-paying jobs. They have a high completion and employment rate",
    "hours": "Mon-Fri 9AM-6PM",
    "services": [
      "Asian-owned Vocational training in Iowa consultation",
      "Professional service",
      "Quality guarantee"
    ],
    "social_links": {}
  },
  {
    "name": "Western Iowa Tech Community College",
    "address": "4647 Stone Ave, Sioux City, IA 51106",
    "phone": "(712) 274-8733",
    "rating": 4.0,
    "reviews": 25,
    "website": "https://www.witcc.edu/",
    "category": "Asian-owned Vocational training in Iowa",
    "description": "WITCC offers vocational degrees and transfer majors, with specific programs for international students to help them adjust, improve English, and gain skills for employment",
    "hours": "Mon-Fri 9AM-6PM",
    "services": [
      "Asian-owned Vocational training in Iowa consultation",
      "Professional service",
      "Quality guarantee"
    ],
    "social_links": {}
  },
  {
    "name": "Hawkeye Community College",
    "address": "1501 Technology Dr, Waterloo, IA 50701",
    "phone": "(319) 296-2320",
    "rating": 4.0,
    "reviews": 25,
    "website": "https://www.hawkeyecollege.edu/",
    "category": "Asian-owned Vocational training in Iowa",
    "description": "Hawkeye offers a variety of trade and industry continuing education classes, including welding and apprenticeship training, designed to prepare students for high-demand careers",
    "hours": "Mon-Fri 9AM-6PM",
    "services": [
      "Asian-owned Vocational training in Iowa consultation",
      "Professional service",
      "Quality guarantee"
    ],
    "social_links": {}
  },
  {
    "name": "North Iowa Area Community College (NIACC)",
    "address": "500 College Dr, Mason City, IA 50401",
    "phone": "(641) 423-1264",
    "rating": 4.0,
    "reviews": 25,
    "website": "https://www.niacc.edu/",
    "category": "Asian-owned Vocational training in Iowa",
    "description": "NIACC provides skilled trades programs, including automotive mechanics and industrial mechanics, with hybrid options and accreditation",
    "hours": "Mon-Fri 9AM-6PM",
    "services": [
      "Asian-owned Vocational training in Iowa consultation",
      "Professional service",
      "Quality guarantee"
    ],
    "social_links": {}
  },
  {
    "name": "Southeastern Community College",
    "address": "1500 W Agency Rd, West Burlington, IA 52655",
    "phone": "(319) 752-2731",
    "rating": 4.0,
    "reviews": 25,
    "website": "https://www.southeastern.edu/",
    "category": "Asian-owned Vocational training in Iowa",
    "description": "Southeastern Community College offers a range of degrees and career-focused training programs, aiming to prepare students for immediate employment or transfer to a four-year university",
    "hours": "Mon-Fri 9AM-6PM",
    "services": [
      "Asian-owned Vocational training in Iowa consultation",
      "Professional service",
      "Quality guarantee"
    ],
    "social_links": {}
  },
  {
    "name": "Iowa Asian Alliance Foundation",
    "address": "500 E Locust St, Suite 200, Des Moines, IA 50309",
    "phone": "(515) 288-7451",
    "rating": 4.0,
    "reviews": 25,
    "website": "https://www.iowaasianalliance.com/",
    "category": "Asian-owned Vocational training in Iowa",
    "description": "While not a direct vocational training provider, the Iowa Asian Alliance Foundation works to foster economic growth and community development for Asian communities in Iowa. They collaborate on initiatives that can lead to educational and business advancement",
    "hours": "Mon-Fri 9AM-6PM",
    "services": [
      "Asian-owned Vocational training in Iowa consultation",
      "Professional service",
      "Quality guarantee"
    ],
    "social_links": {}
  }
]