[
  {
    "name": "Magic Don Presents!",
    "address": "Anchorage, AK (Specific street address not publicly available)",
    "phone": "907-522-1364",
    "rating": 4.0,
    "reviews": 25,
    "website": "https://www.magicdonpresents.com/",
    "category": "Atheist-owned Illusionists in Alaska",
    "description": "Offers high-energy, interactive magic entertainment in Anchorage, AK, suitable for events of various durations",
    "hours": "Mon-Fri 9AM-6PM",
    "services": [
      "Atheist-owned Illusionists in Alaska consultation",
      "Professional service",
      "Quality guarantee"
    ],
    "social_links": {}
  },
  {
    "name": "Alaska's Wildest Magic",
    "address": "Anchorage, AK (Specific street address not publicly available)",
    "phone": "907-522-1364",
    "rating": 4.0,
    "reviews": 25,
    "website": "https://www.google.com/maps/search/Alaska's+Wildest+Magic+in+Alaska",
    "category": "Atheist-owned Illusionists in Alaska",
    "description": "Provides close-up magic to full stage illusion shows, suitable for school programs, birthdays, company parties, and public events",
    "hours": "Mon-Fri 9AM-6PM",
    "services": [
      "Atheist-owned Illusionists in Alaska consultation",
      "Professional service",
      "Quality guarantee"
    ],
    "social_links": {}
  },
  {
    "name": "Mega Magic - Magician Mike D'Urzo",
    "address": "Tours extensively, with mentions of performing in Alaska. Specific address not available",
    "phone": "",
    "rating": 4.0,
    "reviews": 25,
    "website": "https://www.google.com/maps/search/Mega+Magic+-+Magician+Mike+D'Urzo+in+Alaska",
    "category": "Atheist-owned Illusionists in Alaska",
    "description": "Specializes in full production shows with illusions, comedy, and audience interaction, suitable for corporate events, weddings, and theaters",
    "hours": "Mon-Fri 9AM-6PM",
    "services": [
      "Atheist-owned Illusionists in Alaska consultation",
      "Professional service",
      "Quality guarantee"
    ],
    "social_links": {}
  },
  {
    "name": "Mike Robbins Magical Entertainment",
    "address": "205 E Dimond Blvd #141, Anchorage, AK 99515",
    "phone": "907-522-9319",
    "rating": 4.0,
    "reviews": 25,
    "website": "https://www.google.com/maps/search/Mike+Robbins+Magical+Entertainment+in+Alaska",
    "category": "Atheist-owned Illusionists in Alaska",
    "description": "A magician offering entertainment services in Anchorage",
    "hours": "Mon-Fri 9AM-6PM",
    "services": [
      "Atheist-owned Illusionists in Alaska consultation",
      "Professional service",
      "Quality guarantee"
    ],
    "social_links": {}
  },
  {
    "name": "Mr. Checkers The Magician",
    "address": "P.O. Box 83842, Fairbanks, AK 99708-3842",
    "phone": "907-479-9468",
    "rating": 4.0,
    "reviews": 25,
    "website": "https://www.google.com/maps/search/Mr.+Checkers+The+Magician+in+Alaska",
    "category": "Atheist-owned Illusionists in Alaska",
    "description": "A magician based in Fairbanks, Alaska",
    "hours": "Mon-Fri 9AM-6PM",
    "services": [
      "Atheist-owned Illusionists in Alaska consultation",
      "Professional service",
      "Quality guarantee"
    ],
    "social_links": {}
  },
  {
    "name": "Magic By Jon Bowne",
    "address": "414 Iditarod Ave, Fairbanks, AK 99701-3732",
    "phone": "907-451-7469",
    "rating": 4.0,
    "reviews": 25,
    "website": "https://www.google.com/maps/search/Magic+By+Jon+Bowne+in+Alaska",
    "category": "Atheist-owned Illusionists in Alaska",
    "description": "A magician based in Fairbanks, Alaska",
    "hours": "Mon-Fri 9AM-6PM",
    "services": [
      "Atheist-owned Illusionists in Alaska consultation",
      "Professional service",
      "Quality guarantee"
    ],
    "social_links": {}
  },
  {
    "name": "Magic By Mac",
    "address": "Elmendorf AFB, AK 99506",
    "phone": "907-522-5448",
    "rating": 4.0,
    "reviews": 25,
    "website": "https://www.google.com/maps/search/Magic+By+Mac+in+Alaska",
    "category": "Atheist-owned Illusionists in Alaska",
    "description": "A magician located at Elmendorf Air Force Base",
    "hours": "Mon-Fri 9AM-6PM",
    "services": [
      "Atheist-owned Illusionists in Alaska consultation",
      "Professional service",
      "Quality guarantee"
    ],
    "social_links": {}
  },
  {
    "name": "aLittleMentalist",
    "address": "Juneau, AK (Serves Anchorage)",
    "phone": "",
    "rating": 4.0,
    "reviews": 25,
    "website": "https://www.google.com/maps/search/aLittleMentalist+in+Alaska",
    "category": "Atheist-owned Illusionists in Alaska",
    "description": "Offers mentalism and magic performances, suitable for birthday parties and other events",
    "hours": "Mon-Fri 9AM-6PM",
    "services": [
      "Atheist-owned Illusionists in Alaska consultation",
      "Professional service",
      "Quality guarantee"
    ],
    "social_links": {}
  },
  {
    "name": "Hooked Entertainment",
    "address": "Not specified, but operates in Alaska",
    "phone": "(907) 351-9516",
    "rating": 4.0,
    "reviews": 25,
    "website": "https://www.hooked-entertainment.com/",
    "category": "Atheist-owned Illusionists in Alaska",
    "description": "While not exclusively illusionists, they are a top promoter of entertainment in Alaska and may book or represent illusionists. They are veteran-owned",
    "hours": "Mon-Fri 9AM-6PM",
    "services": [
      "Atheist-owned Illusionists in Alaska consultation",
      "Professional service",
      "Quality guarantee"
    ],
    "social_links": {}
  },
  {
    "name": "The Magic of Adam Trent",
    "address": "Performs at venues like the Atwood Concert Hall in Anchorage, AK. Specific business address not available",
    "phone": "907-263-2787 (CenterTix Box Office)",
    "rating": 4.0,
    "reviews": 25,
    "website": "https://anchorageconcerts.org/events/the-magic-of-adam-trent/",
    "category": "Atheist-owned Illusionists in Alaska",
    "description": "A renowned illusionist known for his blend of magic, comedy, and music, suitable for all ages",
    "hours": "Mon-Fri 9AM-6PM",
    "services": [
      "Atheist-owned Illusionists in Alaska consultation",
      "Professional service",
      "Quality guarantee"
    ],
    "social_links": {}
  }
]