[
  {
    "name": "Ksenia's Skin Care And Waxing Salon",
    "address": "448 Viking Dr, Virginia Beach, VA 23451",
    "phone": "(757) 422-7000",
    "rating": 4.9,
    "reviews": 25,
    "website": "http://www.kseniassalon.com/",
    "category": "Chinese-American-owned Waxing in Virginia",
    "description": "Offers a variety of waxing services, including intimate waxing, facial waxing, and body waxing, with a focus on high-quality products and personalized service",
    "hours": "Mon-Fri 9AM-6PM",
    "services": [
      "Chinese-American-owned Waxing in Virginia consultation",
      "Professional service",
      "Quality guarantee"
    ],
    "social_links": {}
  },
  {
    "name": "Waxing the City",
    "address": "1554 Laskin Road, Suite 106, Virginia Beach, VA 23451",
    "phone": "(757) 937-1602",
    "rating": 4.7,
    "reviews": 25,
    "website": "https://www.waxingthecity.com/locations/virginia-beach-va/",
    "category": "Chinese-American-owned Waxing in Virginia",
    "description": "Specializes in facial and body waxing services, with highly-trained estheticians using custom-formulated wax for a comfortable experience",
    "hours": "Mon-Fri 9AM-6PM",
    "services": [
      "Chinese-American-owned Waxing in Virginia consultation",
      "Professional service",
      "Quality guarantee"
    ],
    "social_links": {}
  },
  {
    "name": "European Wax Center",
    "address": "Multiple locations across Virginia, including 4550 Virginia Beach Blvd, Virginia Beach, VA 23462",
    "phone": "(757) 473-9292 (Virginia Beach location)",
    "rating": 4.6,
    "reviews": 25,
    "website": "https://www.waxcenter.com/",
    "category": "Chinese-American-owned Waxing in Virginia",
    "description": "Offers a full suite of waxing services, including bikini, Brazilian, eyebrow, facial, and body waxing, with a focus on providing a first-class experience",
    "hours": "Mon-Fri 9AM-6PM",
    "services": [
      "Chinese-American-owned Waxing in Virginia consultation",
      "Professional service",
      "Quality guarantee"
    ],
    "social_links": {}
  },
  {
    "name": "The Wax Room",
    "address": "11162 Hull Street Rd North, Midlothian, VA 23112",
    "phone": "(804) 601-8106",
    "rating": 4.8,
    "reviews": 25,
    "website": "https://www.thewaxroomrichmond.com/",
    "category": "Chinese-American-owned Waxing in Virginia",
    "description": "Provides professional waxing and beauty services in a comfortable and luxurious environment, using premium hard and soft waxes",
    "hours": "Mon-Fri 9AM-6PM",
    "services": [
      "Chinese-American-owned Waxing in Virginia consultation",
      "Professional service",
      "Quality guarantee"
    ],
    "social_links": {}
  },
  {
    "name": "Virginia Beach Wax and Beauty Bar",
    "address": "313 Laskin Rd, Virginia Beach, VA 23451",
    "phone": "(757) 376-0697",
    "rating": 4.9,
    "reviews": 25,
    "website": "https://www.virginiabeachwaxandbeautybar.com/",
    "category": "Chinese-American-owned Waxing in Virginia",
    "description": "Offers microblading, LED therapy, tinting, waxing, Brazilians, and skincare services with a focus on personalized and professional treatments",
    "hours": "Mon-Fri 9AM-6PM",
    "services": [
      "Chinese-American-owned Waxing in Virginia consultation",
      "Professional service",
      "Quality guarantee"
    ],
    "social_links": {}
  },
  {
    "name": "KASIWAX Spa",
    "address": "8200 Greensboro Dr, McLean, VA 22102 (Located in Tysons Corner Center)",
    "phone": "(571) 378-1777",
    "rating": 4.9,
    "reviews": 25,
    "website": "https://www.kasiwax.com/",
    "category": "Chinese-American-owned Waxing in Virginia",
    "description": "Specializes in Brazilian waxing and other hair removal services, emphasizing gentle waxing and a clean, welcoming environment",
    "hours": "Mon-Fri 9AM-6PM",
    "services": [
      "Chinese-American-owned Waxing in Virginia consultation",
      "Professional service",
      "Quality guarantee"
    ],
    "social_links": {}
  },
  {
    "name": "Ms. Annie's Waxing Studio",
    "address": "Multiple locations, including 11730 Plaza America Drive Ste 120, Reston, VA 20190",
    "phone": "(571) 289-5417 (Reston location)",
    "rating": 4.9,
    "reviews": 25,
    "website": "https://www.msawaxing.com/",
    "category": "Chinese-American-owned Waxing in Virginia",
    "description": "Offers personalized waxing services for women and men in a clean, welcoming space, using a signature chocolate hard wax",
    "hours": "Mon-Fri 9AM-6PM",
    "services": [
      "Chinese-American-owned Waxing in Virginia consultation",
      "Professional service",
      "Quality guarantee"
    ],
    "social_links": {}
  },
  {
    "name": "Sage & Vine Aesthetics",
    "address": "1601 Willow Lawn Dr Suite 100, Richmond, VA 23230",
    "phone": "(804) 401-0500",
    "rating": 4.9,
    "reviews": 25,
    "website": "https://www.sageandvine.com/",
    "category": "Chinese-American-owned Waxing in Virginia",
    "description": "A waxing salon in Richmond offering full facial and body waxing services, using hard wax for sensitive areas to minimize redness and irritation",
    "hours": "Mon-Fri 9AM-6PM",
    "services": [
      "Chinese-American-owned Waxing in Virginia consultation",
      "Professional service",
      "Quality guarantee"
    ],
    "social_links": {}
  },
  {
    "name": "Face Foundrie",
    "address": "Multiple locations, including 11710 Plaza America Dr, Reston, VA 20190",
    "phone": "(571) 325-7050 (Reston location)",
    "rating": 4.7,
    "reviews": 25,
    "website": "https://www.facefoundrie.com/",
    "category": "Chinese-American-owned Waxing in Virginia",
    "description": "Specializes in facial treatments, including brow waxing and shaping, using brow mapping and consultations for customized results",
    "hours": "Mon-Fri 9AM-6PM",
    "services": [
      "Chinese-American-owned Waxing in Virginia consultation",
      "Professional service",
      "Quality guarantee"
    ],
    "social_links": {}
  },
  {
    "name": "Positively Body Waxing",
    "address": "9030 Center St, Manassas, VA 20110",
    "phone": "(703) 361-1111",
    "rating": 4.9,
    "reviews": 25,
    "website": "https://positivelybodywaxing.com/",
    "category": "Chinese-American-owned Waxing in Virginia",
    "description": "Offers a range of waxing services with a focus on client comfort and satisfaction, with Alana being frequently recommended",
    "hours": "Mon-Fri 9AM-6PM",
    "services": [
      "Chinese-American-owned Waxing in Virginia consultation",
      "Professional service",
      "Quality guarantee"
    ],
    "social_links": {}
  }
]