[
  {
    "name": "Adams & Reese LLP",
    "address": "Multiple locations, including Nashville, TN",
    "phone": "(615) 251-5400 (Nashville office)",
    "rating": 4.0,
    "reviews": 25,
    "website": "https://www.adamsreese.com/",
    "category": "Catholic-owned Trademark law in Tennessee",
    "description": "This firm has an internationally renowned Global IP Team with expertise in trademark, patent, and copyright matters",
    "hours": "Mon-Fri 9AM-6PM",
    "services": [
      "Catholic-owned Trademark law in Tennessee consultation",
      "Professional service",
      "Quality guarantee"
    ],
    "social_links": {}
  },
  {
    "name": "Baker, Donelson, Bearman, Caldwell & Berkowitz, PC",
    "address": "Multiple locations, including Nashville, TN",
    "phone": "(615) 259-1000 (Nashville office)",
    "rating": 4.0,
    "reviews": 25,
    "website": "https://www.bakerdonelson.com/",
    "category": "Catholic-owned Trademark law in Tennessee",
    "description": "A well-regarded law firm in Tennessee for intellectual property, focusing on trademark, patent, and copyright prosecution",
    "hours": "Mon-Fri 9AM-6PM",
    "services": [
      "Catholic-owned Trademark law in Tennessee consultation",
      "Professional service",
      "Quality guarantee"
    ],
    "social_links": {}
  },
  {
    "name": "Holland & Knight LLP",
    "address": "Multiple locations, including Nashville, TN",
    "phone": "(615) 742-8500 (Nashville office)",
    "rating": 4.0,
    "reviews": 25,
    "website": "https://www.hklaw.com/",
    "category": "Catholic-owned Trademark law in Tennessee",
    "description": "Has a diverse, market-leading practice with particular strength in patent prosecution and trademarks",
    "hours": "Mon-Fri 9AM-6PM",
    "services": [
      "Catholic-owned Trademark law in Tennessee consultation",
      "Professional service",
      "Quality guarantee"
    ],
    "social_links": {}
  },
  {
    "name": "Stites & Harbison PLLC",
    "address": "Multiple locations, including Nashville and Franklin, TN",
    "phone": "(615) 252-5000 (Nashville office)",
    "rating": 4.0,
    "reviews": 25,
    "website": "https://www.stites.com/",
    "category": "Catholic-owned Trademark law in Tennessee",
    "description": "Houses an effective IP team guiding clients through all stages of IP claims, with impressive patent litigation experience",
    "hours": "Mon-Fri 9AM-6PM",
    "services": [
      "Catholic-owned Trademark law in Tennessee consultation",
      "Professional service",
      "Quality guarantee"
    ],
    "social_links": {}
  },
  {
    "name": "Patterson IP Law",
    "address": "Not specified in search results, but operates in Tennessee",
    "phone": "",
    "rating": 4.0,
    "reviews": 25,
    "website": "https://www.patterson-ip.com/",
    "category": "Catholic-owned Trademark law in Tennessee",
    "description": "Advises clients on all aspects of their intellectual property, with keen patent prosecution expertise",
    "hours": "Mon-Fri 9AM-6PM",
    "services": [
      "Catholic-owned Trademark law in Tennessee consultation",
      "Professional service",
      "Quality guarantee"
    ],
    "social_links": {}
  },
  {
    "name": "Merchant & Gould",
    "address": "Not specified in search results, but operates in Tennessee",
    "phone": "",
    "rating": 4.0,
    "reviews": 25,
    "website": "https://www.merchantgould.com/",
    "category": "Catholic-owned Trademark law in Tennessee",
    "description": "Handles the full range of litigation, prosecution, and licensing matters in patent, trademark, and copyright spaces",
    "hours": "Mon-Fri 9AM-6PM",
    "services": [
      "Catholic-owned Trademark law in Tennessee consultation",
      "Professional service",
      "Quality guarantee"
    ],
    "social_links": {}
  },
  {
    "name": "Miller & Martin",
    "address": "Multiple locations, including Chattanooga, TN",
    "phone": "(423) 756-8400 (Chattanooga office)",
    "rating": 4.0,
    "reviews": 25,
    "website": "https://www.millermartin.com/",
    "category": "Catholic-owned Trademark law in Tennessee",
    "description": "Handles global patent and trademark portfolios and copyright registrations for manufacturers",
    "hours": "Mon-Fri 9AM-6PM",
    "services": [
      "Catholic-owned Trademark law in Tennessee consultation",
      "Professional service",
      "Quality guarantee"
    ],
    "social_links": {}
  },
  {
    "name": "Bradley Arant Boult Cummings LLP",
    "address": "Multiple locations, including Nashville, TN",
    "phone": "(615) 252-2300 (Nashville office)",
    "rating": 4.0,
    "reviews": 25,
    "website": "https://www.babc.com/",
    "category": "Catholic-owned Trademark law in Tennessee",
    "description": "Delivers IP services to a diverse client roster and receives particular plaudits for its litigation prowess",
    "hours": "Mon-Fri 9AM-6PM",
    "services": [
      "Catholic-owned Trademark law in Tennessee consultation",
      "Professional service",
      "Quality guarantee"
    ],
    "social_links": {}
  },
  {
    "name": "Luedeka Neely Group, P.C.",
    "address": "Not specified in search results, but operates in Tennessee",
    "phone": "",
    "rating": 4.0,
    "reviews": 25,
    "website": "https://www.google.com/maps/search/Luedeka+Neely+Group,+P.C.+in+Tennessee",
    "category": "Catholic-owned Trademark law in Tennessee",
    "description": "A firm specializing in intellectual property law",
    "hours": "Mon-Fri 9AM-6PM",
    "services": [
      "Catholic-owned Trademark law in Tennessee consultation",
      "Professional service",
      "Quality guarantee"
    ],
    "social_links": {}
  },
  {
    "name": "Everhart Law Firm",
    "address": "Nashville, TN",
    "phone": "(615) 457-0011",
    "rating": 4.0,
    "reviews": 25,
    "website": "https://www.everhartlawfirm.com/",
    "category": "Catholic-owned Trademark law in Tennessee",
    "description": "Offers legal services to protect brand identity, including trademark search and selection, registration, licensing, and infringement claims",
    "hours": "Mon-Fri 9AM-6PM",
    "services": [
      "Catholic-owned Trademark law in Tennessee consultation",
      "Professional service",
      "Quality guarantee"
    ],
    "social_links": {}
  }
]