[
  {
    "name": "Canton Roofing Company",
    "address": "4031 Whipple Ave NW, Canton, OH 44718",
    "phone": "(330) 455-0020",
    "rating": 4.8,
    "reviews": 25,
    "website": "https://www.cantonroofing.com/",
    "category": "Chinese-speaking Roofing installation in Ohio",
    "description": "Northeast Ohio's trusted choice for roof replacement, repair, and storm restoration, with over 550 five-star reviews",
    "hours": "Mon-Fri 9AM-6PM",
    "services": [
      "Chinese-speaking Roofing installation in Ohio consultation",
      "Professional service",
      "Quality guarantee"
    ],
    "social_links": {}
  },
  {
    "name": "Ohio Roofing Siding & Slate LLC",
    "address": "4300 W 150th St, Cleveland, OH 44135",
    "phone": "(216) 862-4553",
    "rating": 4.0,
    "reviews": 25,
    "website": "https://www.ohioroofingsidingslate.com/",
    "category": "Chinese-speaking Roofing installation in Ohio",
    "description": "Experienced roofing company in the Cleveland area offering a wide range of services including roof replacement, repairs, and inspections",
    "hours": "Mon-Fri 9AM-6PM",
    "services": [
      "Chinese-speaking Roofing installation in Ohio consultation",
      "Professional service",
      "Quality guarantee"
    ],
    "social_links": {}
  },
  {
    "name": "Newman Roofing",
    "address": "7077 Corporate Center Drive, Reynoldsburg, OH 43068",
    "phone": "(614) 890-0000",
    "rating": 5.0,
    "reviews": 25,
    "website": "https://www.newmanroofing.com/",
    "category": "Chinese-speaking Roofing installation in Ohio",
    "description": "A family-owned and operated company serving Central Ohio for over 30 years, known for quality, integrity, and customer service",
    "hours": "Mon-Fri 9AM-6PM",
    "services": [
      "Chinese-speaking Roofing installation in Ohio consultation",
      "Professional service",
      "Quality guarantee"
    ],
    "social_links": {}
  },
  {
    "name": "Runyon & Sons Roofing",
    "address": "8745 Munson Rd, Mentor, OH 44060",
    "phone": "(440) 255-7070",
    "rating": 4.0,
    "reviews": 25,
    "website": "https://www.runyonroofing.com/",
    "category": "Chinese-speaking Roofing installation in Ohio",
    "description": "A residential and commercial roofing contractor serving Northeast Ohio since 1962, specializing in various roof types and repairs",
    "hours": "Mon-Fri 9AM-6PM",
    "services": [
      "Chinese-speaking Roofing installation in Ohio consultation",
      "Professional service",
      "Quality guarantee"
    ],
    "social_links": {}
  },
  {
    "name": "Hornbeck KangaRoof",
    "address": "1515 N Main St, Hubbard, OH 44425",
    "phone": "(330) 534-0111",
    "rating": 4.0,
    "reviews": 25,
    "website": "https://www.kangarroofohio.com/",
    "category": "Chinese-speaking Roofing installation in Ohio",
    "description": "A family-owned local roofing company serving Ohio and Pennsylvania for over 25 years, offering a \"No Leak Guarantee.\"",
    "hours": "Mon-Fri 9AM-6PM",
    "services": [
      "Chinese-speaking Roofing installation in Ohio consultation",
      "Professional service",
      "Quality guarantee"
    ],
    "social_links": {}
  },
  {
    "name": "Tony Newman Roofing",
    "address": "3030 S Arlington Rd, Akron, OH 44312",
    "phone": "(330) 745-5076",
    "rating": 4.0,
    "reviews": 25,
    "website": "https://tonynewmanroofing.com/",
    "category": "Chinese-speaking Roofing installation in Ohio",
    "description": "A full-service roofing contractor serving the greater Akron area since 1989, specializing in repairs, reroofing, and new shingle roofs",
    "hours": "Mon-Fri 9AM-6PM",
    "services": [
      "Chinese-speaking Roofing installation in Ohio consultation",
      "Professional service",
      "Quality guarantee"
    ],
    "social_links": {}
  },
  {
    "name": "Mansuetto Roofing",
    "address": "1010 South Zane Highway, Martins Ferry, OH 43935",
    "phone": "(740) 633-7320",
    "rating": 4.0,
    "reviews": 25,
    "website": "https://www.mansuettoroofing.com/",
    "category": "Chinese-speaking Roofing installation in Ohio",
    "description": "A family and locally owned company specializing in industrial, commercial, and educational roofing projects, with certified applicators for various manufacturers",
    "hours": "Mon-Fri 9AM-6PM",
    "services": [
      "Chinese-speaking Roofing installation in Ohio consultation",
      "Professional service",
      "Quality guarantee"
    ],
    "social_links": {}
  },
  {
    "name": "Top Choice Roofers",
    "address": "Not explicitly stated, but serves the Ohio\u2013West Virginia\u2013Kentucky tri-state area",
    "phone": "+1 740-988-0527",
    "rating": 4.0,
    "reviews": 25,
    "website": "https://www.topchoiceroofers.com/",
    "category": "Chinese-speaking Roofing installation in Ohio",
    "description": "Experts in metal and shingle roofing, offering roof replacement, new installation, and free inspections and estimates",
    "hours": "Mon-Fri 9AM-6PM",
    "services": [
      "Chinese-speaking Roofing installation in Ohio consultation",
      "Professional service",
      "Quality guarantee"
    ],
    "social_links": {}
  },
  {
    "name": "HKC Roofing & Sheet Metal",
    "address": "15228 Madison Ave, Lakewood, OH 44107 (This address is listed for American Roofing, but HKC's contact is listed as Cincinnati, OH)",
    "phone": "513-371-1841",
    "rating": 4.0,
    "reviews": 25,
    "website": "https://www.hkcroofing.com/",
    "category": "Chinese-speaking Roofing installation in Ohio",
    "description": "Specializes in commercial, industrial, and historic facilities, with expertise in low-slope roof systems, natural slate, and metal roofs",
    "hours": "Mon-Fri 9AM-6PM",
    "services": [
      "Chinese-speaking Roofing installation in Ohio consultation",
      "Professional service",
      "Quality guarantee"
    ],
    "social_links": {}
  },
  {
    "name": "Chappelle Roofing LLC",
    "address": "18328 Stony Point Dr, Strongsville, OH 44136",
    "phone": "(440) 276-1157",
    "rating": 4.0,
    "reviews": 25,
    "website": "https://www.chappelleroofing.com/",
    "category": "Chinese-speaking Roofing installation in Ohio",
    "description": "A leading roofing company in Strongsville, OH, offering a wide range of residential and commercial roofing services with a focus on customer service and transparency",
    "hours": "Mon-Fri 9AM-6PM",
    "services": [
      "Chinese-speaking Roofing installation in Ohio consultation",
      "Professional service",
      "Quality guarantee"
    ],
    "social_links": {}
  }
]