[
  {
    "name": "State Farm",
    "address": "Multiple locations across North Dakota. (Specific address varies by agent)",
    "phone": "1-800-STATEFARM (1-800-782-8332)",
    "rating": 4.0,
    "reviews": 25,
    "website": "https://www.statefarm.com/",
    "category": "Armenian-speaking Property insurance in North-Dakota",
    "description": "A large insurance provider offering a wide range of property insurance options and known for dependable customer service",
    "hours": "Mon-Fri 9AM-6PM",
    "services": [
      "Armenian-speaking Property insurance in North-Dakota consultation",
      "Professional service",
      "Quality guarantee"
    ],
    "social_links": {}
  },
  {
    "name": "Allstate",
    "address": "Multiple locations across North Dakota. (Specific address varies by agent)",
    "phone": "1-800-ALLSTATE (1-800-255-7828)",
    "rating": 4.5,
    "reviews": 25,
    "website": "https://www.allstate.com/",
    "category": "Armenian-speaking Property insurance in North-Dakota",
    "description": "Offers comprehensive insurance solutions with various options to enhance standard coverage, including personal umbrella policies",
    "hours": "Mon-Fri 9AM-6PM",
    "services": [
      "Armenian-speaking Property insurance in North-Dakota consultation",
      "Professional service",
      "Quality guarantee"
    ],
    "social_links": {}
  },
  {
    "name": "Chubb",
    "address": "Not readily available for direct customer contact, often works through independent agents",
    "phone": "(800) 242-2147 (General Inquiries)",
    "rating": 4.0,
    "reviews": 25,
    "website": "https://www.chubb.com/",
    "category": "Armenian-speaking Property insurance in North-Dakota",
    "description": "Specializes in high-value homes and offers comprehensive coverage, including extended replacement cost and water damage from backed-up sewers",
    "hours": "Mon-Fri 9AM-6PM",
    "services": [
      "Armenian-speaking Property insurance in North-Dakota consultation",
      "Professional service",
      "Quality guarantee"
    ],
    "social_links": {}
  },
  {
    "name": "USAA",
    "address": "Not readily available for direct customer contact, often works through independent agents",
    "phone": "1-800-531-8722",
    "rating": 4.0,
    "reviews": 25,
    "website": "https://www.usaa.com/",
    "category": "Armenian-speaking Property insurance in North-Dakota",
    "description": "Known for excellent customer service and high ratings, though membership is restricted to military members, veterans, and their families",
    "hours": "Mon-Fri 9AM-6PM",
    "services": [
      "Armenian-speaking Property insurance in North-Dakota consultation",
      "Professional service",
      "Quality guarantee"
    ],
    "social_links": {}
  },
  {
    "name": "Farmers Insurance",
    "address": "Multiple locations across North Dakota. (Specific address varies by agent)",
    "phone": "1-800-FARMERS (1-800-327-6377)",
    "rating": 4.0,
    "reviews": 25,
    "website": "https://www.farmers.com/",
    "category": "Armenian-speaking Property insurance in North-Dakota",
    "description": "Offers customizable policies allowing homeowners to tailor coverage to their specific needs, with options for eco-rebuilds and identity shield",
    "hours": "Mon-Fri 9AM-6PM",
    "services": [
      "Armenian-speaking Property insurance in North-Dakota consultation",
      "Professional service",
      "Quality guarantee"
    ],
    "social_links": {}
  },
  {
    "name": "Nodak Insurance Company",
    "address": "Multiple locations across North Dakota. (Specific address varies by agent)",
    "phone": "(701) 237-5200",
    "rating": 4.0,
    "reviews": 25,
    "website": "https://www.nodakins.com/",
    "category": "Armenian-speaking Property insurance in North-Dakota",
    "description": "Offers a range of insurance products including auto, farm, home, and life insurance, with a focus on North Dakota residents",
    "hours": "Mon-Fri 9AM-6PM",
    "services": [
      "Armenian-speaking Property insurance in North-Dakota consultation",
      "Professional service",
      "Quality guarantee"
    ],
    "social_links": {}
  },
  {
    "name": "COUNTRY Financial",
    "address": "Multiple locations across North Dakota. (Specific address varies by agent)",
    "phone": "1-888-309-1000",
    "rating": 4.0,
    "reviews": 25,
    "website": "https://www.countryfinancial.com/",
    "category": "Armenian-speaking Property insurance in North-Dakota",
    "description": "Provides various coverage options for homeowners and offers discounts for bundling policies and installing protective devices",
    "hours": "Mon-Fri 9AM-6PM",
    "services": [
      "Armenian-speaking Property insurance in North-Dakota consultation",
      "Professional service",
      "Quality guarantee"
    ],
    "social_links": {}
  },
  {
    "name": "Nationwide",
    "address": "Multiple locations across North Dakota. (Specific address varies by agent)",
    "phone": "1-877-669-6877",
    "rating": 4.0,
    "reviews": 25,
    "website": "https://www.nationwide.com/",
    "category": "Armenian-speaking Property insurance in North-Dakota",
    "description": "Offers various policy options and discounts for homeowners, with features like water backup and identity theft protection",
    "hours": "Mon-Fri 9AM-6PM",
    "services": [
      "Armenian-speaking Property insurance in North-Dakota consultation",
      "Professional service",
      "Quality guarantee"
    ],
    "social_links": {}
  },
  {
    "name": "Progressive",
    "address": "Multiple locations across North Dakota. (Specific address varies by agent)",
    "phone": "1-800-PROGRESSIVE (1-800-776-4737)",
    "rating": 4.0,
    "reviews": 25,
    "website": "https://www.progressive.com/",
    "category": "Armenian-speaking Property insurance in North-Dakota",
    "description": "Offers affordable homeowners policies and discounts for bundling policies, paying in full, and going paperless",
    "hours": "Mon-Fri 9AM-6PM",
    "services": [
      "Armenian-speaking Property insurance in North-Dakota consultation",
      "Professional service",
      "Quality guarantee"
    ],
    "social_links": {}
  },
  {
    "name": "Amica Insurance",
    "address": "Multiple locations across North Dakota. (Specific address varies by agent)",
    "phone": "1-800-242-6422",
    "rating": 4.0,
    "reviews": 25,
    "website": "https://www.amica.com/",
    "category": "Armenian-speaking Property insurance in North-Dakota",
    "description": "Provides tailored home insurance coverage and offers discounts for bundling home and auto insurance",
    "hours": "Mon-Fri 9AM-6PM",
    "services": [
      "Armenian-speaking Property insurance in North-Dakota consultation",
      "Professional service",
      "Quality guarantee"
    ],
    "social_links": {}
  }
]