[
  {
    "name": "University of Alaska Anchorage (UAA) \u2013 Language Programs",
    "address": "3211 Providence Dr, Anchorage, AK 99508",
    "phone": "(907) 786-1800",
    "rating": 4.0,
    "reviews": 25,
    "website": "https://www.uaa.alaska.edu/academics/",
    "category": "Atheist-owned Business language training in Alaska",
    "description": "UAA offers a variety of language courses, including Spanish, French, German, and Japanese, catering to different proficiency levels",
    "hours": "Mon-Fri 9AM-6PM",
    "services": [
      "Atheist-owned Business language training in Alaska consultation",
      "Professional service",
      "Quality guarantee"
    ],
    "social_links": {}
  },
  {
    "name": "University of Alaska Fairbanks (UAF) \u2013 Alaska Native Language Center",
    "address": "1740 University Ave, Fairbanks, AK 99709",
    "phone": "(907) 474-7874",
    "rating": 4.0,
    "reviews": 25,
    "website": "https://www.uaf.edu/anlc/",
    "category": "Atheist-owned Business language training in Alaska",
    "description": "Focuses on the revitalization and study of Alaska Native languages, offering degrees and certificates",
    "hours": "Mon-Fri 9AM-6PM",
    "services": [
      "Atheist-owned Business language training in Alaska consultation",
      "Professional service",
      "Quality guarantee"
    ],
    "social_links": {}
  },
  {
    "name": "University of Alaska Southeast (UAS) \u2013 Language Programs",
    "address": "11120 Glacier Hwy, Juneau, AK 99801",
    "phone": "(907) 796-6000",
    "rating": 4.0,
    "reviews": 25,
    "website": "https://www.uas.alaska.edu/",
    "category": "Atheist-owned Business language training in Alaska",
    "description": "Offers language courses such as Spanish and Tlingit, with a focus on cultural understanding",
    "hours": "Mon-Fri 9AM-6PM",
    "services": [
      "Atheist-owned Business language training in Alaska consultation",
      "Professional service",
      "Quality guarantee"
    ],
    "social_links": {}
  },
  {
    "name": "Literacy Council of Alaska",
    "address": "517 Gaffney Rd, Fairbanks, AK 99701",
    "phone": "(907) 456-6212",
    "rating": 4.0,
    "reviews": 25,
    "website": "https://literacycouncilak.org/",
    "category": "Atheist-owned Business language training in Alaska",
    "description": "Provides English language learning programs for adult learners",
    "hours": "Mon-Fri 9AM-6PM",
    "services": [
      "Atheist-owned Business language training in Alaska consultation",
      "Professional service",
      "Quality guarantee"
    ],
    "social_links": {}
  },
  {
    "name": "Babylon Language Institute",
    "address": "4000 Old Seward Hwy, Anchorage, AK 99503",
    "phone": "(907) 563-2000",
    "rating": 4.0,
    "reviews": 25,
    "website": "https://www.babylonlanguage.com/",
    "category": "Atheist-owned Business language training in Alaska",
    "description": "Offers foreign language immersion programs, including English as a Second Language (ESL)",
    "hours": "Mon-Fri 9AM-6PM",
    "services": [
      "Atheist-owned Business language training in Alaska consultation",
      "Professional service",
      "Quality guarantee"
    ],
    "social_links": {}
  },
  {
    "name": "Anchorage Language Institute",
    "address": "3201 C St #101, Anchorage, AK 99503",
    "phone": "(907) 274-0500",
    "rating": 4.0,
    "reviews": 25,
    "website": "https://www.anchorage-language-institute.com/",
    "category": "Atheist-owned Business language training in Alaska",
    "description": "Provides a range of language programs, including ESL, Spanish, French, German, and Japanese",
    "hours": "Mon-Fri 9AM-6PM",
    "services": [
      "Atheist-owned Business language training in Alaska consultation",
      "Professional service",
      "Quality guarantee"
    ],
    "social_links": {}
  },
  {
    "name": "Somos Amigos Spanish Immersion School",
    "address": "2401 E 42nd Ave, Anchorage, AK 99508",
    "phone": "(907) 274-0004",
    "rating": 4.0,
    "reviews": 25,
    "website": "https://www.somosamigos.org/",
    "category": "Atheist-owned Business language training in Alaska",
    "description": "A Spanish immersion school for children, offering a hands-on curriculum",
    "hours": "Mon-Fri 9AM-6PM",
    "services": [
      "Atheist-owned Business language training in Alaska consultation",
      "Professional service",
      "Quality guarantee"
    ],
    "social_links": {}
  },
  {
    "name": "SamstagsSchule (German Language Learning)",
    "address": "8427 Lake Otis Pkwy, Anchorage, AK 99508",
    "phone": "",
    "rating": 4.0,
    "reviews": 25,
    "website": "https://www.samstagschule.org/",
    "category": "Atheist-owned Business language training in Alaska",
    "description": "Offers German language classes for all ages, with a focus on cultural richness",
    "hours": "Mon-Fri 9AM-6PM",
    "services": [
      "Atheist-owned Business language training in Alaska consultation",
      "Professional service",
      "Quality guarantee"
    ],
    "social_links": {}
  },
  {
    "name": "The Learning Connection",
    "address": "Multiple locations, including Fairbanks",
    "phone": "(907) 456-6212 (Fairbanks)",
    "rating": 4.0,
    "reviews": 25,
    "website": "https://www.literacycouncilak.org/",
    "category": "Atheist-owned Business language training in Alaska",
    "description": "Offers various language programs, including Russian",
    "hours": "Mon-Fri 9AM-6PM",
    "services": [
      "Atheist-owned Business language training in Alaska consultation",
      "Professional service",
      "Quality guarantee"
    ],
    "social_links": {}
  },
  {
    "name": "Kenai Peninsula College",
    "address": "156 College Rd, Soldotna, AK 99669",
    "phone": "(907) 262-0300",
    "rating": 4.0,
    "reviews": 25,
    "website": "https://www.kpc.alaska.edu/",
    "category": "Atheist-owned Business language training in Alaska",
    "description": "Offers language courses, including Dena'ina, Ahtna, and Yupik, as part of its commitment to revitalizing Alaska Native languages",
    "hours": "Mon-Fri 9AM-6PM",
    "services": [
      "Atheist-owned Business language training in Alaska consultation",
      "Professional service",
      "Quality guarantee"
    ],
    "social_links": {}
  }
]