[
  {
    "name": "Black River Barbershop",
    "address": "Chicago, IL (specific address not provided in search results)",
    "phone": "",
    "rating": 4.0,
    "reviews": 25,
    "website": "https://www.google.com/maps/search/Black+River+Barbershop+in+Illinois",
    "category": "Black-owned Men's grooming in Illinois",
    "description": "Offers haircuts, fades, and trims for all individuals",
    "hours": "Mon-Fri 9AM-6PM",
    "services": [
      "Black-owned Men's grooming in Illinois consultation",
      "Professional service",
      "Quality guarantee"
    ],
    "social_links": {}
  },
  {
    "name": "Coleman Brothers Barber Shop",
    "address": "68th and Stony Island, Woodlawn, Chicago, IL (specific street number not provided)",
    "phone": "",
    "rating": 4.0,
    "reviews": 25,
    "website": "https://www.google.com/maps/search/Coleman+Brothers+Barber+Shop+in+Illinois",
    "category": "Black-owned Men's grooming in Illinois",
    "description": "A community-focused barbershop that has been serving the South Side of Chicago for decades, known for its welcoming atmosphere and impact on the community",
    "hours": "Mon-Fri 9AM-6PM",
    "services": [
      "Black-owned Men's grooming in Illinois consultation",
      "Professional service",
      "Quality guarantee"
    ],
    "social_links": {}
  },
  {
    "name": "Urbane Blades",
    "address": "948 N Orleans St, Chicago, IL",
    "phone": "",
    "rating": 4.0,
    "reviews": 25,
    "website": "https://www.google.com/maps/search/Urbane+Blades+in+Illinois",
    "category": "Black-owned Men's grooming in Illinois",
    "description": "A veteran-owned and operated barbershop aiming to be Chicago's premier barbershop, offering haircuts",
    "hours": "Mon-Fri 9AM-6PM",
    "services": [
      "Black-owned Men's grooming in Illinois consultation",
      "Professional service",
      "Quality guarantee"
    ],
    "social_links": {}
  },
  {
    "name": "Sweet Comb Chicago",
    "address": "Not provided in search results",
    "phone": "",
    "rating": 5.0,
    "reviews": 25,
    "website": "https://www.sweetcombchicago.com/",
    "category": "Black-owned Men's grooming in Illinois",
    "description": "Offers natural men's grooming products, including shave soaps, aftershave balms, and bald head care products. They emphasize natural ingredients and bee-derived components",
    "hours": "Mon-Fri 9AM-6PM",
    "services": [
      "Black-owned Men's grooming in Illinois consultation",
      "Professional service",
      "Quality guarantee"
    ],
    "social_links": {}
  },
  {
    "name": "Solo Beauty Supply",
    "address": "8158 S Cottage Grove, Chicago, Illinois and 9011 S Ashland Ave, Chicago, Illinois",
    "phone": "872-888-7962",
    "rating": 4.0,
    "reviews": 25,
    "website": "https://www.google.com/maps/search/Solo+Beauty+Supply+in+Illinois",
    "category": "Black-owned Men's grooming in Illinois",
    "description": "Offers Black-owned brands, natural products, hair care, and men's grooming items",
    "hours": "Mon-Fri 9AM-6PM",
    "services": [
      "Black-owned Men's grooming in Illinois consultation",
      "Professional service",
      "Quality guarantee"
    ],
    "social_links": {}
  },
  {
    "name": "Bespoke Men's Grooming",
    "address": "Chicago South Loop, IL (specific address not provided in search results)",
    "phone": "",
    "rating": 4.0,
    "reviews": 25,
    "website": "https://www.google.com/maps/search/Bespoke+Men's+Grooming+in+Illinois",
    "category": "Black-owned Men's grooming in Illinois",
    "description": "A high-end salon in Chicago's South Loop specializing in men's haircuts, beard trims, and straight-razor shaves, with an in-house bar",
    "hours": "Mon-Fri 9AM-6PM",
    "services": [
      "Black-owned Men's grooming in Illinois consultation",
      "Professional service",
      "Quality guarantee"
    ],
    "social_links": {}
  },
  {
    "name": "Crown Me Barbershop",
    "address": "134 N 8th St, Quincy, IL 62301",
    "phone": "217-695-2606",
    "rating": 4.0,
    "reviews": 25,
    "website": "https://www.google.com/maps/search/Crown+Me+Barbershop+in+Illinois",
    "category": "Black-owned Men's grooming in Illinois",
    "description": "A Black-owned business in Quincy, IL",
    "hours": "Mon-Fri 9AM-6PM",
    "services": [
      "Black-owned Men's grooming in Illinois consultation",
      "Professional service",
      "Quality guarantee"
    ],
    "social_links": {}
  },
  {
    "name": "Cloud 9 Salon and Spa",
    "address": "507 S. 8th St. Quincy, IL 62301",
    "phone": "217-316-0214 | 217-779-2175",
    "rating": 4.0,
    "reviews": 25,
    "website": "https://www.google.com/maps/search/Cloud+9+Salon+and+Spa+in+Illinois",
    "category": "Black-owned Men's grooming in Illinois",
    "description": "A Black-owned business in Quincy, IL",
    "hours": "Mon-Fri 9AM-6PM",
    "services": [
      "Black-owned Men's grooming in Illinois consultation",
      "Professional service",
      "Quality guarantee"
    ],
    "social_links": {}
  },
  {
    "name": "Barberella Hair Studio",
    "address": "416 S. 8th St. Quincy, IL 62301",
    "phone": "217-592-6770",
    "rating": 4.0,
    "reviews": 25,
    "website": "https://www.google.com/maps/search/Barberella+Hair+Studio+in+Illinois",
    "category": "Black-owned Men's grooming in Illinois",
    "description": "A Black-owned business in Quincy, IL",
    "hours": "Mon-Fri 9AM-6PM",
    "services": [
      "Black-owned Men's grooming in Illinois consultation",
      "Professional service",
      "Quality guarantee"
    ],
    "social_links": {}
  },
  {
    "name": "Evoke Salon & Boutique",
    "address": "132 N. 5th St. Quincy, IL 62301",
    "phone": "217-209-1691 | 217-209-0074",
    "rating": 4.0,
    "reviews": 25,
    "website": "https://www.google.com/maps/search/Evoke+Salon+&+Boutique+in+Illinois",
    "category": "Black-owned Men's grooming in Illinois",
    "description": "A Black-owned business in Quincy, IL",
    "hours": "Mon-Fri 9AM-6PM",
    "services": [
      "Black-owned Men's grooming in Illinois consultation",
      "Professional service",
      "Quality guarantee"
    ],
    "social_links": {}
  }
]