[
  {
    "name": "Finest Indian Music Academy",
    "address": "Not specified, but serves Birmingham, AL",
    "phone": "609-772-4641",
    "rating": 4.0,
    "reviews": 25,
    "website": "https://www.google.com/maps/search/Finest+Indian+Music+Academy+in+Alabama",
    "category": "Bengali-speaking Music instruction in Alabama",
    "description": "Offers North Indian Music and professional/beginner training in the Guru-Shishya Parampara style. They also offer e-classes",
    "hours": "Mon-Fri 9AM-6PM",
    "services": [
      "Bengali-speaking Music instruction in Alabama consultation",
      "Professional service",
      "Quality guarantee"
    ],
    "social_links": {}
  },
  {
    "name": "Swarkul Academy",
    "address": "Not specified, but serves Birmingham, AL",
    "phone": "631-443-3482",
    "rating": 4.0,
    "reviews": 25,
    "website": "https://www.google.com/maps/search/Swarkul+Academy+in+Alabama",
    "category": "Bengali-speaking Music instruction in Alabama",
    "description": "Offers personalized one-on-one online music classes in various styles including Hindustani Vocal, Carnatic Vocal, Tabla, and more",
    "hours": "Mon-Fri 9AM-6PM",
    "services": [
      "Bengali-speaking Music instruction in Alabama consultation",
      "Professional service",
      "Quality guarantee"
    ],
    "social_links": {}
  },
  {
    "name": "Saarangam Sangeet Peeth School",
    "address": "Not specified, but serves Birmingham, AL",
    "phone": "617-299-8445",
    "rating": 4.0,
    "reviews": 25,
    "website": "https://www.google.com/maps/search/Saarangam+Sangeet+Peeth+School+in+Alabama",
    "category": "Bengali-speaking Music instruction in Alabama",
    "description": "Offers Hindustani classical music lessons",
    "hours": "Mon-Fri 9AM-6PM",
    "services": [
      "Bengali-speaking Music instruction in Alabama consultation",
      "Professional service",
      "Quality guarantee"
    ],
    "social_links": {}
  },
  {
    "name": "Tabla Guru",
    "address": "Not specified, but serves the Birmingham area",
    "phone": "609-772-4641",
    "rating": 5.0,
    "reviews": 25,
    "website": "https://www.google.com/maps/search/Tabla+Guru+in+Alabama",
    "category": "Bengali-speaking Music instruction in Alabama",
    "description": "Offers authentic tabla lessons from an internationally acclaimed practitioner, with options for group and individual formats, for beginners and experienced learners, and for kids and adults. Online lessons are available",
    "hours": "Mon-Fri 9AM-6PM",
    "services": [
      "Bengali-speaking Music instruction in Alabama consultation",
      "Professional service",
      "Quality guarantee"
    ],
    "social_links": {}
  },
  {
    "name": "Art Gharana - Online Music Classes",
    "address": "Not specified, but serves Birmingham, AL",
    "phone": "504-272-2167",
    "rating": 4.0,
    "reviews": 25,
    "website": "https://www.google.com/maps/search/Art+Gharana+-+Online+Music+Classes+in+Alabama",
    "category": "Bengali-speaking Music instruction in Alabama",
    "description": "Offers personalized, live 1:1 online classes in music, dance, vocal, and art & craft for all ages. They teach various vocal music styles including Hindustani and Carnatic",
    "hours": "Mon-Fri 9AM-6PM",
    "services": [
      "Bengali-speaking Music instruction in Alabama consultation",
      "Professional service",
      "Quality guarantee"
    ],
    "social_links": {}
  },
  {
    "name": "Nehal Music School",
    "address": "Not specified, but serves the Alma Area",
    "phone": "617-299-8445",
    "rating": 5.0,
    "reviews": 25,
    "website": "https://www.google.com/maps/search/Nehal+Music+School+in+Alabama",
    "category": "Bengali-speaking Music instruction in Alabama",
    "description": "Offers North Indian Classical and Vocal Music classes, specializing in Devotional or Bhajans Singing Lessons, Shlokas, and Hindustani Classical music lessons",
    "hours": "Mon-Fri 9AM-6PM",
    "services": [
      "Bengali-speaking Music instruction in Alabama consultation",
      "Professional service",
      "Quality guarantee"
    ],
    "social_links": {}
  },
  {
    "name": "Bamboo Music School",
    "address": "Not specified, but serves the Birmingham Area",
    "phone": "848-225-8847",
    "rating": 5.0,
    "reviews": 25,
    "website": "https://www.google.com/maps/search/Bamboo+Music+School+in+Alabama",
    "category": "Bengali-speaking Music instruction in Alabama",
    "description": "Offers sitar lessons and classes",
    "hours": "Mon-Fri 9AM-6PM",
    "services": [
      "Bengali-speaking Music instruction in Alabama consultation",
      "Professional service",
      "Quality guarantee"
    ],
    "social_links": {}
  },
  {
    "name": "Musical Class By Pallavi Mehta",
    "address": "Not specified, but serves Birmingham, AL",
    "phone": "408-457-1385",
    "rating": 5.0,
    "reviews": 25,
    "website": "https://www.google.com/maps/search/Musical+Class+By+Pallavi+Mehta+in+Alabama",
    "category": "Bengali-speaking Music instruction in Alabama",
    "description": "Offers Hindustani classical vocals and other musical instrument lessons",
    "hours": "Mon-Fri 9AM-6PM",
    "services": [
      "Bengali-speaking Music instruction in Alabama consultation",
      "Professional service",
      "Quality guarantee"
    ],
    "social_links": {}
  },
  {
    "name": "University of South Alabama - Center for Continuing Education and Conference Services",
    "address": "75 S. University Blvd., UCOM Ste. 5000, Mobile, Alabama 36608",
    "phone": "(251) 460-7200",
    "rating": 4.0,
    "reviews": 25,
    "website": "https://www.southalabama.edu/departments/ccecs/",
    "category": "Bengali-speaking Music instruction in Alabama",
    "description": "Offers courses in Indian classical music, including learning popular compositions in multiple Indian languages such as Bengali. Dr. S. Raj Chaudhury, who trained in India, instructs these classes",
    "hours": "Mon-Fri 9AM-6PM",
    "services": [
      "Bengali-speaking Music instruction in Alabama consultation",
      "Professional service",
      "Quality guarantee"
    ],
    "social_links": {}
  },
  {
    "name": "Indian Music Ensemble - Auburn University",
    "address": "Room 229 Goodwin Hall, 320 West Samford, Auburn, AL 36849",
    "phone": "",
    "rating": 4.0,
    "reviews": 25,
    "website": "https://sites.google.com/view/auburnindianmusicensemble",
    "category": "Bengali-speaking Music instruction in Alabama",
    "description": "This course teaches the musical traditions of the Indian subcontinent, including Ragas and Talas, with vocal and instrumental options. Authentic Indian instruments are used, and compositions in various genres are covered",
    "hours": "Mon-Fri 9AM-6PM",
    "services": [
      "Bengali-speaking Music instruction in Alabama consultation",
      "Professional service",
      "Quality guarantee"
    ],
    "social_links": {}
  }
]