[
  {
    "name": "Evan Hutcheson, CPA, LLC",
    "address": "Nashville, TN",
    "phone": "(615) 727-2295",
    "rating": 4.0,
    "reviews": 25,
    "website": "https://www.evanhutchesoncpa.com/",
    "category": "Armenian-speaking Financial accounting in Tennessee",
    "description": "Provides tax and accounting services to businesses in Nashville, TN, including tax preparation, tax planning, bookkeeping, payroll, and business advisory services",
    "hours": "Mon-Fri 9AM-6PM",
    "services": [
      "Armenian-speaking Financial accounting in Tennessee consultation",
      "Professional service",
      "Quality guarantee"
    ],
    "social_links": {}
  },
  {
    "name": "Calvetti Ferguson",
    "address": "1221 Broadway, Suite 2000, Nashville, TN 37203",
    "phone": "(615) 451-8041",
    "rating": 4.0,
    "reviews": 25,
    "website": "https://calvettiferguson.com/",
    "category": "Armenian-speaking Financial accounting in Tennessee",
    "description": "A CPA firm in Nashville offering audit, accounting, tax, and advisory services. They have a global reach and mention Armenia in their list of countries they serve",
    "hours": "Mon-Fri 9AM-6PM",
    "services": [
      "Armenian-speaking Financial accounting in Tennessee consultation",
      "Professional service",
      "Quality guarantee"
    ],
    "social_links": {}
  },
  {
    "name": "Forvis Mazars",
    "address": "900 South Gay Street Suite 1900, Knoxville, TN",
    "phone": "(865) 546-2171",
    "rating": 4.0,
    "reviews": 25,
    "website": "https://www.forvismazars.com/us/locations/knoxville",
    "category": "Armenian-speaking Financial accounting in Tennessee",
    "description": "A national CPA and advisory firm with offices in Knoxville, offering audit, tax, and consulting services. They also have international capabilities and mention Armenia",
    "hours": "Mon-Fri 9AM-6PM",
    "services": [
      "Armenian-speaking Financial accounting in Tennessee consultation",
      "Professional service",
      "Quality guarantee"
    ],
    "social_links": {}
  },
  {
    "name": "Lenahan, Smith & Bargiachi, P.C.",
    "address": "Memphis, TN",
    "phone": "(901) 684-1100",
    "rating": 4.0,
    "reviews": 25,
    "website": "https://www.lsbcpa.com/",
    "category": "Armenian-speaking Financial accounting in Tennessee",
    "description": "A full-service tax, accounting, and business consulting firm in Memphis, TN, specializing in taxes, audits, and more",
    "hours": "Mon-Fri 9AM-6PM",
    "services": [
      "Armenian-speaking Financial accounting in Tennessee consultation",
      "Professional service",
      "Quality guarantee"
    ],
    "social_links": {}
  },
  {
    "name": "Amelse & Edmonds CPAs",
    "address": "Knoxville, TN",
    "phone": "(865) 584-2445",
    "rating": 4.0,
    "reviews": 25,
    "website": "https://www.aecpas.com/",
    "category": "Armenian-speaking Financial accounting in Tennessee",
    "description": "A Knoxville-based CPA firm offering accounting, bookkeeping, tax preparation, and business consulting services. They have been voted a top CPA firm in Knoxville",
    "hours": "Mon-Fri 9AM-6PM",
    "services": [
      "Armenian-speaking Financial accounting in Tennessee consultation",
      "Professional service",
      "Quality guarantee"
    ],
    "social_links": {}
  },
  {
    "name": "Puryear and Noonan, CPAs",
    "address": "Nashville, TN",
    "phone": "(615) 377-4700",
    "rating": 4.0,
    "reviews": 25,
    "website": "https://www.puryearandnoonan.com/",
    "category": "Armenian-speaking Financial accounting in Tennessee",
    "description": "A CPA firm in Nashville offering expert tax, audit, and bookkeeping services for small businesses, individuals, nonprofits, and trusts",
    "hours": "Mon-Fri 9AM-6PM",
    "services": [
      "Armenian-speaking Financial accounting in Tennessee consultation",
      "Professional service",
      "Quality guarantee"
    ],
    "social_links": {}
  },
  {
    "name": "DeMoss Accounting",
    "address": "Chattanooga, TN",
    "phone": "(423) 894-7400",
    "rating": 4.0,
    "reviews": 25,
    "website": "https://www.demossaccounting.com/",
    "category": "Armenian-speaking Financial accounting in Tennessee",
    "description": "Specializes in accounting, auditing, bookkeeping, and tax services in Chattanooga, TN, serving small businesses and non-profit organizations",
    "hours": "Mon-Fri 9AM-6PM",
    "services": [
      "Armenian-speaking Financial accounting in Tennessee consultation",
      "Professional service",
      "Quality guarantee"
    ],
    "social_links": {}
  },
  {
    "name": "Callison CPA",
    "address": "Chattanooga, TN",
    "phone": "(423) 894-7400",
    "rating": 4.0,
    "reviews": 25,
    "website": "https://www.callisoncpa.com/",
    "category": "Armenian-speaking Financial accounting in Tennessee",
    "description": "A full-service accounting firm in Chattanooga, TN, providing tax, assurance, payroll, and bookkeeping services",
    "hours": "Mon-Fri 9AM-6PM",
    "services": [
      "Armenian-speaking Financial accounting in Tennessee consultation",
      "Professional service",
      "Quality guarantee"
    ],
    "social_links": {}
  },
  {
    "name": "Accounting Consultants, Inc.",
    "address": "Knoxville, TN",
    "phone": "(865) 584-3434",
    "rating": 4.0,
    "reviews": 25,
    "website": "https://www.accountingconsultantsinc.com/",
    "category": "Armenian-speaking Financial accounting in Tennessee",
    "description": "A small Certified Public Accounting firm in Knoxville, TN, dedicated to providing accounting and tax services for over thirty years",
    "hours": "Mon-Fri 9AM-6PM",
    "services": [
      "Armenian-speaking Financial accounting in Tennessee consultation",
      "Professional service",
      "Quality guarantee"
    ],
    "social_links": {}
  },
  {
    "name": "Rikard & Neal CPAs, PLLC",
    "address": "Memphis, TN",
    "phone": "(901) 685-9411",
    "rating": 4.0,
    "reviews": 25,
    "website": "https://www.rikardnealcpa.com/",
    "category": "Armenian-speaking Financial accounting in Tennessee",
    "description": "A Memphis CPA firm offering a wide variety of accounting, tax, and financial management services, with a focus on fast answers, professional advice, and personal support",
    "hours": "Mon-Fri 9AM-6PM",
    "services": [
      "Armenian-speaking Financial accounting in Tennessee consultation",
      "Professional service",
      "Quality guarantee"
    ],
    "social_links": {}
  }
]