[
  {
    "name": "Ruppert & Schaefer, P.C.",
    "address": "9229 Castlegate Drive, Indianapolis, IN 46250",
    "phone": "(317) 660-8150",
    "rating": 4.0,
    "reviews": 25,
    "website": "https://www.indianalaw.com/",
    "category": "German-speaking Family law in Indiana",
    "description": "This firm has over 100 years of combined family law experience and focuses on protecting clients' rights and best interests",
    "hours": "Mon-Fri 9AM-6PM",
    "services": [
      "German-speaking Family law in Indiana consultation",
      "Professional service",
      "Quality guarantee"
    ],
    "social_links": {}
  },
  {
    "name": "Doyle Family Law LLC",
    "address": "450 E. 96th Street, Suite 500, Indianapolis, IN 46240",
    "phone": "(317) 520-7661",
    "rating": 4.0,
    "reviews": 25,
    "website": "https://www.doylefamilylaw.com/",
    "category": "German-speaking Family law in Indiana",
    "description": "This firm is dedicated to offering ethical, affordable, and effective legal counsel for families facing challenging circumstances, with a sole focus on family law",
    "hours": "Mon-Fri 9AM-6PM",
    "services": [
      "German-speaking Family law in Indiana consultation",
      "Professional service",
      "Quality guarantee"
    ],
    "social_links": {}
  },
  {
    "name": "Keffer Hirschauer LLP",
    "address": "8440 Woodfield Crossing Blvd, Suite 350, Indianapolis, IN 46240",
    "phone": "(317) 857-0160",
    "rating": 4.0,
    "reviews": 25,
    "website": "https://www.kefferhirschauer.com/",
    "category": "German-speaking Family law in Indiana",
    "description": "This firm provides compassionate advocacy and deep understanding of Indiana family law, with assertive litigation experience",
    "hours": "Mon-Fri 9AM-6PM",
    "services": [
      "German-speaking Family law in Indiana consultation",
      "Professional service",
      "Quality guarantee"
    ],
    "social_links": {}
  },
  {
    "name": "The Law Office of Melissa Winkler-York, LLC",
    "address": "101 W. Ohio Street, Suite 2000, Indianapolis, IN 46204",
    "phone": "(317) 500-4435",
    "rating": 4.0,
    "reviews": 25,
    "website": "https://www.indianapolis-family-lawyer.com/",
    "category": "German-speaking Family law in Indiana",
    "description": "This office handles all types of family law cases, including divorce, custody, child support, and adoptions, with a practical and reasonable approach",
    "hours": "Mon-Fri 9AM-6PM",
    "services": [
      "German-speaking Family law in Indiana consultation",
      "Professional service",
      "Quality guarantee"
    ],
    "social_links": {}
  },
  {
    "name": "Rubino Ruman, Crosmer & Polen",
    "address": "1000 E. 80th Place, Suite 301, Merrillville, IN 46410",
    "phone": "(219) 227-4631",
    "rating": 4.0,
    "reviews": 25,
    "website": "https://www.rubinolaw.com/",
    "category": "German-speaking Family law in Indiana",
    "description": "This firm provides comprehensive legal counsel and is prepared to represent clients through negotiation, mediation, or litigation",
    "hours": "Mon-Fri 9AM-6PM",
    "services": [
      "German-speaking Family law in Indiana consultation",
      "Professional service",
      "Quality guarantee"
    ],
    "social_links": {}
  },
  {
    "name": "Carmel Family Law",
    "address": "1403 S. Rangeline Road, Suite 200, Carmel, IN 46032",
    "phone": "(317) 844-4000",
    "rating": 4.0,
    "reviews": 25,
    "website": "https://www.carmelfamilylaw.com/",
    "category": "German-speaking Family law in Indiana",
    "description": "This firm has decades of experience helping clients navigate family law matters through the Indiana court system, with a focus on dignity, respect, and strong advocacy",
    "hours": "Mon-Fri 9AM-6PM",
    "services": [
      "German-speaking Family law in Indiana consultation",
      "Professional service",
      "Quality guarantee"
    ],
    "social_links": {}
  },
  {
    "name": "Langer & Langer",
    "address": "100 N. Franklin Street, Valparaiso, IN 46383",
    "phone": "(219) 356-2644",
    "rating": 4.0,
    "reviews": 25,
    "website": "https://www.langerlaw.com/",
    "category": "German-speaking Family law in Indiana",
    "description": "This firm handles a wide range of family law issues, providing compassionate guidance, assertive advocacy, and practical solutions",
    "hours": "Mon-Fri 9AM-6PM",
    "services": [
      "German-speaking Family law in Indiana consultation",
      "Professional service",
      "Quality guarantee"
    ],
    "social_links": {}
  },
  {
    "name": "Freedman Law, P.C.",
    "address": "9899 E. 106th Street, Fishers, IN 46037",
    "phone": "(317) 810-5000",
    "rating": 4.0,
    "reviews": 25,
    "website": "https://www.freedmanlawpc.com/",
    "category": "German-speaking Family law in Indiana",
    "description": "This firm focuses on family law, including divorce, paternity, child support, and child custody, with an approach that emphasizes communication and keeping clients informed",
    "hours": "Mon-Fri 9AM-6PM",
    "services": [
      "German-speaking Family law in Indiana consultation",
      "Professional service",
      "Quality guarantee"
    ],
    "social_links": {}
  },
  {
    "name": "Sterba, Swope & Horecky, LLP",
    "address": "700 W. 45th Avenue, Suite 100, Schererville, IN 46375",
    "phone": "(219) 319-5239",
    "rating": 4.0,
    "reviews": 25,
    "website": "https://www.sterbalaw.com/",
    "category": "German-speaking Family law in Indiana",
    "description": "This firm has served individuals with divorce and family law issues for over 35 years, working to minimize conflict and maximize resolution",
    "hours": "Mon-Fri 9AM-6PM",
    "services": [
      "German-speaking Family law in Indiana consultation",
      "Professional service",
      "Quality guarantee"
    ],
    "social_links": {}
  },
  {
    "name": "Zivitz Law Group",
    "address": "450 E. 96th Street, Suite 500, Indianapolis, IN 46240",
    "phone": "(317) 520-7661",
    "rating": 4.0,
    "reviews": 25,
    "website": "https://www.zivitzlaw.com/",
    "category": "German-speaking Family law in Indiana",
    "description": "This firm is 100% focused on family law, helping clients solve difficult family law issues with respect, sensitivity, and compassion",
    "hours": "Mon-Fri 9AM-6PM",
    "services": [
      "German-speaking Family law in Indiana consultation",
      "Professional service",
      "Quality guarantee"
    ],
    "social_links": {}
  }
]