[
  {
    "name": "Bridal Closet",
    "address": "15932 Luanne Dr, Gaithersburg, MD 20877",
    "phone": "(240) 200-1296",
    "rating": 4.5,
    "reviews": 25,
    "website": "https://www.bridalclosetmd.com/",
    "category": "Arabic-speaking Fashion rental styling in Maryland",
    "description": "Specializes in wedding gown rentals, offering both in-store and online options with nationwide shipping",
    "hours": "Mon-Fri 9AM-6PM",
    "services": [
      "Arabic-speaking Fashion rental styling in Maryland consultation",
      "Professional service",
      "Quality guarantee"
    ],
    "social_links": {}
  },
  {
    "name": "Carmen's Bridal Gown Rental",
    "address": "(Serves MD, D.C., VA, PA) - Contact via text for details",
    "phone": "410-440-2992",
    "rating": 5.0,
    "reviews": 25,
    "website": "http://www.carmensbridal.com/",
    "category": "Arabic-speaking Fashion rental styling in Maryland",
    "description": "Offers bridal gown rentals with packages that include veils, tiaras, alterations, and cleaning",
    "hours": "Mon-Fri 9AM-6PM",
    "services": [
      "Arabic-speaking Fashion rental styling in Maryland consultation",
      "Professional service",
      "Quality guarantee"
    ],
    "social_links": {}
  },
  {
    "name": "RB Party Decorations (Gown Rentals)",
    "address": "8536 Dakota Dr, Gaithersburg, MD 20877",
    "phone": "301-963-6289",
    "rating": 4.0,
    "reviews": 25,
    "website": "https://www.rbpartydecorations.com/gown-rentals",
    "category": "Arabic-speaking Fashion rental styling in Maryland",
    "description": "Provides gown rentals for various events, with specific pick-up and drop-off schedules",
    "hours": "Mon-Fri 9AM-6PM",
    "services": [
      "Arabic-speaking Fashion rental styling in Maryland consultation",
      "Professional service",
      "Quality guarantee"
    ],
    "social_links": {}
  },
  {
    "name": "Serendipity Bridal & Events",
    "address": "(Southern Maryland) - Contact for specific location",
    "phone": "",
    "rating": 4.0,
    "reviews": 25,
    "website": "https://www.serendipitybridalandevents.com/",
    "category": "Arabic-speaking Fashion rental styling in Maryland",
    "description": "A full-service bridal and events boutique offering wedding gowns, prom dresses, tuxedos, and event design",
    "hours": "Mon-Fri 9AM-6PM",
    "services": [
      "Arabic-speaking Fashion rental styling in Maryland consultation",
      "Professional service",
      "Quality guarantee"
    ],
    "social_links": {}
  },
  {
    "name": "Lefty's Bridal & Boutique",
    "address": "2025 Oakwood Ln, Walker Mill, MD 20747",
    "phone": "301-420-2922",
    "rating": 4.0,
    "reviews": 25,
    "website": "https://www.leftysbridal.com/",
    "category": "Arabic-speaking Fashion rental styling in Maryland",
    "description": "A bridal boutique offering wedding gowns and other formal wear, operating by appointment only",
    "hours": "Mon-Fri 9AM-6PM",
    "services": [
      "Arabic-speaking Fashion rental styling in Maryland consultation",
      "Professional service",
      "Quality guarantee"
    ],
    "social_links": {}
  },
  {
    "name": "House Of Jon Lei",
    "address": "National Harbor, MD",
    "phone": "",
    "rating": 4.0,
    "reviews": 25,
    "website": "https://www.houseofjonlei.com/",
    "category": "Arabic-speaking Fashion rental styling in Maryland",
    "description": "A bridal and social occasion shop offering wedding gowns, bridesmaid dresses, and evening wear",
    "hours": "Mon-Fri 9AM-6PM",
    "services": [
      "Arabic-speaking Fashion rental styling in Maryland consultation",
      "Professional service",
      "Quality guarantee"
    ],
    "social_links": {}
  },
  {
    "name": "Gianna Nucci Style",
    "address": "Annapolis, MD and surrounding areas",
    "phone": "",
    "rating": 4.0,
    "reviews": 25,
    "website": "https://www.giannanuccistyle.com/",
    "category": "Arabic-speaking Fashion rental styling in Maryland",
    "description": "Provides personal styling and image consulting services, including wardrobe edits and outfit creation",
    "hours": "Mon-Fri 9AM-6PM",
    "services": [
      "Arabic-speaking Fashion rental styling in Maryland consultation",
      "Professional service",
      "Quality guarantee"
    ],
    "social_links": {}
  },
  {
    "name": "Fathia Savory | Style Expert",
    "address": "Baltimore, MD",
    "phone": "",
    "rating": 4.0,
    "reviews": 25,
    "website": "https://www.fathiasavory.com/",
    "category": "Arabic-speaking Fashion rental styling in Maryland",
    "description": "Offers styling services for professional women, focusing on executive presence and personalized wardrobe solutions",
    "hours": "Mon-Fri 9AM-6PM",
    "services": [
      "Arabic-speaking Fashion rental styling in Maryland consultation",
      "Professional service",
      "Quality guarantee"
    ],
    "social_links": {}
  },
  {
    "name": "Bina Pittman Personal Stylist",
    "address": "Maryland",
    "phone": "240-583-1740",
    "rating": 4.0,
    "reviews": 25,
    "website": "https://www.binapittman.com/",
    "category": "Arabic-speaking Fashion rental styling in Maryland",
    "description": "Provides personal styling, wardrobe consulting, and closet edits for women",
    "hours": "Mon-Fri 9AM-6PM",
    "services": [
      "Arabic-speaking Fashion rental styling in Maryland consultation",
      "Professional service",
      "Quality guarantee"
    ],
    "social_links": {}
  },
  {
    "name": "StyledByKemi LLC",
    "address": "DMV area (including Maryland)",
    "phone": "",
    "rating": 5.0,
    "reviews": 25,
    "website": "https://www.styledbykemi.com/",
    "category": "Arabic-speaking Fashion rental styling in Maryland",
    "description": "Offers personal styling services, including closet edits and wardrobe revamps, with a focus on elevating personal style",
    "hours": "Mon-Fri 9AM-6PM",
    "services": [
      "Arabic-speaking Fashion rental styling in Maryland consultation",
      "Professional service",
      "Quality guarantee"
    ],
    "social_links": {}
  }
]