[
  {
    "name": "Phoenix Collision",
    "address": "3000 W. Lawrence Ave., Springfield, IL 62704",
    "phone": "(217) 546-5555",
    "rating": 4.8,
    "reviews": 25,
    "website": "http://www.phoenixcollisionil.com/",
    "category": "Arabic-speaking Collision repair in Illinois",
    "description": "Offers expert collision repair, scratch & dent removal, custom paint services, and detailing",
    "hours": "Mon-Fri 9AM-6PM",
    "services": [
      "Arabic-speaking Collision repair in Illinois consultation",
      "Professional service",
      "Quality guarantee"
    ],
    "social_links": {}
  },
  {
    "name": "Turk's Collision Repair",
    "address": "10015 W. Lincoln Hwy., Minooka, IL 60447",
    "phone": "(815) 521-4588",
    "rating": 4.8,
    "reviews": 25,
    "website": "https://www.turkscollisionrepair.com/",
    "category": "Arabic-speaking Collision repair in Illinois",
    "description": "Provides collision repair, auto body repair, and paintless dent removal with lifetime warranties",
    "hours": "Mon-Fri 9AM-6PM",
    "services": [
      "Arabic-speaking Collision repair in Illinois consultation",
      "Professional service",
      "Quality guarantee"
    ],
    "social_links": {}
  },
  {
    "name": "Springfield Collision Center",
    "address": "3700 West Grand Avenue Ste C, Springfield, IL 62711",
    "phone": "(217) 529-6144",
    "rating": 4.7,
    "reviews": 25,
    "website": "https://www.springfieldcollision.net/",
    "category": "Arabic-speaking Collision repair in Illinois",
    "description": "Family-owned business offering collision repair, painting, towing, and auto glass repair",
    "hours": "Mon-Fri 9AM-6PM",
    "services": [
      "Arabic-speaking Collision repair in Illinois consultation",
      "Professional service",
      "Quality guarantee"
    ],
    "social_links": {}
  },
  {
    "name": "Auto Collision Experts, Inc.",
    "address": "2041 N Raynor Ave, Crest Hill, IL 60403",
    "phone": "(815) 740-1111",
    "rating": 4.7,
    "reviews": 25,
    "website": "https://www.autocollisionexperts.net/",
    "category": "Arabic-speaking Collision repair in Illinois",
    "description": "Offers automotive collision repair, auto paint shop services, and works with all insurance companies",
    "hours": "Mon-Fri 9AM-6PM",
    "services": [
      "Arabic-speaking Collision repair in Illinois consultation",
      "Professional service",
      "Quality guarantee"
    ],
    "social_links": {}
  },
  {
    "name": "Collision Solution Auto Body Repair",
    "address": "Multiple locations, including 1000 E. Grand Ave., Lake Villa, IL 60046",
    "phone": "(847) 265-1000",
    "rating": 4.7,
    "reviews": 25,
    "website": "https://collisionsolution.com/",
    "category": "Arabic-speaking Collision repair in Illinois",
    "description": "Full-service collision repair facility with state-of-the-art equipment and I-CAR certifications",
    "hours": "Mon-Fri 9AM-6PM",
    "services": [
      "Arabic-speaking Collision repair in Illinois consultation",
      "Professional service",
      "Quality guarantee"
    ],
    "social_links": {}
  },
  {
    "name": "Gold Coast Auto Body",
    "address": "1111 N Branch St, Chicago, IL 60642",
    "phone": "(312) 337-0600",
    "rating": 4.7,
    "reviews": 25,
    "website": "https://www.goldcoastautobody.com/",
    "category": "Arabic-speaking Collision repair in Illinois",
    "description": "Premier auto body specialists in Chicago, offering factory-certified collision repair for luxury vehicles",
    "hours": "Mon-Fri 9AM-6PM",
    "services": [
      "Arabic-speaking Collision repair in Illinois consultation",
      "Professional service",
      "Quality guarantee"
    ],
    "social_links": {}
  },
  {
    "name": "Justice Automotive and Collision Centers",
    "address": "1680 Quincy Ave Ste C, Naperville, IL 60540",
    "phone": "(630) 514-8480",
    "rating": 4.7,
    "reviews": 25,
    "website": "https://justiceautomotive.com/",
    "category": "Arabic-speaking Collision repair in Illinois",
    "description": "High-quality, guaranteed auto body repair services for domestic and foreign vehicles",
    "hours": "Mon-Fri 9AM-6PM",
    "services": [
      "Arabic-speaking Collision repair in Illinois consultation",
      "Professional service",
      "Quality guarantee"
    ],
    "social_links": {}
  },
  {
    "name": "Mega Auto Collision & Care",
    "address": "10317 W. Grand Ave., Melrose Park, IL 60160",
    "phone": "(708) 343-0000",
    "rating": 4.8,
    "reviews": 25,
    "website": "https://megaautocollision.com/",
    "category": "Arabic-speaking Collision repair in Illinois",
    "description": "Complete collision repair experts with over 20 years of experience, offering free estimates and towing",
    "hours": "Mon-Fri 9AM-6PM",
    "services": [
      "Arabic-speaking Collision repair in Illinois consultation",
      "Professional service",
      "Quality guarantee"
    ],
    "social_links": {}
  },
  {
    "name": "CDE Collision Centers",
    "address": "Multiple locations, including 5710 S. Western Ave., Chicago, IL 60636",
    "phone": "(773) 778-0700",
    "rating": 4.7,
    "reviews": 25,
    "website": "https://cdecollision.com/",
    "category": "Arabic-speaking Collision repair in Illinois",
    "description": "Offers collision repair services with a focus on customer satisfaction and quality workmanship",
    "hours": "Mon-Fri 9AM-6PM",
    "services": [
      "Arabic-speaking Collision repair in Illinois consultation",
      "Professional service",
      "Quality guarantee"
    ],
    "social_links": {}
  },
  {
    "name": "Belvidere Auto Body & Refinishing",
    "address": "10317 Vans Drive, Frankfort, IL 60423",
    "phone": "(815) 567-5500",
    "rating": 4.8,
    "reviews": 25,
    "website": "https://www.belvidereautobody.com/",
    "category": "Arabic-speaking Collision repair in Illinois",
    "description": "Industry-certified collision repair shop treating every vehicle as their own, with a full warranty on parts and services",
    "hours": "Mon-Fri 9AM-6PM",
    "services": [
      "Arabic-speaking Collision repair in Illinois consultation",
      "Professional service",
      "Quality guarantee"
    ],
    "social_links": {}
  }
]