[
  {
    "name": "BrownDog Lodge",
    "address": "1000 Old Hillsboro Rd, Franklin, TN 37064",
    "phone": "(615) 591-5040",
    "rating": 4.9,
    "reviews": 25,
    "website": "https://browndoglodge.com/",
    "category": "Buddhist-owned Pet sitting in Tennessee",
    "description": "A highly-rated dog daycare, grooming, spa, and boarding facility known for its welcoming environment and dedicated care",
    "hours": "Mon-Fri 9AM-6PM",
    "services": [
      "Buddhist-owned Pet sitting in Tennessee consultation",
      "Professional service",
      "Quality guarantee"
    ],
    "social_links": {}
  },
  {
    "name": "Camp Bow Wow",
    "address": "Multiple locations across Tennessee, including 5160 Sidco Dr, Nashville, TN 37204",
    "phone": "(615) 712-7297 (Nashville location)",
    "rating": 4.8,
    "reviews": 25,
    "website": "https://www.campbowwow.com/",
    "category": "Buddhist-owned Pet sitting in Tennessee",
    "description": "Known for its attentive and professional staff who prioritize pet well-being and socialization",
    "hours": "Mon-Fri 9AM-6PM",
    "services": [
      "Buddhist-owned Pet sitting in Tennessee consultation",
      "Professional service",
      "Quality guarantee"
    ],
    "social_links": {}
  },
  {
    "name": "Mutt Island Dog Daycare & Grooming",
    "address": "1015 Madison Ave, Memphis, TN 38104",
    "phone": "(901) 272-0000",
    "rating": 4.8,
    "reviews": 25,
    "website": "https://www.muttisland.com/",
    "category": "Buddhist-owned Pet sitting in Tennessee",
    "description": "Focuses on pet safety, comfort, and individualized care in a spacious indoor and outdoor environment",
    "hours": "Mon-Fri 9AM-6PM",
    "services": [
      "Buddhist-owned Pet sitting in Tennessee consultation",
      "Professional service",
      "Quality guarantee"
    ],
    "social_links": {}
  },
  {
    "name": "The Doghouse School",
    "address": "1000 Old Hillsboro Rd, Franklin, TN 37064",
    "phone": "(615) 591-5040",
    "rating": 4.9,
    "reviews": 25,
    "website": "https://www.thedoghouseschool.com/",
    "category": "Buddhist-owned Pet sitting in Tennessee",
    "description": "Offers exceptional caregiving, individualized attention, and extensive services for dogs",
    "hours": "Mon-Fri 9AM-6PM",
    "services": [
      "Buddhist-owned Pet sitting in Tennessee consultation",
      "Professional service",
      "Quality guarantee"
    ],
    "social_links": {}
  },
  {
    "name": "Dogtopia of Hickory Plaza Nashville",
    "address": "6677 Nolensville Rd, Ste 101, Nolensville, TN 37135",
    "phone": "(615) 933-5000",
    "rating": 4.8,
    "reviews": 25,
    "website": "https://www.dogtopia.com/hickory-plaza-nashville/",
    "category": "Buddhist-owned Pet sitting in Tennessee",
    "description": "Provides a safe and engaging environment for dogs with a focus on play and socialization",
    "hours": "Mon-Fri 9AM-6PM",
    "services": [
      "Buddhist-owned Pet sitting in Tennessee consultation",
      "Professional service",
      "Quality guarantee"
    ],
    "social_links": {}
  },
  {
    "name": "Nashville Kitty Sitter",
    "address": "Serves the Nashville, TN area",
    "phone": "(615) 429-6012",
    "rating": 5.0,
    "reviews": 25,
    "website": "https://www.nashvilkitysitter.com/",
    "category": "Buddhist-owned Pet sitting in Tennessee",
    "description": "Offers in-home pet sitting, specializing in feline care with certified pet CPR and first aid",
    "hours": "Mon-Fri 9AM-6PM",
    "services": [
      "Buddhist-owned Pet sitting in Tennessee consultation",
      "Professional service",
      "Quality guarantee"
    ],
    "social_links": {}
  },
  {
    "name": "Creature Comforts Memphis",
    "address": "Serves Memphis, TN and surrounding areas",
    "phone": "(901) 606-2486",
    "rating": 5.0,
    "reviews": 25,
    "website": "https://www.creaturecomfortsmemphis.com/",
    "category": "Buddhist-owned Pet sitting in Tennessee",
    "description": "An award-winning service offering customized pet sitting, dog walking, and pet taxi services",
    "hours": "Mon-Fri 9AM-6PM",
    "services": [
      "Buddhist-owned Pet sitting in Tennessee consultation",
      "Professional service",
      "Quality guarantee"
    ],
    "social_links": {}
  },
  {
    "name": "Dogs to Frogs Pet Sitting",
    "address": "Serves East Nashville, TN and surrounding zip codes (37206, 37216, parts of 37207)",
    "phone": "(615) 400-0186",
    "rating": 5.0,
    "reviews": 25,
    "website": "https://www.dogsto-frogs.com/",
    "category": "Buddhist-owned Pet sitting in Tennessee",
    "description": "Provides in-home pet sitting and dog walking services, caring for dogs, cats, and other animals",
    "hours": "Mon-Fri 9AM-6PM",
    "services": [
      "Buddhist-owned Pet sitting in Tennessee consultation",
      "Professional service",
      "Quality guarantee"
    ],
    "social_links": {}
  },
  {
    "name": "Blue Sky Pet Services",
    "address": "Serves West and Northwest Knox County, TN, and downtown Knoxville",
    "phone": "(865) 384-0551",
    "rating": 5.0,
    "reviews": 25,
    "website": "https://www.blueskypetservices.com/",
    "category": "Buddhist-owned Pet sitting in Tennessee",
    "description": "Offers dog walks, potty breaks, and pet sitting, treating pets and homes as their own",
    "hours": "Mon-Fri 9AM-6PM",
    "services": [
      "Buddhist-owned Pet sitting in Tennessee consultation",
      "Professional service",
      "Quality guarantee"
    ],
    "social_links": {}
  },
  {
    "name": "You x 2 Pet Sitting Services",
    "address": "Serves Knox, Anderson, and Campbell counties, TN, and surrounding areas",
    "phone": "(865) 216-1477",
    "rating": 5.0,
    "reviews": 25,
    "website": "https://www.youx2petsitting.com/",
    "category": "Buddhist-owned Pet sitting in Tennessee",
    "description": "Provides enrichment-focused pet sitting, including overnight stays, drop-in visits, and dog walking for various types of animals",
    "hours": "Mon-Fri 9AM-6PM",
    "services": [
      "Buddhist-owned Pet sitting in Tennessee consultation",
      "Professional service",
      "Quality guarantee"
    ],
    "social_links": {}
  }
]