[
  {
    "name": "The Hair Marqui LLC",
    "address": "10501 New Hampshire Ave, Silver Spring, MD 20903",
    "phone": "(301) 434-4247",
    "rating": 4.0,
    "reviews": 25,
    "website": "http://www.thehairmarqui.com/",
    "category": "Black-owned Keratin treatments in Maryland",
    "description": "This salon offers a variety of hair services, including keratin treatments, hair coloring, haircuts, and extensions",
    "hours": "Mon-Fri 9AM-6PM",
    "services": [
      "Black-owned Keratin treatments in Maryland consultation",
      "Professional service",
      "Quality guarantee"
    ],
    "social_links": {}
  },
  {
    "name": "Shyphenk Black Hair Salon",
    "address": "315 Kentlands Blvd, Gaithersburg, MD 20878",
    "phone": "(301) 523-1122",
    "rating": 4.0,
    "reviews": 25,
    "website": "https://www.shyphenkhairsalon.com/",
    "category": "Black-owned Keratin treatments in Maryland",
    "description": "A Black natural hair salon offering services like natural styling and extensions. While keratin treatments are not explicitly listed, their expertise in natural hair suggests they may offer them or similar smoothing treatments",
    "hours": "Mon-Fri 9AM-6PM",
    "services": [
      "Black-owned Keratin treatments in Maryland consultation",
      "Professional service",
      "Quality guarantee"
    ],
    "social_links": {}
  },
  {
    "name": "Simone's Styles",
    "address": "8601 Baltimore Ave, Suite 203, College Park, MD 20740",
    "phone": "(240) 418-7473",
    "rating": 4.0,
    "reviews": 25,
    "website": "https://simonesstyles.com/",
    "category": "Black-owned Keratin treatments in Maryland",
    "description": "A Black-owned natural hair salon focusing on natural hair care, braids, and twists. They may offer keratin treatments as part of their comprehensive hair care services",
    "hours": "Mon-Fri 9AM-6PM",
    "services": [
      "Black-owned Keratin treatments in Maryland consultation",
      "Professional service",
      "Quality guarantee"
    ],
    "social_links": {}
  },
  {
    "name": "Divine Trinity Hair Studio",
    "address": "8220 Ritchie Highway, Store 2, Pasadena, MD 21122",
    "phone": "(443) 514-5576",
    "rating": 4.0,
    "reviews": 25,
    "website": "https://www.divinetrinityhairstudio.com/",
    "category": "Black-owned Keratin treatments in Maryland",
    "description": "This salon offers a range of services including natural hair styling, hair treatments, and makeup. They also provide hair straightening services that could include keratin treatments",
    "hours": "Mon-Fri 9AM-6PM",
    "services": [
      "Black-owned Keratin treatments in Maryland consultation",
      "Professional service",
      "Quality guarantee"
    ],
    "social_links": {}
  },
  {
    "name": "A Touch of Te' Hair Studio",
    "address": "705 Frederick Rd, Catonsville, MD 21228",
    "phone": "(443) 803-7013",
    "rating": 4.0,
    "reviews": 25,
    "website": "https://www.atouchoftehairstudio.com/",
    "category": "Black-owned Keratin treatments in Maryland",
    "description": "Specializing in hair weaves, short cuts, natural hair, and color treatments, they also offer keratin treatments and other hair care services",
    "hours": "Mon-Fri 9AM-6PM",
    "services": [
      "Black-owned Keratin treatments in Maryland consultation",
      "Professional service",
      "Quality guarantee"
    ],
    "social_links": {}
  },
  {
    "name": "Salon 7",
    "address": "9015 Woodyard Rd, Suite 100, Clinton, MD 20735",
    "phone": "(301) 877-7716",
    "rating": 4.0,
    "reviews": 25,
    "website": "http://www.salon7iambeautiful.com/",
    "category": "Black-owned Keratin treatments in Maryland",
    "description": "This salon offers a variety of services including weaving, extensions, cuts, styling, and color. They are a Black-owned hair salon that likely offers keratin treatments",
    "hours": "Mon-Fri 9AM-6PM",
    "services": [
      "Black-owned Keratin treatments in Maryland consultation",
      "Professional service",
      "Quality guarantee"
    ],
    "social_links": {}
  },
  {
    "name": "Hello Bonita Baltimore",
    "address": "2100 York Rd, Timonium, MD 21093 (Note: This address appears to be for a different location than what might be implied by \"Baltimore\" in the name. Further verification may be needed.)",
    "phone": "(443) 850-7320",
    "rating": 4.0,
    "reviews": 25,
    "website": "https://www.styleseat.com/m/v/1040003",
    "category": "Black-owned Keratin treatments in Maryland",
    "description": "This salon offers various hair treatments, including keratin treatments, all-over color, and haircuts",
    "hours": "Mon-Fri 9AM-6PM",
    "services": [
      "Black-owned Keratin treatments in Maryland consultation",
      "Professional service",
      "Quality guarantee"
    ],
    "social_links": {}
  },
  {
    "name": "NKST Natural Keratin Smoothing Treatment System",
    "address": "Information not available for a specific salon location, but this is a product line used in Maryland",
    "phone": "",
    "rating": 4.0,
    "reviews": 25,
    "website": "https://www.nkst.com/maryland",
    "category": "Black-owned Keratin treatments in Maryland",
    "description": "This system offers keratin smoothing treatments that last up to 5 months, repair damage, and eliminate frizz",
    "hours": "Mon-Fri 9AM-6PM",
    "services": [
      "Black-owned Keratin treatments in Maryland consultation",
      "Professional service",
      "Quality guarantee"
    ],
    "social_links": {}
  },
  {
    "name": "Atsha Hair",
    "address": "1003 W Patrick St, Frederick, MD 21703",
    "phone": "(240) 444-5443",
    "rating": 4.0,
    "reviews": 25,
    "website": "https://atshahair.com/",
    "category": "Black-owned Keratin treatments in Maryland",
    "description": "This salon focuses on celebrating and elevating Black hair through expert styling and personalized care. While keratin treatments are not explicitly mentioned, they offer a range of hair services for diverse hair types and textures",
    "hours": "Mon-Fri 9AM-6PM",
    "services": [
      "Black-owned Keratin treatments in Maryland consultation",
      "Professional service",
      "Quality guarantee"
    ],
    "social_links": {}
  },
  {
    "name": "Breezy Beauty Bar",
    "address": "1003 W Patrick St, Frederick, MD 21703 (This appears to be the same address as Atsha Hair, suggesting they might be co-located or share a space.)",
    "phone": "(240) 444-5443",
    "rating": 4.0,
    "reviews": 25,
    "website": "https://www.breezybeautybar.com/",
    "category": "Black-owned Keratin treatments in Maryland",
    "description": "Breezy Beauty Bar offers a variety of beauty services, including hair treatments. It is listed as a Black-owned business",
    "hours": "Mon-Fri 9AM-6PM",
    "services": [
      "Black-owned Keratin treatments in Maryland consultation",
      "Professional service",
      "Quality guarantee"
    ],
    "social_links": {}
  }
]