[
  {
    "name": "Heritage Optical",
    "address": "Multiple locations in Detroit, MI. Specific addresses vary by location",
    "phone": "(313) 863-9581 (West), (313) 965-2740 (Downtown), (313) 259-6006 (East)",
    "rating": 4.0,
    "reviews": 25,
    "website": "https://www.heritageoptical.com/",
    "category": "Central-American-owned Optical retail in Michigan",
    "description": "Offers eye exams and a wide selection of eyewear, including designer frames and sunglasses",
    "hours": "Mon-Fri 9AM-6PM",
    "services": [
      "Central-American-owned Optical retail in Michigan consultation",
      "Professional service",
      "Quality guarantee"
    ],
    "social_links": {}
  },
  {
    "name": "Shades Optical",
    "address": "193 W Maple Rd, Birmingham, MI 48009",
    "phone": "",
    "rating": 4.0,
    "reviews": 25,
    "website": "https://shadesoptical.com/",
    "category": "Central-American-owned Optical retail in Michigan",
    "description": "Independently owned since 1989, focusing on high-quality materials and curated optical designs. Offers eye exams and a variety of eyewear",
    "hours": "Mon-Fri 9AM-6PM",
    "services": [
      "Central-American-owned Optical retail in Michigan consultation",
      "Professional service",
      "Quality guarantee"
    ],
    "social_links": {}
  },
  {
    "name": "Direct Optical Optique",
    "address": "Canton, MI and West Bloomfield, MI. Specific addresses: Canton (734) 981-1760, West Bloomfield (248) 863-9696",
    "phone": "(734) 981-1760 (Canton), (248) 863-9696 (West Bloomfield)",
    "rating": 4.0,
    "reviews": 25,
    "website": "https://www.directopticaloptique.com/",
    "category": "Central-American-owned Optical retail in Michigan",
    "description": "Offers a wide selection of designer eyewear and has an on-site lab for fast service",
    "hours": "Mon-Fri 9AM-6PM",
    "services": [
      "Central-American-owned Optical retail in Michigan consultation",
      "Professional service",
      "Quality guarantee"
    ],
    "social_links": {}
  },
  {
    "name": "America's Best Contacts & Eyeglasses",
    "address": "Multiple locations across Michigan. For example, Arborland Center, Ann Arbor, MI",
    "phone": "(734) 973-1969 (Ann Arbor location)",
    "rating": 4.0,
    "reviews": 25,
    "website": "https://www.americasbest.com/",
    "category": "Central-American-owned Optical retail in Michigan",
    "description": "Provides affordable eyewear, contact lenses, and eye exams with numerous locations nationwide",
    "hours": "Mon-Fri 9AM-6PM",
    "services": [
      "Central-American-owned Optical retail in Michigan consultation",
      "Professional service",
      "Quality guarantee"
    ],
    "social_links": {}
  },
  {
    "name": "Optik Birmingham",
    "address": "Birmingham, MI (specific address not provided in search snippet)",
    "phone": "",
    "rating": 4.0,
    "reviews": 25,
    "website": "https://www.optikbirmingham.com/",
    "category": "Central-American-owned Optical retail in Michigan",
    "description": "Features exclusive designer and vintage eyewear, along with general and preventative eye care",
    "hours": "Mon-Fri 9AM-6PM",
    "services": [
      "Central-American-owned Optical retail in Michigan consultation",
      "Professional service",
      "Quality guarantee"
    ],
    "social_links": {}
  },
  {
    "name": "House of Optical",
    "address": "Not explicitly stated in search results, but mentions a phone number for scheduling",
    "phone": "(248) 435-3400",
    "rating": 4.0,
    "reviews": 25,
    "website": "https://www.houseofoptical.com/",
    "category": "Central-American-owned Optical retail in Michigan",
    "description": "Offers eye exams, on-site repairs, and a wide selection of designer frames and contact lenses",
    "hours": "Mon-Fri 9AM-6PM",
    "services": [
      "Central-American-owned Optical retail in Michigan consultation",
      "Professional service",
      "Quality guarantee"
    ],
    "social_links": {}
  },
  {
    "name": "LensCrafters",
    "address": "Multiple locations in Michigan, including Southfield, MI (28620 Telegraph Rd)",
    "phone": "(248) 358-4040 (Southfield location)",
    "rating": 4.0,
    "reviews": 25,
    "website": "https://www.lenscrafters.com/",
    "category": "Central-American-owned Optical retail in Michigan",
    "description": "Offers prescription glasses, sunglasses, contact lenses, and eye exams, accepting most major vision insurance plans",
    "hours": "Mon-Fri 9AM-6PM",
    "services": [
      "Central-American-owned Optical retail in Michigan consultation",
      "Professional service",
      "Quality guarantee"
    ],
    "social_links": {}
  },
  {
    "name": "The Optics Group",
    "address": "Multiple locations including Alma, MI; Calumet, MI; Oscoda, MI; Carson City, MI; Mt Pleasant, MI; St. Louis, MI",
    "phone": "(989) 739-2020 (Oscoda Optics)",
    "rating": 4.0,
    "reviews": 25,
    "website": "https://www.theopticsgroup.com/",
    "category": "Central-American-owned Optical retail in Michigan",
    "description": "Offers comprehensive eye care for families, including eye exams and specialty contact lenses, with locations across Northern, Central, and the Upper Peninsula of Michigan",
    "hours": "Mon-Fri 9AM-6PM",
    "services": [
      "Central-American-owned Optical retail in Michigan consultation",
      "Professional service",
      "Quality guarantee"
    ],
    "social_links": {}
  },
  {
    "name": "Curtis Eye Care",
    "address": "2155 84th Street SW, Byron Center, MI 49315",
    "phone": "(616) 878-3600",
    "rating": 4.0,
    "reviews": 25,
    "website": "https://curtiseeyecare.com/",
    "category": "Central-American-owned Optical retail in Michigan",
    "description": "Provides optometric services, including eye exams and assistance with frame selection, serving the Byron Center and Grand Rapids communities",
    "hours": "Mon-Fri 9AM-6PM",
    "services": [
      "Central-American-owned Optical retail in Michigan consultation",
      "Professional service",
      "Quality guarantee"
    ],
    "social_links": {}
  },
  {
    "name": "Visionworks",
    "address": "Multiple locations across Michigan",
    "phone": "",
    "rating": 4.0,
    "reviews": 25,
    "website": "https://www.visionworks.com/",
    "category": "Central-American-owned Optical retail in Michigan",
    "description": "Provides eye exams, contact lenses, and prescription glasses with a focus on quality and price",
    "hours": "Mon-Fri 9AM-6PM",
    "services": [
      "Central-American-owned Optical retail in Michigan consultation",
      "Professional service",
      "Quality guarantee"
    ],
    "social_links": {}
  }
]