[
  {
    "name": "Catholic Charities of the Diocese of Arlington",
    "address": "Multiple locations including Alexandria, Sterling, and Front Royal. Their main distribution warehouse is at 8426-28 Kao Circle, Manassas, VA 20110",
    "phone": "703-637-2547 (for food donations)",
    "rating": 4.0,
    "reviews": 25,
    "website": "https://www.google.com/maps/search/Catholic+Charities+of+the+Diocese+of+Arlington+in+Virginia",
    "category": "Catholic-owned Drop-off catering in Virginia",
    "description": "Provides food assistance through pantries and a distribution hub. They serve individuals and families in need",
    "hours": "Mon-Fri 9AM-6PM",
    "services": [
      "Catholic-owned Drop-off catering in Virginia consultation",
      "Professional service",
      "Quality guarantee"
    ],
    "social_links": {}
  },
  {
    "name": "Catholic Charities of Eastern Virginia",
    "address": "1132 Pickett Rd, Norfolk, VA 23502",
    "phone": "757-456-2366",
    "rating": 4.0,
    "reviews": 25,
    "website": "https://www.google.com/maps/search/Catholic+Charities+of+Eastern+Virginia+in+Virginia",
    "category": "Catholic-owned Drop-off catering in Virginia",
    "description": "Offers various social services, including food pantries and support for families",
    "hours": "Mon-Fri 9AM-6PM",
    "services": [
      "Catholic-owned Drop-off catering in Virginia consultation",
      "Professional service",
      "Quality guarantee"
    ],
    "social_links": {}
  },
  {
    "name": "Commonwealth Catholic Charities",
    "address": "1601 Rolling Hills Dr, Richmond, VA 23229",
    "phone": "804-285-5900",
    "rating": 4.0,
    "reviews": 25,
    "website": "https://www.google.com/maps/search/Commonwealth+Catholic+Charities+in+Virginia",
    "category": "Catholic-owned Drop-off catering in Virginia",
    "description": "Operates food pantries in Richmond and Roanoke, providing food assistance to those in need",
    "hours": "Mon-Fri 9AM-6PM",
    "services": [
      "Catholic-owned Drop-off catering in Virginia consultation",
      "Professional service",
      "Quality guarantee"
    ],
    "social_links": {}
  },
  {
    "name": "Holy Spirit Catholic Church (Virginia Beach)",
    "address": "1396 Lynnhaven Parkway, Virginia Beach, VA 23453",
    "phone": "757-468-3600",
    "rating": 4.0,
    "reviews": 25,
    "website": "https://www.google.com/maps/search/Holy+Spirit+Catholic+Church+(Virginia+Beach)+in+Virginia",
    "category": "Catholic-owned Drop-off catering in Virginia",
    "description": "Engages in community outreach and has a food pantry",
    "hours": "Mon-Fri 9AM-6PM",
    "services": [
      "Catholic-owned Drop-off catering in Virginia consultation",
      "Professional service",
      "Quality guarantee"
    ],
    "social_links": {}
  },
  {
    "name": "Holy Spirit Catholic Church (Annandale)",
    "address": "8800 Braddock Road, Annandale, VA 22003",
    "phone": "703-978-8074",
    "rating": 4.0,
    "reviews": 25,
    "website": "https://www.google.com/maps/search/Holy+Spirit+Catholic+Church+(Annandale)+in+Virginia",
    "category": "Catholic-owned Drop-off catering in Virginia",
    "description": "Involved in food ministries and supports the St. Lucy Project and Poor Sisters of St. Joseph",
    "hours": "Mon-Fri 9AM-6PM",
    "services": [
      "Catholic-owned Drop-off catering in Virginia consultation",
      "Professional service",
      "Quality guarantee"
    ],
    "social_links": {}
  },
  {
    "name": "St. John the Apostle Roman Catholic Church (Leesburg)",
    "address": "101 Oaklawn Dr NW, Leesburg, VA 20176 (for food drop-off at Salvation Army: 10 Cardinal Park Drive SE, Leesburg, VA 20175)",
    "phone": "",
    "rating": 4.0,
    "reviews": 25,
    "website": "https://www.google.com/maps/search/St.+John+the+Apostle+Roman+Catholic+Church+(Leesburg)+in+Virginia",
    "category": "Catholic-owned Drop-off catering in Virginia",
    "description": "Organizes food collections and prepares meals for those in need through programs like \"2nd Saturday of Month Program.\"",
    "hours": "Mon-Fri 9AM-6PM",
    "services": [
      "Catholic-owned Drop-off catering in Virginia consultation",
      "Professional service",
      "Quality guarantee"
    ],
    "social_links": {}
  },
  {
    "name": "St. Mary's Catholic Church (Richmond)",
    "address": "9505 Gayton Rd, Richmond, VA 23229",
    "phone": "804-740-1007",
    "rating": 4.0,
    "reviews": 25,
    "website": "https://www.google.com/maps/search/St.+Mary's+Catholic+Church+(Richmond)+in+Virginia",
    "category": "Catholic-owned Drop-off catering in Virginia",
    "description": "Has a food pantry and participates in community outreach",
    "hours": "Mon-Fri 9AM-6PM",
    "services": [
      "Catholic-owned Drop-off catering in Virginia consultation",
      "Professional service",
      "Quality guarantee"
    ],
    "social_links": {}
  },
  {
    "name": "St. Mary's Catholic Church (Blacksburg)",
    "address": "1300 N Main St, Blacksburg, VA 24060",
    "phone": "540-552-1091",
    "rating": 4.0,
    "reviews": 25,
    "website": "https://www.google.com/maps/search/St.+Mary's+Catholic+Church+(Blacksburg)+in+Virginia",
    "category": "Catholic-owned Drop-off catering in Virginia",
    "description": "Offers various ministries, including those that may involve food distribution or support",
    "hours": "Mon-Fri 9AM-6PM",
    "services": [
      "Catholic-owned Drop-off catering in Virginia consultation",
      "Professional service",
      "Quality guarantee"
    ],
    "social_links": {}
  },
  {
    "name": "St. Andrew the Apostle Catholic Church (Clifton)",
    "address": "6720 Union Mill Rd, Clifton, VA 20124",
    "phone": "703-817-1774",
    "rating": 4.0,
    "reviews": 25,
    "website": "https://www.google.com/maps/search/St.+Andrew+the+Apostle+Catholic+Church+(Clifton)+in+Virginia",
    "category": "Catholic-owned Drop-off catering in Virginia",
    "description": "Engages in charitable works, including food donations to organizations like Western Fairfax Christian Ministries and Catholic Charities' St. Lucy Food Project",
    "hours": "Mon-Fri 9AM-6PM",
    "services": [
      "Catholic-owned Drop-off catering in Virginia consultation",
      "Professional service",
      "Quality guarantee"
    ],
    "social_links": {}
  },
  {
    "name": "Our Lady of Lourdes Catholic Church (Arlington)",
    "address": "830 23rd St S, Arlington, VA 22202",
    "phone": "703-684-9261",
    "rating": 4.0,
    "reviews": 25,
    "website": "https://www.google.com/maps/search/Our+Lady+of+Lourdes+Catholic+Church+(Arlington)+in+Virginia",
    "category": "Catholic-owned Drop-off catering in Virginia",
    "description": "Organizes food drives and has ministries that support the needy",
    "hours": "Mon-Fri 9AM-6PM",
    "services": [
      "Catholic-owned Drop-off catering in Virginia consultation",
      "Professional service",
      "Quality guarantee"
    ],
    "social_links": {}
  }
]