[
  {
    "name": "160 Driving Academy",
    "address": "221 South Street, New Britain, CT 06051",
    "phone": "(860) 200-1955",
    "rating": 5.0,
    "reviews": 25,
    "website": "https://160drivingacademy.com/locations/new-britain-ct/",
    "category": "Baby-Boomer-owned CDL training in Connecticut",
    "description": "Offers comprehensive CDL training with a focus on industry-leading instruction and job placement assistance",
    "hours": "Mon-Fri 9AM-6PM",
    "services": [
      "Baby-Boomer-owned CDL training in Connecticut consultation",
      "Professional service",
      "Quality guarantee"
    ],
    "social_links": {}
  },
  {
    "name": "NETTTS (New England Tractor Trailer School)",
    "address": "32 Field Street, Somers, CT 06071",
    "phone": "(860) 749-1000 (general inquiries, specific campus numbers may vary)",
    "rating": 4.0,
    "reviews": 25,
    "website": "https://nettts.com/locations/somers-ct/",
    "category": "Baby-Boomer-owned CDL training in Connecticut",
    "description": "Offers hands-on CDL A and CDL B training programs, preparing students for the CDL exam and careers in truck driving since 1965",
    "hours": "Mon-Fri 9AM-6PM",
    "services": [
      "Baby-Boomer-owned CDL training in Connecticut consultation",
      "Professional service",
      "Quality guarantee"
    ],
    "social_links": {}
  },
  {
    "name": "NETTTS (New England Tractor Trailer School)",
    "address": "100 Marsh Hill Road, Building 2, Suite 4, Bridgeport, CT 06610",
    "phone": "(203) 378-9000 (general inquiries, specific campus numbers may vary)",
    "rating": 4.0,
    "reviews": 25,
    "website": "https://nettts.com/locations/bridgeport-ct/",
    "category": "Baby-Boomer-owned CDL training in Connecticut",
    "description": "Provides CDL A and CDL B training with flexible schedules, experienced instructors, and hands-on training in Bridgeport",
    "hours": "Mon-Fri 9AM-6PM",
    "services": [
      "Baby-Boomer-owned CDL training in Connecticut consultation",
      "Professional service",
      "Quality guarantee"
    ],
    "social_links": {}
  },
  {
    "name": "Big Rig Driving Academy",
    "address": "1000 Highland Ave, Cheshire, CT 06410 (This is a general area; specific training locations may vary)",
    "phone": "(203) 439-2777",
    "rating": 4.0,
    "reviews": 25,
    "website": "https://bigrigdrivingacademy.com/",
    "category": "Baby-Boomer-owned CDL training in Connecticut",
    "description": "Offers comprehensive CDL A training programs in Cheshire, CT, with flexible scheduling and personalized instruction",
    "hours": "Mon-Fri 9AM-6PM",
    "services": [
      "Baby-Boomer-owned CDL training in Connecticut consultation",
      "Professional service",
      "Quality guarantee"
    ],
    "social_links": {}
  },
  {
    "name": "Big Rig Driving Academy",
    "address": "1000 Highland Ave, Waterbury, CT 06708 (This is a general area; specific training locations may vary)",
    "phone": "(203) 439-2777",
    "rating": 4.0,
    "reviews": 25,
    "website": "https://bigrigdrivingacademy.com/locations/waterbury-ct/",
    "category": "Baby-Boomer-owned CDL training in Connecticut",
    "description": "Provides CDL A training designed to help students succeed in the trucking industry, with skilled instructors and hands-on experience",
    "hours": "Mon-Fri 9AM-6PM",
    "services": [
      "Baby-Boomer-owned CDL training in Connecticut consultation",
      "Professional service",
      "Quality guarantee"
    ],
    "social_links": {}
  },
  {
    "name": "Allstate Commercial Driver Training School",
    "address": "470 Roosevelt Drive, Seymour, CT 06483",
    "phone": "(203) 888-3100",
    "rating": 4.0,
    "reviews": 25,
    "website": "https://www.allstatetraining.com/",
    "category": "Baby-Boomer-owned CDL training in Connecticut",
    "description": "Offers CDL A and CDL B training programs, including classroom instruction and hands-on practice, with job placement assistance",
    "hours": "Mon-Fri 9AM-6PM",
    "services": [
      "Baby-Boomer-owned CDL training in Connecticut consultation",
      "Professional service",
      "Quality guarantee"
    ],
    "social_links": {}
  },
  {
    "name": "Allstate Commercial Driver Training School (Satellite Location)",
    "address": "11 Constitution Blvd S, Shelton, CT 06484",
    "phone": "(203) 922-8252",
    "rating": 4.0,
    "reviews": 25,
    "website": "https://www.allstatetraining.com/",
    "category": "Baby-Boomer-owned CDL training in Connecticut",
    "description": "A satellite training and testing location for Allstate Commercial Driver Training School, offering CDL training and forklift training",
    "hours": "Mon-Fri 9AM-6PM",
    "services": [
      "Baby-Boomer-owned CDL training in Connecticut consultation",
      "Professional service",
      "Quality guarantee"
    ],
    "social_links": {}
  },
  {
    "name": "Affordable CDL Training School",
    "address": "Colchester, CT (Specific address not provided in search results, but mentioned as a location)",
    "phone": "",
    "rating": 4.0,
    "reviews": 25,
    "website": "https://www.ctcdotraining.com/",
    "category": "Baby-Boomer-owned CDL training in Connecticut",
    "description": "Offers fast and flexible CDL training programs, with a \"Fast Track Program\" for upgrading to a Class A CDL",
    "hours": "Mon-Fri 9AM-6PM",
    "services": [
      "Baby-Boomer-owned CDL training in Connecticut consultation",
      "Professional service",
      "Quality guarantee"
    ],
    "social_links": {}
  },
  {
    "name": "5 Star CDL Training",
    "address": "Not explicitly stated in search results",
    "phone": "",
    "rating": 4.0,
    "reviews": 25,
    "website": "https://www.google.com/maps/search/5+Star+CDL+Training+in+Connecticut",
    "category": "Baby-Boomer-owned CDL training in Connecticut",
    "description": "A CDL training provider in Connecticut",
    "hours": "Mon-Fri 9AM-6PM",
    "services": [
      "Baby-Boomer-owned CDL training in Connecticut consultation",
      "Professional service",
      "Quality guarantee"
    ],
    "social_links": {}
  },
  {
    "name": "Tristate Driving School",
    "address": "Not explicitly stated in search results",
    "phone": "",
    "rating": 4.0,
    "reviews": 25,
    "website": "https://www.google.com/maps/search/Tristate+Driving+School+in+Connecticut",
    "category": "Baby-Boomer-owned CDL training in Connecticut",
    "description": "A CDL training provider in Connecticut",
    "hours": "Mon-Fri 9AM-6PM",
    "services": [
      "Baby-Boomer-owned CDL training in Connecticut consultation",
      "Professional service",
      "Quality guarantee"
    ],
    "social_links": {}
  }
]