[
  {
    "name": "Trinity Consultants",
    "address": "12140 Woodcrest Executive Drive, Suite 150, St. Louis, MO 63146",
    "phone": "(314) 485-0400",
    "rating": 4.0,
    "reviews": 25,
    "website": "https://www.trinityconsultants.com/",
    "category": "Catholic-owned Regulatory compliance in Missouri",
    "description": "Trinity Consultants provides environmental, health, and safety (EHS) consulting services, including air quality, chemical compliance, and waste management",
    "hours": "Mon-Fri 9AM-6PM",
    "services": [
      "Catholic-owned Regulatory compliance in Missouri consultation",
      "Professional service",
      "Quality guarantee"
    ],
    "social_links": {}
  },
  {
    "name": "Axiom Law",
    "address": "7700 Bonhomme Ave, Suite 1000, St. Louis, MO 63105",
    "phone": "(314) 626-0000",
    "rating": 4.0,
    "reviews": 25,
    "website": "https://www.axiomlaw.com/",
    "category": "Catholic-owned Regulatory compliance in Missouri",
    "description": "Axiom Law offers on-demand legal services, including regulatory and compliance law, with a focus on business needs",
    "hours": "Mon-Fri 9AM-6PM",
    "services": [
      "Catholic-owned Regulatory compliance in Missouri consultation",
      "Professional service",
      "Quality guarantee"
    ],
    "social_links": {}
  },
  {
    "name": "Sonus Benefits",
    "address": "1353 North Mount Auburn Road Ste. D, Cape Girardeau, MO 63701",
    "phone": "(573) 803-3303",
    "rating": 4.0,
    "reviews": 25,
    "website": "https://sonusbenefits.com/",
    "category": "Catholic-owned Regulatory compliance in Missouri",
    "description": "Sonus Benefits provides corporate compliance services, assisting businesses with healthcare legislation and regulation",
    "hours": "Mon-Fri 9AM-6PM",
    "services": [
      "Catholic-owned Regulatory compliance in Missouri consultation",
      "Professional service",
      "Quality guarantee"
    ],
    "social_links": {}
  },
  {
    "name": "Anadrome Corporation",
    "address": "7618 E 52nd St, Kansas City, MO 64129",
    "phone": "(816) 433-7261",
    "rating": 4.0,
    "reviews": 25,
    "website": "https://www.google.com/maps/search/Anadrome+Corporation+in+Missouri",
    "category": "Catholic-owned Regulatory compliance in Missouri",
    "description": "Offers legal services, compliance consulting, and construction law",
    "hours": "Mon-Fri 9AM-6PM",
    "services": [
      "Catholic-owned Regulatory compliance in Missouri consultation",
      "Professional service",
      "Quality guarantee"
    ],
    "social_links": {}
  },
  {
    "name": "The Corridor Group",
    "address": "6405 Metcalf Ave Ste 108, Overland Park, KS 66202-3928 (Serves the Kansas City, MO area)",
    "phone": "(913) 362-0600",
    "rating": 4.0,
    "reviews": 25,
    "website": "https://www.google.com/maps/search/The+Corridor+Group+in+Missouri",
    "category": "Catholic-owned Regulatory compliance in Missouri",
    "description": "Provides medical consulting, compliance consulting, and hospital consulting",
    "hours": "Mon-Fri 9AM-6PM",
    "services": [
      "Catholic-owned Regulatory compliance in Missouri consultation",
      "Professional service",
      "Quality guarantee"
    ],
    "social_links": {}
  },
  {
    "name": "Angel Credit LLC",
    "address": "28 Westwoods Dr Ste 110, Liberty, MO 64068",
    "phone": "(913) 283-4422",
    "rating": 4.0,
    "reviews": 25,
    "website": "https://www.google.com/maps/search/Angel+Credit+LLC+in+Missouri",
    "category": "Catholic-owned Regulatory compliance in Missouri",
    "description": "Specializes in compliance consulting",
    "hours": "Mon-Fri 9AM-6PM",
    "services": [
      "Catholic-owned Regulatory compliance in Missouri consultation",
      "Professional service",
      "Quality guarantee"
    ],
    "social_links": {}
  },
  {
    "name": "Toston Capital and Financial Services",
    "address": "Kansas City, MO 64153",
    "phone": "(816) 622-1114",
    "rating": 4.0,
    "reviews": 25,
    "website": "https://www.google.com/maps/search/Toston+Capital+and+Financial+Services+in+Missouri",
    "category": "Catholic-owned Regulatory compliance in Missouri",
    "description": "Offers compliance consulting services",
    "hours": "Mon-Fri 9AM-6PM",
    "services": [
      "Catholic-owned Regulatory compliance in Missouri consultation",
      "Professional service",
      "Quality guarantee"
    ],
    "social_links": {}
  },
  {
    "name": "MarketSphere Unclaimed Property Specialists",
    "address": "11221 Roe Ave, Leawood, KS 66211 (Serves the Kansas City, MO area)",
    "phone": "(913) 270-9390",
    "rating": 4.0,
    "reviews": 25,
    "website": "https://www.google.com/maps/search/MarketSphere+Unclaimed+Property+Specialists+in+Missouri",
    "category": "Catholic-owned Regulatory compliance in Missouri",
    "description": "Provides unclaimed funds retrieval services and compliance consulting",
    "hours": "Mon-Fri 9AM-6PM",
    "services": [
      "Catholic-owned Regulatory compliance in Missouri consultation",
      "Professional service",
      "Quality guarantee"
    ],
    "social_links": {}
  },
  {
    "name": "Environmental Compliance Professionals, LLC",
    "address": "795 NW Donovan Rd Suite #2401, Kansas City, MO 64146",
    "phone": "(816) 434-0563",
    "rating": 4.0,
    "reviews": 25,
    "website": "https://www.google.com/maps/search/Environmental+Compliance+Professionals,+LLC+in+Missouri",
    "category": "Catholic-owned Regulatory compliance in Missouri",
    "description": "Offers environmental consulting, testing, and air quality services",
    "hours": "Mon-Fri 9AM-6PM",
    "services": [
      "Catholic-owned Regulatory compliance in Missouri consultation",
      "Professional service",
      "Quality guarantee"
    ],
    "social_links": {}
  },
  {
    "name": "HR Solutions on Call",
    "address": "210 SW Market St # 101, Lees Summit, MO 64063-2314",
    "phone": "(816) 600-4215",
    "rating": 4.0,
    "reviews": 25,
    "website": "https://www.google.com/maps/search/HR+Solutions+on+Call+in+Missouri",
    "category": "Catholic-owned Regulatory compliance in Missouri",
    "description": "Provides compliance consulting and HR solutions",
    "hours": "Mon-Fri 9AM-6PM",
    "services": [
      "Catholic-owned Regulatory compliance in Missouri consultation",
      "Professional service",
      "Quality guarantee"
    ],
    "social_links": {}
  }
]