[
  {
    "name": "Newman Roofing",
    "address": "1010 Chesapeake Ave, Columbus, OH 43212",
    "phone": "(614) 833-1900",
    "rating": 4.9,
    "reviews": 25,
    "website": "https://www.newmanroofingcolumbus.com/",
    "category": "Gen-X-owned Roofing replacement in Ohio",
    "description": "A family-owned business established in 1992, focusing on quality, integrity, and honest service",
    "hours": "Mon-Fri 9AM-6PM",
    "services": [
      "Gen-X-owned Roofing replacement in Ohio consultation",
      "Professional service",
      "Quality guarantee"
    ],
    "social_links": {}
  },
  {
    "name": "Schottenstein Roofing",
    "address": "4570 Kenny Rd, Columbus, OH 43220",
    "phone": "(614) 850-0000",
    "rating": 4.8,
    "reviews": 25,
    "website": "https://www.schottensteinroofing.com/",
    "category": "Gen-X-owned Roofing replacement in Ohio",
    "description": "Known for professionalism, exceptional customer service, and high-quality workmanship",
    "hours": "Mon-Fri 9AM-6PM",
    "services": [
      "Gen-X-owned Roofing replacement in Ohio consultation",
      "Professional service",
      "Quality guarantee"
    ],
    "social_links": {}
  },
  {
    "name": "Columbus Roofing Company",
    "address": "3600 Corporate Dr, Columbus, OH 43231",
    "phone": "(614) 655-1700",
    "rating": 4.7,
    "reviews": 25,
    "website": "https://columbusroofing.com/",
    "category": "Gen-X-owned Roofing replacement in Ohio",
    "description": "Praised for professionalism, expertise, and exceptional customer service, with employees consistently praised for thorough inspections and clear communication",
    "hours": "Mon-Fri 9AM-6PM",
    "services": [
      "Gen-X-owned Roofing replacement in Ohio consultation",
      "Professional service",
      "Quality guarantee"
    ],
    "social_links": {}
  },
  {
    "name": "Bone Dry Roofing",
    "address": "5700 West Broad Street, Columbus, OH 43228",
    "phone": "(614) 401-7777",
    "rating": 4.8,
    "reviews": 25,
    "website": "https://www.bonedry.com/",
    "category": "Gen-X-owned Roofing replacement in Ohio",
    "description": "A family-owned and locally operated company providing reliable roofing, gutter, and insulation services",
    "hours": "Mon-Fri 9AM-6PM",
    "services": [
      "Gen-X-owned Roofing replacement in Ohio consultation",
      "Professional service",
      "Quality guarantee"
    ],
    "social_links": {}
  },
  {
    "name": "Roof Revivers",
    "address": "4700 Reed Rd, Columbus, OH 43220",
    "phone": "(614) 750-0000",
    "rating": 4.9,
    "reviews": 25,
    "website": "https://www.roofrevivers.com/",
    "category": "Gen-X-owned Roofing replacement in Ohio",
    "description": "Known for honest inspections, tailored solutions, and exceptional craftsmanship from dedicated in-house installation crews",
    "hours": "Mon-Fri 9AM-6PM",
    "services": [
      "Gen-X-owned Roofing replacement in Ohio consultation",
      "Professional service",
      "Quality guarantee"
    ],
    "social_links": {}
  },
  {
    "name": "J.F. Baker's Sons Roofing Company",
    "address": "4700 Reed Rd, Columbus, OH 43220",
    "phone": "(614) 297-ROOF (7663)",
    "rating": 4.8,
    "reviews": 25,
    "website": "https://jfbakerroofing.com/",
    "category": "Gen-X-owned Roofing replacement in Ohio",
    "description": "A premier, family-owned roofing contractor serving the Columbus, OH area for three generations since 1929",
    "hours": "Mon-Fri 9AM-6PM",
    "services": [
      "Gen-X-owned Roofing replacement in Ohio consultation",
      "Professional service",
      "Quality guarantee"
    ],
    "social_links": {}
  },
  {
    "name": "Muth & Company Roofing",
    "address": "7400 Scherersville Rd, Columbus, OH 43235",
    "phone": "(614) 882-0900",
    "rating": 4.8,
    "reviews": 25,
    "website": "https://muthcompany.com/",
    "category": "Gen-X-owned Roofing replacement in Ohio",
    "description": "A local Columbus Roofing Contractor that has installed high-quality roofing systems and performed gutter repair since 1992",
    "hours": "Mon-Fri 9AM-6PM",
    "services": [
      "Gen-X-owned Roofing replacement in Ohio consultation",
      "Professional service",
      "Quality guarantee"
    ],
    "social_links": {}
  },
  {
    "name": "Feazel",
    "address": "5700 West Broad Street, Columbus, OH 43228",
    "phone": "(614) 750-0000",
    "rating": 4.8,
    "reviews": 25,
    "website": "https://www.feazelinc.com/",
    "category": "Gen-X-owned Roofing replacement in Ohio",
    "description": "An award-winning Columbus roofing contractor that has been a trusted remodeling and roofing installation company since 1988",
    "hours": "Mon-Fri 9AM-6PM",
    "services": [
      "Gen-X-owned Roofing replacement in Ohio consultation",
      "Professional service",
      "Quality guarantee"
    ],
    "social_links": {}
  },
  {
    "name": "Allied Roofing Inc.",
    "address": "1010 Chesapeake Ave, Columbus, OH 43212",
    "phone": "(614) 444-2909",
    "rating": 4.8,
    "reviews": 25,
    "website": "https://www.alliedroofinginc.com/",
    "category": "Gen-X-owned Roofing replacement in Ohio",
    "description": "Serving the Columbus, Ohio area since 1985, offering services from small residential repairs to large commercial installations",
    "hours": "Mon-Fri 9AM-6PM",
    "services": [
      "Gen-X-owned Roofing replacement in Ohio consultation",
      "Professional service",
      "Quality guarantee"
    ],
    "social_links": {}
  },
  {
    "name": "Frogtown Roofing Plus",
    "address": "7400 Scherersville Rd, Columbus, OH 43235",
    "phone": "(419) 720-2277",
    "rating": 4.7,
    "reviews": 25,
    "website": "https://frogtownroofing.com/",
    "category": "Gen-X-owned Roofing replacement in Ohio",
    "description": "A Certified Select CertainTeed contractor ensuring top-quality materials and craftsmanship for roofing needs in Toledo, Ohio",
    "hours": "Mon-Fri 9AM-6PM",
    "services": [
      "Gen-X-owned Roofing replacement in Ohio consultation",
      "Professional service",
      "Quality guarantee"
    ],
    "social_links": {}
  }
]