[
  {
    "name": "Mr. Hui's",
    "address": "11525 Cantrell Rd, Little Rock, AR 72212",
    "phone": "(501) 224-9555",
    "rating": 4.0,
    "reviews": 25,
    "website": "https://www.google.com/maps/search/Mr.+Hui's+in+Arkansas",
    "category": "Asian-owned Family-style restaurants in Arkansas",
    "description": "Known for classic family-style comfort food with dishes like Singapore noodles and traditional green beans",
    "hours": "Mon-Fri 9AM-6PM",
    "services": [
      "Asian-owned Family-style restaurants in Arkansas consultation",
      "Professional service",
      "Quality guarantee"
    ],
    "social_links": {}
  },
  {
    "name": "Red Bowl",
    "address": "(Address not specified in search results, but mentioned as a location in Little Rock)",
    "phone": "(501) 661-8688",
    "rating": 4.0,
    "reviews": 25,
    "website": "https://www.google.com/maps/search/Red+Bowl+in+Arkansas",
    "category": "Asian-owned Family-style restaurants in Arkansas",
    "description": "Offers dim sum, which is ideal for sharing, and Tonkotsu ramen",
    "hours": "Mon-Fri 9AM-6PM",
    "services": [
      "Asian-owned Family-style restaurants in Arkansas consultation",
      "Professional service",
      "Quality guarantee"
    ],
    "social_links": {}
  },
  {
    "name": "Asian Bistro",
    "address": "(Address not specified in search results, but mentioned in Fort Smith)",
    "phone": "(479) 452-7888",
    "rating": 4.0,
    "reviews": 25,
    "website": "https://www.google.com/maps/search/Asian+Bistro+in+Arkansas",
    "category": "Asian-owned Family-style restaurants in Arkansas",
    "description": "Offers a warm and friendly atmosphere with menu items like egg rolls, lo mein, and Szechuan chicken",
    "hours": "Mon-Fri 9AM-6PM",
    "services": [
      "Asian-owned Family-style restaurants in Arkansas consultation",
      "Professional service",
      "Quality guarantee"
    ],
    "social_links": {}
  },
  {
    "name": "Taipei Chinese Restaurant",
    "address": "(Address not specified in search results, but mentioned in Fort Smith)",
    "phone": "(479) 783-1388",
    "rating": 4.0,
    "reviews": 25,
    "website": "https://www.google.com/maps/search/Taipei+Chinese+Restaurant+in+Arkansas",
    "category": "Asian-owned Family-style restaurants in Arkansas",
    "description": "A quaint and friendly restaurant serving Chinese and Vietnamese dishes since 1987",
    "hours": "Mon-Fri 9AM-6PM",
    "services": [
      "Asian-owned Family-style restaurants in Arkansas consultation",
      "Professional service",
      "Quality guarantee"
    ],
    "social_links": {}
  },
  {
    "name": "Asian Kitchen Express",
    "address": "(Address not specified in search results, but mentioned in Fort Smith)",
    "phone": "(479) 783-0888",
    "rating": 4.0,
    "reviews": 25,
    "website": "https://www.google.com/maps/search/Asian+Kitchen+Express+in+Arkansas",
    "category": "Asian-owned Family-style restaurants in Arkansas",
    "description": "Offers Laotian, Thai, and Chinese cuisine with flavorful dishes",
    "hours": "Mon-Fri 9AM-6PM",
    "services": [
      "Asian-owned Family-style restaurants in Arkansas consultation",
      "Professional service",
      "Quality guarantee"
    ],
    "social_links": {}
  },
  {
    "name": "Pho Thanh My",
    "address": "10401 N Rodney Parham Rd, Little Rock, AR 72212",
    "phone": "(501) 224-7070",
    "rating": 4.0,
    "reviews": 25,
    "website": "https://www.google.com/maps/search/Pho+Thanh+My+in+Arkansas",
    "category": "Asian-owned Family-style restaurants in Arkansas",
    "description": "Known for authentic Vietnamese cuisine, including pho, banh mi, and spring rolls, with a focus on fresh ingredients and flavorful broths",
    "hours": "Mon-Fri 9AM-6PM",
    "services": [
      "Asian-owned Family-style restaurants in Arkansas consultation",
      "Professional service",
      "Quality guarantee"
    ],
    "social_links": {}
  },
  {
    "name": "Linh's Vietnamese Cuisine",
    "address": "1010 E Main St, Russellville, AR 72801",
    "phone": "(479) 967-1111",
    "rating": 4.0,
    "reviews": 25,
    "website": "https://www.google.com/maps/search/Linh's+Vietnamese+Cuisine+in+Arkansas",
    "category": "Asian-owned Family-style restaurants in Arkansas",
    "description": "A family-owned restaurant serving authentic Vietnamese recipes, including traditional pho and handmade eggrolls",
    "hours": "Mon-Fri 9AM-6PM",
    "services": [
      "Asian-owned Family-style restaurants in Arkansas consultation",
      "Professional service",
      "Quality guarantee"
    ],
    "social_links": {}
  },
  {
    "name": "Pho 85 Noodle House, LLC",
    "address": "1140 N Walton Blvd Ste 3, Bentonville, AR 72712",
    "phone": "(479) 553-7373",
    "rating": 4.0,
    "reviews": 25,
    "website": "https://www.google.com/maps/search/Pho+85+Noodle+House,+LLC+in+Arkansas",
    "category": "Asian-owned Family-style restaurants in Arkansas",
    "description": "A family-owned restaurant offering authentic Vietnamese cuisine, including pho noodle soup, banh mi sandwiches, and spring rolls",
    "hours": "Mon-Fri 9AM-6PM",
    "services": [
      "Asian-owned Family-style restaurants in Arkansas consultation",
      "Professional service",
      "Quality guarantee"
    ],
    "social_links": {}
  },
  {
    "name": "Thai E-San Restaurant",
    "address": "2334 N College Ave, Fayetteville, AR 72703",
    "phone": "(479) 587-8177",
    "rating": 4.0,
    "reviews": 25,
    "website": "https://www.google.com/maps/search/Thai+E-San+Restaurant+in+Arkansas",
    "category": "Asian-owned Family-style restaurants in Arkansas",
    "description": "Family-owned and operated, offering friendly service and popular dishes like Red Curry, Pad See Ew, and Tom Kha",
    "hours": "Mon-Fri 9AM-6PM",
    "services": [
      "Asian-owned Family-style restaurants in Arkansas consultation",
      "Professional service",
      "Quality guarantee"
    ],
    "social_links": {}
  },
  {
    "name": "Mama Tang Restaurant",
    "address": "(Address not specified in search results, but mentioned in Springdale)",
    "phone": "(479) 750-7499",
    "rating": 4.0,
    "reviews": 25,
    "website": "https://www.facebook.com/profile.php?id=100071222857550",
    "category": "Asian-owned Family-style restaurants in Arkansas",
    "description": "Known for authentic and delicious Chinese cuisine, with a menu featuring dishes like chow mein and fried rice",
    "hours": "Mon-Fri 9AM-6PM",
    "services": [
      "Asian-owned Family-style restaurants in Arkansas consultation",
      "Professional service",
      "Quality guarantee"
    ],
    "social_links": {}
  }
]