[
  {
    "name": "VNA of Care New England",
    "address": "51 Health Lane, Warwick, RI 02886",
    "phone": "(401) 737-6050",
    "rating": 4.0,
    "reviews": 25,
    "website": "https://www.carenewengland.org/vna-of-care-new-england/",
    "category": "Korean-American-owned Home health aides in Rhode-Island",
    "description": "Provides skilled nursing care and allied health services to adult patients in their homes",
    "hours": "Mon-Fri 9AM-6PM",
    "services": [
      "Korean-American-owned Home health aides in Rhode-Island consultation",
      "Professional service",
      "Quality guarantee"
    ],
    "social_links": {}
  },
  {
    "name": "Visiting Angels Rhode Island",
    "address": "(Specific address not readily available, serves all of Rhode Island)",
    "phone": "(401) 270-4664",
    "rating": 4.0,
    "reviews": 25,
    "website": "https://www.visitingangels.com/rhode-island/",
    "category": "Korean-American-owned Home health aides in Rhode-Island",
    "description": "Offers non-medical in-home care services, including companionship, personal care, and assistance with daily living activities",
    "hours": "Mon-Fri 9AM-6PM",
    "services": [
      "Korean-American-owned Home health aides in Rhode-Island consultation",
      "Professional service",
      "Quality guarantee"
    ],
    "social_links": {}
  },
  {
    "name": "South County Home Health",
    "address": "(Serves South County, Kent County, Newport County, and beyond)",
    "phone": "(401) 782-0500",
    "rating": 3.5,
    "reviews": 25,
    "website": "https://www.southcountyhealth.org/south-county-home-health",
    "category": "Korean-American-owned Home health aides in Rhode-Island",
    "description": "A non-profit provider of skilled home care, including nursing, rehabilitation, and wound care",
    "hours": "Mon-Fri 9AM-6PM",
    "services": [
      "Korean-American-owned Home health aides in Rhode-Island consultation",
      "Professional service",
      "Quality guarantee"
    ],
    "social_links": {}
  },
  {
    "name": "Health Care Services",
    "address": "Providence, RI (Specific street address not provided in search results)",
    "phone": "(401) 941-9710",
    "rating": 4.0,
    "reviews": 25,
    "website": "https://www.healthcare-services.net/",
    "category": "Korean-American-owned Home health aides in Rhode-Island",
    "description": "Provides home health aides, homemakers, and RN supervised care plans, with over 50 years of experience",
    "hours": "Mon-Fri 9AM-6PM",
    "services": [
      "Korean-American-owned Home health aides in Rhode-Island consultation",
      "Professional service",
      "Quality guarantee"
    ],
    "social_links": {}
  },
  {
    "name": "PACE-RI",
    "address": "(Serves all of Rhode Island, including Providence and Warwick)",
    "phone": "(401) 490-6566",
    "rating": 4.0,
    "reviews": 25,
    "website": "https://www.pace-ri.org/",
    "category": "Korean-American-owned Home health aides in Rhode-Island",
    "description": "An affordable elderly home care services agency offering tailored dementia care and assistance with daily living",
    "hours": "Mon-Fri 9AM-6PM",
    "services": [
      "Korean-American-owned Home health aides in Rhode-Island consultation",
      "Professional service",
      "Quality guarantee"
    ],
    "social_links": {}
  },
  {
    "name": "Amedisys",
    "address": "Providence, RI (Specific street address not provided in search results)",
    "phone": "(401) 737-4236",
    "rating": 4.0,
    "reviews": 25,
    "website": "https://www.amedisys.com/",
    "category": "Korean-American-owned Home health aides in Rhode-Island",
    "description": "A national provider of home health and hospice services",
    "hours": "Mon-Fri 9AM-6PM",
    "services": [
      "Korean-American-owned Home health aides in Rhode-Island consultation",
      "Professional service",
      "Quality guarantee"
    ],
    "social_links": {}
  },
  {
    "name": "Bayada Home Health Care",
    "address": "Providence, RI (Specific street address not provided in search results)",
    "phone": "(401) 273-1112",
    "rating": 4.5,
    "reviews": 25,
    "website": "https://www.bayada.com/",
    "category": "Korean-American-owned Home health aides in Rhode-Island",
    "description": "Offers a range of home health care services, including skilled nursing and personal care",
    "hours": "Mon-Fri 9AM-6PM",
    "services": [
      "Korean-American-owned Home health aides in Rhode-Island consultation",
      "Professional service",
      "Quality guarantee"
    ],
    "social_links": {}
  },
  {
    "name": "Encompass Health Home Health",
    "address": "Warwick, RI (Specific street address not provided in search results)",
    "phone": "(401) 431-0200",
    "rating": 3.5,
    "reviews": 25,
    "website": "https://www.encompasshealth.com/",
    "category": "Korean-American-owned Home health aides in Rhode-Island",
    "description": "Provides home health services, including skilled nursing and therapy",
    "hours": "Mon-Fri 9AM-6PM",
    "services": [
      "Korean-American-owned Home health aides in Rhode-Island consultation",
      "Professional service",
      "Quality guarantee"
    ],
    "social_links": {}
  },
  {
    "name": "Hope Health",
    "address": "Lincoln, RI (Specific street address not provided in search results)",
    "phone": "(401) 769-5670",
    "rating": 3.5,
    "reviews": 25,
    "website": "https://www.hopehealth.com/",
    "category": "Korean-American-owned Home health aides in Rhode-Island",
    "description": "Offers home health, hospice, and palliative care services",
    "hours": "Mon-Fri 9AM-6PM",
    "services": [
      "Korean-American-owned Home health aides in Rhode-Island consultation",
      "Professional service",
      "Quality guarantee"
    ],
    "social_links": {}
  },
  {
    "name": "Nurse On Call",
    "address": "Lincoln, RI (Specific street address not provided in search results)",
    "phone": "(401) 726-7744",
    "rating": 5.0,
    "reviews": 25,
    "website": "https://www.google.com/maps/search/Nurse+On+Call+Rhode+Island",
    "category": "Korean-American-owned Home health aides in Rhode-Island",
    "description": "Provides home nursing and healthcare services",
    "hours": "Mon-Fri 9AM-6PM",
    "services": [
      "Korean-American-owned Home health aides in Rhode-Island consultation",
      "Professional service",
      "Quality guarantee"
    ],
    "social_links": {}
  }
]