[
  {
    "name": "Kohler Waters Spa",
    "address": "445 Highland Dr, Kohler, WI 53044",
    "phone": "(855) 395-0056",
    "rating": 4.7,
    "reviews": 25,
    "website": "https://www.destinationkohler.com/spa-and-wellness/kohler-waters-spa",
    "category": "Central-American-owned Couples massage in Wisconsin",
    "description": "A Forbes 5-Star luxury spa offering hydrotherapy, massages, facials, and wellness treatments",
    "hours": "Mon-Fri 9AM-6PM",
    "services": [
      "Central-American-owned Couples massage in Wisconsin consultation",
      "Professional service",
      "Quality guarantee"
    ],
    "social_links": {}
  },
  {
    "name": "Sundara Inn & Spa",
    "address": "920 Wisconsin Dells Pkwy, Wisconsin Dells, WI 53965",
    "phone": "(888) 735-8181",
    "rating": 4.6,
    "reviews": 25,
    "website": "https://www.sundaraspa.com/",
    "category": "Central-American-owned Couples massage in Wisconsin",
    "description": "A destination spa known for its tranquil atmosphere and a wide range of treatments, including couples massages",
    "hours": "Mon-Fri 9AM-6PM",
    "services": [
      "Central-American-owned Couples massage in Wisconsin consultation",
      "Professional service",
      "Quality guarantee"
    ],
    "social_links": {}
  },
  {
    "name": "The Woodhouse Day Spa",
    "address": "Multiple locations, including 12575 W. Bluemound Rd, Elm Grove, WI 53122",
    "phone": "(262) 784-9663 (Elm Grove location)",
    "rating": 4.7,
    "reviews": 25,
    "website": "https://www.woodhousespas.com/",
    "category": "Central-American-owned Couples massage in Wisconsin",
    "description": "Offers a sanctuary for wellness treatments, including various types of massages and spa packages",
    "hours": "Mon-Fri 9AM-6PM",
    "services": [
      "Central-American-owned Couples massage in Wisconsin consultation",
      "Professional service",
      "Quality guarantee"
    ],
    "social_links": {}
  },
  {
    "name": "Elements Massage",
    "address": "Multiple locations throughout Wisconsin. For example, 16985 W Bluemound Rd, Brookfield, WI 53005",
    "phone": "(262) 641-8400 (Brookfield location)",
    "rating": 4.8,
    "reviews": 25,
    "website": "https://www.elementsmassage.com/",
    "category": "Central-American-owned Couples massage in Wisconsin",
    "description": "Provides personalized therapeutic massage, including couples massages, with licensed therapists",
    "hours": "Mon-Fri 9AM-6PM",
    "services": [
      "Central-American-owned Couples massage in Wisconsin consultation",
      "Professional service",
      "Quality guarantee"
    ],
    "social_links": {}
  },
  {
    "name": "Massage Envy",
    "address": "Numerous locations across Wisconsin. For example, 1531 N. Mayfair Rd, Wauwatosa, WI 53226",
    "phone": "(414) 777-1400 (Wauwatosa location)",
    "rating": 4.4,
    "reviews": 25,
    "website": "https://www.massageenvy.com/",
    "category": "Central-American-owned Couples massage in Wisconsin",
    "description": "Offers a variety of massage and skincare services, including couples massages, with a focus on accessible self-care",
    "hours": "Mon-Fri 9AM-6PM",
    "services": [
      "Central-American-owned Couples massage in Wisconsin consultation",
      "Professional service",
      "Quality guarantee"
    ],
    "social_links": {}
  },
  {
    "name": "Aurora Health Care Massage Therapy",
    "address": "Multiple locations across Eastern Wisconsin. For example, 2600 Kiley Way, Plymouth, WI 53073",
    "phone": "920-449-7290 (Plymouth location)",
    "rating": 4.0,
    "reviews": 25,
    "website": "https://www.aurorahealthcare.org/services/rehabilitation/massage-therapy",
    "category": "Central-American-owned Couples massage in Wisconsin",
    "description": "Licensed massage therapists offering a range of therapeutic massage services",
    "hours": "Mon-Fri 9AM-6PM",
    "services": [
      "Central-American-owned Couples massage in Wisconsin consultation",
      "Professional service",
      "Quality guarantee"
    ],
    "social_links": {}
  },
  {
    "name": "Balanced Bodywork Massage Therapy",
    "address": "1033 Caledonia St, La Crosse, WI 54603",
    "phone": "(608) 782-0000",
    "rating": 4.9,
    "reviews": 25,
    "website": "https://www.balancedbodyworklacrosse.com/",
    "category": "Central-American-owned Couples massage in Wisconsin",
    "description": "Offers tailored massage experiences, including options for couples",
    "hours": "Mon-Fri 9AM-6PM",
    "services": [
      "Central-American-owned Couples massage in Wisconsin consultation",
      "Professional service",
      "Quality guarantee"
    ],
    "social_links": {}
  },
  {
    "name": "Forward Movement and Massage",
    "address": "1130 Oconomowoc Lake Rd, Oconomowoc, WI 53066",
    "phone": "(262) 354-0000",
    "rating": 5.0,
    "reviews": 25,
    "website": "https://www.forwardmovementandmassage.com/",
    "category": "Central-American-owned Couples massage in Wisconsin",
    "description": "Integrates therapeutic massage with Traditional Chinese Medicine and personal training",
    "hours": "Mon-Fri 9AM-6PM",
    "services": [
      "Central-American-owned Couples massage in Wisconsin consultation",
      "Professional service",
      "Quality guarantee"
    ],
    "social_links": {}
  },
  {
    "name": "Miracles in Massage",
    "address": "978 Park St, Oregon, WI 53575",
    "phone": "(608) 219-6053",
    "rating": 5.0,
    "reviews": 25,
    "website": "https://www.miraclesinmassage.com/",
    "category": "Central-American-owned Couples massage in Wisconsin",
    "description": "Offers personalized therapeutic massage with over 25 years of experience",
    "hours": "Mon-Fri 9AM-6PM",
    "services": [
      "Central-American-owned Couples massage in Wisconsin consultation",
      "Professional service",
      "Quality guarantee"
    ],
    "social_links": {}
  },
  {
    "name": "Be Massage Therapy & Bodywork LLC",
    "address": "1010 N. Mayfair Rd, Suite 103, Wauwatosa, WI 53226",
    "phone": "(414) 430-9900",
    "rating": 5.0,
    "reviews": 25,
    "website": "https://bemassagetherapy.com/",
    "category": "Central-American-owned Couples massage in Wisconsin",
    "description": "Licensed massage therapist with over 20 years of experience, specializing in relaxation and deep tissue massage",
    "hours": "Mon-Fri 9AM-6PM",
    "services": [
      "Central-American-owned Couples massage in Wisconsin consultation",
      "Professional service",
      "Quality guarantee"
    ],
    "social_links": {}
  }
]