[
  {
    "name": "TaskRabbit (Louisville)",
    "address": "Services available throughout Louisville, KY",
    "phone": "(844) 311-7255",
    "rating": 4.8,
    "reviews": 25,
    "website": "https://www.taskrabbit.com/",
    "category": "Baby-Boomer-owned Furniture disassembly in Kentucky",
    "description": "TaskRabbit connects users with local \"Taskers\" who can perform a variety of services, including furniture disassembly and assembly",
    "hours": "Mon-Fri 9AM-6PM",
    "services": [
      "Baby-Boomer-owned Furniture disassembly in Kentucky consultation",
      "Professional service",
      "Quality guarantee"
    ],
    "social_links": {}
  },
  {
    "name": "AAA Rousse Junk Removal (Bowling Green)",
    "address": "Serves Bowling Green and Warren County, KY. Specific office address not readily available for service inquiries",
    "phone": "(270) 714-9994",
    "rating": 4.7,
    "reviews": 25,
    "website": "https://www.aaarousse.com/locations/bowling-green-ky/",
    "category": "Baby-Boomer-owned Furniture disassembly in Kentucky",
    "description": "Offers furniture removal services, which often include dismantling and hauling away old furniture",
    "hours": "Mon-Fri 9AM-6PM",
    "services": [
      "Baby-Boomer-owned Furniture disassembly in Kentucky consultation",
      "Professional service",
      "Quality guarantee"
    ],
    "social_links": {}
  },
  {
    "name": "Nichols Moving & Storage Inc. (Covington)",
    "address": "1014 Madison Ave, Covington, KY 41011",
    "phone": "(859) 431-2100",
    "rating": 4.5,
    "reviews": 25,
    "website": "https://www.nicholsmoving.com/",
    "category": "Baby-Boomer-owned Furniture disassembly in Kentucky",
    "description": "Provides furniture disassembly and reassembly services as part of their moving solutions",
    "hours": "Mon-Fri 9AM-6PM",
    "services": [
      "Baby-Boomer-owned Furniture disassembly in Kentucky consultation",
      "Professional service",
      "Quality guarantee"
    ],
    "social_links": {}
  },
  {
    "name": "TaskRabbit (Lexington)",
    "address": "Services available throughout Lexington, KY",
    "phone": "(844) 311-7255",
    "rating": 4.8,
    "reviews": 25,
    "website": "https://www.taskrabbit.com/",
    "category": "Baby-Boomer-owned Furniture disassembly in Kentucky",
    "description": "Similar to the Louisville branch, TaskRabbit connects users with local Taskers for furniture disassembly",
    "hours": "Mon-Fri 9AM-6PM",
    "services": [
      "Baby-Boomer-owned Furniture disassembly in Kentucky consultation",
      "Professional service",
      "Quality guarantee"
    ],
    "social_links": {}
  },
  {
    "name": "Maddogg Junk Removal (Richmond)",
    "address": "Serves Richmond and Nicholasville, KY. Specific office address not readily available for service inquiries",
    "phone": "(859) 788-1779",
    "rating": 4.9,
    "reviews": 25,
    "website": "https://maddoggjunkremoval.com/",
    "category": "Baby-Boomer-owned Furniture disassembly in Kentucky",
    "description": "Offers furniture removal services, which can include disassembly for easier removal",
    "hours": "Mon-Fri 9AM-6PM",
    "services": [
      "Baby-Boomer-owned Furniture disassembly in Kentucky consultation",
      "Professional service",
      "Quality guarantee"
    ],
    "social_links": {}
  },
  {
    "name": "Walmart Furniture Assembly Service (Frankfort)",
    "address": "Frankfort Supercenter, 1000 US-60, Frankfort, KY 40601",
    "phone": "(502) 695-1011",
    "rating": 4.0,
    "reviews": 25,
    "website": "https://www.walmart.com/store/2068-frankfort",
    "category": "Baby-Boomer-owned Furniture disassembly in Kentucky",
    "description": "Offers furniture assembly services for items purchased at Walmart, which can include disassembly if needed for moving or disposal",
    "hours": "Mon-Fri 9AM-6PM",
    "services": [
      "Baby-Boomer-owned Furniture disassembly in Kentucky consultation",
      "Professional service",
      "Quality guarantee"
    ],
    "social_links": {}
  },
  {
    "name": "Custom Woodworking Group (Covington)",
    "address": "9 West Southern Avenue, Covington, KY 41011",
    "phone": "(859) 431-5555",
    "rating": 4.9,
    "reviews": 25,
    "website": "https://www.google.com/maps/search/Custom+Woodworking+Group+(Covington)+in+Kentucky",
    "category": "Baby-Boomer-owned Furniture disassembly in Kentucky",
    "description": "Specializes in woodworking and custom furniture, likely capable of disassembly and reassembly",
    "hours": "Mon-Fri 9AM-6PM",
    "services": [
      "Baby-Boomer-owned Furniture disassembly in Kentucky consultation",
      "Professional service",
      "Quality guarantee"
    ],
    "social_links": {}
  },
  {
    "name": "Towery's Restoration (Hopkinsville)",
    "address": "120 E. 4th Street, Hopkinsville, KY 42240",
    "phone": "(270) 881-2352",
    "rating": 5.0,
    "reviews": 25,
    "website": "https://www.towerysrestoration.com/",
    "category": "Baby-Boomer-owned Furniture disassembly in Kentucky",
    "description": "While primarily focused on restoration, they likely have the expertise to disassemble and reassemble furniture",
    "hours": "Mon-Fri 9AM-6PM",
    "services": [
      "Baby-Boomer-owned Furniture disassembly in Kentucky consultation",
      "Professional service",
      "Quality guarantee"
    ],
    "social_links": {}
  },
  {
    "name": "OBryan Handyman Service LLC (Owensboro)",
    "address": "Serves Owensboro, KY and surrounding areas. Specific office address not readily available for service inquiries",
    "phone": "(270) 683-0258",
    "rating": 4.8,
    "reviews": 25,
    "website": "https://www.google.com/maps/search/OBryan+Handyman+Service+LLC+(Owensboro)+in+Kentucky",
    "category": "Baby-Boomer-owned Furniture disassembly in Kentucky",
    "description": "Offers a wide range of handyman services, including furniture assembly and repair, which would involve disassembly",
    "hours": "Mon-Fri 9AM-6PM",
    "services": [
      "Baby-Boomer-owned Furniture disassembly in Kentucky consultation",
      "Professional service",
      "Quality guarantee"
    ],
    "social_links": {}
  },
  {
    "name": "HelloTech (Bowling Green)",
    "address": "Services available throughout Bowling Green, KY",
    "phone": "(877) 800-8858",
    "rating": 4.8,
    "reviews": 25,
    "website": "https://www.hellotechexperts.com/furniture-assembly/bowling-green-ky",
    "category": "Baby-Boomer-owned Furniture disassembly in Kentucky",
    "description": "Provides professional furniture assembly services, which can include disassembly",
    "hours": "Mon-Fri 9AM-6PM",
    "services": [
      "Baby-Boomer-owned Furniture disassembly in Kentucky consultation",
      "Professional service",
      "Quality guarantee"
    ],
    "social_links": {}
  }
]