[
  {
    "name": "IMA (Investment Management Associates)",
    "address": "7955 E Arapahoe Rd Suite 1300, Greenwood Village, CO 80112",
    "phone": "(303) 771-1800",
    "rating": 4.0,
    "reviews": 25,
    "website": "https://www.imacompanies.com/",
    "category": "Agnostic-owned Portfolio management in Colorado",
    "description": "A Denver-based investment firm delivering disciplined, value-driven strategies with a focus on long-term growth. They manage investments individually for clients",
    "hours": "Mon-Fri 9AM-6PM",
    "services": [
      "Agnostic-owned Portfolio management in Colorado consultation",
      "Professional service",
      "Quality guarantee"
    ],
    "social_links": {}
  },
  {
    "name": "ArrowMark Partners",
    "address": "555 17th St Suite 2400, Denver, CO 80202",
    "phone": "(303) 572-4000",
    "rating": 4.0,
    "reviews": 25,
    "website": "https://www.arrowmarkpartners.com/",
    "category": "Agnostic-owned Portfolio management in Colorado",
    "description": "A privately held, employee-owned investment management firm focusing on niche and less efficient market segments in public and private credit and equity",
    "hours": "Mon-Fri 9AM-6PM",
    "services": [
      "Agnostic-owned Portfolio management in Colorado consultation",
      "Professional service",
      "Quality guarantee"
    ],
    "social_links": {}
  },
  {
    "name": "Mercer Global Advisors",
    "address": "700 17th St Suite 1700, Denver, CO 80202 (Headquarters, with other offices)",
    "phone": "(303) 300-3200",
    "rating": 4.0,
    "reviews": 25,
    "website": "https://www.merceradvisors.com/",
    "category": "Agnostic-owned Portfolio management in Colorado",
    "description": "A fee-based firm offering comprehensive investment management, financial planning, and other wealth services. They have a fiduciary duty to act in clients' best interests",
    "hours": "Mon-Fri 9AM-6PM",
    "services": [
      "Agnostic-owned Portfolio management in Colorado consultation",
      "Professional service",
      "Quality guarantee"
    ],
    "social_links": {}
  },
  {
    "name": "PCM Encore, LLC",
    "address": "600 E Main St, Aspen, CO 81611 (Headquarters)",
    "phone": "(970) 925-7171",
    "rating": 4.0,
    "reviews": 25,
    "website": "https://www.pcmencore.com/",
    "category": "Agnostic-owned Portfolio management in Colorado",
    "description": "A fee-based registered investment advisor serving individuals, high-net-worth individuals, and businesses with comprehensive financial planning and investment management",
    "hours": "Mon-Fri 9AM-6PM",
    "services": [
      "Agnostic-owned Portfolio management in Colorado consultation",
      "Professional service",
      "Quality guarantee"
    ],
    "social_links": {}
  },
  {
    "name": "Carson Wealth",
    "address": "3600 S Yosemite St Suite 500, Englewood, CO 80111 (One of their locations)",
    "phone": "(303) 770-1430",
    "rating": 4.0,
    "reviews": 25,
    "website": "https://www.carsonwealth.com/",
    "category": "Agnostic-owned Portfolio management in Colorado",
    "description": "Offers comprehensive financial planning including investment management, risk management, and estate planning, with a focus on helping clients reach their goals",
    "hours": "Mon-Fri 9AM-6PM",
    "services": [
      "Agnostic-owned Portfolio management in Colorado consultation",
      "Professional service",
      "Quality guarantee"
    ],
    "social_links": {}
  },
  {
    "name": "Oatley & Diak, LLC",
    "address": "19500 E Parker Square Dr Ste 100, Parker, CO 80134",
    "phone": "(303) 841-3000",
    "rating": 4.0,
    "reviews": 25,
    "website": "https://www.oatleydiak.com/",
    "category": "Agnostic-owned Portfolio management in Colorado",
    "description": "A family-run, fee-only financial advisory firm providing investment management, retirement planning, and divorce financial planning services",
    "hours": "Mon-Fri 9AM-6PM",
    "services": [
      "Agnostic-owned Portfolio management in Colorado consultation",
      "Professional service",
      "Quality guarantee"
    ],
    "social_links": {}
  },
  {
    "name": "Cherry Creek Wealth Advisors LLC",
    "address": "5619 DTC Pkwy Ste 800, Greenwood Village, CO 80111",
    "phone": "(303) 355-2930",
    "rating": 4.0,
    "reviews": 25,
    "website": "https://www.cherrycreekwealth.com/",
    "category": "Agnostic-owned Portfolio management in Colorado",
    "description": "Offers investment management, including alternative investments like hedge funds, managed futures, and private equity, to help clients meet long-term objectives",
    "hours": "Mon-Fri 9AM-6PM",
    "services": [
      "Agnostic-owned Portfolio management in Colorado consultation",
      "Professional service",
      "Quality guarantee"
    ],
    "social_links": {}
  },
  {
    "name": "Dodds Wealth",
    "address": "100 Fillmore St Ste 300, Denver, CO 80206 (and Colorado Springs)",
    "phone": "(303) 399-5700",
    "rating": 4.0,
    "reviews": 25,
    "website": "https://www.doddswealth.com/",
    "category": "Agnostic-owned Portfolio management in Colorado",
    "description": "A fiduciary investment management firm focused on long-term investing, diversification, reduced fees, and tax awareness",
    "hours": "Mon-Fri 9AM-6PM",
    "services": [
      "Agnostic-owned Portfolio management in Colorado consultation",
      "Professional service",
      "Quality guarantee"
    ],
    "social_links": {}
  },
  {
    "name": "Obermeyer Wealth Partners",
    "address": "1600 Broadway Suite 1400, Denver, CO 80202 (and Aspen)",
    "phone": "(303) 861-0000",
    "rating": 4.0,
    "reviews": 25,
    "website": "https://www.obermeyerwealth.com/",
    "category": "Agnostic-owned Portfolio management in Colorado",
    "description": "A boutique wealth management firm offering personalized investment management and financial planning strategies, with a team of Chartered Financial Analysts and CERTIFIED FINANCIAL PLANNER\u2122 professionals",
    "hours": "Mon-Fri 9AM-6PM",
    "services": [
      "Agnostic-owned Portfolio management in Colorado consultation",
      "Professional service",
      "Quality guarantee"
    ],
    "social_links": {}
  },
  {
    "name": "Oliver Asset Management",
    "address": "5619 DTC Pkwy Ste 800, Greenwood Village, CO 80111",
    "phone": "(303) 355-2930",
    "rating": 4.0,
    "reviews": 25,
    "website": "https://www.oliverassetmanagement.com/",
    "category": "Agnostic-owned Portfolio management in Colorado",
    "description": "Focuses on a T.I.M.E.\u2122 process (Taxes, Income, Money, Estate) for comprehensive financial planning and retirement dreams, with a team experienced in IRA planning",
    "hours": "Mon-Fri 9AM-6PM",
    "services": [
      "Agnostic-owned Portfolio management in Colorado consultation",
      "Professional service",
      "Quality guarantee"
    ],
    "social_links": {}
  }
]