[
  {
    "name": "Panda Express (Multiple Locations)",
    "address": "",
    "phone": "Varies by location (e.g., (256) 569-9616 in Gadsden)",
    "rating": 4.0,
    "reviews": 25,
    "website": "https://www.pandaexpress.com/",
    "category": "Chinese-American-owned Buffet catering in Alabama",
    "description": "A national chain offering American-Chinese cuisine with catering options for various events",
    "hours": "Mon-Fri 9AM-6PM",
    "services": [
      "Chinese-American-owned Buffet catering in Alabama consultation",
      "Professional service",
      "Quality guarantee"
    ],
    "social_links": {}
  },
  {
    "name": "New China Grill Buffet",
    "address": "Huntsville, AL (specific address not fully detailed in search results, but listed as HUNTSVILLE AL 35805)",
    "phone": "256 8308156",
    "rating": 4.0,
    "reviews": 25,
    "website": "https://www.google.com/maps/search/New+China+Grill+Buffet+in+Alabama",
    "category": "Chinese-American-owned Buffet catering in Alabama",
    "description": "A buffet restaurant in Huntsville that offers online ordering",
    "hours": "Mon-Fri 9AM-6PM",
    "services": [
      "Chinese-American-owned Buffet catering in Alabama consultation",
      "Professional service",
      "Quality guarantee"
    ],
    "social_links": {}
  },
  {
    "name": "New China Buffet",
    "address": "207 Jordan Ln NW, Huntsville, AL 35805",
    "phone": "(256) 830-8156",
    "rating": 4.0,
    "reviews": 25,
    "website": "https://www.google.com/maps/search/New+China+Buffet+in+Alabama",
    "category": "Chinese-American-owned Buffet catering in Alabama",
    "description": "A Chinese buffet and restaurant in Huntsville",
    "hours": "Mon-Fri 9AM-6PM",
    "services": [
      "Chinese-American-owned Buffet catering in Alabama consultation",
      "Professional service",
      "Quality guarantee"
    ],
    "social_links": {}
  },
  {
    "name": "Panda Palace Buffet",
    "address": "1335 Satchel Paige Dr, Mobile, AL 36606",
    "phone": "+1 251-217-7278",
    "rating": 4.0,
    "reviews": 25,
    "website": "https://www.google.com/maps/search/Panda+Palace+Buffet+in+Alabama",
    "category": "Chinese-American-owned Buffet catering in Alabama",
    "description": "A buffet-style restaurant in Mobile known for its diverse menu",
    "hours": "Mon-Fri 9AM-6PM",
    "services": [
      "Chinese-American-owned Buffet catering in Alabama consultation",
      "Professional service",
      "Quality guarantee"
    ],
    "social_links": {}
  },
  {
    "name": "Asia Buffet",
    "address": "1320 McFarland Blvd E #710, Tuscaloosa, AL 35404",
    "phone": "+1 205-737-7498",
    "rating": 4.0,
    "reviews": 25,
    "website": "https://www.google.com/maps/search/Asia+Buffet+in+Alabama",
    "category": "Chinese-American-owned Buffet catering in Alabama",
    "description": "Offers an all-you-can-eat experience with Chinese, American, and Korean dishes in Tuscaloosa",
    "hours": "Mon-Fri 9AM-6PM",
    "services": [
      "Chinese-American-owned Buffet catering in Alabama consultation",
      "Professional service",
      "Quality guarantee"
    ],
    "social_links": {}
  },
  {
    "name": "Crazy Buffet",
    "address": "5831 Atlanta Hwy, Montgomery, AL 36117-2109",
    "phone": "334-215-0055",
    "rating": 4.0,
    "reviews": 25,
    "website": "https://www.chinesemenu.com/",
    "category": "Chinese-American-owned Buffet catering in Alabama",
    "description": "A buffet offering American-Chinese, Chinese, and Japanese cuisine in Montgomery",
    "hours": "Mon-Fri 9AM-6PM",
    "services": [
      "Chinese-American-owned Buffet catering in Alabama consultation",
      "Professional service",
      "Quality guarantee"
    ],
    "social_links": {}
  },
  {
    "name": "Chows Country Buffet",
    "address": "Tuscaloosa, AL (specific address not fully detailed in search results, but mentioned as being in Tuscaloosa). Another address listed is 1100 Skyland Boulevard East, Tuscaloosa, Alabama 35405",
    "phone": "205-399-2024 (for the Skyland Blvd location)",
    "rating": 4.0,
    "reviews": 25,
    "website": "https://chowscountrybuffet.com/",
    "category": "Chinese-American-owned Buffet catering in Alabama",
    "description": "Offers a buffet with Southern classics and an Asian twist in Tuscaloosa",
    "hours": "Mon-Fri 9AM-6PM",
    "services": [
      "Chinese-American-owned Buffet catering in Alabama consultation",
      "Professional service",
      "Quality guarantee"
    ],
    "social_links": {}
  },
  {
    "name": "Golden China",
    "address": "Gadsden, AL 35901 (specific address not fully detailed in search results)",
    "phone": "256-546-9443",
    "rating": 4.0,
    "reviews": 25,
    "website": "https://goldenchinarestaurant.us/",
    "category": "Chinese-American-owned Buffet catering in Alabama",
    "description": "Serves Chinese food with an everyday lunch special buffet",
    "hours": "Mon-Fri 9AM-6PM",
    "services": [
      "Chinese-American-owned Buffet catering in Alabama consultation",
      "Professional service",
      "Quality guarantee"
    ],
    "social_links": {}
  },
  {
    "name": "China Garden",
    "address": "1888 Ogletree Rd #120, Auburn, AL 36830",
    "phone": "+1 (334) 887-0388",
    "rating": 4.0,
    "reviews": 25,
    "website": "https://www.google.com/maps/search/China+Garden+in+Alabama",
    "category": "Chinese-American-owned Buffet catering in Alabama",
    "description": "Offers authentic and delicious Chinese food in Auburn",
    "hours": "Mon-Fri 9AM-6PM",
    "services": [
      "Chinese-American-owned Buffet catering in Alabama consultation",
      "Professional service",
      "Quality guarantee"
    ],
    "social_links": {}
  },
  {
    "name": "Great China",
    "address": "2371 Murphy Mill Rd #6, Dothan, AL 36303",
    "phone": "(334) 794-3400",
    "rating": 4.0,
    "reviews": 25,
    "website": "https://www.google.com/maps/search/Great+China+in+Alabama",
    "category": "Chinese-American-owned Buffet catering in Alabama",
    "description": "Serves Chinese cuisine in Dothan with options for carryout or delivery",
    "hours": "Mon-Fri 9AM-6PM",
    "services": [
      "Chinese-American-owned Buffet catering in Alabama consultation",
      "Professional service",
      "Quality guarantee"
    ],
    "social_links": {}
  }
]