[
  {
    "name": "Safelite AutoGlass",
    "address": "Multiple locations, including 8300 Jefferson St NE, Ste C, Albuquerque, NM 87113",
    "phone": "(800) 800-2324",
    "rating": 4.7,
    "reviews": 25,
    "website": "https://www.safelite.com/",
    "category": "Central-American-owned Windshield replacement in New-Mexico",
    "description": "Safelite offers comprehensive auto glass repair and replacement services, including windshields, side windows, and rear windshields. They also provide ADAS recalibration and mobile service",
    "hours": "Mon-Fri 9AM-6PM",
    "services": [
      "Central-American-owned Windshield replacement in New-Mexico consultation",
      "Professional service",
      "Quality guarantee"
    ],
    "social_links": {}
  },
  {
    "name": "Auto Glass Now",
    "address": "6401 San Pedro Dr NE, Albuquerque, NM 87109",
    "phone": "(505) 352-0100",
    "rating": 4.8,
    "reviews": 25,
    "website": "https://autoglassnow.com/albuquerque-nm/",
    "category": "Central-American-owned Windshield replacement in New-Mexico",
    "description": "Auto Glass Now specializes in windshield replacement and repair, offering convenient locations and mobile services. They handle insurance claims and ADAS calibration",
    "hours": "Mon-Fri 9AM-6PM",
    "services": [
      "Central-American-owned Windshield replacement in New-Mexico consultation",
      "Professional service",
      "Quality guarantee"
    ],
    "social_links": {}
  },
  {
    "name": "Speedy Glass",
    "address": "455 Foster Rd, Las Cruces, NM 88005",
    "phone": "(575) 526-9571",
    "rating": 4.5,
    "reviews": 25,
    "website": "https://www.speedyglass.com/locations/speedy-glass-las-cruces-nm/",
    "category": "Central-American-owned Windshield replacement in New-Mexico",
    "description": "Speedy Glass provides expert auto glass repairs, ADAS recalibration, and replacement services for windshields, RVs, and heavy equipment. They also offer residential and commercial glass solutions",
    "hours": "Mon-Fri 9AM-6PM",
    "services": [
      "Central-American-owned Windshield replacement in New-Mexico consultation",
      "Professional service",
      "Quality guarantee"
    ],
    "social_links": {}
  },
  {
    "name": "Auto Glass Services, Inc. (AGS)",
    "address": "4001 San Mateo Blvd NE, Albuquerque, NM 87110",
    "phone": "(505) 266-9091",
    "rating": 4.9,
    "reviews": 25,
    "website": "https://www.agsabq.com/",
    "category": "Central-American-owned Windshield replacement in New-Mexico",
    "description": "A family-owned business established in 1987, AGS specializes in auto glass repair and replacement for all types of vehicles, including fleet vehicles. They also offer automotive window tinting and mobile services",
    "hours": "Mon-Fri 9AM-6PM",
    "services": [
      "Central-American-owned Windshield replacement in New-Mexico consultation",
      "Professional service",
      "Quality guarantee"
    ],
    "social_links": {}
  },
  {
    "name": "Chapman Auto Glass",
    "address": "Multiple mobile service areas in Albuquerque, NM",
    "phone": "(505) 344-5500",
    "rating": 4.8,
    "reviews": 25,
    "website": "https://chapmanautoglass.com/",
    "category": "Central-American-owned Windshield replacement in New-Mexico",
    "description": "Chapman Auto Glass offers professional mobile windshield repair and replacement services. They are veteran-owned and operated and work with most insurance providers",
    "hours": "Mon-Fri 9AM-6PM",
    "services": [
      "Central-American-owned Windshield replacement in New-Mexico consultation",
      "Professional service",
      "Quality guarantee"
    ],
    "social_links": {}
  },
  {
    "name": "A1 Glass Depot, LLC",
    "address": "4001 San Mateo Blvd NE, Albuquerque, NM 87110",
    "phone": "(505) 884-4444",
    "rating": 4.7,
    "reviews": 25,
    "website": "https://www.a1glassdepot.com/",
    "category": "Central-American-owned Windshield replacement in New-Mexico",
    "description": "A locally owned and operated business since 1996, A1 Glass Depot provides high-quality windshield replacement and rock-chip repair services with a lifetime warranty. They offer OEM factory replacements and ADAS recalibration",
    "hours": "Mon-Fri 9AM-6PM",
    "services": [
      "Central-American-owned Windshield replacement in New-Mexico consultation",
      "Professional service",
      "Quality guarantee"
    ],
    "social_links": {}
  },
  {
    "name": "WindshieldHUB",
    "address": "Mobile service in Albuquerque, NM",
    "phone": "(505) 908-3659",
    "rating": 4.8,
    "reviews": 25,
    "website": "https://www.windshieldhub.com/albuquerque-nm/",
    "category": "Central-American-owned Windshield replacement in New-Mexico",
    "description": "WindshieldHUB offers fast, mobile windshield repair and auto glass replacement in Albuquerque, NM. They handle ADAS calibration and insurance claims, working with all insurance companies",
    "hours": "Mon-Fri 9AM-6PM",
    "services": [
      "Central-American-owned Windshield replacement in New-Mexico consultation",
      "Professional service",
      "Quality guarantee"
    ],
    "social_links": {}
  },
  {
    "name": "Alliance Glass & Mirror Santa Fe",
    "address": "3202 Calle Marie, Santa Fe, NM, 87507",
    "phone": "(505) 982-4373",
    "rating": 4.7,
    "reviews": 25,
    "website": "https://www.allianceglassnm.com/",
    "category": "Central-American-owned Windshield replacement in New-Mexico",
    "description": "This company provides 24-hour auto glass repair, mirror repair, windshield replacement, and window tinting services in Santa Fe, NM, with a commitment to professional and reliable service",
    "hours": "Mon-Fri 9AM-6PM",
    "services": [
      "Central-American-owned Windshield replacement in New-Mexico consultation",
      "Professional service",
      "Quality guarantee"
    ],
    "social_links": {}
  },
  {
    "name": "Speedy Glass (Santa Fe)",
    "address": "3202 Calle Marie, Santa Fe, NM, 87507",
    "phone": "(505) 982-4373",
    "rating": 4.6,
    "reviews": 25,
    "website": "https://www.speedyglass.com/locations/speedy-glass-santa-fe-nm/",
    "category": "Central-American-owned Windshield replacement in New-Mexico",
    "description": "Speedy Glass in Santa Fe offers expert auto glass repair and replacement, including mobile service, fleet solutions, and ADAS recalibration. They use top-quality materials and advanced technology",
    "hours": "Mon-Fri 9AM-6PM",
    "services": [
      "Central-American-owned Windshield replacement in New-Mexico consultation",
      "Professional service",
      "Quality guarantee"
    ],
    "social_links": {}
  },
  {
    "name": "Southwest Auto Glass",
    "address": "Multiple locations, including Las Cruces, NM (contact for specific address)",
    "phone": "(915) 595-4444",
    "rating": 4.5,
    "reviews": 25,
    "website": "https://southwestautoglass.com/",
    "category": "Central-American-owned Windshield replacement in New-Mexico",
    "description": "Southwest Auto Glass offers windshield chip repair and replacement services in Las Cruces, NM, at competitive prices. They aim to provide quick and efficient service",
    "hours": "Mon-Fri 9AM-6PM",
    "services": [
      "Central-American-owned Windshield replacement in New-Mexico consultation",
      "Professional service",
      "Quality guarantee"
    ],
    "social_links": {}
  }
]