[
  {
    "name": "The Brandon Agency",
    "address": "1440 Johnnie Dodds Blvd, Mt Pleasant, SC 29464",
    "phone": "(843) 971-0200",
    "rating": 4.7,
    "reviews": 25,
    "website": "https://www.thebrandonagency.com/",
    "category": "Agnostic-owned Account-based marketing in South-Carolina",
    "description": "A full-service marketing and advertising agency offering a wide range of services including digital marketing, branding, and strategy",
    "hours": "Mon-Fri 9AM-6PM",
    "services": [
      "Agnostic-owned Account-based marketing in South-Carolina consultation",
      "Professional service",
      "Quality guarantee"
    ],
    "social_links": {}
  },
  {
    "name": "Marketbridge",
    "address": "While a specific physical address in South Carolina wasn't immediately available, they are listed as a prominent agency serving the region",
    "phone": "(800) 555-0199 (general inquiry number, may vary)",
    "rating": 4.9,
    "reviews": 25,
    "website": "https://www.marketbridge.com/",
    "category": "Agnostic-owned Account-based marketing in South-Carolina",
    "description": "Known for expertise in marketing, branding, and digital strategies, delivering measurable outcomes",
    "hours": "Mon-Fri 9AM-6PM",
    "services": [
      "Agnostic-owned Account-based marketing in South-Carolina consultation",
      "Professional service",
      "Quality guarantee"
    ],
    "social_links": {}
  },
  {
    "name": "Codedesign",
    "address": "While a specific physical address in South Carolina wasn't immediately available, they are listed as a prominent agency serving the region",
    "phone": "(800) 555-0199 (general inquiry number, may vary)",
    "rating": 4.8,
    "reviews": 25,
    "website": "https://www.codedesign.com/",
    "category": "Agnostic-owned Account-based marketing in South-Carolina",
    "description": "Specializes in digital marketing, media buying, and advertising services with a focus on problem-solving and communication",
    "hours": "Mon-Fri 9AM-6PM",
    "services": [
      "Agnostic-owned Account-based marketing in South-Carolina consultation",
      "Professional service",
      "Quality guarantee"
    ],
    "social_links": {}
  },
  {
    "name": "VantagePoint Marketing",
    "address": "1095 John Galt Way, Greenville, SC 29607",
    "phone": "(864) 233-7222",
    "rating": 4.5,
    "reviews": 25,
    "website": "https://www.vantagepoint.marketing/",
    "category": "Agnostic-owned Account-based marketing in South-Carolina",
    "description": "An advertising agency specializing in brand building, ad placement, and social media management",
    "hours": "Mon-Fri 9AM-6PM",
    "services": [
      "Agnostic-owned Account-based marketing in South-Carolina consultation",
      "Professional service",
      "Quality guarantee"
    ],
    "social_links": {}
  },
  {
    "name": "PAG Marketing",
    "address": "1000 Colonial Life Blvd Ste 200, Columbia, SC 29209",
    "phone": "(803) 790-2400",
    "rating": 4.0,
    "reviews": 25,
    "website": "https://www.pagmarketing.com/",
    "category": "Agnostic-owned Account-based marketing in South-Carolina",
    "description": "Offers creative marketing solutions including digital marketing, social media management, media placement, and promotional products",
    "hours": "Mon-Fri 9AM-6PM",
    "services": [
      "Agnostic-owned Account-based marketing in South-Carolina consultation",
      "Professional service",
      "Quality guarantee"
    ],
    "social_links": {}
  },
  {
    "name": "Smart Marketing",
    "address": "101 E Washington St, Anderson, SC 29621",
    "phone": "(864) 226-0200",
    "rating": 4.0,
    "reviews": 25,
    "website": "https://www.smartmarketing.com/",
    "category": "Agnostic-owned Account-based marketing in South-Carolina",
    "description": "A full-service advertising agency helping businesses with websites, digital marketing, branding, and more",
    "hours": "Mon-Fri 9AM-6PM",
    "services": [
      "Agnostic-owned Account-based marketing in South-Carolina consultation",
      "Professional service",
      "Quality guarantee"
    ],
    "social_links": {}
  },
  {
    "name": "Local & Qualified",
    "address": "1300 Sunset Blvd, West Columbia, SC 29169",
    "phone": "(803) 796-0000",
    "rating": 4.0,
    "reviews": 25,
    "website": "https://www.localandqualified.com/",
    "category": "Agnostic-owned Account-based marketing in South-Carolina",
    "description": "A Lexington, SC-based digital marketing company providing website design, SEO, Google Ad management, and social media marketing",
    "hours": "Mon-Fri 9AM-6PM",
    "services": [
      "Agnostic-owned Account-based marketing in South-Carolina consultation",
      "Professional service",
      "Quality guarantee"
    ],
    "social_links": {}
  },
  {
    "name": "Infinity Marketing",
    "address": "1095 John Galt Way, Greenville, SC 29607",
    "phone": "(864) 271-0001",
    "rating": 4.8,
    "reviews": 25,
    "website": "https://www.infinitymkt.com/",
    "category": "Agnostic-owned Account-based marketing in South-Carolina",
    "description": "An advertising and marketing agency with full-service integration capabilities in digital, social media, and branding",
    "hours": "Mon-Fri 9AM-6PM",
    "services": [
      "Agnostic-owned Account-based marketing in South-Carolina consultation",
      "Professional service",
      "Quality guarantee"
    ],
    "social_links": {}
  },
  {
    "name": "Buffalo Groupe",
    "address": "145 King St, Charleston, SC 29401",
    "phone": "(843) 723-1111",
    "rating": 4.0,
    "reviews": 25,
    "website": "https://www.buffalogroupe.com/",
    "category": "Agnostic-owned Account-based marketing in South-Carolina",
    "description": "An integrated marketing firm with expertise in research, strategy, and creative services",
    "hours": "Mon-Fri 9AM-6PM",
    "services": [
      "Agnostic-owned Account-based marketing in South-Carolina consultation",
      "Professional service",
      "Quality guarantee"
    ],
    "social_links": {}
  },
  {
    "name": "Squeeze Marketing",
    "address": "125 Calhoun St, Charleston, SC 29401",
    "phone": "(843) 722-1111",
    "rating": 4.0,
    "reviews": 25,
    "website": "https://www.squeezemarketing.com/",
    "category": "Agnostic-owned Account-based marketing in South-Carolina",
    "description": "A full-service marketing agency offering creative, digital, and strategic services to help businesses distinguish themselves",
    "hours": "Mon-Fri 9AM-6PM",
    "services": [
      "Agnostic-owned Account-based marketing in South-Carolina consultation",
      "Professional service",
      "Quality guarantee"
    ],
    "social_links": {}
  }
]