[
  {
    "name": "Geetech Repair & Solutions",
    "address": "Rio Grande, NJ",
    "phone": "",
    "rating": 4.0,
    "reviews": 25,
    "website": "https://www.geetechrepair.com/",
    "category": "Bengali-speaking Mobile electronics repair in New-Jersey",
    "description": "Offers fast and reliable mobile phone, tablet, and computer repair services with a focus on quality parts and expert technicians",
    "hours": "Mon-Fri 9AM-6PM",
    "services": [
      "Bengali-speaking Mobile electronics repair in New-Jersey consultation",
      "Professional service",
      "Quality guarantee"
    ],
    "social_links": {}
  },
  {
    "name": "Fixtops",
    "address": "Multiple locations including Bergenfield, Irvington, and Jersey City, NJ",
    "phone": "(800) 317-9798",
    "rating": 4.0,
    "reviews": 25,
    "website": "https://www.google.com/maps/search/Fixtops+New+Jersey",
    "category": "Bengali-speaking Mobile electronics repair in New-Jersey",
    "description": "A repair shop offering services for various electronic devices",
    "hours": "Mon-Fri 9AM-6PM",
    "services": [
      "Bengali-speaking Mobile electronics repair in New-Jersey consultation",
      "Professional service",
      "Quality guarantee"
    ],
    "social_links": {}
  },
  {
    "name": "uBreakiFix",
    "address": "Multiple locations including Carlstadt, Englewood, Maple Shade, West Berlin, Glassboro, and Kearny, NJ",
    "phone": "Varies by location (e.g., (201) 507-0980 in Carlstadt)",
    "rating": 4.0,
    "reviews": 25,
    "website": "https://www.ubreakifix.com/",
    "category": "Bengali-speaking Mobile electronics repair in New-Jersey",
    "description": "A national chain offering repairs for smartphones, tablets, computers, and more",
    "hours": "Mon-Fri 9AM-6PM",
    "services": [
      "Bengali-speaking Mobile electronics repair in New-Jersey consultation",
      "Professional service",
      "Quality guarantee"
    ],
    "social_links": {}
  },
  {
    "name": "Tech Plug Cell Phone Repair",
    "address": "198 Market St, Elmwood Park, NJ 07407",
    "phone": "(201) 791-0971",
    "rating": 4.0,
    "reviews": 25,
    "website": "https://www.google.com/maps/search/Tech+Plug+Cell+Phone+Repair+New+Jersey",
    "category": "Bengali-speaking Mobile electronics repair in New-Jersey",
    "description": "A cell phone repair shop",
    "hours": "Mon-Fri 9AM-6PM",
    "services": [
      "Bengali-speaking Mobile electronics repair in New-Jersey consultation",
      "Professional service",
      "Quality guarantee"
    ],
    "social_links": {}
  },
  {
    "name": "Phone Medic Smart Device Repairs",
    "address": "45 Belmont Ave, Garfield, NJ 07026",
    "phone": "(201) 203-1584",
    "rating": 4.0,
    "reviews": 25,
    "website": "https://www.google.com/maps/search/Phone+Medic+Smart+Device+Repairs+New+Jersey",
    "category": "Bengali-speaking Mobile electronics repair in New-Jersey",
    "description": "Offers smart device repair services",
    "hours": "Mon-Fri 9AM-6PM",
    "services": [
      "Bengali-speaking Mobile electronics repair in New-Jersey consultation",
      "Professional service",
      "Quality guarantee"
    ],
    "social_links": {}
  },
  {
    "name": "Yufixit",
    "address": "416 Central Avenue, Jersey City, NJ 07307",
    "phone": "(201) 839-5914",
    "rating": 4.0,
    "reviews": 25,
    "website": "https://www.google.com/maps/search/Yufixit+New+Jersey",
    "category": "Bengali-speaking Mobile electronics repair in New-Jersey",
    "description": "Provides device repair services",
    "hours": "Mon-Fri 9AM-6PM",
    "services": [
      "Bengali-speaking Mobile electronics repair in New-Jersey consultation",
      "Professional service",
      "Quality guarantee"
    ],
    "social_links": {}
  },
  {
    "name": "FixTops",
    "address": "1980 Springfield Avenue, Maplewood, NJ 07040",
    "phone": "(650) 709-2632",
    "rating": 4.0,
    "reviews": 25,
    "website": "https://www.google.com/maps/search/FixTops+New+Jersey",
    "category": "Bengali-speaking Mobile electronics repair in New-Jersey",
    "description": "Offers electronic repair services",
    "hours": "Mon-Fri 9AM-6PM",
    "services": [
      "Bengali-speaking Mobile electronics repair in New-Jersey consultation",
      "Professional service",
      "Quality guarantee"
    ],
    "social_links": {}
  },
  {
    "name": "Phone Guy Repairs",
    "address": "Raritan, NJ",
    "phone": "",
    "rating": 4.0,
    "reviews": 25,
    "website": "https://phoneguyrepairs.com/",
    "category": "Bengali-speaking Mobile electronics repair in New-Jersey",
    "description": "Specializes in fast, same-day repairs for phones, tablets, and computers, including iPhones, Samsung Galaxy, and more",
    "hours": "Mon-Fri 9AM-6PM",
    "services": [
      "Bengali-speaking Mobile electronics repair in New-Jersey consultation",
      "Professional service",
      "Quality guarantee"
    ],
    "social_links": {}
  },
  {
    "name": "MDrepairs",
    "address": "Middletown, NJ",
    "phone": "(732) 933-7717",
    "rating": 4.0,
    "reviews": 25,
    "website": "https://www.mdrepairs.com/",
    "category": "Bengali-speaking Mobile electronics repair in New-Jersey",
    "description": "Offers professional cell phone repair services with a limited lifetime warranty, including screen repair, battery replacement, and charging port repair",
    "hours": "Mon-Fri 9AM-6PM",
    "services": [
      "Bengali-speaking Mobile electronics repair in New-Jersey consultation",
      "Professional service",
      "Quality guarantee"
    ],
    "social_links": {}
  },
  {
    "name": "Orada Tech",
    "address": "82 Bethany Rd, Hazlet, NJ 07730",
    "phone": "(732) 226-3351",
    "rating": 4.0,
    "reviews": 25,
    "website": "https://www.oradatech.com/",
    "category": "Bengali-speaking Mobile electronics repair in New-Jersey",
    "description": "Provides professional device repair services for iPhones, tablets, and computers, emphasizing quality workmanship and customer service",
    "hours": "Mon-Fri 9AM-6PM",
    "services": [
      "Bengali-speaking Mobile electronics repair in New-Jersey consultation",
      "Professional service",
      "Quality guarantee"
    ],
    "social_links": {}
  }
]