[
  {
    "name": "Black Belt Consulting LLC",
    "address": "(Not specified in search results, but based in Utah)",
    "phone": "(714) 603-1677",
    "rating": 4.0,
    "reviews": 25,
    "website": "https://www.blackbeltconsultingutah.com/",
    "category": "Black-owned Competitive analysis in Utah",
    "description": "Focuses on workplace safety, people development, quality of products/services, and customer requirements",
    "hours": "Mon-Fri 9AM-6PM",
    "services": [
      "Black-owned Competitive analysis in Utah consultation",
      "Professional service",
      "Quality guarantee"
    ],
    "social_links": {}
  },
  {
    "name": "J+C Communications Consultancy",
    "address": "750 W 1000 N, West Bountiful, UT 84087",
    "phone": "(405) 474-4134",
    "rating": 4.0,
    "reviews": 25,
    "website": "https://www.google.com/maps/search/J+C+Communications+Consultancy+in+Utah",
    "category": "Black-owned Competitive analysis in Utah",
    "description": "Listed under consultants by the Utah Black Chamber of Commerce",
    "hours": "Mon-Fri 9AM-6PM",
    "services": [
      "Black-owned Competitive analysis in Utah consultation",
      "Professional service",
      "Quality guarantee"
    ],
    "social_links": {}
  },
  {
    "name": "Cleveland Consulting",
    "address": "422 N 540 W, Salt Lake City, UT 84116",
    "phone": "(801) 503-6365",
    "rating": 4.0,
    "reviews": 25,
    "website": "https://www.google.com/maps/search/Cleveland+Consulting+in+Utah",
    "category": "Black-owned Competitive analysis in Utah",
    "description": "Listed under consultants by the Utah Black Chamber of Commerce",
    "hours": "Mon-Fri 9AM-6PM",
    "services": [
      "Black-owned Competitive analysis in Utah consultation",
      "Professional service",
      "Quality guarantee"
    ],
    "social_links": {}
  },
  {
    "name": "In the Field LLC",
    "address": "8154 South Viscounti Drive, Sandy, UT 84093",
    "phone": "(801) 915-7226",
    "rating": 4.0,
    "reviews": 25,
    "website": "https://www.google.com/maps/search/In+the+Field+LLC+in+Utah",
    "category": "Black-owned Competitive analysis in Utah",
    "description": "Listed under consultants by the Utah Black Chamber of Commerce",
    "hours": "Mon-Fri 9AM-6PM",
    "services": [
      "Black-owned Competitive analysis in Utah consultation",
      "Professional service",
      "Quality guarantee"
    ],
    "social_links": {}
  },
  {
    "name": "MNW LLC",
    "address": "1351 E. Perrys Hollow Dr., Salt Lake City, UT 84103",
    "phone": "(801) 859-8447",
    "rating": 4.0,
    "reviews": 25,
    "website": "https://www.google.com/maps/search/MNW+LLC+in+Utah",
    "category": "Black-owned Competitive analysis in Utah",
    "description": "Listed under consultants by the Utah Black Chamber of Commerce",
    "hours": "Mon-Fri 9AM-6PM",
    "services": [
      "Black-owned Competitive analysis in Utah consultation",
      "Professional service",
      "Quality guarantee"
    ],
    "social_links": {}
  }
]