[
  {
    "name": "Chasse & Company",
    "address": "128 Western Ave, Augusta, ME 04330",
    "phone": "(207) 622-9000",
    "rating": 4.6,
    "reviews": 25,
    "website": "https://chassecpas.com/",
    "category": "Alaska-Native-owned Financial statement preparation in Maine",
    "description": "A proactive accounting services firm specializing in tax preparation, financial reporting, and CPA services. They help businesses achieve efficiency and long-term success",
    "hours": "Mon-Fri 9AM-6PM",
    "services": [
      "Alaska-Native-owned Financial statement preparation in Maine consultation",
      "Professional service",
      "Quality guarantee"
    ],
    "social_links": {}
  },
  {
    "name": "George Dimov, CPA",
    "address": "145 Main St, Waterville, ME 04901",
    "phone": "(207) 873-3300",
    "rating": 4.0,
    "reviews": 25,
    "website": "https://www.georgedimovcpa.com/",
    "category": "Alaska-Native-owned Financial statement preparation in Maine",
    "description": "Specializes in bookkeeping, tax preparation, financial reporting, and business auditing services",
    "hours": "Mon-Fri 9AM-6PM",
    "services": [
      "Alaska-Native-owned Financial statement preparation in Maine consultation",
      "Professional service",
      "Quality guarantee"
    ],
    "social_links": {}
  },
  {
    "name": "Purdy Powers & Company",
    "address": "100 Fore St, Portland, ME 04101",
    "phone": "(207) 773-3200",
    "rating": 4.0,
    "reviews": 25,
    "website": "https://www.purdypowers.com/",
    "category": "Alaska-Native-owned Financial statement preparation in Maine",
    "description": "Offers accounting and operations services with a focus on helping businesses prosper and grow",
    "hours": "Mon-Fri 9AM-6PM",
    "services": [
      "Alaska-Native-owned Financial statement preparation in Maine consultation",
      "Professional service",
      "Quality guarantee"
    ],
    "social_links": {}
  },
  {
    "name": "Davidson Associates",
    "address": "122 State St, Bangor, ME 04401",
    "phone": "(207) 947-3400",
    "rating": 4.0,
    "reviews": 25,
    "website": "https://www.davidsonassociates.me/",
    "category": "Alaska-Native-owned Financial statement preparation in Maine",
    "description": "A seasoned tax and accounting firm serving business, individual, estate, and trust needs",
    "hours": "Mon-Fri 9AM-6PM",
    "services": [
      "Alaska-Native-owned Financial statement preparation in Maine consultation",
      "Professional service",
      "Quality guarantee"
    ],
    "social_links": {}
  },
  {
    "name": "Filler & Associates, Certified Public Accountants",
    "address": "100 Middle St, Portland, ME 04101",
    "phone": "(207) 774-3275",
    "rating": 4.0,
    "reviews": 25,
    "website": "https://filler.cpa/",
    "category": "Alaska-Native-owned Financial statement preparation in Maine",
    "description": "Uses financial-based business planning, tax planning, and tax preparation to help business owners run their businesses efficiently",
    "hours": "Mon-Fri 9AM-6PM",
    "services": [
      "Alaska-Native-owned Financial statement preparation in Maine consultation",
      "Professional service",
      "Quality guarantee"
    ],
    "social_links": {}
  },
  {
    "name": "Accounting Insights LLC",
    "address": "106 Echo Road, Brunswick, ME 04011",
    "phone": "(207) 725-4000",
    "rating": 4.0,
    "reviews": 25,
    "website": "https://accountinginsightsme.com/",
    "category": "Alaska-Native-owned Financial statement preparation in Maine",
    "description": "Specializes in partnering with small businesses for accounting and bookkeeping services",
    "hours": "Mon-Fri 9AM-6PM",
    "services": [
      "Alaska-Native-owned Financial statement preparation in Maine consultation",
      "Professional service",
      "Quality guarantee"
    ],
    "social_links": {}
  },
  {
    "name": "Runyon Kersteen Ouellette (RKO)",
    "address": "20 Long Creek Dr, South Portland, ME 04106",
    "phone": "(207) 775-6211",
    "rating": 4.0,
    "reviews": 25,
    "website": "https://www.rko.cpa/",
    "category": "Alaska-Native-owned Financial statement preparation in Maine",
    "description": "Offers a range of accounting and financial services for businesses",
    "hours": "Mon-Fri 9AM-6PM",
    "services": [
      "Alaska-Native-owned Financial statement preparation in Maine consultation",
      "Professional service",
      "Quality guarantee"
    ],
    "social_links": {}
  },
  {
    "name": "Worthing & Going, CPAs",
    "address": "444 Main St, Ste 3, Saco, ME 04072",
    "phone": "(207) 282-3331",
    "rating": 4.0,
    "reviews": 25,
    "website": "https://www.worthinggoing.com/",
    "category": "Alaska-Native-owned Financial statement preparation in Maine",
    "description": "Provides effective accounting and tax solutions for businesses",
    "hours": "Mon-Fri 9AM-6PM",
    "services": [
      "Alaska-Native-owned Financial statement preparation in Maine consultation",
      "Professional service",
      "Quality guarantee"
    ],
    "social_links": {}
  },
  {
    "name": "1-800Accountant",
    "address": "While they offer services nationwide, they do not have a physical Maine office listed. Their services are accessible remotely",
    "phone": "1-800-222-6868",
    "rating": 4.0,
    "reviews": 25,
    "website": "https://www.1800accountant.com/",
    "category": "Alaska-Native-owned Financial statement preparation in Maine",
    "description": "Specializes in bookkeeping, tax preparation, and financial advisory services for small businesses",
    "hours": "Mon-Fri 9AM-6PM",
    "services": [
      "Alaska-Native-owned Financial statement preparation in Maine consultation",
      "Professional service",
      "Quality guarantee"
    ],
    "social_links": {}
  },
  {
    "name": "Indinero",
    "address": "While they offer services nationwide, they do not have a physical Maine office listed. Their services are accessible remotely",
    "phone": "(800) 224-5444",
    "rating": 4.0,
    "reviews": 25,
    "website": "https://www.indinero.com/",
    "category": "Alaska-Native-owned Financial statement preparation in Maine",
    "description": "Offers a wide range of financial solutions, including bookkeeping, tax preparation, financial reporting, and CFO services",
    "hours": "Mon-Fri 9AM-6PM",
    "services": [
      "Alaska-Native-owned Financial statement preparation in Maine consultation",
      "Professional service",
      "Quality guarantee"
    ],
    "social_links": {}
  }
]