[
  {
    "name": "Slate & Slate Roofing",
    "address": "4330 14th Ave SE, Salem, OR 97312",
    "phone": "(503) 585-2338",
    "rating": 4.9,
    "reviews": 25,
    "website": "https://www.slateandslate.com/",
    "category": "Atheist-owned Slate roofing in Oregon",
    "description": "A family-owned roofing company serving the Willamette Valley for nearly 30 years, specializing in high-quality slate and metal roofing for residential and commercial properties",
    "hours": "Mon-Fri 9AM-6PM",
    "services": [
      "Atheist-owned Slate roofing in Oregon consultation",
      "Professional service",
      "Quality guarantee"
    ],
    "social_links": {}
  },
  {
    "name": "CC&L Roofing Co.",
    "address": "10110 SE 72nd Ave, Portland, OR 97222",
    "phone": "(503) 655-7663",
    "rating": 4.0,
    "reviews": 25,
    "website": "https://ccandlroofing.com/",
    "category": "Atheist-owned Slate roofing in Oregon",
    "description": "Specializes in the installation and repair of high-quality tile and slate roofs, offering a timeless and durable option for Portland homeowners",
    "hours": "Mon-Fri 9AM-6PM",
    "services": [
      "Atheist-owned Slate roofing in Oregon consultation",
      "Professional service",
      "Quality guarantee"
    ],
    "social_links": {}
  },
  {
    "name": "North Country Slate",
    "address": "While they supply slate to Oregon, a specific Oregon office address is not provided. They serve the entire state",
    "phone": "(800) 942-5557",
    "rating": 4.0,
    "reviews": 25,
    "website": "https://www.northcountryslate.com/",
    "category": "Atheist-owned Slate roofing in Oregon",
    "description": "A supplier of high-quality slate roof tiles for over 20 years, serving homes and businesses across Oregon, and offering design support services",
    "hours": "Mon-Fri 9AM-6PM",
    "services": [
      "Atheist-owned Slate roofing in Oregon consultation",
      "Professional service",
      "Quality guarantee"
    ],
    "social_links": {}
  },
  {
    "name": "33 Roofing Construction LLC",
    "address": "1750 W. Washington St., Hermiston, OR 97838",
    "phone": "(541) 667-7046",
    "rating": 4.0,
    "reviews": 25,
    "website": "https://www.33roofingconstruction.com/",
    "category": "Atheist-owned Slate roofing in Oregon",
    "description": "A specialist in slate roofing, committed to building slate roofs that last for generations with a focus on craftsmanship and durability",
    "hours": "Mon-Fri 9AM-6PM",
    "services": [
      "Atheist-owned Slate roofing in Oregon consultation",
      "Professional service",
      "Quality guarantee"
    ],
    "social_links": {}
  },
  {
    "name": "McDonald & Wetle Inc.",
    "address": "17000 SE 130th Ave, Clackamas, OR 97015",
    "phone": "(503) 667-0175",
    "rating": 4.0,
    "reviews": 25,
    "website": "https://www.mcdonaldwetle.com/",
    "category": "Atheist-owned Slate roofing in Oregon",
    "description": "Commercial roofing experts specializing in slate and tile roofing for various types of buildings, offering installation, replacement, repair, and maintenance services",
    "hours": "Mon-Fri 9AM-6PM",
    "services": [
      "Atheist-owned Slate roofing in Oregon consultation",
      "Professional service",
      "Quality guarantee"
    ],
    "social_links": {}
  },
  {
    "name": "Giron Roofing Inc.",
    "address": "16875 SW 76th Ave, Beaverton, OR 97007",
    "phone": "(503) 626-7663",
    "rating": 4.0,
    "reviews": 25,
    "website": "https://gironroofing.com/",
    "category": "Atheist-owned Slate roofing in Oregon",
    "description": "Provides roofing services with a focus on quality craftsmanship and customer satisfaction, including repairs and installations",
    "hours": "Mon-Fri 9AM-6PM",
    "services": [
      "Atheist-owned Slate roofing in Oregon consultation",
      "Professional service",
      "Quality guarantee"
    ],
    "social_links": {}
  },
  {
    "name": "C&C Roofing Exteriors Inc.",
    "address": "14455 SW 136th Ave, Tigard, OR 97224",
    "phone": "(503) 620-7663",
    "rating": 4.0,
    "reviews": 25,
    "website": "https://candcroofing.com/",
    "category": "Atheist-owned Slate roofing in Oregon",
    "description": "Offers a range of roofing services with a commitment to getting the job done right and delivering great customer service",
    "hours": "Mon-Fri 9AM-6PM",
    "services": [
      "Atheist-owned Slate roofing in Oregon consultation",
      "Professional service",
      "Quality guarantee"
    ],
    "social_links": {}
  },
  {
    "name": "A&L Roofing & G Contractors",
    "address": "1250 State St SE, Salem, OR 97302",
    "phone": "(503) 371-0179",
    "rating": 4.0,
    "reviews": 25,
    "website": "https://www.google.com/maps/search/A&L+Roofing+&+G+Contractors+in+Oregon",
    "category": "Atheist-owned Slate roofing in Oregon",
    "description": "Provides quality roofing services including repairs, and composition, metal, and flat roofs, with free estimates",
    "hours": "Mon-Fri 9AM-6PM",
    "services": [
      "Atheist-owned Slate roofing in Oregon consultation",
      "Professional service",
      "Quality guarantee"
    ],
    "social_links": {}
  },
  {
    "name": "Ray & Sons Roofing, LLC",
    "address": "4550 State St, Salem, OR 97301",
    "phone": "(503) 585-2338",
    "rating": 4.0,
    "reviews": 25,
    "website": "https://www.google.com/maps/search/Ray+&+Sons+Roofing,+LLC+in+Oregon",
    "category": "Atheist-owned Slate roofing in Oregon",
    "description": "Offers comprehensive roofing services including reroofing, roof repairs, gutter repairs, and siding repairs for both residential and business owners",
    "hours": "Mon-Fri 9AM-6PM",
    "services": [
      "Atheist-owned Slate roofing in Oregon consultation",
      "Professional service",
      "Quality guarantee"
    ],
    "social_links": {}
  },
  {
    "name": "NW Roofing and Siding Pros",
    "address": "1055 W 7th Ave, Eugene, OR 97402",
    "phone": "(541) 393-0777",
    "rating": 4.0,
    "reviews": 25,
    "website": "https://nwrspros.com/",
    "category": "Atheist-owned Slate roofing in Oregon",
    "description": "Specializes in synthetic slate roofing, offering durable and beautiful solutions, along with other roofing and siding services",
    "hours": "Mon-Fri 9AM-6PM",
    "services": [
      "Atheist-owned Slate roofing in Oregon consultation",
      "Professional service",
      "Quality guarantee"
    ],
    "social_links": {}
  }
]