[
  {
    "name": "Club Pilates Aliante",
    "address": "6905 Aliante Parkway, Suite 104, North Las Vegas, NV 89084",
    "phone": "(702) 342-8827",
    "rating": 4.0,
    "reviews": 25,
    "website": "https://www.clubpilates.com/aliante",
    "category": "Chinese-American-owned Pilates in Nevada",
    "description": "A boutique Pilates studio specializing in reformer fusion classes for all ages and fitness levels",
    "hours": "Mon-Fri 9AM-6PM",
    "services": [
      "Chinese-American-owned Pilates in Nevada consultation",
      "Professional service",
      "Quality guarantee"
    ],
    "social_links": {}
  },
  {
    "name": "Club Pilates Henderson",
    "address": "10525 S. Eastern Ave., Suite 140, Henderson, NV 89052",
    "phone": "(702) 907-2758",
    "rating": 4.0,
    "reviews": 25,
    "website": "https://www.clubpilates.com/henderson",
    "category": "Chinese-American-owned Pilates in Nevada",
    "description": "Offers a range of classes from beginner to advanced, focusing on reformer-based workouts",
    "hours": "Mon-Fri 9AM-6PM",
    "services": [
      "Chinese-American-owned Pilates in Nevada consultation",
      "Professional service",
      "Quality guarantee"
    ],
    "social_links": {}
  },
  {
    "name": "Club Pilates Mountains Edge",
    "address": "8015 Blue Diamond Rd., #155, Las Vegas, NV 89178",
    "phone": "(702) 665-7914",
    "rating": 4.0,
    "reviews": 25,
    "website": "https://www.clubpilates.com/mountainsedge",
    "category": "Chinese-American-owned Pilates in Nevada",
    "description": "Provides full-body, reformer-based Pilates classes with a contemporary approach",
    "hours": "Mon-Fri 9AM-6PM",
    "services": [
      "Chinese-American-owned Pilates in Nevada consultation",
      "Professional service",
      "Quality guarantee"
    ],
    "social_links": {}
  },
  {
    "name": "Club Pilates Sparks",
    "address": "2453 Wingfield Hills Rd., Ste. 110, Sparks, NV 89436",
    "phone": "(775) 453-4389",
    "rating": 4.0,
    "reviews": 25,
    "website": "https://www.clubpilates.com/sparks",
    "category": "Chinese-American-owned Pilates in Nevada",
    "description": "Offers reformer-based Pilates classes, including foundational and progression levels",
    "hours": "Mon-Fri 9AM-6PM",
    "services": [
      "Chinese-American-owned Pilates in Nevada consultation",
      "Professional service",
      "Quality guarantee"
    ],
    "social_links": {}
  },
  {
    "name": "IM=X Pilates and Fitness",
    "address": "Henderson, NV (Specific address not provided in search results)",
    "phone": "(702) 550-0026",
    "rating": 4.0,
    "reviews": 25,
    "website": "https://imxpilates.com/henderson/",
    "category": "Chinese-American-owned Pilates in Nevada",
    "description": "Offers Pilates reformer and cycling classes with memberships and personal training",
    "hours": "Mon-Fri 9AM-6PM",
    "services": [
      "Chinese-American-owned Pilates in Nevada consultation",
      "Professional service",
      "Quality guarantee"
    ],
    "social_links": {}
  },
  {
    "name": "LOOPS PILATES",
    "address": "Reno, NV (Specific address not provided in search results, located in Plumgate Center)",
    "phone": "",
    "rating": 4.0,
    "reviews": 25,
    "website": "https://www.loopspilates.com/",
    "category": "Chinese-American-owned Pilates in Nevada",
    "description": "A neighborhood sanctuary for reformer Pilates in a contemporary group setting, offering various class levels",
    "hours": "Mon-Fri 9AM-6PM",
    "services": [
      "Chinese-American-owned Pilates in Nevada consultation",
      "Professional service",
      "Quality guarantee"
    ],
    "social_links": {}
  },
  {
    "name": "Pilates by Irina",
    "address": "6625 W Sahara Ave ste p6, Las Vegas, NV 89146",
    "phone": "",
    "rating": 4.0,
    "reviews": 25,
    "website": "https://www.pilatesbyirina.com/",
    "category": "Chinese-American-owned Pilates in Nevada",
    "description": "A boutique-style Pilates studio offering private sessions",
    "hours": "Mon-Fri 9AM-6PM",
    "services": [
      "Chinese-American-owned Pilates in Nevada consultation",
      "Professional service",
      "Quality guarantee"
    ],
    "social_links": {}
  },
  {
    "name": "Pilates Fit For All",
    "address": "Henderson, NV (Specific address not provided in search results)",
    "phone": "",
    "rating": 4.0,
    "reviews": 25,
    "website": "https://www.pilatesfitforall.com/",
    "category": "Chinese-American-owned Pilates in Nevada",
    "description": "A private reformer Pilates studio offering one-on-one instruction to improve posture, strength, flexibility, and mobility",
    "hours": "Mon-Fri 9AM-6PM",
    "services": [
      "Chinese-American-owned Pilates in Nevada consultation",
      "Professional service",
      "Quality guarantee"
    ],
    "social_links": {}
  },
  {
    "name": "The Good Place LV Pilates Reformer Studio",
    "address": "Henderson: 600 S Green Valley Parkway, Suite 110, Henderson NV 89052; Las Vegas: 6850 Ruby Duncan Street Suite 107, Las Vegas NV 89113",
    "phone": "(702) 707-6644 (text)",
    "rating": 4.0,
    "reviews": 25,
    "website": "https://www.thegoodplacelv.com/",
    "category": "Chinese-American-owned Pilates in Nevada",
    "description": "An athletic reformer studio offering group classes inspired by classical Pilates, dance, and HIIT workouts",
    "hours": "Mon-Fri 9AM-6PM",
    "services": [
      "Chinese-American-owned Pilates in Nevada consultation",
      "Professional service",
      "Quality guarantee"
    ],
    "social_links": {}
  },
  {
    "name": "Your Body\u00ae Pilates",
    "address": "Reno, Nevada (Specific address not provided in search results, located in Plumgate Plaza)",
    "phone": "",
    "rating": 4.0,
    "reviews": 25,
    "website": "https://www.yourbodypilates.com/",
    "category": "Chinese-American-owned Pilates in Nevada",
    "description": "A boutique Fletcher Pilates\u00ae studio offering private, duet, and group lessons, focusing on the Fletcher Pilates\u00ae Method",
    "hours": "Mon-Fri 9AM-6PM",
    "services": [
      "Chinese-American-owned Pilates in Nevada consultation",
      "Professional service",
      "Quality guarantee"
    ],
    "social_links": {}
  }
]