[
  {
    "name": "Cascadian Nurseries",
    "address": "8900 NW Dick Rd, Hillsboro, OR 97124",
    "phone": "(503) 647-9292",
    "rating": 4.0,
    "reviews": 25,
    "website": "https://www.google.com/maps/search/Cascadian+Nurseries+in+Oregon",
    "category": "Buddhist-owned Planting services in Oregon",
    "description": "A nursery offering a variety of plants",
    "hours": "Mon-Fri 9AM-6PM",
    "services": [
      "Buddhist-owned Planting services in Oregon consultation",
      "Professional service",
      "Quality guarantee"
    ],
    "social_links": {}
  },
  {
    "name": "Garden Fever!",
    "address": "3433 NE 24th Ave, Portland, OR 97212",
    "phone": "(503) 287-3200",
    "rating": 4.0,
    "reviews": 25,
    "website": "https://www.google.com/maps/search/Garden+Fever!+in+Oregon",
    "category": "Buddhist-owned Planting services in Oregon",
    "description": "A plant nursery located in Portland",
    "hours": "Mon-Fri 9AM-6PM",
    "services": [
      "Buddhist-owned Planting services in Oregon consultation",
      "Professional service",
      "Quality guarantee"
    ],
    "social_links": {}
  },
  {
    "name": "Native Foods Nursery",
    "address": "81868 Lost Valley Ln, Dexter, OR 97431",
    "phone": "(541) 600-4270",
    "rating": 4.0,
    "reviews": 25,
    "website": "https://www.google.com/maps/search/Native+Foods+Nursery+in+Oregon",
    "category": "Buddhist-owned Planting services in Oregon",
    "description": "A nursery specializing in native plants",
    "hours": "Mon-Fri 9AM-6PM",
    "services": [
      "Buddhist-owned Planting services in Oregon consultation",
      "Professional service",
      "Quality guarantee"
    ],
    "social_links": {}
  },
  {
    "name": "Portland Nursery (Stark Location)",
    "address": "5050 SE Stark St, Portland, OR 97215",
    "phone": "(503) 231-5050",
    "rating": 4.0,
    "reviews": 25,
    "website": "https://www.google.com/maps/search/Portland+Nursery+(Stark+Location)+in+Oregon",
    "category": "Buddhist-owned Planting services in Oregon",
    "description": "A well-known nursery with two locations in Portland",
    "hours": "Mon-Fri 9AM-6PM",
    "services": [
      "Buddhist-owned Planting services in Oregon consultation",
      "Professional service",
      "Quality guarantee"
    ],
    "social_links": {}
  },
  {
    "name": "Portland Nursery (Division Location)",
    "address": "9000 SE Division St, Portland, OR 97266",
    "phone": "(503) 788-9000",
    "rating": 4.0,
    "reviews": 25,
    "website": "https://www.google.com/maps/search/Portland+Nursery+(Division+Location)+in+Oregon",
    "category": "Buddhist-owned Planting services in Oregon",
    "description": "A well-known nursery with two locations in Portland",
    "hours": "Mon-Fri 9AM-6PM",
    "services": [
      "Buddhist-owned Planting services in Oregon consultation",
      "Professional service",
      "Quality guarantee"
    ],
    "social_links": {}
  },
  {
    "name": "Sauvie Island Natives",
    "address": "14745 Northwest Gillihan Road, Portland, OR 97231 (By Appointment Only)",
    "phone": "(503) 380-6807",
    "rating": 4.0,
    "reviews": 25,
    "website": "https://www.google.com/maps/search/Sauvie+Island+Natives+in+Oregon",
    "category": "Buddhist-owned Planting services in Oregon",
    "description": "Offers a selection of Northwest native plants for habitats and restoration projects",
    "hours": "Mon-Fri 9AM-6PM",
    "services": [
      "Buddhist-owned Planting services in Oregon consultation",
      "Professional service",
      "Quality guarantee"
    ],
    "social_links": {}
  },
  {
    "name": "Sevenoaks Native Nursery",
    "address": "Not specified in search results, but located in the Willamette Valley, Oregon",
    "phone": "",
    "rating": 4.0,
    "reviews": 25,
    "website": "https://www.google.com/maps/search/Sevenoaks+Native+Nursery+in+Oregon",
    "category": "Buddhist-owned Planting services in Oregon",
    "description": "A wholesale nursery growing native plants of the Western United States",
    "hours": "Mon-Fri 9AM-6PM",
    "services": [
      "Buddhist-owned Planting services in Oregon consultation",
      "Professional service",
      "Quality guarantee"
    ],
    "social_links": {}
  },
  {
    "name": "Scholls Valley Native Nursery",
    "address": "20250617 171451 (This appears to be a date/time stamp, not an address. A physical address was not clearly identified in the search results.)",
    "phone": "",
    "rating": 4.0,
    "reviews": 25,
    "website": "https://www.google.com/maps/search/Scholls+Valley+Native+Nursery+in+Oregon",
    "category": "Buddhist-owned Planting services in Oregon",
    "description": "Specializes in wholesale native plants and is Salmon-Safe certified",
    "hours": "Mon-Fri 9AM-6PM",
    "services": [
      "Buddhist-owned Planting services in Oregon consultation",
      "Professional service",
      "Quality guarantee"
    ],
    "social_links": {}
  },
  {
    "name": "TwinFlower Natives",
    "address": "3306 SE Lake Rd, Milwaukie, OR 97222",
    "phone": "(503) 653-6523",
    "rating": 4.0,
    "reviews": 25,
    "website": "https://www.google.com/maps/search/TwinFlower+Natives+in+Oregon",
    "category": "Buddhist-owned Planting services in Oregon",
    "description": "A nursery focused on native plants",
    "hours": "Mon-Fri 9AM-6PM",
    "services": [
      "Buddhist-owned Planting services in Oregon consultation",
      "Professional service",
      "Quality guarantee"
    ],
    "social_links": {}
  },
  {
    "name": "Valley Growers Nursery & Landscape",
    "address": "30570 Barlow Rd, Hubbard, OR 97032",
    "phone": "(503) 651-3535",
    "rating": 4.0,
    "reviews": 25,
    "website": "https://www.google.com/maps/search/Valley+Growers+Nursery+&+Landscape+in+Oregon",
    "category": "Buddhist-owned Planting services in Oregon",
    "description": "Offers nursery and landscaping services",
    "hours": "Mon-Fri 9AM-6PM",
    "services": [
      "Buddhist-owned Planting services in Oregon consultation",
      "Professional service",
      "Quality guarantee"
    ],
    "social_links": {}
  }
]