[
  {
    "name": "Penn Asian Vocational Institute",
    "address": "Not explicitly stated in search results, but appears to be in the Philadelphia area based on partnership with Penn State Abington",
    "phone": "",
    "rating": 4.0,
    "reviews": 25,
    "website": "https://www.pennasian.org/",
    "category": "Asian-owned Trade schools in Pennsylvania",
    "description": "Offers training in Nurse Aide, Home Health Aide, and Vocational English as a Second Language (VESL)",
    "hours": "Mon-Fri 9AM-6PM",
    "services": [
      "Asian-owned Trade schools in Pennsylvania consultation",
      "Professional service",
      "Quality guarantee"
    ],
    "social_links": {}
  },
  {
    "name": "Pennsylvania College of Technology",
    "address": "One College Avenue, Williamsport, PA 17701",
    "phone": "(570) 326-3761",
    "rating": 4.0,
    "reviews": 25,
    "website": "https://www.pct.edu/",
    "category": "Asian-owned Trade schools in Pennsylvania",
    "description": "Offers a wide range of associate and bachelor's degree programs in fields like automotive technology, aviation maintenance, and welding",
    "hours": "Mon-Fri 9AM-6PM",
    "services": [
      "Asian-owned Trade schools in Pennsylvania consultation",
      "Professional service",
      "Quality guarantee"
    ],
    "social_links": {}
  },
  {
    "name": "Penn Commercial Business/Technical School",
    "address": "1400 Technology Drive, Washington, PA 15301",
    "phone": "(724) 222-5330",
    "rating": 4.0,
    "reviews": 25,
    "website": "https://www.penncommercial.edu/",
    "category": "Asian-owned Trade schools in Pennsylvania",
    "description": "Provides career training in trades, technical, medical, and beauty industries",
    "hours": "Mon-Fri 9AM-6PM",
    "services": [
      "Asian-owned Trade schools in Pennsylvania consultation",
      "Professional service",
      "Quality guarantee"
    ],
    "social_links": {}
  },
  {
    "name": "Rosedale Technical College",
    "address": "9325 Penn Ave, Pittsburgh, PA 15237",
    "phone": "(412) 771-2400",
    "rating": 4.0,
    "reviews": 25,
    "website": "https://www.rosedaletech.org/",
    "category": "Asian-owned Trade schools in Pennsylvania",
    "description": "Offers programs in automotive mechanics, HVAC, and electrical technology",
    "hours": "Mon-Fri 9AM-6PM",
    "services": [
      "Asian-owned Trade schools in Pennsylvania consultation",
      "Professional service",
      "Quality guarantee"
    ],
    "social_links": {}
  },
  {
    "name": "Laurel Technical Institute",
    "address": "1450 N. Main Street, Uniontown, PA 15401 (and other locations)",
    "phone": "(724) 439-4000",
    "rating": 4.0,
    "reviews": 25,
    "website": "https://laurelti.com/",
    "category": "Asian-owned Trade schools in Pennsylvania",
    "description": "Provides training in fields such as electrician, HVAC, and automotive technology",
    "hours": "Mon-Fri 9AM-6PM",
    "services": [
      "Asian-owned Trade schools in Pennsylvania consultation",
      "Professional service",
      "Quality guarantee"
    ],
    "social_links": {}
  },
  {
    "name": "Thaddeus Stevens College of Technology",
    "address": "750 E. King Street, Lancaster, PA 17602",
    "phone": "(717) 391-4000",
    "rating": 4.0,
    "reviews": 25,
    "website": "https://www.stevenscollege.edu/",
    "category": "Asian-owned Trade schools in Pennsylvania",
    "description": "Offers associate degree and certificate programs in trades, technology, and business",
    "hours": "Mon-Fri 9AM-6PM",
    "services": [
      "Asian-owned Trade schools in Pennsylvania consultation",
      "Professional service",
      "Quality guarantee"
    ],
    "social_links": {}
  },
  {
    "name": "Berks Career & Technology Center (BCTC)",
    "address": "1057 County Road 10, Leesport, PA 19533 (and other locations)",
    "phone": "(610) 921-0351",
    "rating": 4.0,
    "reviews": 25,
    "website": "https://www.berkscareer.com/",
    "category": "Asian-owned Trade schools in Pennsylvania",
    "description": "Provides career and technical education in various fields, including healthcare and skilled trades",
    "hours": "Mon-Fri 9AM-6PM",
    "services": [
      "Asian-owned Trade schools in Pennsylvania consultation",
      "Professional service",
      "Quality guarantee"
    ],
    "social_links": {}
  },
  {
    "name": "Central Pennsylvania Institute of Science and Technology (CPI)",
    "address": "540 N. Harrison Road, Pleasant Gap, PA 16823",
    "phone": "(814) 355-1036",
    "rating": 4.0,
    "reviews": 25,
    "website": "https://www.cpi.edu/",
    "category": "Asian-owned Trade schools in Pennsylvania",
    "description": "Offers career and technical education for high school students and adult learners",
    "hours": "Mon-Fri 9AM-6PM",
    "services": [
      "Asian-owned Trade schools in Pennsylvania consultation",
      "Professional service",
      "Quality guarantee"
    ],
    "social_links": {}
  },
  {
    "name": "YTI Career Institute",
    "address": "3050 East Market Street, York, PA 17402 (and other locations)",
    "phone": "(717) 801-1000",
    "rating": 4.0,
    "reviews": 25,
    "website": "https://www.yti.edu/",
    "category": "Asian-owned Trade schools in Pennsylvania",
    "description": "Offers hybrid, online, and on-campus career training in computer, culinary arts, healthcare, and trades fields",
    "hours": "Mon-Fri 9AM-6PM",
    "services": [
      "Asian-owned Trade schools in Pennsylvania consultation",
      "Professional service",
      "Quality guarantee"
    ],
    "social_links": {}
  },
  {
    "name": "Berks Technical Institute",
    "address": "2205 Ridgewood Road, Suite 100, Wyomissing, PA 19610 (and other locations)",
    "phone": "(866) 481-9301",
    "rating": 4.0,
    "reviews": 25,
    "website": "https://www.berkstech.edu/",
    "category": "Asian-owned Trade schools in Pennsylvania",
    "description": "Provides career path education in skilled trades and healthcare",
    "hours": "Mon-Fri 9AM-6PM",
    "services": [
      "Asian-owned Trade schools in Pennsylvania consultation",
      "Professional service",
      "Quality guarantee"
    ],
    "social_links": {}
  }
]