[
  {
    "name": "Ridgway Plastic Surgery & Medical Spa",
    "address": "101 E. Mendenhall, Suite 100, Bozeman, MT 59715",
    "phone": "(406) 587-0010",
    "rating": 4.0,
    "reviews": 25,
    "website": "https://www.ridgwayplasticsurgery.com/",
    "category": "Bengali-speaking Cellulite treatment in Montana",
    "description": "Offers a comprehensive range of cosmetic and reconstructive surgery, including treatments for aesthetic concerns. They provide services like lip filler, Botox, breast augmentation, liposuction, Emsculpt Neo, and facelifts",
    "hours": "Mon-Fri 9AM-6PM",
    "services": [
      "Bengali-speaking Cellulite treatment in Montana consultation",
      "Professional service",
      "Quality guarantee"
    ],
    "social_links": {}
  },
  {
    "name": "Mountain West Plastic Surgery",
    "address": "2170 US-93 S, Kalispell, MT 59901",
    "phone": "(406) 609-0210",
    "rating": 4.0,
    "reviews": 25,
    "website": "https://www.mountainwestplasticsurgery.com/",
    "category": "Bengali-speaking Cellulite treatment in Montana",
    "description": "Provides advanced, minimally invasive, and long-lasting solutions for cellulite reduction, including the Av\u00e9li\u00ae cellulite treatment. They also offer other body contouring procedures like tummy tucks and liposuction",
    "hours": "Mon-Fri 9AM-6PM",
    "services": [
      "Bengali-speaking Cellulite treatment in Montana consultation",
      "Professional service",
      "Quality guarantee"
    ],
    "social_links": {}
  },
  {
    "name": "Cura Med Spa",
    "address": "1035 W. Emerald St., Kalispell, MT 59901",
    "phone": "(406) 755-5445",
    "rating": 4.0,
    "reviews": 25,
    "website": "https://curamedspa.com/",
    "category": "Bengali-speaking Cellulite treatment in Montana",
    "description": "Offers personalized aesthetic and wellness treatments, including body sculpting with their truBody platform, to enhance natural beauty and confidence",
    "hours": "Mon-Fri 9AM-6PM",
    "services": [
      "Bengali-speaking Cellulite treatment in Montana consultation",
      "Professional service",
      "Quality guarantee"
    ],
    "social_links": {}
  },
  {
    "name": "Glacier Med Spa",
    "address": "1130 Whitefish Stage Rd, Kalispell, MT 59901 (also has a location in Whitefish)",
    "phone": "(406) 755-6770",
    "rating": 4.0,
    "reviews": 25,
    "website": "https://glaciermedspa.com/",
    "category": "Bengali-speaking Cellulite treatment in Montana",
    "description": "A premier medical spa offering cosmetic injectables, laser treatments, skin tightening, and body sculpting services. They focus on customized treatment plans for individual needs",
    "hours": "Mon-Fri 9AM-6PM",
    "services": [
      "Bengali-speaking Cellulite treatment in Montana consultation",
      "Professional service",
      "Quality guarantee"
    ],
    "social_links": {}
  },
  {
    "name": "Billings Dermatology & Plastic Surgery",
    "address": "2455 King Ave W, Billings, MT 59102",
    "phone": "(406) 294-9660",
    "rating": 4.0,
    "reviews": 25,
    "website": "https://billingsdermatology.com/",
    "category": "Bengali-speaking Cellulite treatment in Montana",
    "description": "Offers treatments like PelleFirm, a non-invasive radiofrequency treatment for cellulite, skin firmness, tone, and contour. They provide complimentary consultations",
    "hours": "Mon-Fri 9AM-6PM",
    "services": [
      "Bengali-speaking Cellulite treatment in Montana consultation",
      "Professional service",
      "Quality guarantee"
    ],
    "social_links": {}
  },
  {
    "name": "Renew Skin Care",
    "address": "103 S Wallace Ave, Bozeman, MT 59715",
    "phone": "(406) 585-3000",
    "rating": 4.0,
    "reviews": 25,
    "website": "https://www.renewskincarebozeman.com/",
    "category": "Bengali-speaking Cellulite treatment in Montana",
    "description": "Provides Viora Reaction treatments for skin tightening, cellulite reduction, and body contouring using radiofrequency energy and vacuum therapy",
    "hours": "Mon-Fri 9AM-6PM",
    "services": [
      "Bengali-speaking Cellulite treatment in Montana consultation",
      "Professional service",
      "Quality guarantee"
    ],
    "social_links": {}
  },
  {
    "name": "Fyre Aesthetics",
    "address": "1017 Breckenridge St, Helena, MT 59601",
    "phone": "(406) 493-9074",
    "rating": 4.0,
    "reviews": 25,
    "website": "https://fyreaesthetics.com/",
    "category": "Bengali-speaking Cellulite treatment in Montana",
    "description": "A premier medical spa offering a range of cosmetic and aesthetic injectables, including treatments that can address skin concerns",
    "hours": "Mon-Fri 9AM-6PM",
    "services": [
      "Bengali-speaking Cellulite treatment in Montana consultation",
      "Professional service",
      "Quality guarantee"
    ],
    "social_links": {}
  },
  {
    "name": "Signature Med Spa Great Falls",
    "address": "1415 11th Ave S, Great Falls, MT 59405",
    "phone": "(406) 761-0027",
    "rating": 4.0,
    "reviews": 25,
    "website": "https://signaturemedspagf.com/",
    "category": "Bengali-speaking Cellulite treatment in Montana",
    "description": "Offers non-invasive and minimally invasive treatments such as Botox, fillers, and laser skin tightening, which can contribute to smoother skin appearance",
    "hours": "Mon-Fri 9AM-6PM",
    "services": [
      "Bengali-speaking Cellulite treatment in Montana consultation",
      "Professional service",
      "Quality guarantee"
    ],
    "social_links": {}
  },
  {
    "name": "Epiphany Dermatology of Bozeman (Midtown)",
    "address": "815 N 5th Ave, Suite #202, Bozeman, MT 59715",
    "phone": "(406) 587-9000",
    "rating": 4.0,
    "reviews": 25,
    "website": "https://www.epiphanydermatology.com/locations/bozeman-midtown-mt/",
    "category": "Bengali-speaking Cellulite treatment in Montana",
    "description": "A full-service dermatology practice offering general, cosmetic, and skin cancer treatments. They provide a wide range of services that can improve skin appearance",
    "hours": "Mon-Fri 9AM-6PM",
    "services": [
      "Bengali-speaking Cellulite treatment in Montana consultation",
      "Professional service",
      "Quality guarantee"
    ],
    "social_links": {}
  },
  {
    "name": "Pure Dermatology",
    "address": "1015 W. Mendenhall St., Bozeman, MT 59715",
    "phone": "(406) 587-4432",
    "rating": 4.0,
    "reviews": 25,
    "website": "https://puredermmt.com/",
    "category": "Bengali-speaking Cellulite treatment in Montana",
    "description": "Offers medical, surgical, and aesthetic dermatology services, including treatments for aging, scarring, sun damage, and targeted fat reduction, which can help with skin texture and appearance",
    "hours": "Mon-Fri 9AM-6PM",
    "services": [
      "Bengali-speaking Cellulite treatment in Montana consultation",
      "Professional service",
      "Quality guarantee"
    ],
    "social_links": {}
  }
]