[
  {
    "name": "EB4 Automotive",
    "address": "4320 Landers Rd, North Little Rock, AR 72117",
    "phone": "(501) 791-6084",
    "rating": 4.0,
    "reviews": 25,
    "website": "https://www.google.com/maps/search/EB4+Automotive+in+Arkansas",
    "category": "Black-owned Engine repair in Arkansas",
    "description": "Automotive Repair & Restorations",
    "hours": "Mon-Fri 9AM-6PM",
    "services": [
      "Black-owned Engine repair in Arkansas consultation",
      "Professional service",
      "Quality guarantee"
    ],
    "social_links": {}
  },
  {
    "name": "Cantrell Service Center",
    "address": "7601 Young Road, North Little Rock, AR 72118",
    "phone": "(501) 758-1188",
    "rating": 4.0,
    "reviews": 25,
    "website": "https://www.google.com/maps/search/Cantrell+Service+Center+in+Arkansas",
    "category": "Black-owned Engine repair in Arkansas",
    "description": "Family-owned auto repair shop serving Maumelle, Little Rock, and North Little Rock",
    "hours": "Mon-Fri 9AM-6PM",
    "services": [
      "Black-owned Engine repair in Arkansas consultation",
      "Professional service",
      "Quality guarantee"
    ],
    "social_links": {}
  },
  {
    "name": "DJ's Auto Repair",
    "address": "6103 Carnegie Dr, North Little Rock, AR 72117",
    "phone": "",
    "rating": 4.0,
    "reviews": 25,
    "website": "https://www.google.com/maps/search/DJ's+Auto+Repair+in+Arkansas",
    "category": "Black-owned Engine repair in Arkansas",
    "description": "Expert auto services, from oil changes to engine repairs",
    "hours": "Mon-Fri 9AM-6PM",
    "services": [
      "Black-owned Engine repair in Arkansas consultation",
      "Professional service",
      "Quality guarantee"
    ],
    "social_links": {}
  },
  {
    "name": "Joe's Garage",
    "address": "5601 Crystal Hill Rd, North Little Rock, AR 72118",
    "phone": "(501) 753-4685",
    "rating": 4.0,
    "reviews": 25,
    "website": "https://www.google.com/maps/search/Joe's+Garage+in+Arkansas",
    "category": "Black-owned Engine repair in Arkansas",
    "description": "Reliable, high-quality auto repair services",
    "hours": "Mon-Fri 9AM-6PM",
    "services": [
      "Black-owned Engine repair in Arkansas consultation",
      "Professional service",
      "Quality guarantee"
    ],
    "social_links": {}
  },
  {
    "name": "Skyline Automotive",
    "address": "(Not provided in search results, but located in North Little Rock, AR)",
    "phone": "(501) 218-8666",
    "rating": 4.0,
    "reviews": 25,
    "website": "https://www.google.com/maps/search/Skyline+Automotive+in+Arkansas",
    "category": "Black-owned Engine repair in Arkansas",
    "description": "Top-rated car and truck repair",
    "hours": "Mon-Fri 9AM-6PM",
    "services": [
      "Black-owned Engine repair in Arkansas consultation",
      "Professional service",
      "Quality guarantee"
    ],
    "social_links": {}
  },
  {
    "name": "W & W Automotive LLC",
    "address": "1100 S O St, Fort Smith, AR 72901",
    "phone": "(479) 242-1600",
    "rating": 4.0,
    "reviews": 25,
    "website": "https://www.google.com/maps/search/W+&+W+Automotive+LLC+in+Arkansas",
    "category": "Black-owned Engine repair in Arkansas",
    "description": "Comprehensive vehicle services, including brake repairs, tire replacements, and oil changes",
    "hours": "Mon-Fri 9AM-6PM",
    "services": [
      "Black-owned Engine repair in Arkansas consultation",
      "Professional service",
      "Quality guarantee"
    ],
    "social_links": {}
  },
  {
    "name": "Mike's Automotive, Inc.",
    "address": "3905 Towson Ave, Fort Smith, AR 72901",
    "phone": "(479) 646-9321",
    "rating": 4.0,
    "reviews": 25,
    "website": "https://www.google.com/maps/search/Mike's+Automotive,+Inc.+in+Arkansas",
    "category": "Black-owned Engine repair in Arkansas",
    "description": "Reliable auto repair services",
    "hours": "Mon-Fri 9AM-6PM",
    "services": [
      "Black-owned Engine repair in Arkansas consultation",
      "Professional service",
      "Quality guarantee"
    ],
    "social_links": {}
  },
  {
    "name": "Dr Underhood",
    "address": "Fort Smith, Arkansas 72901",
    "phone": "(479) 434-5852",
    "rating": 4.0,
    "reviews": 25,
    "website": "https://www.google.com/maps/search/Dr+Underhood+in+Arkansas",
    "category": "Black-owned Engine repair in Arkansas",
    "description": "Automotive specialists offering complete auto repair and service",
    "hours": "Mon-Fri 9AM-6PM",
    "services": [
      "Black-owned Engine repair in Arkansas consultation",
      "Professional service",
      "Quality guarantee"
    ],
    "social_links": {}
  },
  {
    "name": "D&R Automotive",
    "address": "(Not provided in search results, but located in Jonesboro, AR)",
    "phone": "",
    "rating": 4.0,
    "reviews": 25,
    "website": "https://www.google.com/maps/search/D&R+Automotive+in+Arkansas",
    "category": "Black-owned Engine repair in Arkansas",
    "description": "Reliable and affordable auto repairs for your vehicle",
    "hours": "Mon-Fri 9AM-6PM",
    "services": [
      "Black-owned Engine repair in Arkansas consultation",
      "Professional service",
      "Quality guarantee"
    ],
    "social_links": {}
  },
  {
    "name": "Xtreme Auto Repair & Sales of NEA LLC",
    "address": "3214 Herb Street, Jonesboro, Arkansas 72401",
    "phone": "(870) 910-0153",
    "rating": 4.0,
    "reviews": 25,
    "website": "https://www.google.com/maps/search/Xtreme+Auto+Repair+&+Sales+of+NEA+LLC+in+Arkansas",
    "category": "Black-owned Engine repair in Arkansas",
    "description": "Specialized auto repair solutions",
    "hours": "Mon-Fri 9AM-6PM",
    "services": [
      "Black-owned Engine repair in Arkansas consultation",
      "Professional service",
      "Quality guarantee"
    ],
    "social_links": {}
  }
]