[
  {
    "name": "Scrub 'N Bubbles Cleaning, LLC",
    "address": "Caldwell, ID (Specific address not publicly available, serves Treasure Valley)",
    "phone": "(208) 899-8584",
    "rating": 4.0,
    "reviews": 25,
    "website": "https://scrubnbubblescleaning.com/",
    "category": "Agnostic-owned General house cleaning in Idaho",
    "description": "Locally owned and operated family business serving Caldwell and the Treasure Valley, offering residential and commercial cleaning, including post-construction and move-in/out services",
    "hours": "Mon-Fri 9AM-6PM",
    "services": [
      "Agnostic-owned General house cleaning in Idaho consultation",
      "Professional service",
      "Quality guarantee"
    ],
    "social_links": {}
  },
  {
    "name": "Mister Maid Cleaning Service",
    "address": "Rexburg, ID 83440",
    "phone": "",
    "rating": 4.0,
    "reviews": 25,
    "website": "https://mistermaid.com/",
    "category": "Agnostic-owned General house cleaning in Idaho",
    "description": "Locally owned and operated cleaning service in Rexburg, offering comprehensive residential and commercial cleaning solutions",
    "hours": "Mon-Fri 9AM-6PM",
    "services": [
      "Agnostic-owned General house cleaning in Idaho consultation",
      "Professional service",
      "Quality guarantee"
    ],
    "social_links": {}
  },
  {
    "name": "Extra Clean Cleaning",
    "address": "Nampa, ID (Serves Nampa, Boise, Meridian, and Treasure Valley)",
    "phone": "(208) 400-0407",
    "rating": 4.0,
    "reviews": 25,
    "website": "https://www.extraclennampa.com/",
    "category": "Agnostic-owned General house cleaning in Idaho",
    "description": "Professional and affordable house cleaning services in Nampa and the Treasure Valley, offering customized plans and eco-friendly supplies",
    "hours": "Mon-Fri 9AM-6PM",
    "services": [
      "Agnostic-owned General house cleaning in Idaho consultation",
      "Professional service",
      "Quality guarantee"
    ],
    "social_links": {}
  },
  {
    "name": "Maid to Clean",
    "address": "Meridian, ID (Serves Boise, ID area)",
    "phone": "(208) 880-5111",
    "rating": 4.0,
    "reviews": 25,
    "website": "https://maidtocleanidaho.com/",
    "category": "Agnostic-owned General house cleaning in Idaho",
    "description": "Locally owned and operated company in Meridian providing comprehensive residential cleaning services to the Boise area for over 20 years",
    "hours": "Mon-Fri 9AM-6PM",
    "services": [
      "Agnostic-owned General house cleaning in Idaho consultation",
      "Professional service",
      "Quality guarantee"
    ],
    "social_links": {}
  },
  {
    "name": "Clean Nation Co.",
    "address": "Coeur d'Alene, ID",
    "phone": "(509) 217-4729",
    "rating": 4.8,
    "reviews": 25,
    "website": "https://cleannationco.com/",
    "category": "Agnostic-owned General house cleaning in Idaho",
    "description": "Local cleaning company in Coeur d'Alene offering affordable and reliable residential cleaning services, including recurring housekeeping, deep cleanings, and move-in/move-out cleaning, using environmentally friendly products",
    "hours": "Mon-Fri 9AM-6PM",
    "services": [
      "Agnostic-owned General house cleaning in Idaho consultation",
      "Professional service",
      "Quality guarantee"
    ],
    "social_links": {}
  },
  {
    "name": "Mad Clean LLC",
    "address": "Coeur d'Alene & Hayden, ID",
    "phone": "(208) 966-0123",
    "rating": 4.0,
    "reviews": 25,
    "website": "https://madcleanllc.com/",
    "category": "Agnostic-owned General house cleaning in Idaho",
    "description": "Professional cleaning services for homes and businesses in Coeur d'Alene and Hayden, focusing on creating a clean and healthy environment",
    "hours": "Mon-Fri 9AM-6PM",
    "services": [
      "Agnostic-owned General house cleaning in Idaho consultation",
      "Professional service",
      "Quality guarantee"
    ],
    "social_links": {}
  },
  {
    "name": "Merry Maids",
    "address": "Coeur d'Alene, ID",
    "phone": "(208) 667-4400",
    "rating": 4.0,
    "reviews": 25,
    "website": "https://www.merrymaids.com/locations/id/coeur-dalene/1304/",
    "category": "Agnostic-owned General house cleaning in Idaho",
    "description": "Established cleaning service in Coeur d'Alene offering various cleaning options including recurring, deep, specialty, post-construction, seasonal, and move-in/move-out cleaning",
    "hours": "Mon-Fri 9AM-6PM",
    "services": [
      "Agnostic-owned General house cleaning in Idaho consultation",
      "Professional service",
      "Quality guarantee"
    ],
    "social_links": {}
  },
  {
    "name": "Lone Star Cleaning Solutions",
    "address": "Idaho Falls, ID",
    "phone": "(208) 205-9993",
    "rating": 4.0,
    "reviews": 25,
    "website": "https://lonestarcsl.com/",
    "category": "Agnostic-owned General house cleaning in Idaho",
    "description": "Family-owned business in Idaho Falls providing premium house cleaning services with a focus on reliability, attention to detail, and customer satisfaction",
    "hours": "Mon-Fri 9AM-6PM",
    "services": [
      "Agnostic-owned General house cleaning in Idaho consultation",
      "Professional service",
      "Quality guarantee"
    ],
    "social_links": {}
  },
  {
    "name": "Distinguished Cleaning",
    "address": "Idaho Falls, ID",
    "phone": "(208) 552-1310",
    "rating": 4.0,
    "reviews": 25,
    "website": "https://distinguishedcleaning.com/",
    "category": "Agnostic-owned General house cleaning in Idaho",
    "description": "Affordable house and office cleaning services in Idaho Falls, offering tailored services to fit budgets, with a focus on professionalism and thoroughness",
    "hours": "Mon-Fri 9AM-6PM",
    "services": [
      "Agnostic-owned General house cleaning in Idaho consultation",
      "Professional service",
      "Quality guarantee"
    ],
    "social_links": {}
  },
  {
    "name": "All Fresh Cleaning",
    "address": "Idaho Falls, ID (and surrounding areas)",
    "phone": "",
    "rating": 4.0,
    "reviews": 25,
    "website": "https://allfreshcleaning.com/",
    "category": "Agnostic-owned General house cleaning in Idaho",
    "description": "Residential and commercial cleaning services in Idaho Falls and surrounding areas, focused on simplifying clients' lives and building lifelong relationships through exceptional service",
    "hours": "Mon-Fri 9AM-6PM",
    "services": [
      "Agnostic-owned General house cleaning in Idaho consultation",
      "Professional service",
      "Quality guarantee"
    ],
    "social_links": {}
  }
]