[
  {
    "name": "LAIKA Studios",
    "address": "8850 SW Nimbus Ave, Beaverton, OR 97008",
    "phone": "(503) 526-7200",
    "rating": 4.0,
    "reviews": 25,
    "website": "https://www.laika.com/",
    "category": "African-American-owned 2D animation in Oregon",
    "description": "LAIKA is an award-winning stop-motion animation studio known for feature films like *Coraline* and *Kubo and the Two Strings*",
    "hours": "Mon-Fri 9AM-6PM",
    "services": [
      "African-American-owned 2D animation in Oregon consultation",
      "Professional service",
      "Quality guarantee"
    ],
    "social_links": {}
  },
  {
    "name": "Happy Trails Animation",
    "address": "10300 SW Allen Blvd, Suite 130, Beaverton, OR 97005",
    "phone": "(503) 590-7377",
    "rating": 4.0,
    "reviews": 25,
    "website": "https://happytrailsanimation.com/",
    "category": "African-American-owned 2D animation in Oregon",
    "description": "This award-winning studio creates custom animation for companies, organizations, and creatives, offering 2D/3D animation, character design, storyboards, and more",
    "hours": "Mon-Fri 9AM-6PM",
    "services": [
      "African-American-owned 2D animation in Oregon consultation",
      "Professional service",
      "Quality guarantee"
    ],
    "social_links": {}
  },
  {
    "name": "Hatch Studios",
    "address": "1020 NW 17th Ave, Portland, OR 97209",
    "phone": "(503) 222-4440",
    "rating": 4.0,
    "reviews": 25,
    "website": "https://www.hatchstudios.com/",
    "category": "African-American-owned 2D animation in Oregon",
    "description": "Hatch Studios is a premier digital media studio specializing in animation and motion graphics for brands, offering explainer videos, brand animations, and more",
    "hours": "Mon-Fri 9AM-6PM",
    "services": [
      "African-American-owned 2D animation in Oregon consultation",
      "Professional service",
      "Quality guarantee"
    ],
    "social_links": {}
  },
  {
    "name": "Ajax Creative",
    "address": "1020 NW 17th Ave, Portland, OR 97209",
    "phone": "(503) 222-4440",
    "rating": 4.0,
    "reviews": 25,
    "website": "https://ajaxcreative.com/",
    "category": "African-American-owned 2D animation in Oregon",
    "description": "Ajax Creative crafts animated video content, including 2D and 3D animation and explainer videos, for marketing campaigns",
    "hours": "Mon-Fri 9AM-6PM",
    "services": [
      "African-American-owned 2D animation in Oregon consultation",
      "Professional service",
      "Quality guarantee"
    ],
    "social_links": {}
  },
  {
    "name": "CatCow Animation Studio",
    "address": "10300 SW Allen Blvd, Suite 130, Beaverton, OR 97005",
    "phone": "(503) 590-7377",
    "rating": 4.0,
    "reviews": 25,
    "website": "https://catcowstudio.com/",
    "category": "African-American-owned 2D animation in Oregon",
    "description": "CatCow Studio is a creative animation and design studio specializing in 2D and 3D animation and motion design experiences",
    "hours": "Mon-Fri 9AM-6PM",
    "services": [
      "African-American-owned 2D animation in Oregon consultation",
      "Professional service",
      "Quality guarantee"
    ],
    "social_links": {}
  },
  {
    "name": "Funnelbox",
    "address": "10300 SW Allen Blvd, Suite 130, Beaverton, OR 97005",
    "phone": "(503) 590-7377",
    "rating": 4.0,
    "reviews": 25,
    "website": "https://funnelbox.com/",
    "category": "African-American-owned 2D animation in Oregon",
    "description": "Funnelbox offers 2D, 3D, and motion graphics animation services to help tell brand stories through compelling visuals",
    "hours": "Mon-Fri 9AM-6PM",
    "services": [
      "African-American-owned 2D animation in Oregon consultation",
      "Professional service",
      "Quality guarantee"
    ],
    "social_links": {}
  },
  {
    "name": "HouseSpecial",
    "address": "747 NW 11th Ave, Portland, OR 97209",
    "phone": "(503) 227-1177",
    "rating": 4.0,
    "reviews": 25,
    "website": "https://www.housespecial.com/",
    "category": "African-American-owned 2D animation in Oregon",
    "description": "HouseSpecial is a Portland-based animation studio that works with stop motion, CG, and 2D animation for various media",
    "hours": "Mon-Fri 9AM-6PM",
    "services": [
      "African-American-owned 2D animation in Oregon consultation",
      "Professional service",
      "Quality guarantee"
    ],
    "social_links": {}
  },
  {
    "name": "Silverman Studios",
    "address": "1495 State St, Salem, OR 97301",
    "phone": "(541) 908-1074",
    "rating": 4.0,
    "reviews": 25,
    "website": "https://silvermanstudios.com/",
    "category": "African-American-owned 2D animation in Oregon",
    "description": "Silverman Studios offers video production services, including animation, across Oregon, focusing on authentic storytelling",
    "hours": "Mon-Fri 9AM-6PM",
    "services": [
      "African-American-owned 2D animation in Oregon consultation",
      "Professional service",
      "Quality guarantee"
    ],
    "social_links": {}
  },
  {
    "name": "Artistic Outlet Media (AOM STUDIOS)",
    "address": "1010 Willamette St, Eugene, OR 97401",
    "phone": "(541) 517-1111",
    "rating": 4.0,
    "reviews": 25,
    "website": "https://www.aomstudios.com/",
    "category": "African-American-owned 2D animation in Oregon",
    "description": "Artistic Outlet Media is a creative marketing agency offering a full spectrum of media production, including video production and animation",
    "hours": "Mon-Fri 9AM-6PM",
    "services": [
      "African-American-owned 2D animation in Oregon consultation",
      "Professional service",
      "Quality guarantee"
    ],
    "social_links": {}
  },
  {
    "name": "Cherry City Studios LLC",
    "address": "1495 State St, Salem, OR 97301",
    "phone": "(503) 839-5624",
    "rating": 4.0,
    "reviews": 25,
    "website": "https://cherrycitystudios.com/",
    "category": "African-American-owned 2D animation in Oregon",
    "description": "Cherry City Studios provides multimedia and print services, including animation, with a focus on high-quality, retail-ready materials",
    "hours": "Mon-Fri 9AM-6PM",
    "services": [
      "African-American-owned 2D animation in Oregon consultation",
      "Professional service",
      "Quality guarantee"
    ],
    "social_links": {}
  }
]