[
  {
    "name": "Wesley Chapel Smiles Dentistry",
    "address": "6340 E. County Line Rd., Ste. 101, Wesley Chapel, FL 33547",
    "phone": "(813) 907-2229",
    "rating": 4.0,
    "reviews": 25,
    "website": "https://wesleycheychelsmiles.com/",
    "category": "Arabic-speaking Dental insurance in Florida",
    "description": "Offers a range of dental services, with staff fluent in Arabic",
    "hours": "Mon-Fri 9AM-6PM",
    "services": [
      "Arabic-speaking Dental insurance in Florida consultation",
      "Professional service",
      "Quality guarantee"
    ],
    "social_links": {}
  },
  {
    "name": "Dr. Michel Matouk",
    "address": "2600 E Commercial Blvd Ste 200, Fort Lauderdale, FL 33308-4125",
    "phone": "(954) 771-3700",
    "rating": 4.0,
    "reviews": 25,
    "website": "https://www.ftloms.com/",
    "category": "Arabic-speaking Dental insurance in Florida",
    "description": "Oral and Maxillofacial Surgery specialist who speaks Arabic and French",
    "hours": "Mon-Fri 9AM-6PM",
    "services": [
      "Arabic-speaking Dental insurance in Florida consultation",
      "Professional service",
      "Quality guarantee"
    ],
    "social_links": {}
  },
  {
    "name": "SEDA Dental",
    "address": "Multiple locations, including Boynton Beach, Pompano Beach, and North Miami Beach",
    "phone": "(561) 420-8700 (Boynton Beach)",
    "rating": 4.0,
    "reviews": 25,
    "website": "https://sedadental.com/",
    "category": "Arabic-speaking Dental insurance in Florida",
    "description": "Features dentists fluent in Arabic, such as Dr. Caroline Samaan",
    "hours": "Mon-Fri 9AM-6PM",
    "services": [
      "Arabic-speaking Dental insurance in Florida consultation",
      "Professional service",
      "Quality guarantee"
    ],
    "social_links": {}
  },
  {
    "name": "Coast Dental Spring Hill East",
    "address": "13239 Spring Hill Dr, Spring Hill, FL 34609",
    "phone": "(352) 610-4000",
    "rating": 4.0,
    "reviews": 25,
    "website": "https://www.coastdental.com/locations/spring-hill-east",
    "category": "Arabic-speaking Dental insurance in Florida",
    "description": "Dr. Rana Abraham, a general dentist at this location, is fluent in Arabic and English",
    "hours": "Mon-Fri 9AM-6PM",
    "services": [
      "Arabic-speaking Dental insurance in Florida consultation",
      "Professional service",
      "Quality guarantee"
    ],
    "social_links": {}
  },
  {
    "name": "Dental Experts of Florida",
    "address": "1208 Sun City Center Blvd, Sun City Center, FL 33586",
    "phone": "(813) 633-4000",
    "rating": 4.0,
    "reviews": 25,
    "website": "https://dentalexpertsfl.com/",
    "category": "Arabic-speaking Dental insurance in Florida",
    "description": "Led by Dr. El-Jabali, this practice emphasizes personalized care. While not explicitly stated as Arabic-speaking, the name suggests a potential for diverse staff",
    "hours": "Mon-Fri 9AM-6PM",
    "services": [
      "Arabic-speaking Dental insurance in Florida consultation",
      "Professional service",
      "Quality guarantee"
    ],
    "social_links": {}
  },
  {
    "name": "Central Florida Cosmetic & Family Dentistry",
    "address": "Multiple locations in Kissimmee and Hunters Creek, FL",
    "phone": "(407) 344-4444 (Kissimmee)",
    "rating": 4.0,
    "reviews": 25,
    "website": "https://www.centralfloridadentistry.com/",
    "category": "Arabic-speaking Dental insurance in Florida",
    "description": "Dr. Rajab Zaza, a dentist here, graduated from Damascus University Dental School and has extensive experience",
    "hours": "Mon-Fri 9AM-6PM",
    "services": [
      "Arabic-speaking Dental insurance in Florida consultation",
      "Professional service",
      "Quality guarantee"
    ],
    "social_links": {}
  },
  {
    "name": "Dr. Nabil Hanna, DDS",
    "address": "400 W Airport Blvd, Sanford, FL 32773",
    "phone": "(407) 665-3200",
    "rating": 4.0,
    "reviews": 25,
    "website": "https://www.healthgrades.com/physician/dr-nabil-hanna-2294372",
    "category": "Arabic-speaking Dental insurance in Florida",
    "description": "A dentistry practitioner in Sanford, FL, who lists Arabic as a spoken language",
    "hours": "Mon-Fri 9AM-6PM",
    "services": [
      "Arabic-speaking Dental insurance in Florida consultation",
      "Professional service",
      "Quality guarantee"
    ],
    "social_links": {}
  },
  {
    "name": "Alpha Dental Practice & Implant Center",
    "address": "8700 W Sample Rd, Coral Springs, FL 33065",
    "phone": "(954) 344-2530",
    "rating": 4.0,
    "reviews": 25,
    "website": "https://www.alphadentalpractice.com/",
    "category": "Arabic-speaking Dental insurance in Florida",
    "description": "Offers a range of dental services with a focus on patient comfort",
    "hours": "Mon-Fri 9AM-6PM",
    "services": [
      "Arabic-speaking Dental insurance in Florida consultation",
      "Professional service",
      "Quality guarantee"
    ],
    "social_links": {}
  },
  {
    "name": "Palm Ridge Dental",
    "address": "1000 Tuscana Way, The Villages, FL 34785",
    "phone": "(352) 391-9930",
    "rating": 4.0,
    "reviews": 25,
    "website": "https://www.palmridgedental.com/",
    "category": "Arabic-speaking Dental insurance in Florida",
    "description": "Dr. Reem Jaber is listed as a dentist on their team. While not explicitly stated as Arabic-speaking, it's worth inquiring",
    "hours": "Mon-Fri 9AM-6PM",
    "services": [
      "Arabic-speaking Dental insurance in Florida consultation",
      "Professional service",
      "Quality guarantee"
    ],
    "social_links": {}
  },
  {
    "name": "Amaya Dental",
    "address": "10000 SW 117th Ave, Miami, FL 33176",
    "phone": "(305) 677-3444",
    "rating": 4.0,
    "reviews": 25,
    "website": "https://www.amayadental.com/",
    "category": "Arabic-speaking Dental insurance in Florida",
    "description": "Provides dental services in Miami and Pembroke Pines",
    "hours": "Mon-Fri 9AM-6PM",
    "services": [
      "Arabic-speaking Dental insurance in Florida consultation",
      "Professional service",
      "Quality guarantee"
    ],
    "social_links": {}
  }
]