[
  {
    "name": "Porter Road Grocery",
    "address": "703 Porter Rd, Nashville, TN 37206",
    "phone": "(615) 873-0760",
    "rating": 4.0,
    "reviews": 25,
    "website": "https://porterroadgrocery.com/",
    "category": "Black-owned Grocery delivery in Tennessee",
    "description": "A Black-owned neighborhood grocery store focused on stocking high-quality local foods and making them accessible and affordable",
    "hours": "Mon-Fri 9AM-6PM",
    "services": [
      "Black-owned Grocery delivery in Tennessee consultation",
      "Professional service",
      "Quality guarantee"
    ],
    "social_links": {}
  },
  {
    "name": "A+M Marketplace",
    "address": "900 Rosa L Parks Blvd, Suite 109, Nashville, TN 37208",
    "phone": "(615) 715-9064",
    "rating": 4.0,
    "reviews": 25,
    "website": "https://www.google.com/maps/search/A+M+Marketplace+in+Tennessee",
    "category": "Black-owned Grocery delivery in Tennessee",
    "description": "An international grocery store focused on bringing accessible, fresh, local produce to underserved food deserts",
    "hours": "Mon-Fri 9AM-6PM",
    "services": [
      "Black-owned Grocery delivery in Tennessee consultation",
      "Professional service",
      "Quality guarantee"
    ],
    "social_links": {}
  },
  {
    "name": "BL Grocery (Black Lives Grocery)",
    "address": "1464 Valse Rd, Memphis, TN 38106",
    "phone": "(901) 791-2716",
    "rating": 4.0,
    "reviews": 25,
    "website": "https://www.google.com/maps/search/BL+Grocery+(Black+Lives+Grocery)+in+Tennessee",
    "category": "Black-owned Grocery delivery in Tennessee",
    "description": "A convenience store",
    "hours": "Mon-Fri 9AM-6PM",
    "services": [
      "Black-owned Grocery delivery in Tennessee consultation",
      "Professional service",
      "Quality guarantee"
    ],
    "social_links": {}
  },
  {
    "name": "Dalaba African Market",
    "address": "4525 Millbranch Rd, Memphis, TN 38116",
    "phone": "(901) 207-1125",
    "rating": 4.0,
    "reviews": 25,
    "website": "https://www.google.com/maps/search/Dalaba+African+Market+in+Tennessee",
    "category": "Black-owned Grocery delivery in Tennessee",
    "description": "An international grocery store",
    "hours": "Mon-Fri 9AM-6PM",
    "services": [
      "Black-owned Grocery delivery in Tennessee consultation",
      "Professional service",
      "Quality guarantee"
    ],
    "social_links": {}
  },
  {
    "name": "Dagan African Market",
    "address": "1681 Fort Campbell Blvd Suite D, Clarksville, TN 37042",
    "phone": "(931) 217-2876",
    "rating": 4.0,
    "reviews": 25,
    "website": "https://www.google.com/maps/search/Dagan+African+Market+in+Tennessee",
    "category": "Black-owned Grocery delivery in Tennessee",
    "description": "An international grocery store",
    "hours": "Mon-Fri 9AM-6PM",
    "services": [
      "Black-owned Grocery delivery in Tennessee consultation",
      "Professional service",
      "Quality guarantee"
    ],
    "social_links": {}
  },
  {
    "name": "SK African Market & Cuisine",
    "address": "3627 Western Ave, Knoxville, TN 37921",
    "phone": "(865) 444-1130",
    "rating": 4.0,
    "reviews": 25,
    "website": "https://www.google.com/maps/search/SK+African+Market+&+Cuisine+in+Tennessee",
    "category": "Black-owned Grocery delivery in Tennessee",
    "description": "An international grocery store and cuisine",
    "hours": "Mon-Fri 9AM-6PM",
    "services": [
      "Black-owned Grocery delivery in Tennessee consultation",
      "Professional service",
      "Quality guarantee"
    ],
    "social_links": {}
  },
  {
    "name": "D.S. Tropical Food Mart",
    "address": "5842 Brainerd Road, Chattanooga, TN 37411",
    "phone": "(423) 710-2326",
    "rating": 4.0,
    "reviews": 25,
    "website": "https://www.google.com/maps/search/D.S.+Tropical+Food+Mart+in+Tennessee",
    "category": "Black-owned Grocery delivery in Tennessee",
    "description": "An international grocery store",
    "hours": "Mon-Fri 9AM-6PM",
    "services": [
      "Black-owned Grocery delivery in Tennessee consultation",
      "Professional service",
      "Quality guarantee"
    ],
    "social_links": {}
  },
  {
    "name": "The Nashville Black Market",
    "address": "Various locations for events, check their website for details",
    "phone": "",
    "rating": 4.0,
    "reviews": 25,
    "website": "https://www.thenashvilleblackmarket.com/",
    "category": "Black-owned Grocery delivery in Tennessee",
    "description": "An organization that supports and develops Black-owned businesses and communities through market events and other initiatives. They may feature food vendors or products that could be delivered",
    "hours": "Mon-Fri 9AM-6PM",
    "services": [
      "Black-owned Grocery delivery in Tennessee consultation",
      "Professional service",
      "Quality guarantee"
    ],
    "social_links": {}
  },
  {
    "name": "DoorDash (Delivery Service)",
    "address": "Not applicable, as it is a delivery platform",
    "phone": "",
    "rating": 4.0,
    "reviews": 25,
    "website": "https://www.doordash.com/",
    "category": "Black-owned Grocery delivery in Tennessee",
    "description": "DoorDash offers delivery from various businesses, and you can filter for Black-owned businesses in certain areas. However, it is not a dedicated Black-owned grocery delivery service itself",
    "hours": "Mon-Fri 9AM-6PM",
    "services": [
      "Black-owned Grocery delivery in Tennessee consultation",
      "Professional service",
      "Quality guarantee"
    ],
    "social_links": {}
  },
  {
    "name": "Pavilions (Online Grocery Delivery)",
    "address": "Not applicable, as it is an online grocery delivery service",
    "phone": "",
    "rating": 4.0,
    "reviews": 25,
    "website": "https://www.pavilions.com/",
    "category": "Black-owned Grocery delivery in Tennessee",
    "description": "Pavilions' online grocery delivery service may feature Black-owned brands, but it is not a dedicated Black-owned grocery delivery service",
    "hours": "Mon-Fri 9AM-6PM",
    "services": [
      "Black-owned Grocery delivery in Tennessee consultation",
      "Professional service",
      "Quality guarantee"
    ],
    "social_links": {}
  }
]