[
  {
    "name": "Anchorage Senior Activity Center (ASAC)",
    "address": "1300 East 19th Avenue, Anchorage, AK 99501",
    "phone": "(907) 770-2000",
    "rating": 4.0,
    "reviews": 25,
    "website": "https://www.google.com/maps/search/Anchorage+Senior+Activity+Center+(ASAC)+in+Alaska",
    "category": "Armenian-speaking Senior fitness in Alaska",
    "description": "Offers a variety of fitness classes including water aerobics, strength training, yoga, walking groups, Tai Chi, and Zumba Gold. They also have a fitness membership option",
    "hours": "Mon-Fri 9AM-6PM",
    "services": [
      "Armenian-speaking Senior fitness in Alaska consultation",
      "Professional service",
      "Quality guarantee"
    ],
    "social_links": {}
  },
  {
    "name": "The Alaska Club",
    "address": "Multiple locations in Anchorage (e.g., 6501 Changepoint Dr, Anchorage, AK 99518)",
    "phone": "(907) 770-3663 (for The Dome location)",
    "rating": 4.0,
    "reviews": 25,
    "website": "https://www.google.com/maps/search/The+Alaska+Club+in+Alaska",
    "category": "Armenian-speaking Senior fitness in Alaska",
    "description": "Provides a range of exercise programs for seniors, including low-impact aerobics, strength training, and chair yoga",
    "hours": "Mon-Fri 9AM-6PM",
    "services": [
      "Armenian-speaking Senior fitness in Alaska consultation",
      "Professional service",
      "Quality guarantee"
    ],
    "social_links": {}
  },
  {
    "name": "B Fit & Well",
    "address": "3934 Spenard Rd, ste B, Anchorage, AK 99517",
    "phone": "(907) 529-1462",
    "rating": 4.0,
    "reviews": 25,
    "website": "https://www.google.com/maps/search/B+Fit+&+Well+in+Alaska",
    "category": "Armenian-speaking Senior fitness in Alaska",
    "description": "Offers fitness programs for seniors, including Pilates for Seniors classes focusing on balance, strength, and coordination",
    "hours": "Mon-Fri 9AM-6PM",
    "services": [
      "Armenian-speaking Senior fitness in Alaska consultation",
      "Professional service",
      "Quality guarantee"
    ],
    "social_links": {}
  },
  {
    "name": "The Dome - Alaska Sports Complex",
    "address": "6501 Changepoint Dr, Anchorage, AK 99518",
    "phone": "(907) 770-3663",
    "rating": 4.0,
    "reviews": 25,
    "website": "https://www.google.com/maps/search/The+Dome+-+Alaska+Sports+Complex+in+Alaska",
    "category": "Armenian-speaking Senior fitness in Alaska",
    "description": "Offers various fitness programs, including those suitable for seniors",
    "hours": "Mon-Fri 9AM-6PM",
    "services": [
      "Armenian-speaking Senior fitness in Alaska consultation",
      "Professional service",
      "Quality guarantee"
    ],
    "social_links": {}
  },
  {
    "name": "YMCA of Anchorage",
    "address": "Multiple locations in Anchorage",
    "phone": "(907) 529-1462 (general inquiry number for B Fit & Well, which is listed alongside YMCA in one source)",
    "rating": 4.0,
    "reviews": 25,
    "website": "https://www.google.com/maps/search/YMCA+of+Anchorage+in+Alaska",
    "category": "Armenian-speaking Senior fitness in Alaska",
    "description": "Provides fitness programs for older adults, such as water aerobics, Tai Chi, and yoga",
    "hours": "Mon-Fri 9AM-6PM",
    "services": [
      "Armenian-speaking Senior fitness in Alaska consultation",
      "Professional service",
      "Quality guarantee"
    ],
    "social_links": {}
  },
  {
    "name": "Wasilla Area Seniors, Inc. (WASI) Club 50",
    "address": "831 South Chugach Street, Palmer, AK 99645 (This address is listed for Palmer Senior Citizens Center, but WASI is in Wasilla)",
    "phone": "(907) 206-8807 (for Strong Seniors class information)",
    "rating": 4.0,
    "reviews": 25,
    "website": "https://www.google.com/maps/search/Wasilla+Area+Seniors,+Inc.+(WASI)+Club+50+in+Alaska",
    "category": "Armenian-speaking Senior fitness in Alaska",
    "description": "Offers a fitness center for those 50 and older, with classes like Strong Seniors, Tai Ji Quan, Zumba Gold, and NIA",
    "hours": "Mon-Fri 9AM-6PM",
    "services": [
      "Armenian-speaking Senior fitness in Alaska consultation",
      "Professional service",
      "Quality guarantee"
    ],
    "social_links": {}
  },
  {
    "name": "Homer Senior Citizens, Inc.",
    "address": "3935 Svedlund Street, Homer, Alaska 99603",
    "phone": "(907) 235-7655",
    "rating": 4.0,
    "reviews": 25,
    "website": "https://www.google.com/maps/search/Homer+Senior+Citizens,+Inc.+in+Alaska",
    "category": "Armenian-speaking Senior fitness in Alaska",
    "description": "Provides wellness programs including Zumba Gold, Tai Chi, and the Strong Women program",
    "hours": "Mon-Fri 9AM-6PM",
    "services": [
      "Armenian-speaking Senior fitness in Alaska consultation",
      "Professional service",
      "Quality guarantee"
    ],
    "social_links": {}
  },
  {
    "name": "Kenai Senior Center",
    "address": "361 Senior Court, Kenai, AK 99611",
    "phone": "(907) 283-4156",
    "rating": 4.0,
    "reviews": 25,
    "website": "https://www.google.com/maps/search/Kenai+Senior+Center+in+Alaska",
    "category": "Armenian-speaking Senior fitness in Alaska",
    "description": "Offers general exercise classes, Growing Strong Strength Training, Tai-Chi, and Zumba Gold",
    "hours": "Mon-Fri 9AM-6PM",
    "services": [
      "Armenian-speaking Senior fitness in Alaska consultation",
      "Professional service",
      "Quality guarantee"
    ],
    "social_links": {}
  },
  {
    "name": "Fairbanks Senior Center",
    "address": "1424 Moore St, Fairbanks, AK 99701",
    "phone": "(907) 459-1136",
    "rating": 4.0,
    "reviews": 25,
    "website": "https://www.google.com/maps/search/Fairbanks+Senior+Center+in+Alaska",
    "category": "Armenian-speaking Senior fitness in Alaska",
    "description": "Offers exercise sessions, including chair yoga, and other programs to keep seniors active",
    "hours": "Mon-Fri 9AM-6PM",
    "services": [
      "Armenian-speaking Senior fitness in Alaska consultation",
      "Professional service",
      "Quality guarantee"
    ],
    "social_links": {}
  },
  {
    "name": "Kodiak Senior Center",
    "address": "(Specific address not found in search results, but located in Kodiak, AK)",
    "phone": "(907) 486-1377 (for KANA Wellness Center, which hosts some senior activities)",
    "rating": 4.0,
    "reviews": 25,
    "website": "https://www.google.com/maps/search/Kodiak+Senior+Center+in+Alaska",
    "category": "Armenian-speaking Senior fitness in Alaska",
    "description": "Offers exercise classes and activities for seniors, including Tai Chi and chair exercise",
    "hours": "Mon-Fri 9AM-6PM",
    "services": [
      "Armenian-speaking Senior fitness in Alaska consultation",
      "Professional service",
      "Quality guarantee"
    ],
    "social_links": {}
  }
]