[
  {
    "name": "Sheherbano Mehdi, MD",
    "address": "23441 Madison Street, Suite 340, Torrance, CA 90505",
    "phone": "(310) 373-0340",
    "rating": 4.0,
    "reviews": 25,
    "website": "https://www.providence.org/doctors/",
    "category": "Bengali-speaking Rheumatologists in California",
    "description": "Board-certified rheumatologist with over 10 years of practice in Torrance, specializing in adult rheumatic diseases",
    "hours": "Mon-Fri 9AM-6PM",
    "services": [
      "Bengali-speaking Rheumatologists in California consultation",
      "Professional service",
      "Quality guarantee"
    ],
    "social_links": {}
  },
  {
    "name": "Paul Brion, MD",
    "address": "23441 Madison Street, Suite 340, Torrance, CA 90505",
    "phone": "(310) 373-0340",
    "rating": 4.0,
    "reviews": 25,
    "website": "https://www.arthritis-treatment.com/team/paul-brion-md/",
    "category": "Bengali-speaking Rheumatologists in California",
    "description": "Board-certified rheumatologist with over 20 years of experience, specializing in various types of arthritis and autoimmune diseases",
    "hours": "Mon-Fri 9AM-6PM",
    "services": [
      "Bengali-speaking Rheumatologists in California consultation",
      "Professional service",
      "Quality guarantee"
    ],
    "social_links": {}
  },
  {
    "name": "Bett J. Eng, MD",
    "address": "23441 Madison Street, Suite 340, Torrance, CA 90505",
    "phone": "(310) 373-0340",
    "rating": 4.0,
    "reviews": 25,
    "website": "https://www.arthritis-treatment.com/team/bett-j-eng-md/",
    "category": "Bengali-speaking Rheumatologists in California",
    "description": "Board-certified rheumatologist with over 20 years of practice in Torrance, specializing in arthritis and other rheumatic conditions",
    "hours": "Mon-Fri 9AM-6PM",
    "services": [
      "Bengali-speaking Rheumatologists in California consultation",
      "Professional service",
      "Quality guarantee"
    ],
    "social_links": {}
  },
  {
    "name": "David J. Klashman, MD",
    "address": "23441 Madison Street, Suite 340, Torrance, CA 90505",
    "phone": "(310) 373-0340",
    "rating": 4.0,
    "reviews": 25,
    "website": "https://www.arthritis-treatment.com/team/david-j-klashman-md/",
    "category": "Bengali-speaking Rheumatologists in California",
    "description": "Board-certified rheumatologist practicing in Torrance since 2001, with expertise in arthritis and autoimmune conditions",
    "hours": "Mon-Fri 9AM-6PM",
    "services": [
      "Bengali-speaking Rheumatologists in California consultation",
      "Professional service",
      "Quality guarantee"
    ],
    "social_links": {}
  },
  {
    "name": "Mir Behnam Khaleghi Damavandi, MD",
    "address": "Pacific Rheumatology Medical Center, Tustin, CA (specific address not provided in search results)",
    "phone": "",
    "rating": 4.0,
    "reviews": 25,
    "website": "https://www.providence.org/doctors/",
    "category": "Bengali-speaking Rheumatologists in California",
    "description": "Board-certified rheumatologist fluent in Farsi, specializing in adult rheumatic diseases",
    "hours": "Mon-Fri 9AM-6PM",
    "services": [
      "Bengali-speaking Rheumatologists in California consultation",
      "Professional service",
      "Quality guarantee"
    ],
    "social_links": {}
  },
  {
    "name": "Soumya Rao, MD",
    "address": "2125 Citracado Parkway, Escondido, CA 92029",
    "phone": "",
    "rating": 3.0,
    "reviews": 25,
    "website": "https://www.healthgrades.com/physician/soumya-rao-y4g4c",
    "category": "Bengali-speaking Rheumatologists in California",
    "description": "Board-certified in Rheumatology and Internal Medicine, completed fellowship at the University of California",
    "hours": "Mon-Fri 9AM-6PM",
    "services": [
      "Bengali-speaking Rheumatologists in California consultation",
      "Professional service",
      "Quality guarantee"
    ],
    "social_links": {}
  }
]