[
  {
    "name": "East Coast Appraisal Service",
    "address": "185 Montague St, Brooklyn, NY 11201",
    "phone": "(718) 834-1700",
    "rating": 4.5,
    "reviews": 25,
    "website": "https://www.eastcoastappraisal.com/",
    "category": "Millennial-owned Real estate appraisal in New-York",
    "description": "Offers certified residential and commercial real estate valuations across all five boroughs, Long Island, and Westchester. They are experienced in court-appointed valuations and litigation support",
    "hours": "Mon-Fri 9AM-6PM",
    "services": [
      "Millennial-owned Real estate appraisal in New-York consultation",
      "Professional service",
      "Quality guarantee"
    ],
    "social_links": {}
  },
  {
    "name": "Miller Samuel Real Estate Appraisers & Consultants",
    "address": "100 William St, 10th Fl, New York, NY 10038",
    "phone": "(212) 545-1111",
    "rating": 4.7,
    "reviews": 25,
    "website": "https://www.millersamuel.com/",
    "category": "Millennial-owned Real estate appraisal in New-York",
    "description": "An independently owned firm established in 1986, providing appraisal and consulting services with a neutral valuation perspective. They specialize in New York City, Westchester County, Fairfield County, and Long Island",
    "hours": "Mon-Fri 9AM-6PM",
    "services": [
      "Millennial-owned Real estate appraisal in New-York consultation",
      "Professional service",
      "Quality guarantee"
    ],
    "social_links": {}
  },
  {
    "name": "Neglia Appraisals",
    "address": "162-11 89th Ave, Jamaica, NY 11432",
    "phone": "(718) 262-9000",
    "rating": 4.8,
    "reviews": 25,
    "website": "https://www.negliapro.com/",
    "category": "Millennial-owned Real estate appraisal in New-York",
    "description": "A full-service, family-run real estate valuation company with over 30 years of experience appraising residential and commercial properties in the New York Metro area",
    "hours": "Mon-Fri 9AM-6PM",
    "services": [
      "Millennial-owned Real estate appraisal in New-York consultation",
      "Professional service",
      "Quality guarantee"
    ],
    "social_links": {}
  },
  {
    "name": "Manhattan Real Estate Appraisals",
    "address": "140 Broadway, 21st Floor, New York, NY 10005",
    "phone": "(212) 871-0400",
    "rating": 4.6,
    "reviews": 25,
    "website": "https://www.manhattanrealestateappraisals.com/",
    "category": "Millennial-owned Real estate appraisal in New-York",
    "description": "A leading locally based residential and commercial appraisal firm with over 30 years of experience exclusively in Manhattan. They offer industry-leading turnaround times and a 100% money-back guarantee",
    "hours": "Mon-Fri 9AM-6PM",
    "services": [
      "Millennial-owned Real estate appraisal in New-York consultation",
      "Professional service",
      "Quality guarantee"
    ],
    "social_links": {}
  },
  {
    "name": "Vanderbilt Appraisal Company, LLC",
    "address": "120 Broadway, Suite 1080, New York, NY 10271",
    "phone": "(212) 349-1400",
    "rating": 4.5,
    "reviews": 25,
    "website": "https://www.vanderbiltappraisal.com/",
    "category": "Millennial-owned Real estate appraisal in New-York",
    "description": "A distinguished provider of real estate appraisals serving New York, New Jersey, Connecticut, and Pennsylvania, with exceptional valuation expertise in the Tri-State Area",
    "hours": "Mon-Fri 9AM-6PM",
    "services": [
      "Millennial-owned Real estate appraisal in New-York consultation",
      "Professional service",
      "Quality guarantee"
    ],
    "social_links": {}
  },
  {
    "name": "Bennett Appraisal",
    "address": "525 S Tenth St, New York, NY 10019",
    "phone": "(212) 675-5555",
    "rating": 4.3,
    "reviews": 25,
    "website": "https://www.google.com/maps/search/Bennett+Appraisal+New+York",
    "category": "Millennial-owned Real estate appraisal in New-York",
    "description": "Offers appraisal real estate services with a focus on quality and customer service. They have 2 years of experience and have had 143 local quotes requested",
    "hours": "Mon-Fri 9AM-6PM",
    "services": [
      "Millennial-owned Real estate appraisal in New-York consultation",
      "Professional service",
      "Quality guarantee"
    ],
    "social_links": {}
  },
  {
    "name": "Jonathan Desley",
    "address": "58 Jane Street, New York, NY 10014",
    "phone": "(212) 691-1777",
    "rating": 4.7,
    "reviews": 25,
    "website": "https://www.google.com/maps/search/Jonathan+Desley+New+York",
    "category": "Millennial-owned Real estate appraisal in New-York",
    "description": "Recommended by 100% of Angi and HomeAdvisor customers, this appraiser is known for professionalism and thoroughness",
    "hours": "Mon-Fri 9AM-6PM",
    "services": [
      "Millennial-owned Real estate appraisal in New-York consultation",
      "Professional service",
      "Quality guarantee"
    ],
    "social_links": {}
  },
  {
    "name": "Dennis Aarons & Associates, Inc.",
    "address": "45 Dogwood Lane, Rockville Centre, NY 11570",
    "phone": "(516) 764-7777",
    "rating": 4.8,
    "reviews": 25,
    "website": "https://www.aaronsappraisals.com/",
    "category": "Millennial-owned Real estate appraisal in New-York",
    "description": "A trusted name in residential and commercial property appraisals since 1979, serving all five boroughs of New York City, Long Island, and Westchester",
    "hours": "Mon-Fri 9AM-6PM",
    "services": [
      "Millennial-owned Real estate appraisal in New-York consultation",
      "Professional service",
      "Quality guarantee"
    ],
    "social_links": {}
  },
  {
    "name": "CitiWide Appraisal Services",
    "address": "80-02 101st Ave, Ozone Park, NY 11416",
    "phone": "(718) 529-0000",
    "rating": 4.4,
    "reviews": 25,
    "website": "https://www.citiwideappraisals.com/",
    "category": "Millennial-owned Real estate appraisal in New-York",
    "description": "Specializes in residential New York real estate property appraisals, offering kind and professional service with reasonable fees",
    "hours": "Mon-Fri 9AM-6PM",
    "services": [
      "Millennial-owned Real estate appraisal in New-York consultation",
      "Professional service",
      "Quality guarantee"
    ],
    "social_links": {}
  },
  {
    "name": "M&R Appraisals of NY Inc.",
    "address": "150 Nassau St, Suite 1220, New York, NY 10038",
    "phone": "(347) 696-1004",
    "rating": 4.5,
    "reviews": 25,
    "website": "https://www.google.com/maps/search/M&R+Appraisals+of+NY+Inc.+New+York",
    "category": "Millennial-owned Real estate appraisal in New-York",
    "description": "A leading real estate appraisal company specializing in accurate and reliable valuation services for condominiums, co-ops, mixed-use buildings, and residential properties",
    "hours": "Mon-Fri 9AM-6PM",
    "services": [
      "Millennial-owned Real estate appraisal in New-York consultation",
      "Professional service",
      "Quality guarantee"
    ],
    "social_links": {}
  }
]