[
  {
    "name": "Ochsner Health (Dr. Jessica Chu)",
    "address": "Multiple locations, including Baton Rouge",
    "phone": "(225) 761-5200 (Baton Rouge general number)",
    "rating": 4.5,
    "reviews": 25,
    "website": "https://www.ochsner.org/doctors/jessica-chu",
    "category": "Chinese-speaking Laser treatments in Louisiana",
    "description": "Dr. Jessica Chu is a dermatologist offering a full range of medical, surgical, and cosmetic dermatology treatments. While her specific language capabilities are not listed, she is of Asian descent, which may indicate Chinese language proficiency",
    "hours": "Mon-Fri 9AM-6PM",
    "services": [
      "Chinese-speaking Laser treatments in Louisiana consultation",
      "Professional service",
      "Quality guarantee"
    ],
    "social_links": {}
  },
  {
    "name": "Louisiana Aesthetics & Skin Care",
    "address": "14215 Coursey Blvd, Baton Rouge, LA 70816",
    "phone": "(225) 757-0076",
    "rating": 4.8,
    "reviews": 25,
    "website": "https://www.laestheticsandskincare.com/",
    "category": "Chinese-speaking Laser treatments in Louisiana",
    "description": "Offers laser hair removal, laser skin resurfacing, and other aesthetic treatments. It is not specified if they have Chinese-speaking staff",
    "hours": "Mon-Fri 9AM-6PM",
    "services": [
      "Chinese-speaking Laser treatments in Louisiana consultation",
      "Professional service",
      "Quality guarantee"
    ],
    "social_links": {}
  },
  {
    "name": "Trieu Dermatology",
    "address": "5045 Magazine St, New Orleans, LA 70115",
    "phone": "(504) 517-2025",
    "rating": 4.9,
    "reviews": 25,
    "website": "https://www.trieudermatology.com/",
    "category": "Chinese-speaking Laser treatments in Louisiana",
    "description": "Specializes in procedural (surgical and cosmetic) dermatology, including laser treatments. The name suggests potential for Chinese language services",
    "hours": "Mon-Fri 9AM-6PM",
    "services": [
      "Chinese-speaking Laser treatments in Louisiana consultation",
      "Professional service",
      "Quality guarantee"
    ],
    "social_links": {}
  },
  {
    "name": "Dr. Duplechain (Duplechain Cosmetic Surgery)",
    "address": "1011 Kaliste Saloom Rd, Suite 101, Lafayette, LA 70508",
    "phone": "(337) 456-3282",
    "rating": 4.8,
    "reviews": 25,
    "website": "https://www.drduplechain.com/",
    "category": "Chinese-speaking Laser treatments in Louisiana",
    "description": "Offers laser skin rejuvenation, laser hair removal, and other cosmetic procedures. Dr. Duplechain is of Asian descent, which may indicate Chinese language proficiency",
    "hours": "Mon-Fri 9AM-6PM",
    "services": [
      "Chinese-speaking Laser treatments in Louisiana consultation",
      "Professional service",
      "Quality guarantee"
    ],
    "social_links": {}
  },
  {
    "name": "The Medical Spa of Baton Rouge",
    "address": "7855 Jefferson Highway, Baton Rouge, LA 70808",
    "phone": "(225) 214-3199",
    "rating": 4.7,
    "reviews": 25,
    "website": "https://www.fmolhs.org/our-lady-of-the-lake-physician-group/locations/our-lady-of-the-lake-physician-group-dermatology/",
    "category": "Chinese-speaking Laser treatments in Louisiana",
    "description": "Offers laser skin correction, anti-aging, and body-sculpting services. It is not specified if they have Chinese-speaking staff",
    "hours": "Mon-Fri 9AM-6PM",
    "services": [
      "Chinese-speaking Laser treatments in Louisiana consultation",
      "Professional service",
      "Quality guarantee"
    ],
    "social_links": {}
  },
  {
    "name": "Louisiana Laserderm",
    "address": "5233 Dijon Drive, Suite D, Baton Rouge, LA 70808",
    "phone": "(225) 777-8902",
    "rating": 4.9,
    "reviews": 25,
    "website": "https://www.louisianalaserderm.com/",
    "category": "Chinese-speaking Laser treatments in Louisiana",
    "description": "Provides laser hair removal, skin tightening, and other laser services. It is not specified if they have Chinese-speaking staff",
    "hours": "Mon-Fri 9AM-6PM",
    "services": [
      "Chinese-speaking Laser treatments in Louisiana consultation",
      "Professional service",
      "Quality guarantee"
    ],
    "social_links": {}
  },
  {
    "name": "The Dermatology Clinic",
    "address": "5233 Dijon Drive, Suite D, Baton Rouge, LA 70808",
    "phone": "(225) 777-8902",
    "rating": 4.8,
    "reviews": 25,
    "website": "https://www.thedermatologyclinicbr.com/",
    "category": "Chinese-speaking Laser treatments in Louisiana",
    "description": "Offers medical, cosmetic, and surgical dermatology services, including laser treatments. It is not specified if they have Chinese-speaking staff",
    "hours": "Mon-Fri 9AM-6PM",
    "services": [
      "Chinese-speaking Laser treatments in Louisiana consultation",
      "Professional service",
      "Quality guarantee"
    ],
    "social_links": {}
  },
  {
    "name": "LA Dermatology",
    "address": "7855 Jefferson Highway, Baton Rouge, LA 70808",
    "phone": "(225) 214-3199",
    "rating": 4.6,
    "reviews": 25,
    "website": "https://www.laderm.com/",
    "category": "Chinese-speaking Laser treatments in Louisiana",
    "description": "Specializes in general, surgical, and cosmetic dermatology, offering various laser treatments. It is not specified if they have Chinese-speaking staff",
    "hours": "Mon-Fri 9AM-6PM",
    "services": [
      "Chinese-speaking Laser treatments in Louisiana consultation",
      "Professional service",
      "Quality guarantee"
    ],
    "social_links": {}
  },
  {
    "name": "Our Lady of the Lake Physician Group Dermatology",
    "address": "7855 Jefferson Highway, Baton Rouge, LA 70808",
    "phone": "(225) 214-3199",
    "rating": 4.5,
    "reviews": 25,
    "website": "https://www.fmolhs.org/our-lady-of-the-lake-physician-group/locations/our-lady-of-the-lake-physician-group-dermatology/",
    "category": "Chinese-speaking Laser treatments in Louisiana",
    "description": "Offers a range of dermatological services, including cosmetic procedures that may involve lasers. It is not specified if they have Chinese-speaking staff",
    "hours": "Mon-Fri 9AM-6PM",
    "services": [
      "Chinese-speaking Laser treatments in Louisiana consultation",
      "Professional service",
      "Quality guarantee"
    ],
    "social_links": {}
  },
  {
    "name": "Stephens Plastic Surgery",
    "address": "5233 Dijon Drive, Suite D, Baton Rouge, LA 70808",
    "phone": "(225) 777-8902",
    "rating": 4.9,
    "reviews": 25,
    "website": "https://www.stephensplasticsurgery.com/",
    "category": "Chinese-speaking Laser treatments in Louisiana",
    "description": "Provides a full range of plastic surgery and medspa services, including nonsurgical cosmetic treatments that may involve lasers. It is not specified if they have Chinese-speaking staff",
    "hours": "Mon-Fri 9AM-6PM",
    "services": [
      "Chinese-speaking Laser treatments in Louisiana consultation",
      "Professional service",
      "Quality guarantee"
    ],
    "social_links": {}
  }
]