[
  {
    "name": "Molly Maid of Northwest Arkansas",
    "address": "(Specific address not found in search results, but serves Fayetteville, AR)",
    "phone": "",
    "rating": 4.6,
    "reviews": 25,
    "website": "https://www.mollymaid.com/northwest-arkansas/",
    "category": "Chinese-speaking Green cleaning in Arkansas",
    "description": "Offers eco-friendly house cleaning services in Fayetteville, AR, using non-toxic cleaning products",
    "hours": "Mon-Fri 9AM-6PM",
    "services": [
      "Chinese-speaking Green cleaning in Arkansas consultation",
      "Professional service",
      "Quality guarantee"
    ],
    "social_links": {}
  },
  {
    "name": "Clean Horizon Pro Janitorial",
    "address": "(Specific address not found in search results, but serves Springdale, Fayetteville, and Bentonville, AR)",
    "phone": "",
    "rating": 4.0,
    "reviews": 25,
    "website": "https://www.google.com/maps/search/Clean+Horizon+Pro+Janitorial+in+Arkansas",
    "category": "Chinese-speaking Green cleaning in Arkansas",
    "description": "Provides responsible green cleaning services with a focus on eco-friendly alternatives",
    "hours": "Mon-Fri 9AM-6PM",
    "services": [
      "Chinese-speaking Green cleaning in Arkansas consultation",
      "Professional service",
      "Quality guarantee"
    ],
    "social_links": {}
  },
  {
    "name": "Vanguard Cleaning Systems of the Ozarks",
    "address": "551 White Road, Suite B, Springdale, AR 72762",
    "phone": "479-717-2410",
    "rating": 4.0,
    "reviews": 25,
    "website": "https://www.google.com/maps/search/Vanguard+Cleaning+Systems+of+the+Ozarks+in+Arkansas",
    "category": "Chinese-speaking Green cleaning in Arkansas",
    "description": "Offers eco-friendly office cleaning services using green-certified equipment and non-toxic, biodegradable products",
    "hours": "Mon-Fri 9AM-6PM",
    "services": [
      "Chinese-speaking Green cleaning in Arkansas consultation",
      "Professional service",
      "Quality guarantee"
    ],
    "social_links": {}
  },
  {
    "name": "A Beautiful Day Cleaning",
    "address": "(Specific address not found in search results, but serves Rogers, AR, and surrounding areas)",
    "phone": "",
    "rating": 4.0,
    "reviews": 25,
    "website": "https://www.anewbeautifulday.com/",
    "category": "Chinese-speaking Green cleaning in Arkansas",
    "description": "Provides non-toxic, green cleaning services using plant and mineral-derived products",
    "hours": "Mon-Fri 9AM-6PM",
    "services": [
      "Chinese-speaking Green cleaning in Arkansas consultation",
      "Professional service",
      "Quality guarantee"
    ],
    "social_links": {}
  },
  {
    "name": "NWA Green Clean House Cleaning Services",
    "address": "(Specific address not found in search results, but serves Bentonville, AR, and surrounding areas)",
    "phone": "",
    "rating": 4.0,
    "reviews": 25,
    "website": "https://nwagreenclean.com/",
    "category": "Chinese-speaking Green cleaning in Arkansas",
    "description": "Offers all-natural, non-toxic, and chemical-free house cleaning services using plant and mineral-derived products",
    "hours": "Mon-Fri 9AM-6PM",
    "services": [
      "Chinese-speaking Green cleaning in Arkansas consultation",
      "Professional service",
      "Quality guarantee"
    ],
    "social_links": {}
  },
  {
    "name": "Fayetteville Cleaning Co.",
    "address": "(Specific address not found in search results, but serves Fayetteville, AR)",
    "phone": "(479) 285-4212",
    "rating": 4.0,
    "reviews": 25,
    "website": "https://www.fayettevillecleaningco.com/",
    "category": "Chinese-speaking Green cleaning in Arkansas",
    "description": "Provides eco-friendly and plant-based cleaning services",
    "hours": "Mon-Fri 9AM-6PM",
    "services": [
      "Chinese-speaking Green cleaning in Arkansas consultation",
      "Professional service",
      "Quality guarantee"
    ],
    "social_links": {}
  },
  {
    "name": "Eco TrustClean Services LLC",
    "address": "661 Saydi St., Elkins, AR 72727",
    "phone": "(479) 769-9039",
    "rating": 4.0,
    "reviews": 25,
    "website": "https://www.ecotrustclean.com/",
    "category": "Chinese-speaking Green cleaning in Arkansas",
    "description": "Offers commercial and residential cleaning services using plant-based products",
    "hours": "Mon-Fri 9AM-6PM",
    "services": [
      "Chinese-speaking Green cleaning in Arkansas consultation",
      "Professional service",
      "Quality guarantee"
    ],
    "social_links": {}
  },
  {
    "name": "Eco Cleaning of Jonesboro",
    "address": "361 Southwest Dr STE 239, Jonesboro, AR 72401",
    "phone": "(870) 604-6712",
    "rating": 4.0,
    "reviews": 25,
    "website": "https://ecocleaningjonesboro.com/",
    "category": "Chinese-speaking Green cleaning in Arkansas",
    "description": "Specializes in eco-friendly commercial and residential cleaning services",
    "hours": "Mon-Fri 9AM-6PM",
    "services": [
      "Chinese-speaking Green cleaning in Arkansas consultation",
      "Professional service",
      "Quality guarantee"
    ],
    "social_links": {}
  },
  {
    "name": "Bliss Clean & Care",
    "address": "(Specific address not found in search results, but serves Northwest Arkansas including Bentonville, Rogers, Springdale, and Fayetteville)",
    "phone": "(479) 397-0100",
    "rating": 4.0,
    "reviews": 25,
    "website": "https://blisscleanandcare.com/",
    "category": "Chinese-speaking Green cleaning in Arkansas",
    "description": "Provides house cleaning services using all-natural products",
    "hours": "Mon-Fri 9AM-6PM",
    "services": [
      "Chinese-speaking Green cleaning in Arkansas consultation",
      "Professional service",
      "Quality guarantee"
    ],
    "social_links": {}
  },
  {
    "name": "All Clean By Anabelle",
    "address": "(Specific address not found in search results, but serves Fort Smith, AR)",
    "phone": "(479) 935-1686",
    "rating": 4.0,
    "reviews": 25,
    "website": "https://www.allcleanbyanabelle.com/",
    "category": "Chinese-speaking Green cleaning in Arkansas",
    "description": "Offers eco-friendly and professional house cleaning services",
    "hours": "Mon-Fri 9AM-6PM",
    "services": [
      "Chinese-speaking Green cleaning in Arkansas consultation",
      "Professional service",
      "Quality guarantee"
    ],
    "social_links": {}
  }
]