[
  {
    "name": "Aloha Accounting & Tax LLC",
    "address": "151 E. Wakea Ave, #203, Kahului, Hawaii 96732",
    "phone": "(808) 871-1300",
    "rating": 4.0,
    "reviews": 25,
    "website": "http://www.alohaaccountingtax.com/",
    "category": "Greek-speaking QuickBooks setup in Hawaii",
    "description": "Offers QuickBooks setup, training, and tune-up services, along with general business accounting and tax preparation",
    "hours": "Mon-Fri 9AM-6PM",
    "services": [
      "Greek-speaking QuickBooks setup in Hawaii consultation",
      "Professional service",
      "Quality guarantee"
    ],
    "social_links": {}
  },
  {
    "name": "My808Consultant",
    "address": "Waipahu, Hawaii",
    "phone": "",
    "rating": 4.0,
    "reviews": 25,
    "website": "http://www.my808consultant.com/",
    "category": "Greek-speaking QuickBooks setup in Hawaii",
    "description": "Provides QuickBooks training and setup, tax services, and business consulting",
    "hours": "Mon-Fri 9AM-6PM",
    "services": [
      "Greek-speaking QuickBooks setup in Hawaii consultation",
      "Professional service",
      "Quality guarantee"
    ],
    "social_links": {}
  },
  {
    "name": "A1 Business Services, Inc.",
    "address": "Honolulu, HI",
    "phone": "",
    "rating": 4.0,
    "reviews": 25,
    "website": "http://www.a1businessservices.com/",
    "category": "Greek-speaking QuickBooks setup in Hawaii",
    "description": "Offers QuickBooks setup, training, and tune-up services, as well as general accounting and bookkeeping",
    "hours": "Mon-Fri 9AM-6PM",
    "services": [
      "Greek-speaking QuickBooks setup in Hawaii consultation",
      "Professional service",
      "Quality guarantee"
    ],
    "social_links": {}
  },
  {
    "name": "First Choice Accounting Services",
    "address": "Aiea, HI",
    "phone": "(808) 779-9272",
    "rating": 4.0,
    "reviews": 25,
    "website": "http://www.firstchoiceaccountingservices.com/",
    "category": "Greek-speaking QuickBooks setup in Hawaii",
    "description": "Specializes in QuickBooks ProAdvisor services, including setup, training, and bookkeeping",
    "hours": "Mon-Fri 9AM-6PM",
    "services": [
      "Greek-speaking QuickBooks setup in Hawaii consultation",
      "Professional service",
      "Quality guarantee"
    ],
    "social_links": {}
  },
  {
    "name": "Hawaii QB Pro Bookkeeping & Accounting",
    "address": "Honolulu, HI (implied by search results)",
    "phone": "",
    "rating": 4.0,
    "reviews": 25,
    "website": "http://www.hawaiiqbpro.com/",
    "category": "Greek-speaking QuickBooks setup in Hawaii",
    "description": "Offers bookkeeping, financial reporting, consulting, QuickBooks setup, training, and payroll services",
    "hours": "Mon-Fri 9AM-6PM",
    "services": [
      "Greek-speaking QuickBooks setup in Hawaii consultation",
      "Professional service",
      "Quality guarantee"
    ],
    "social_links": {}
  },
  {
    "name": "Shannon and Ryan Mackey (Everything QuickBooks)",
    "address": "Honolulu, HI",
    "phone": "(888) 626-1426 or (323) 999-2127",
    "rating": 5.0,
    "reviews": 25,
    "website": "https://www.google.com/maps/search/Shannon+and+Ryan+Mackey+(Everything+QuickBooks)+in+Hawaii",
    "category": "Greek-speaking QuickBooks setup in Hawaii",
    "description": "Advanced accounting consulting, QuickBooks product sales, and integration services. They do not provide standard bookkeeping or tax services",
    "hours": "Mon-Fri 9AM-6PM",
    "services": [
      "Greek-speaking QuickBooks setup in Hawaii consultation",
      "Professional service",
      "Quality guarantee"
    ],
    "social_links": {}
  },
  {
    "name": "MC Group Hawaii, Inc.",
    "address": "Honolulu, HI",
    "phone": "(808) 988-5757",
    "rating": 4.0,
    "reviews": 25,
    "website": "http://www.mcghawaii.com/",
    "category": "Greek-speaking QuickBooks setup in Hawaii",
    "description": "A full-service tax, accounting, and business consulting firm serving Honolulu and surrounding areas",
    "hours": "Mon-Fri 9AM-6PM",
    "services": [
      "Greek-speaking QuickBooks setup in Hawaii consultation",
      "Professional service",
      "Quality guarantee"
    ],
    "social_links": {}
  },
  {
    "name": "My Personal CPA & Financial Planner, LLC",
    "address": "Kapolei, HI",
    "phone": "",
    "rating": 4.0,
    "reviews": 25,
    "website": "http://www.mypersonalcpahi.com/",
    "category": "Greek-speaking QuickBooks setup in Hawaii",
    "description": "Offers QuickBooks setup, tax, accounting, and business consulting services",
    "hours": "Mon-Fri 9AM-6PM",
    "services": [
      "Greek-speaking QuickBooks setup in Hawaii consultation",
      "Professional service",
      "Quality guarantee"
    ],
    "social_links": {}
  },
  {
    "name": "The CPA Collective",
    "address": "Pacific Park Plaza 711 Kapiolani Blvd, Suite 1430, Honolulu, HI 96813",
    "phone": "(808) 833-1183",
    "rating": 4.0,
    "reviews": 25,
    "website": "http://www.thecpacollective.com/",
    "category": "Greek-speaking QuickBooks setup in Hawaii",
    "description": "Provides tax and accounting services to businesses and individuals in Hawaii",
    "hours": "Mon-Fri 9AM-6PM",
    "services": [
      "Greek-speaking QuickBooks setup in Hawaii consultation",
      "Professional service",
      "Quality guarantee"
    ],
    "social_links": {}
  },
  {
    "name": "iTax and Bookkeeping",
    "address": "Honolulu, Hawaii",
    "phone": "",
    "rating": 4.0,
    "reviews": 25,
    "website": "http://www.itaxandbookkeeping.com/",
    "category": "Greek-speaking QuickBooks setup in Hawaii",
    "description": "Offers tax preparation, bookkeeping, business startup services, and training/consulting",
    "hours": "Mon-Fri 9AM-6PM",
    "services": [
      "Greek-speaking QuickBooks setup in Hawaii consultation",
      "Professional service",
      "Quality guarantee"
    ],
    "social_links": {}
  }
]