[
  {
    "name": "Wright Outdoor Solutions",
    "address": "7201 Hickman Rd, Des Moines, IA 50322",
    "phone": "(515) 974-3000",
    "rating": 4.7,
    "reviews": 25,
    "website": "https://wrightoutdoorsolutions.com/",
    "category": "Atheist-owned Seasonal garden cleanup in Iowa",
    "description": "Offers comprehensive lawn care, tree care, landscaping, and plant design for residential and commercial properties",
    "hours": "Mon-Fri 9AM-6PM",
    "services": [
      "Atheist-owned Seasonal garden cleanup in Iowa consultation",
      "Professional service",
      "Quality guarantee"
    ],
    "social_links": {}
  },
  {
    "name": "Capital Landscaping",
    "address": "1013 20th St, Des Moines, IA 50314",
    "phone": "(515) 244-2724",
    "rating": 4.6,
    "reviews": 25,
    "website": "https://capitallandscaping.com/",
    "category": "Atheist-owned Seasonal garden cleanup in Iowa",
    "description": "Full-service landscaping and outdoor living company serving the Des Moines area since 1998, specializing in residential landscapes and outdoor living spaces",
    "hours": "Mon-Fri 9AM-6PM",
    "services": [
      "Atheist-owned Seasonal garden cleanup in Iowa consultation",
      "Professional service",
      "Quality guarantee"
    ],
    "social_links": {}
  },
  {
    "name": "Alpha Landscapes",
    "address": "1010 SE 37th St, Grimes, IA 50111",
    "phone": "(515) 974-3420",
    "rating": 4.8,
    "reviews": 25,
    "website": "https://alphalandscapesia.com/",
    "category": "Atheist-owned Seasonal garden cleanup in Iowa",
    "description": "Dedicated landscape construction, erosion control, irrigation, and snow management company serving the central Iowa area",
    "hours": "Mon-Fri 9AM-6PM",
    "services": [
      "Atheist-owned Seasonal garden cleanup in Iowa consultation",
      "Professional service",
      "Quality guarantee"
    ],
    "social_links": {}
  },
  {
    "name": "Sutter Lawns",
    "address": "100 SE 4th St, Ankeny, IA 50021",
    "phone": "(515) 329-3154",
    "rating": 4.8,
    "reviews": 25,
    "website": "https://sutterlawns.com/",
    "category": "Atheist-owned Seasonal garden cleanup in Iowa",
    "description": "Specializes in professional lawn care, pest control, and landscape maintenance designed for Iowa's unique conditions",
    "hours": "Mon-Fri 9AM-6PM",
    "services": [
      "Atheist-owned Seasonal garden cleanup in Iowa consultation",
      "Professional service",
      "Quality guarantee"
    ],
    "social_links": {}
  },
  {
    "name": "JM Lawn & Landscape",
    "address": "2403 SE 37th St, Ames, IA 50010",
    "phone": "(515) 233-1201",
    "rating": 4.7,
    "reviews": 25,
    "website": "https://jmlawnandlandscape.com/",
    "category": "Atheist-owned Seasonal garden cleanup in Iowa",
    "description": "Local, family-owned business offering hands-on lawn care services, including mowing, seeding, weed/pest control, and erosion control",
    "hours": "Mon-Fri 9AM-6PM",
    "services": [
      "Atheist-owned Seasonal garden cleanup in Iowa consultation",
      "Professional service",
      "Quality guarantee"
    ],
    "social_links": {}
  },
  {
    "name": "Augusta Lawn Care Services (Davenport)",
    "address": "1002 W 3rd St, Davenport, IA 52802",
    "phone": "(563) 345-1100",
    "rating": 4.7,
    "reviews": 25,
    "website": "https://augustalawncare.com/locations/davenport-ia/",
    "category": "Atheist-owned Seasonal garden cleanup in Iowa",
    "description": "Provides lawn mowing, landscape upkeep, fertilization, weed elimination, and seasonal yard cleanup services",
    "hours": "Mon-Fri 9AM-6PM",
    "services": [
      "Atheist-owned Seasonal garden cleanup in Iowa consultation",
      "Professional service",
      "Quality guarantee"
    ],
    "social_links": {}
  },
  {
    "name": "Valley Lawn Care LLC",
    "address": "4000 University Ave, Ste 202, Des Moines, IA 50311",
    "phone": "(515) 771-8312",
    "rating": 4.9,
    "reviews": 25,
    "website": "https://www.valleylawncareinc.com/",
    "category": "Atheist-owned Seasonal garden cleanup in Iowa",
    "description": "Offers top-quality lawn care services, including seasonal property cleanups, designed to keep properties looking their best year-round",
    "hours": "Mon-Fri 9AM-6PM",
    "services": [
      "Atheist-owned Seasonal garden cleanup in Iowa consultation",
      "Professional service",
      "Quality guarantee"
    ],
    "social_links": {}
  },
  {
    "name": "Quality Care Lawn",
    "address": "1207 5th St, Coralville, IA 52241",
    "phone": "(319) 351-1111",
    "rating": 4.9,
    "reviews": 25,
    "website": "https://www.qualitycarelawn.com/",
    "category": "Atheist-owned Seasonal garden cleanup in Iowa",
    "description": "Founded in 1980, this company offers lawn health care, irrigation, and pest control services with a mission of \"Quality Work, Done With Care.\"",
    "hours": "Mon-Fri 9AM-6PM",
    "services": [
      "Atheist-owned Seasonal garden cleanup in Iowa consultation",
      "Professional service",
      "Quality guarantee"
    ],
    "social_links": {}
  },
  {
    "name": "Iowa City Landscaping & Garden Center",
    "address": "1001 N Dodge St, Iowa City, IA 52245",
    "phone": "(319) 338-0800",
    "rating": 4.5,
    "reviews": 25,
    "website": "https://iowacitylandscaping.com/",
    "category": "Atheist-owned Seasonal garden cleanup in Iowa",
    "description": "Premier landscape and gardening source offering services from foundation plantings to garden maintenance and inspired landscapes",
    "hours": "Mon-Fri 9AM-6PM",
    "services": [
      "Atheist-owned Seasonal garden cleanup in Iowa consultation",
      "Professional service",
      "Quality guarantee"
    ],
    "social_links": {}
  },
  {
    "name": "Signature Lawn and Landscape",
    "address": "4000 University Ave, Suite 202, Des Moines, IA 50311",
    "phone": "(515) 446-5424",
    "rating": 4.8,
    "reviews": 25,
    "website": "https://signaturelawnandlandscape.com/",
    "category": "Atheist-owned Seasonal garden cleanup in Iowa",
    "description": "Provides professional spring and fall clean-up services in Des Moines and surrounding areas, using eco-friendly, pet-safe practices",
    "hours": "Mon-Fri 9AM-6PM",
    "services": [
      "Atheist-owned Seasonal garden cleanup in Iowa consultation",
      "Professional service",
      "Quality guarantee"
    ],
    "social_links": {}
  }
]