[
  {
    "name": "Fahey Schultz Burzych Rhodes PLC",
    "address": "1700 E. Grand River Ave., Suite 101, East Lansing, MI 48823",
    "phone": "(517) 324-0000",
    "rating": 4.5,
    "reviews": 25,
    "website": "https://www.fsbrlaw.com/",
    "category": "Bengali-speaking Corporate law in Michigan",
    "description": "This firm offers comprehensive legal services to businesses, from startups to publicly-held corporations, with a focus on practical, hands-on problem-solving",
    "hours": "Mon-Fri 9AM-6PM",
    "services": [
      "Bengali-speaking Corporate law in Michigan consultation",
      "Professional service",
      "Quality guarantee"
    ],
    "social_links": {}
  },
  {
    "name": "Jabbour Law",
    "address": "9142 Middlebelt Road, Livonia, MI 48150",
    "phone": "(313) 504-4704",
    "rating": 4.8,
    "reviews": 25,
    "website": "https://www.jabbourlawfirm.com/",
    "category": "Bengali-speaking Corporate law in Michigan",
    "description": "Specializing in corporate formation, mergers, and compliance, Jabbour Law provides tailored business and corporate law services",
    "hours": "Mon-Fri 9AM-6PM",
    "services": [
      "Bengali-speaking Corporate law in Michigan consultation",
      "Professional service",
      "Quality guarantee"
    ],
    "social_links": {}
  },
  {
    "name": "The Hoeg Law Firm, PLLC",
    "address": "41550 W. 11 Mile Rd., Suite 100, Novi, MI 48375",
    "phone": "(248) 381-9040",
    "rating": 4.9,
    "reviews": 25,
    "website": "https://www.hoeglaw.com/",
    "category": "Bengali-speaking Corporate law in Michigan",
    "description": "Offers corporate law expertise with a personalized, small-firm approach, covering areas like mergers and acquisitions, corporate finance, and structuring",
    "hours": "Mon-Fri 9AM-6PM",
    "services": [
      "Bengali-speaking Corporate law in Michigan consultation",
      "Professional service",
      "Quality guarantee"
    ],
    "social_links": {}
  },
  {
    "name": "Harfouch Haddad Bahoura & Rasool, PLLC",
    "address": "24315 W. 10 Mile Rd., Southfield, MI 48033",
    "phone": "(248) 353-0000",
    "rating": 4.7,
    "reviews": 25,
    "website": "https://www.hhbrlaw.com/",
    "category": "Bengali-speaking Corporate law in Michigan",
    "description": "This firm provides a solution-oriented approach to business and corporate law, working with a wide array of clients including nonprofits and multinational corporations",
    "hours": "Mon-Fri 9AM-6PM",
    "services": [
      "Bengali-speaking Corporate law in Michigan consultation",
      "Professional service",
      "Quality guarantee"
    ],
    "social_links": {}
  },
  {
    "name": "Honigman LLP",
    "address": "2290 First National Building, 660 Woodward Ave., Detroit, MI 48226",
    "phone": "(313) 465-2300",
    "rating": 4.3,
    "reviews": 25,
    "website": "https://www.honigman.com/",
    "category": "Bengali-speaking Corporate law in Michigan",
    "description": "A firm with over 75 years of experience in corporate law, offering a diverse practice that helps enterprises thrive, with a strong focus on mergers and acquisitions",
    "hours": "Mon-Fri 9AM-6PM",
    "services": [
      "Bengali-speaking Corporate law in Michigan consultation",
      "Professional service",
      "Quality guarantee"
    ],
    "social_links": {}
  },
  {
    "name": "Varnum LLP",
    "address": "333 W. Fort Street, Suite 1400, Detroit, MI 48226",
    "phone": "(313) 465-4400",
    "rating": 4.4,
    "reviews": 25,
    "website": "https://www.varnumlaw.com/",
    "category": "Bengali-speaking Corporate law in Michigan",
    "description": "Varnum LLP offers a full array of corporate services, acting as trusted business advisors with a multidisciplinary team approach",
    "hours": "Mon-Fri 9AM-6PM",
    "services": [
      "Bengali-speaking Corporate law in Michigan consultation",
      "Professional service",
      "Quality guarantee"
    ],
    "social_links": {}
  },
  {
    "name": "Miller Johnson",
    "address": "200 Ottawa Ave NW, Suite 1200, Grand Rapids, MI 49503",
    "phone": "(616) 831-2500",
    "rating": 4.5,
    "reviews": 25,
    "website": "https://www.millerjohnson.com/",
    "category": "Bengali-speaking Corporate law in Michigan",
    "description": "Miller Johnson has a broad practice in business and corporate law, covering areas such as mergers and acquisitions, corporate finance, and intellectual property",
    "hours": "Mon-Fri 9AM-6PM",
    "services": [
      "Bengali-speaking Corporate law in Michigan consultation",
      "Professional service",
      "Quality guarantee"
    ],
    "social_links": {}
  },
  {
    "name": "Armstrong Teasdale LLP",
    "address": "1000 Wilshire Drive, Suite 300, Troy, MI 48084",
    "phone": "(248) 530-1100",
    "rating": 4.2,
    "reviews": 25,
    "website": "https://www.armstrongteasdale.com/",
    "category": "Bengali-speaking Corporate law in Michigan",
    "description": "This firm has received numerous Tier 1 rankings for its corporate law services, indicating a high level of expertise and client satisfaction",
    "hours": "Mon-Fri 9AM-6PM",
    "services": [
      "Bengali-speaking Corporate law in Michigan consultation",
      "Professional service",
      "Quality guarantee"
    ],
    "social_links": {}
  },
  {
    "name": "K.C. Baran, P.C.",
    "address": "111 E. Court St., Suite 2B, Flint, MI 48502",
    "phone": "(810) 235-1111",
    "rating": 4.9,
    "reviews": 25,
    "website": "https://www.kcbaran.com/",
    "category": "Bengali-speaking Corporate law in Michigan",
    "description": "K.C. Baran, P.C. offers business law services, including corporate practice, contracts, and employment law, with a focus on professional and effective legal representation",
    "hours": "Mon-Fri 9AM-6PM",
    "services": [
      "Bengali-speaking Corporate law in Michigan consultation",
      "Professional service",
      "Quality guarantee"
    ],
    "social_links": {}
  },
  {
    "name": "Hubbard Snitchler & Parzianello",
    "address": "30100 Telegraph Rd., Suite 300, Bingham Farms, MI 48025",
    "phone": "(313) 546-9685",
    "rating": 4.8,
    "reviews": 25,
    "website": "https://www.hubbardlaw.com/",
    "category": "Bengali-speaking Corporate law in Michigan",
    "description": "This firm provides a full range of corporate, real estate, and transactional services to business clients and startups, with a commitment to personalized service",
    "hours": "Mon-Fri 9AM-6PM",
    "services": [
      "Bengali-speaking Corporate law in Michigan consultation",
      "Professional service",
      "Quality guarantee"
    ],
    "social_links": {}
  }
]