[
  {
    "name": "PA Kitchen",
    "address": "While a specific street address in Pennsylvania is not provided, they mention exporting from Saudi Arabia to the U.S. and having global subsidiaries",
    "phone": "",
    "rating": 4.0,
    "reviews": 25,
    "website": "https://www.pakitchen.com/",
    "category": "Chinese-speaking Kitchen design in Pennsylvania",
    "description": "A custom cabinetry manufacturer from China that offers whole-home customization solutions. They mention local language support for projects in other regions",
    "hours": "Mon-Fri 9AM-6PM",
    "services": [
      "Chinese-speaking Kitchen design in Pennsylvania consultation",
      "Professional service",
      "Quality guarantee"
    ],
    "social_links": {}
  },
  {
    "name": "Chima Contracting",
    "address": "Not specified, but they serve Pennsylvania",
    "phone": "855-85-REMODEL (855-857-3663)",
    "rating": 5.0,
    "reviews": 25,
    "website": "https://chimacontracting.com/",
    "category": "Chinese-speaking Kitchen design in Pennsylvania",
    "description": "A remodeling contractor specializing in kitchens, bathrooms, and basements, with over 70 years of experience",
    "hours": "Mon-Fri 9AM-6PM",
    "services": [
      "Chinese-speaking Kitchen design in Pennsylvania consultation",
      "Professional service",
      "Quality guarantee"
    ],
    "social_links": {}
  },
  {
    "name": "Asian Granite and Cabinets",
    "address": "Pittsburgh, PA 15237",
    "phone": "(412) 847-8260",
    "rating": 4.0,
    "reviews": 25,
    "website": "https://www.houzz.com/professionals/cabinets-and-cabinetry/asian-granite-and-cabinets-pfvwbr=0",
    "category": "Chinese-speaking Kitchen design in Pennsylvania",
    "description": "Offers various lines of cabinets for kitchens and other rooms, including custom options",
    "hours": "Mon-Fri 9AM-6PM",
    "services": [
      "Chinese-speaking Kitchen design in Pennsylvania consultation",
      "Professional service",
      "Quality guarantee"
    ],
    "social_links": {}
  },
  {
    "name": "RM Custom Cabinetry",
    "address": "Serves Harrisburg, PA and surrounding regions",
    "phone": "(717) 867-5000",
    "rating": 4.0,
    "reviews": 25,
    "website": "https://rmcustomcabinetry.com/",
    "category": "Chinese-speaking Kitchen design in Pennsylvania",
    "description": "Provides custom kitchen and bathroom remodeling services, including design, build, and installation",
    "hours": "Mon-Fri 9AM-6PM",
    "services": [
      "Chinese-speaking Kitchen design in Pennsylvania consultation",
      "Professional service",
      "Quality guarantee"
    ],
    "social_links": {}
  },
  {
    "name": "Master Kitchen Remodel",
    "address": "Philadelphia, PA",
    "phone": "",
    "rating": 4.0,
    "reviews": 25,
    "website": "https://masterkitchenremodel.com/",
    "category": "Chinese-speaking Kitchen design in Pennsylvania",
    "description": "Specializes in high-end kitchen renovations and transformations in Philadelphia",
    "hours": "Mon-Fri 9AM-6PM",
    "services": [
      "Chinese-speaking Kitchen design in Pennsylvania consultation",
      "Professional service",
      "Quality guarantee"
    ],
    "social_links": {}
  },
  {
    "name": "Hallmark Remodelers",
    "address": "Serves PA & NJ, including Philadelphia, Bucks, Montgomery, and Mercer County",
    "phone": "(215) 677-7000",
    "rating": 4.0,
    "reviews": 25,
    "website": "https://hallmarkremodelers.com/",
    "category": "Chinese-speaking Kitchen design in Pennsylvania",
    "description": "A remodeling contractor with over 45 years of experience in kitchens, bathrooms, and home improvements",
    "hours": "Mon-Fri 9AM-6PM",
    "services": [
      "Chinese-speaking Kitchen design in Pennsylvania consultation",
      "Professional service",
      "Quality guarantee"
    ],
    "social_links": {}
  },
  {
    "name": "Lesher Natural Stone, Quartz, & Tile",
    "address": "Middletown, Pennsylvania (5,000-square-foot showroom)",
    "phone": "717-944-4431",
    "rating": 4.0,
    "reviews": 25,
    "website": "https://leshernaturalstone.com/",
    "category": "Chinese-speaking Kitchen design in Pennsylvania",
    "description": "Provides natural stone, quartz, and tile for kitchen remodels, including countertops, sinks, and accessories",
    "hours": "Mon-Fri 9AM-6PM",
    "services": [
      "Chinese-speaking Kitchen design in Pennsylvania consultation",
      "Professional service",
      "Quality guarantee"
    ],
    "social_links": {}
  },
  {
    "name": "Joanne Hudson Kitchen Designer",
    "address": "Philadelphia Marketplace Design Center, Philadelphia, PA",
    "phone": "",
    "rating": 4.0,
    "reviews": 25,
    "website": "https://www.joannehudson.com/",
    "category": "Chinese-speaking Kitchen design in Pennsylvania",
    "description": "Offers award-winning kitchen and bath design services, distributing fine cabinetry, tiles, and stone",
    "hours": "Mon-Fri 9AM-6PM",
    "services": [
      "Chinese-speaking Kitchen design in Pennsylvania consultation",
      "Professional service",
      "Quality guarantee"
    ],
    "social_links": {}
  },
  {
    "name": "Kitchens By Design",
    "address": "Allentown, PA",
    "phone": "",
    "rating": 4.0,
    "reviews": 25,
    "website": "https://kitchensbydesign.com/",
    "category": "Chinese-speaking Kitchen design in Pennsylvania",
    "description": "Specializes in transforming kitchens into functional and beautiful spaces, offering custom cabinetry and countertops",
    "hours": "Mon-Fri 9AM-6PM",
    "services": [
      "Chinese-speaking Kitchen design in Pennsylvania consultation",
      "Professional service",
      "Quality guarantee"
    ],
    "social_links": {}
  },
  {
    "name": "Main Line Kitchen Design",
    "address": "Bala Cynwyd, PA (works by appointment only)",
    "phone": "(610) 500-4071",
    "rating": 4.0,
    "reviews": 25,
    "website": "https://www.mainlinekitchendesign.com/",
    "category": "Chinese-speaking Kitchen design in Pennsylvania",
    "description": "Offers award-winning kitchen design services, specializing in custom cabinetry and competitive pricing",
    "hours": "Mon-Fri 9AM-6PM",
    "services": [
      "Chinese-speaking Kitchen design in Pennsylvania consultation",
      "Professional service",
      "Quality guarantee"
    ],
    "social_links": {}
  }
]