[
  {
    "name": "Phoenix Customs",
    "address": "1350 S 500 W, Woods Cross, UT 84087",
    "phone": "(801) 602-5976",
    "rating": 4.8,
    "reviews": 25,
    "website": "https://www.phoenixcustomsutah.com/",
    "category": "American-Indian-owned Classic car restoration in Utah",
    "description": "Specializes in custom metal fabrication, restoration, and bodywork for classic and vintage vehicles. They offer services like mechanical swaps, collision repair, rust repair, and complete body and paint work",
    "hours": "Mon-Fri 9AM-6PM",
    "services": [
      "American-Indian-owned Classic car restoration in Utah consultation",
      "Professional service",
      "Quality guarantee"
    ],
    "social_links": {}
  },
  {
    "name": "Streamline Custom Designs LLC",
    "address": "While a specific street address is not readily available, they are based in Utah",
    "phone": "",
    "rating": 4.0,
    "reviews": 25,
    "website": "https://streamlinecustomdesigns.com/",
    "category": "American-Indian-owned Classic car restoration in Utah",
    "description": "Focuses on rebuilding and customizing classic American automobiles, offering modern enhancements to iconic vehicles",
    "hours": "Mon-Fri 9AM-6PM",
    "services": [
      "American-Indian-owned Classic car restoration in Utah consultation",
      "Professional service",
      "Quality guarantee"
    ],
    "social_links": {}
  },
  {
    "name": "Mustang Ranch Auto Body",
    "address": "5770 S 300 W, Murray, UT 84107",
    "phone": "(801) 262-5444",
    "rating": 4.5,
    "reviews": 25,
    "website": "https://www.google.com/maps/search/Mustang+Ranch+Auto+Body+in+Utah",
    "category": "American-Indian-owned Classic car restoration in Utah",
    "description": "Provides expert collision repair and comprehensive auto restoration services for all makes and models, with a specialization in classic and vintage cars",
    "hours": "Mon-Fri 9AM-6PM",
    "services": [
      "American-Indian-owned Classic car restoration in Utah consultation",
      "Professional service",
      "Quality guarantee"
    ],
    "social_links": {}
  },
  {
    "name": "Ekins Garage",
    "address": "8565 W 3500 S, West Jordan, UT 84088",
    "phone": "(801) 566-1252",
    "rating": 4.9,
    "reviews": 25,
    "website": "http://www.ekinsgarage.com/",
    "category": "American-Indian-owned Classic car restoration in Utah",
    "description": "Specializes in automotive restoration and custom builds, with a focus on muscle cars and hot rods, aiming to bring clients' automotive visions to life",
    "hours": "Mon-Fri 9AM-6PM",
    "services": [
      "American-Indian-owned Classic car restoration in Utah consultation",
      "Professional service",
      "Quality guarantee"
    ],
    "social_links": {}
  },
  {
    "name": "Wasatch Customs",
    "address": "1038 W 400 N, Layton, UT 84041",
    "phone": "(801) 771-3868",
    "rating": 4.8,
    "reviews": 25,
    "website": "https://www.wasatchcustoms.net/",
    "category": "American-Indian-owned Classic car restoration in Utah",
    "description": "Offers complete car restorations, custom body kits, and repairs, with expertise in 1960s and 1970s muscle cars",
    "hours": "Mon-Fri 9AM-6PM",
    "services": [
      "American-Indian-owned Classic car restoration in Utah consultation",
      "Professional service",
      "Quality guarantee"
    ],
    "social_links": {}
  },
  {
    "name": "Bel Air Ranch (Renegade Associates LLC)",
    "address": "While they mention Utah in their services, their primary listed contact is in California. The Utah presence is implied through service offerings",
    "phone": "(805) 693-1311",
    "rating": 4.0,
    "reviews": 25,
    "website": "https://www.belairranch.com/",
    "category": "American-Indian-owned Classic car restoration in Utah",
    "description": "Specializes in classic car restorations, including muscle cars, with a focus on meticulous attention to detail and preserving the essence of vintage automobiles",
    "hours": "Mon-Fri 9AM-6PM",
    "services": [
      "American-Indian-owned Classic car restoration in Utah consultation",
      "Professional service",
      "Quality guarantee"
    ],
    "social_links": {}
  },
  {
    "name": "Lindon Collision Center",
    "address": "145 S State St, Lindon, UT 84042",
    "phone": "(801) 785-2277",
    "rating": 4.7,
    "reviews": 25,
    "website": "https://www.lindoncollision.com/",
    "category": "American-Indian-owned Classic car restoration in Utah",
    "description": "Has extensive experience in classic car restorations, with the owner being a master in the field, delivering impressive results on custom projects",
    "hours": "Mon-Fri 9AM-6PM",
    "services": [
      "American-Indian-owned Classic car restoration in Utah consultation",
      "Professional service",
      "Quality guarantee"
    ],
    "social_links": {}
  },
  {
    "name": "Gilley's Signature Restoration",
    "address": "780 N 200 W, Tooele, UT 84074",
    "phone": "(435) 249-7434",
    "rating": 5.0,
    "reviews": 25,
    "website": "https://www.google.com/maps/search/Gilley's+Signature+Restoration+in+Utah",
    "category": "American-Indian-owned Classic car restoration in Utah",
    "description": "Offers custom auto repairs and restorations, utilizing over 25 years of experience to restore classic cars, trucks, boats, and tractors, with a focus on understanding client visions",
    "hours": "Mon-Fri 9AM-6PM",
    "services": [
      "American-Indian-owned Classic car restoration in Utah consultation",
      "Professional service",
      "Quality guarantee"
    ],
    "social_links": {}
  },
  {
    "name": "Red Line Restoration",
    "address": "While a specific street address is not readily available, they operate in Salt Lake City, Utah",
    "phone": "(801) 953-0932",
    "rating": 4.9,
    "reviews": 25,
    "website": "https://www.redlinerestoration.com/",
    "category": "American-Indian-owned Classic car restoration in Utah",
    "description": "Specializes in high-quality muscle car and classic car restoration, aiming to bring customers' dream cars to life with precision and passion",
    "hours": "Mon-Fri 9AM-6PM",
    "services": [
      "American-Indian-owned Classic car restoration in Utah consultation",
      "Professional service",
      "Quality guarantee"
    ],
    "social_links": {}
  },
  {
    "name": "Layton Carcare",
    "address": "1038 W 400 N, Layton, UT 84041",
    "phone": "(801) 593-9200",
    "rating": 4.7,
    "reviews": 25,
    "website": "https://www.google.com/maps/search/Layton+Carcare+in+Utah",
    "category": "American-Indian-owned Classic car restoration in Utah",
    "description": "Capable of restoring classic cars to show condition, building cars for open-road racing, and fabricating roll bars and cages. They have experience with various classic models",
    "hours": "Mon-Fri 9AM-6PM",
    "services": [
      "American-Indian-owned Classic car restoration in Utah consultation",
      "Professional service",
      "Quality guarantee"
    ],
    "social_links": {}
  }
]