[
  {
    "name": "El Tio Restaurant y Tienda Latina",
    "address": "2171 Ivy Road Suite 13, Charlottesville, Virginia 22903",
    "phone": "",
    "rating": 5.0,
    "reviews": 25,
    "website": "https://www.eltiocharlottesville.com/",
    "category": "Central-American-owned Meal planning in Virginia",
    "description": "Offers authentic Latin comfort food inspired by El Salvador, with a focus on traditional family recipes. They are known for their warm hospitality and dishes like pupusas",
    "hours": "Mon-Fri 9AM-6PM",
    "services": [
      "Central-American-owned Meal planning in Virginia consultation",
      "Professional service",
      "Quality guarantee"
    ],
    "social_links": {}
  },
  {
    "name": "LatinLite",
    "address": "While they offer delivery, a specific physical address for a storefront is not readily available. Their service is focused on meal delivery",
    "phone": "(305) 501-2277 (Customer Service)",
    "rating": 5.0,
    "reviews": 25,
    "website": "https://www.latinlite.com/",
    "category": "Central-American-owned Meal planning in Virginia",
    "description": "Provides nutritious, delicious, and healthy Latin-inspired meals with a focus on educating customers about achieving a healthier lifestyle. They offer customizable meals and delivery",
    "hours": "Mon-Fri 9AM-6PM",
    "services": [
      "Central-American-owned Meal planning in Virginia consultation",
      "Professional service",
      "Quality guarantee"
    ],
    "social_links": {}
  },
  {
    "name": "Clean Eatz",
    "address": "1065 Independence Blvd, Virginia Beach, VA 23455",
    "phone": "(757) 689-2929",
    "rating": 4.5,
    "reviews": 25,
    "website": "https://cleaneatz.com/locations/virginia-beach-va/",
    "category": "Central-American-owned Meal planning in Virginia",
    "description": "Offers a weekly meal plan service with a new menu each Tuesday, alongside dine-in options. They focus on healthy, affordable meals, with most under 500 calories",
    "hours": "Mon-Fri 9AM-6PM",
    "services": [
      "Central-American-owned Meal planning in Virginia consultation",
      "Professional service",
      "Quality guarantee"
    ],
    "social_links": {}
  },
  {
    "name": "Lyfestyle Meals",
    "address": "Serves Chesapeake, Newport News, Virginia Beach, and all of Hampton Roads. A specific storefront address is not provided, as they focus on delivery",
    "phone": "(757) 775-4963",
    "rating": 4.8,
    "reviews": 25,
    "website": "https://lyfestylemeals.com/",
    "category": "Central-American-owned Meal planning in Virginia",
    "description": "Provides healthy, prepared meals customized to individual preferences, delivered and ready-to-eat. They offer flexible meal plans and delivery options",
    "hours": "Mon-Fri 9AM-6PM",
    "services": [
      "Central-American-owned Meal planning in Virginia consultation",
      "Professional service",
      "Quality guarantee"
    ],
    "social_links": {}
  },
  {
    "name": "Inca Social",
    "address": "2670 Avenir Pl, Vienna, VA 22181 and 1776 Wilson Blvd, Arlington, VA 22201",
    "phone": "Vienna: (703) 870-7500; Arlington: (703) 870-7500",
    "rating": 4.5,
    "reviews": 25,
    "website": "https://www.incasocial.com/",
    "category": "Central-American-owned Meal planning in Virginia",
    "description": "Known for authentic Peruvian cuisine with a contemporary twist, offering a variety of traditional dishes",
    "hours": "Mon-Fri 9AM-6PM",
    "services": [
      "Central-American-owned Meal planning in Virginia consultation",
      "Professional service",
      "Quality guarantee"
    ],
    "social_links": {}
  },
  {
    "name": "El Pollo Rico",
    "address": "Multiple locations, including: 1006 N. Highland St., Arlington, VA 22201 and 1001 S. George Mason Dr., Falls Church, VA 22041",
    "phone": "Arlington: (703) 537-2000; Falls Church: (703) 537-2000",
    "rating": 4.5,
    "reviews": 25,
    "website": "https://elpollorico.us/",
    "category": "Central-American-owned Meal planning in Virginia",
    "description": "Specializes in Peruvian chicken and other traditional Peruvian dishes",
    "hours": "Mon-Fri 9AM-6PM",
    "services": [
      "Central-American-owned Meal planning in Virginia consultation",
      "Professional service",
      "Quality guarantee"
    ],
    "social_links": {}
  },
  {
    "name": "Abi Azteca Grill & Bar",
    "address": "3005 Columbia Pk, Arlington, VA 22204",
    "phone": "(703) 920-0001",
    "rating": 4.3,
    "reviews": 25,
    "website": "https://abi-azteca.com/",
    "category": "Central-American-owned Meal planning in Virginia",
    "description": "Offers a blend of Mexican and Salvadoran cuisine, with a focus on fresh ingredients and flavorful dishes",
    "hours": "Mon-Fri 9AM-6PM",
    "services": [
      "Central-American-owned Meal planning in Virginia consultation",
      "Professional service",
      "Quality guarantee"
    ],
    "social_links": {}
  },
  {
    "name": "Taqueria Jessy's",
    "address": "5951 E Virginia Beach Blvd, Norfolk, VA 23502",
    "phone": "(757) 556-8206",
    "rating": 4.4,
    "reviews": 25,
    "website": "https://taqueriajessys.com/",
    "category": "Central-American-owned Meal planning in Virginia",
    "description": "Serves authentic Mexican street food, including tacos and burritos, as well as other Latin American dishes and seafood",
    "hours": "Mon-Fri 9AM-6PM",
    "services": [
      "Central-American-owned Meal planning in Virginia consultation",
      "Professional service",
      "Quality guarantee"
    ],
    "social_links": {}
  },
  {
    "name": "Lupita's Mexican and Latin American Restaurant",
    "address": "9610 1st View St, Norfolk, VA 23503 and 5951 E Virginia Beach Blvd, Norfolk, VA 23502",
    "phone": "(757) 216-5623 (1st View St) and (757) 556-8206 (Virginia Beach Blvd)",
    "rating": 4.3,
    "reviews": 25,
    "website": "https://www.lupitasnorfolk.com/",
    "category": "Central-American-owned Meal planning in Virginia",
    "description": "Offers a variety of Mexican and Latin American dishes, with a focus on traditional flavors",
    "hours": "Mon-Fri 9AM-6PM",
    "services": [
      "Central-American-owned Meal planning in Virginia consultation",
      "Professional service",
      "Quality guarantee"
    ],
    "social_links": {}
  },
  {
    "name": "Wacamole Latin Food",
    "address": "1405 Harpers Rd, Virginia Beach, VA 23454",
    "phone": "(757) 904-5521",
    "rating": 4.5,
    "reviews": 25,
    "website": "https://www.wacamole.com/",
    "category": "Central-American-owned Meal planning in Virginia",
    "description": "A restaurant offering Latin food with a focus on fresh ingredients and flavorful dishes",
    "hours": "Mon-Fri 9AM-6PM",
    "services": [
      "Central-American-owned Meal planning in Virginia consultation",
      "Professional service",
      "Quality guarantee"
    ],
    "social_links": {}
  }
]