[
  {
    "name": "Orangeburg Eye Center",
    "address": "1757 St Matthews Rd, Orangeburg, SC 29118",
    "phone": "(803) 531-8000",
    "rating": 4.0,
    "reviews": 25,
    "website": "http://www.orangeburgeye.com/",
    "category": "Asian-owned Ophthalmology in South-Carolina",
    "description": "Offers comprehensive medical and surgical eye care, including cataract surgery, glaucoma surgery, and blepharoplasties. Dr. Daoling Zhang is a board-certified ophthalmologist at this practice",
    "hours": "Mon-Fri 9AM-6PM",
    "services": [
      "Asian-owned Ophthalmology in South-Carolina consultation",
      "Professional service",
      "Quality guarantee"
    ],
    "social_links": {}
  },
  {
    "name": "Eye Center of Charleston",
    "address": "2190 Henry Tecklenburg Dr, Charleston, SC 29414",
    "phone": "(843) 795-5500",
    "rating": 4.0,
    "reviews": 25,
    "website": "http://www.eyecenterofcharleston.com/",
    "category": "Asian-owned Ophthalmology in South-Carolina",
    "description": "Provides medical and surgical treatment of eye diseases. Dr. Sudeep K. Das, a native of South Carolina, completed his ophthalmology training at the Storm Eye Institute",
    "hours": "Mon-Fri 9AM-6PM",
    "services": [
      "Asian-owned Ophthalmology in South-Carolina consultation",
      "Professional service",
      "Quality guarantee"
    ],
    "social_links": {}
  },
  {
    "name": "Carolina Eyecare Physicians",
    "address": "Multiple locations, including 1000 Johnnie Dodds Blvd, Mt Pleasant, SC 29464",
    "phone": "(843) 881-3937",
    "rating": 4.0,
    "reviews": 25,
    "website": "https://www.carolinaeyecare.com/",
    "category": "Asian-owned Ophthalmology in South-Carolina",
    "description": "Offers comprehensive ophthalmology services, including cataract surgery, glaucoma care, and refractive surgery",
    "hours": "Mon-Fri 9AM-6PM",
    "services": [
      "Asian-owned Ophthalmology in South-Carolina consultation",
      "Professional service",
      "Quality guarantee"
    ],
    "social_links": {}
  },
  {
    "name": "Coastal Eye Group",
    "address": "Multiple locations, including 1015 N. Kings Hwy, Myrtle Beach, SC 29577",
    "phone": "(843) 448-9494",
    "rating": 4.0,
    "reviews": 25,
    "website": "https://www.coastaleyegroup.com/",
    "category": "Asian-owned Ophthalmology in South-Carolina",
    "description": "Provides medical and surgical eye care, with specialists in cataract surgery, glaucoma, and retina",
    "hours": "Mon-Fri 9AM-6PM",
    "services": [
      "Asian-owned Ophthalmology in South-Carolina consultation",
      "Professional service",
      "Quality guarantee"
    ],
    "social_links": {}
  },
  {
    "name": "Palmetto Eye & Laser Center",
    "address": "1055 John B. White Sr. Blvd, Spartanburg, SC 29307",
    "phone": "(864) 583-6381",
    "rating": 4.0,
    "reviews": 25,
    "website": "https://www.palmettoeye.com/",
    "category": "Asian-owned Ophthalmology in South-Carolina",
    "description": "A LASIK and cataract center offering comprehensive eye health services",
    "hours": "Mon-Fri 9AM-6PM",
    "services": [
      "Asian-owned Ophthalmology in South-Carolina consultation",
      "Professional service",
      "Quality guarantee"
    ],
    "social_links": {}
  },
  {
    "name": "Palmetto Ophthalmology Associates",
    "address": "Multiple locations, including 1015 St. Andrews Rd, Columbia, SC 29210",
    "phone": "(803) 359-8777",
    "rating": 4.0,
    "reviews": 25,
    "website": "https://www.palmetto-ophthalmology.com/",
    "category": "Asian-owned Ophthalmology in South-Carolina",
    "description": "Offers comprehensive and specialized eye care, including cataract surgery and glaucoma treatment",
    "hours": "Mon-Fri 9AM-6PM",
    "services": [
      "Asian-owned Ophthalmology in South-Carolina consultation",
      "Professional service",
      "Quality guarantee"
    ],
    "social_links": {}
  },
  {
    "name": "Lowcountry Eye Specialists",
    "address": "9565 US-78, Suite 200, Ladson, SC 29456",
    "phone": "(843) 553-2477",
    "rating": 4.0,
    "reviews": 25,
    "website": "http://www.lowcountryeyespecialists.com/",
    "category": "Asian-owned Ophthalmology in South-Carolina",
    "description": "Provides comprehensive eye care and surgical expertise for various eye-related disorders",
    "hours": "Mon-Fri 9AM-6PM",
    "services": [
      "Asian-owned Ophthalmology in South-Carolina consultation",
      "Professional service",
      "Quality guarantee"
    ],
    "social_links": {}
  },
  {
    "name": "Carolina Family Eyecare",
    "address": "Multiple locations, including 122 Ben Casey Drive, Suite 101, Fort Mill, SC 29708",
    "phone": "(803) 548-4515",
    "rating": 4.0,
    "reviews": 25,
    "website": "https://www.carolinafamilyeyecare.com/",
    "category": "Asian-owned Ophthalmology in South-Carolina",
    "description": "Offers a family-focused eye care experience with advanced eyecare technologies. Dr. Nikhil Bansal is an optometrist at this practice",
    "hours": "Mon-Fri 9AM-6PM",
    "services": [
      "Asian-owned Ophthalmology in South-Carolina consultation",
      "Professional service",
      "Quality guarantee"
    ],
    "social_links": {}
  },
  {
    "name": "Waring Vision Institute",
    "address": "530 Johnnie Dodds Blvd, Mt Pleasant, SC 29464",
    "phone": "(843) 884-2525",
    "rating": 4.0,
    "reviews": 25,
    "website": "https://www.waringvision.com/",
    "category": "Asian-owned Ophthalmology in South-Carolina",
    "description": "Provides advanced vision correction treatments, including LASIK and cataract surgery",
    "hours": "Mon-Fri 9AM-6PM",
    "services": [
      "Asian-owned Ophthalmology in South-Carolina consultation",
      "Professional service",
      "Quality guarantee"
    ],
    "social_links": {}
  },
  {
    "name": "Palmetto Ophthalmology Associates (Lexington, SC location)",
    "address": "1015 St. Andrews Rd, Columbia, SC 29210 (This is a general address for the practice, specific Lexington location details were not readily available in search results.)",
    "phone": "(803) 359-8777",
    "rating": 4.0,
    "reviews": 25,
    "website": "https://www.palmetto-ophthalmology.com/",
    "category": "Asian-owned Ophthalmology in South-Carolina",
    "description": "Dr. Kunal D Kanitkar practices ophthalmology in Lexington, SC, and is part of Palmetto Ophthalmology Associates",
    "hours": "Mon-Fri 9AM-6PM",
    "services": [
      "Asian-owned Ophthalmology in South-Carolina consultation",
      "Professional service",
      "Quality guarantee"
    ],
    "social_links": {}
  }
]