[
  {
    "name": "Belter Roofing and Construction",
    "address": "Multiple locations, including Oklahoma City and Tulsa",
    "phone": "(405) 400-7000",
    "rating": 5.0,
    "reviews": 25,
    "website": "https://belterroofing.com/",
    "category": "Chinese-speaking Roof inspection in Oklahoma",
    "description": "Offers free roof inspections, specializing in storm damage repair and using high-quality materials. They have a 100% satisfaction rate with 5-star reviews",
    "hours": "Mon-Fri 9AM-6PM",
    "services": [
      "Chinese-speaking Roof inspection in Oklahoma consultation",
      "Professional service",
      "Quality guarantee"
    ],
    "social_links": {}
  },
  {
    "name": "Trademark Exteriors Restoration",
    "address": "1501 NW 164th St, Oklahoma City, OK 73134",
    "phone": "(405) 748-4444",
    "rating": 4.8,
    "reviews": 25,
    "website": "https://tmexteriors.com/",
    "category": "Chinese-speaking Roof inspection in Oklahoma",
    "description": "Provides expert roof inspections for residential and commercial properties, trained in various roofing systems and experienced with Oklahoma's weather",
    "hours": "Mon-Fri 9AM-6PM",
    "services": [
      "Chinese-speaking Roof inspection in Oklahoma consultation",
      "Professional service",
      "Quality guarantee"
    ],
    "social_links": {}
  },
  {
    "name": "Hiner Roofing",
    "address": "10110 N May Ave Suite 100, Oklahoma City, OK 73120",
    "phone": "(405) 701-0000",
    "rating": 4.9,
    "reviews": 25,
    "website": "https://www.hinerroofing.com/",
    "category": "Chinese-speaking Roof inspection in Oklahoma",
    "description": "A reputable roofing inspection company known for high-quality solutions, offering 24/7 emergency service and a 100% satisfaction guarantee",
    "hours": "Mon-Fri 9AM-6PM",
    "services": [
      "Chinese-speaking Roof inspection in Oklahoma consultation",
      "Professional service",
      "Quality guarantee"
    ],
    "social_links": {}
  },
  {
    "name": "Numark Roofing",
    "address": "10110 N May Ave Suite 100, Oklahoma City, OK 73120",
    "phone": "(405) 701-0000",
    "rating": 4.9,
    "reviews": 25,
    "website": "https://numarkroofing.com/",
    "category": "Chinese-speaking Roof inspection in Oklahoma",
    "description": "Offers free roof inspections with detailed reports and expert suggestions for repairs or replacements, serving Oklahoma City, Tulsa, and Northwest Arkansas",
    "hours": "Mon-Fri 9AM-6PM",
    "services": [
      "Chinese-speaking Roof inspection in Oklahoma consultation",
      "Professional service",
      "Quality guarantee"
    ],
    "social_links": {}
  },
  {
    "name": "Rebirth Roofing",
    "address": "11212 N May Ave, Oklahoma City, OK 73120",
    "phone": "(405) 358-5503",
    "rating": 4.9,
    "reviews": 25,
    "website": "https://rebirthroofing.com/",
    "category": "Chinese-speaking Roof inspection in Oklahoma",
    "description": "Provides detailed roof inspections to uncover hidden problems, prioritizing transparency and education. They offer services in Oklahoma City and surrounding areas",
    "hours": "Mon-Fri 9AM-6PM",
    "services": [
      "Chinese-speaking Roof inspection in Oklahoma consultation",
      "Professional service",
      "Quality guarantee"
    ],
    "social_links": {}
  },
  {
    "name": "Roof Repair Plus",
    "address": "1101 S Utica Ave, Tulsa, OK 74104",
    "phone": "(918) 878-8027",
    "rating": 4.9,
    "reviews": 25,
    "website": "https://roofrepairplus.com/",
    "category": "Chinese-speaking Roof inspection in Oklahoma",
    "description": "A fully licensed and insured roofing contractor in Tulsa offering inspections, repairs, and replacements with a focus on craftsmanship and customer care",
    "hours": "Mon-Fri 9AM-6PM",
    "services": [
      "Chinese-speaking Roof inspection in Oklahoma consultation",
      "Professional service",
      "Quality guarantee"
    ],
    "social_links": {}
  },
  {
    "name": "Z Construction and Roofing",
    "address": "1000 N. Meridian Ave, Oklahoma City, OK 73107",
    "phone": "(405) 882-1717",
    "rating": 4.9,
    "reviews": 25,
    "website": "https://zconstructionandroofing.com/",
    "category": "Chinese-speaking Roof inspection in Oklahoma",
    "description": "Specializes in emergency roof repair and offers rapid response services in El Reno and Oklahoma City, with experienced crews ready to stabilize and repair roofs",
    "hours": "Mon-Fri 9AM-6PM",
    "services": [
      "Chinese-speaking Roof inspection in Oklahoma consultation",
      "Professional service",
      "Quality guarantee"
    ],
    "social_links": {}
  },
  {
    "name": "Triple Diamond Construction",
    "address": "1100 NW 164th St, Oklahoma City, OK 73134",
    "phone": "(405) 895-9972",
    "rating": 4.9,
    "reviews": 25,
    "website": "https://triplediamondconstruction.com/",
    "category": "Chinese-speaking Roof inspection in Oklahoma",
    "description": "Offers free, comprehensive roof and home inspections, fully licensed and insured, with same-day inspections available and emergency roofing services",
    "hours": "Mon-Fri 9AM-6PM",
    "services": [
      "Chinese-speaking Roof inspection in Oklahoma consultation",
      "Professional service",
      "Quality guarantee"
    ],
    "social_links": {}
  },
  {
    "name": "Champion Roofing",
    "address": "1133 NW 164th St, Oklahoma City, OK 73134",
    "phone": "(405) 544-1111",
    "rating": 4.9,
    "reviews": 25,
    "website": "https://championroofingokc.com/",
    "category": "Chinese-speaking Roof inspection in Oklahoma",
    "description": "Provides top-quality roofing services including installations, repairs, and maintenance in Oklahoma City, specializing in storm damage restoration and working with insurance providers",
    "hours": "Mon-Fri 9AM-6PM",
    "services": [
      "Chinese-speaking Roof inspection in Oklahoma consultation",
      "Professional service",
      "Quality guarantee"
    ],
    "social_links": {}
  },
  {
    "name": "Loomis Construction",
    "address": "10110 N May Ave Suite 100, Oklahoma City, OK 73120",
    "phone": "(405) 200-8957",
    "rating": 4.9,
    "reviews": 25,
    "website": "https://loomisconstruction.com/",
    "category": "Chinese-speaking Roof inspection in Oklahoma",
    "description": "Offers comprehensive roof inspection services for residential and commercial properties, with a commitment to excellence, personalized service, and competitive pricing",
    "hours": "Mon-Fri 9AM-6PM",
    "services": [
      "Chinese-speaking Roof inspection in Oklahoma consultation",
      "Professional service",
      "Quality guarantee"
    ],
    "social_links": {}
  }
]