[
  {
    "name": "Safelite AutoGlass",
    "address": "2737 Koapaka St, Honolulu, HI 96819",
    "phone": "(808) 834-1511",
    "rating": 4.5,
    "reviews": 25,
    "website": "https://www.safelite.com/",
    "category": "Arabic-speaking Auto glass repair in Hawaii",
    "description": "Safelite offers windshield repair and replacement services for most makes and models, utilizing advanced technology and expert technicians. They also offer recalibration services for vehicles with advanced safety systems",
    "hours": "Mon-Fri 9AM-6PM",
    "services": [
      "Arabic-speaking Auto glass repair in Hawaii consultation",
      "Professional service",
      "Quality guarantee"
    ],
    "social_links": {}
  },
  {
    "name": "Ace Auto Glass",
    "address": "Multiple locations across Hawaii and Guam. One example is 2250 Kamehameha Hwy, Honolulu, HI 96819",
    "phone": "(808) 847-3217",
    "rating": 4.5,
    "reviews": 25,
    "website": "https://aceautoglasshi.com/",
    "category": "Arabic-speaking Auto glass repair in Hawaii",
    "description": "Ace Auto Glass provides repair and replacement services for a wide range of vehicles, including cars, trucks, boats, and more. They have been serving Hawaii since 1975 and emphasize quality and customer service",
    "hours": "Mon-Fri 9AM-6PM",
    "services": [
      "Arabic-speaking Auto glass repair in Hawaii consultation",
      "Professional service",
      "Quality guarantee"
    ],
    "social_links": {}
  },
  {
    "name": "Aloha Mobile Auto Glass",
    "address": "Mobile service across Oahu",
    "phone": "(808) 371-0806",
    "rating": 4.8,
    "reviews": 25,
    "website": "https://alohamobileautoglass.com/",
    "category": "Arabic-speaking Auto glass repair in Hawaii",
    "description": "This company offers professional mobile auto glass repair and replacement services throughout Oahu. They come to your location for convenience and use high-quality materials",
    "hours": "Mon-Fri 9AM-6PM",
    "services": [
      "Arabic-speaking Auto glass repair in Hawaii consultation",
      "Professional service",
      "Quality guarantee"
    ],
    "social_links": {}
  },
  {
    "name": "SuperGlass Windshield Repair of Hawai\u02bbi",
    "address": "Mobile service available",
    "phone": "(808) 342-9000",
    "rating": 4.7,
    "reviews": 25,
    "website": "https://www.superglasshawaii.com/",
    "category": "Arabic-speaking Auto glass repair in Hawaii",
    "description": "SuperGlass specializes in windshield repair, aiming to save customers money on replacements. They offer mobile service and guarantee their repairs",
    "hours": "Mon-Fri 9AM-6PM",
    "services": [
      "Arabic-speaking Auto glass repair in Hawaii consultation",
      "Professional service",
      "Quality guarantee"
    ],
    "social_links": {}
  },
  {
    "name": "Leeward Auto Glass",
    "address": "94-1030 Waipahu St, Waipahu, HI 96797",
    "phone": "(808) 671-0400",
    "rating": 4.6,
    "reviews": 25,
    "website": "https://leewardautoglass.com/",
    "category": "Arabic-speaking Auto glass repair in Hawaii",
    "description": "Leeward Auto Glass has been serving the community for over 45 years, offering repair and replacement services for personal and commercial vehicles",
    "hours": "Mon-Fri 9AM-6PM",
    "services": [
      "Arabic-speaking Auto glass repair in Hawaii consultation",
      "Professional service",
      "Quality guarantee"
    ],
    "social_links": {}
  },
  {
    "name": "Glass Genie",
    "address": "Mobile service across Honolulu, HI",
    "phone": "(866) 231-1781",
    "rating": 4.9,
    "reviews": 25,
    "website": "https://glassgenie.com/",
    "category": "Arabic-speaking Auto glass repair in Hawaii",
    "description": "Glass Genie is a highly-rated mobile auto glass repair service with over two decades of experience. They offer fast, friendly, and certified service at your location",
    "hours": "Mon-Fri 9AM-6PM",
    "services": [
      "Arabic-speaking Auto glass repair in Hawaii consultation",
      "Professional service",
      "Quality guarantee"
    ],
    "social_links": {}
  },
  {
    "name": "Honolulu Auto Glass Repair & Replacement Services (Safelite)",
    "address": "2737 Koapaka St, Honolulu, HI 96819",
    "phone": "(808) 834-1511",
    "rating": 4.5,
    "reviews": 25,
    "website": "https://www.safelite.com/locations/honolulu-hi-auto-glass-2005",
    "category": "Arabic-speaking Auto glass repair in Hawaii",
    "description": "This is a specific location for Safelite AutoGlass in Honolulu, offering comprehensive auto glass repair and replacement services",
    "hours": "Mon-Fri 9AM-6PM",
    "services": [
      "Arabic-speaking Auto glass repair in Hawaii consultation",
      "Professional service",
      "Quality guarantee"
    ],
    "social_links": {}
  },
  {
    "name": "Ace Auto Glass - Kalihi",
    "address": "2250 Kamehameha Hwy, Honolulu, HI 96819",
    "phone": "(808) 847-3217",
    "rating": 4.5,
    "reviews": 25,
    "website": "https://aceautoglasshi.com/locations/kalihi/",
    "category": "Arabic-speaking Auto glass repair in Hawaii",
    "description": "This is one of the many Ace Auto Glass locations, providing windshield repair, replacement, and other auto glass services",
    "hours": "Mon-Fri 9AM-6PM",
    "services": [
      "Arabic-speaking Auto glass repair in Hawaii consultation",
      "Professional service",
      "Quality guarantee"
    ],
    "social_links": {}
  },
  {
    "name": "Ace Auto Glass - McCully",
    "address": "2319 S Beretania St, Honolulu, HI 96826",
    "phone": "(808) 949-3217",
    "rating": 4.5,
    "reviews": 25,
    "website": "https://aceautoglasshi.com/locations/mccully/",
    "category": "Arabic-speaking Auto glass repair in Hawaii",
    "description": "Another convenient location for Ace Auto Glass, offering their full range of auto glass services to the McCully area",
    "hours": "Mon-Fri 9AM-6PM",
    "services": [
      "Arabic-speaking Auto glass repair in Hawaii consultation",
      "Professional service",
      "Quality guarantee"
    ],
    "social_links": {}
  },
  {
    "name": "Ace Auto Glass - Aiea",
    "address": "98-025 Hekaha St, Unit 2, Aiea, HI 96701",
    "phone": "(808) 487-3217",
    "rating": 4.5,
    "reviews": 25,
    "website": "https://aceautoglasshi.com/locations/aiea/",
    "category": "Arabic-speaking Auto glass repair in Hawaii",
    "description": "Serving the Aiea community, this Ace Auto Glass location provides expert auto glass repair and replacement services",
    "hours": "Mon-Fri 9AM-6PM",
    "services": [
      "Arabic-speaking Auto glass repair in Hawaii consultation",
      "Professional service",
      "Quality guarantee"
    ],
    "social_links": {}
  }
]