[
  {
    "name": "Winter Park Tint & Paint Protection",
    "address": "1200 S Orlando Ave, Winter Park, FL 32789",
    "phone": "(407) 674-7777",
    "rating": 4.8,
    "reviews": 25,
    "website": "https://www.winterparktint.com/",
    "category": "Chinese-American-owned Paint protection film in Florida",
    "description": "Specializes in high-quality paint protection film (PPF) installations, offering clear bras and full-body protection to keep vehicles looking new",
    "hours": "Mon-Fri 9AM-6PM",
    "services": [
      "Chinese-American-owned Paint protection film in Florida consultation",
      "Professional service",
      "Quality guarantee"
    ],
    "social_links": {}
  },
  {
    "name": "Tinterz",
    "address": "7006 W Waters Ave, Tampa, FL 33634 (also serves Orlando)",
    "phone": "(813) 445-3990",
    "rating": 4.9,
    "reviews": 25,
    "website": "https://www.tinterz.com/",
    "category": "Chinese-American-owned Paint protection film in Florida",
    "description": "Offers premium car paint protection film (PPF) wraps and installations to shield vehicles from scratches, chips, and environmental damage",
    "hours": "Mon-Fri 9AM-6PM",
    "services": [
      "Chinese-American-owned Paint protection film in Florida consultation",
      "Professional service",
      "Quality guarantee"
    ],
    "social_links": {}
  },
  {
    "name": "Pure Precision Custom Detailing",
    "address": "12200 49th St N, Clearwater, FL 33762",
    "phone": "(727) 667-0168",
    "rating": 4.9,
    "reviews": 25,
    "website": "https://pureprecisiondetailing.com/",
    "category": "Chinese-American-owned Paint protection film in Florida",
    "description": "Provides expert paint protection film (PPF) wraps, ceramic coatings, and window tinting in the Tampa Bay area, focusing on precision and high standards",
    "hours": "Mon-Fri 9AM-6PM",
    "services": [
      "Chinese-American-owned Paint protection film in Florida consultation",
      "Professional service",
      "Quality guarantee"
    ],
    "social_links": {}
  },
  {
    "name": "Auto Paint Guard Inc.",
    "address": "7207 W Waters Ave, Tampa, FL 33634",
    "phone": "(813) 445-3990",
    "rating": 4.9,
    "reviews": 25,
    "website": "https://autopaintguard.com/",
    "category": "Chinese-American-owned Paint protection film in Florida",
    "description": "A leading paint protection company in Tampa since 2000, specializing in XPEL paint protection film and detailing services",
    "hours": "Mon-Fri 9AM-6PM",
    "services": [
      "Chinese-American-owned Paint protection film in Florida consultation",
      "Professional service",
      "Quality guarantee"
    ],
    "social_links": {}
  },
  {
    "name": "Orlando Protective Films",
    "address": "4000 L B McLeod Rd #101, Orlando, FL 32811",
    "phone": "(407) 900-0080",
    "rating": 4.9,
    "reviews": 25,
    "website": "https://orlandoprotectivefilms.com/",
    "category": "Chinese-American-owned Paint protection film in Florida",
    "description": "Offers a comprehensive range of services including paint protection film (PPF), auto tint, and ceramic coatings with 25 years of experience",
    "hours": "Mon-Fri 9AM-6PM",
    "services": [
      "Chinese-American-owned Paint protection film in Florida consultation",
      "Professional service",
      "Quality guarantee"
    ],
    "social_links": {}
  },
  {
    "name": "Tim's Pro Auto Spa",
    "address": "2003 US-27, Wildwood, FL 34785",
    "phone": "(352) 330-0101",
    "rating": 4.9,
    "reviews": 25,
    "website": "https://www.timsprotospa.com/",
    "category": "Chinese-American-owned Paint protection film in Florida",
    "description": "Provides premier paint protection film (PPF) installation services in Wildwood and The Villages, FL, using high-quality films to protect vehicles",
    "hours": "Mon-Fri 9AM-6PM",
    "services": [
      "Chinese-American-owned Paint protection film in Florida consultation",
      "Professional service",
      "Quality guarantee"
    ],
    "social_links": {}
  },
  {
    "name": "Supreme Wraps",
    "address": "1020 N Goldenrod Rd, Orlando, FL 32807",
    "phone": "(407) 900-0080",
    "rating": 4.8,
    "reviews": 25,
    "website": "https://supremewraps.com/",
    "category": "Chinese-American-owned Paint protection film in Florida",
    "description": "An XPEL vendor offering full PPF, ceramic tint, and ceramic coating services, with extensive experience in protecting vehicles",
    "hours": "Mon-Fri 9AM-6PM",
    "services": [
      "Chinese-American-owned Paint protection film in Florida consultation",
      "Professional service",
      "Quality guarantee"
    ],
    "social_links": {}
  },
  {
    "name": "Pro Tint of Orlando",
    "address": "1115 W Michigan St, Orlando, FL 32805",
    "phone": "(407) 841-2123",
    "rating": 4.7,
    "reviews": 25,
    "website": "https://protintoforlando.com/",
    "category": "Chinese-American-owned Paint protection film in Florida",
    "description": "Offers 3M Scotchgard\u2122 Paint Protection Film (PPF) for superior scratch and stain resistance, clarity, and durability",
    "hours": "Mon-Fri 9AM-6PM",
    "services": [
      "Chinese-American-owned Paint protection film in Florida consultation",
      "Professional service",
      "Quality guarantee"
    ],
    "social_links": {}
  },
  {
    "name": "Auto Luxe",
    "address": "12200 49th St N, St Petersburg, FL 33716",
    "phone": "(727) 350-7777",
    "rating": 4.9,
    "reviews": 25,
    "website": "https://autoluxe.com/",
    "category": "Chinese-American-owned Paint protection film in Florida",
    "description": "Specializes in the meticulous application of Nytrox PPF and ceramic coatings to protect vehicles from chips, stains, and the elements",
    "hours": "Mon-Fri 9AM-6PM",
    "services": [
      "Chinese-American-owned Paint protection film in Florida consultation",
      "Professional service",
      "Quality guarantee"
    ],
    "social_links": {}
  },
  {
    "name": "Sigma Kore Florida",
    "address": "701 W Brandon Blvd, Brandon, FL 33511",
    "phone": "(813) 437-0000",
    "rating": 4.9,
    "reviews": 25,
    "website": "https://sigmakore.com/",
    "category": "Chinese-American-owned Paint protection film in Florida",
    "description": "Provides truck paint protection film (PPF) services, ceramic coating, and installation capabilities for various vehicle types",
    "hours": "Mon-Fri 9AM-6PM",
    "services": [
      "Chinese-American-owned Paint protection film in Florida consultation",
      "Professional service",
      "Quality guarantee"
    ],
    "social_links": {}
  }
]