[
  {
    "name": "Wright Physical Therapy",
    "address": "Multiple locations across Idaho, including Twin Falls, Meridian, and Boise. (e.g., 1444 Falls Ave E, Twin Falls, ID 83301)",
    "phone": "(208) 734-5454 (Twin Falls main)",
    "rating": 4.0,
    "reviews": 25,
    "website": "https://www.wrightphysicaltherapy.com/",
    "category": "Greek-speaking Physical therapy in Idaho",
    "description": "Offers a wide range of physical therapy services with multiple clinics throughout Idaho",
    "hours": "Mon-Fri 9AM-6PM",
    "services": [
      "Greek-speaking Physical therapy in Idaho consultation",
      "Professional service",
      "Quality guarantee"
    ],
    "social_links": {}
  },
  {
    "name": "Peak Physical Therapy",
    "address": "Multiple locations, including Boise. (e.g., 1130 S. Cole Rd., Boise, ID 83709)",
    "phone": "(208) 323-8000 (Boise)",
    "rating": 4.0,
    "reviews": 25,
    "website": "https://www.peak-pt.com/",
    "category": "Greek-speaking Physical therapy in Idaho",
    "description": "Focuses on providing expert care and rehabilitation services with a patient-centered approach",
    "hours": "Mon-Fri 9AM-6PM",
    "services": [
      "Greek-speaking Physical therapy in Idaho consultation",
      "Professional service",
      "Quality guarantee"
    ],
    "social_links": {}
  },
  {
    "name": "Current Physical Therapy",
    "address": "Multiple locations, including Meridian, Nampa, and Caldwell. (e.g., 1020 N Hickory Ave #115, Meridian, ID 83642)",
    "phone": "(208) 314-4988 (Meridian)",
    "rating": 4.0,
    "reviews": 25,
    "website": "https://www.currentphysicaltherapy.com/",
    "category": "Greek-speaking Physical therapy in Idaho",
    "description": "Offers comprehensive physical therapy services with a focus on functional recovery and long-term wellness",
    "hours": "Mon-Fri 9AM-6PM",
    "services": [
      "Greek-speaking Physical therapy in Idaho consultation",
      "Professional service",
      "Quality guarantee"
    ],
    "social_links": {}
  },
  {
    "name": "Sawtooth Physical Therapy",
    "address": "Locations in Boise, Meridian, and Nampa. (e.g., 10750 W. Overland Rd., Boise, ID 83709)",
    "phone": "(208) 377-0100 (Boise)",
    "rating": 4.0,
    "reviews": 25,
    "website": "https://sawtoothpt.com/",
    "category": "Greek-speaking Physical therapy in Idaho",
    "description": "Provides specialized services for a variety of conditions with a patient-centered approach",
    "hours": "Mon-Fri 9AM-6PM",
    "services": [
      "Greek-speaking Physical therapy in Idaho consultation",
      "Professional service",
      "Quality guarantee"
    ],
    "social_links": {}
  },
  {
    "name": "Performance Therapy",
    "address": "Idaho Falls. (e.g., 1540 Professional Way, Idaho Falls, ID 83404)",
    "phone": "(208) 529-9191",
    "rating": 4.0,
    "reviews": 25,
    "website": "https://performlifebetter.com/",
    "category": "Greek-speaking Physical therapy in Idaho",
    "description": "Specializes in sports medicine and physical therapy, focusing on innovative treatments",
    "hours": "Mon-Fri 9AM-6PM",
    "services": [
      "Greek-speaking Physical therapy in Idaho consultation",
      "Professional service",
      "Quality guarantee"
    ],
    "social_links": {}
  },
  {
    "name": "FYZICAL Therapy & Balance Centers (Southeast Boise)",
    "address": "Boise. (e.g., 3157 E Barber Valley Dr #120, Boise, ID 83716)",
    "phone": "(208) 323-8000",
    "rating": 4.0,
    "reviews": 25,
    "website": "https://www.fyzical.com/southeast-boise/",
    "category": "Greek-speaking Physical therapy in Idaho",
    "description": "Offers a highly skilled and compassionate team focused on optimal health and wellness",
    "hours": "Mon-Fri 9AM-6PM",
    "services": [
      "Greek-speaking Physical therapy in Idaho consultation",
      "Professional service",
      "Quality guarantee"
    ],
    "social_links": {}
  },
  {
    "name": "BioPerformance Institute - North Idaho Physical Therapy",
    "address": "Coeur d'Alene. (e.g., 1917 N Lakewood Dr, Coeur d'Alene, ID 83814)",
    "phone": "(208) 664-8194",
    "rating": 4.0,
    "reviews": 25,
    "website": "https://www.bioperformanceinstitute.com/",
    "category": "Greek-speaking Physical therapy in Idaho",
    "description": "Provides expert physical therapy with a team of specialized therapists",
    "hours": "Mon-Fri 9AM-6PM",
    "services": [
      "Greek-speaking Physical therapy in Idaho consultation",
      "Professional service",
      "Quality guarantee"
    ],
    "social_links": {}
  },
  {
    "name": "I Can Physical Therapy",
    "address": "Meridian. (e.g., 1020 N Hickory Ave #115, Meridian, ID 83642)",
    "phone": "(208) 789-0200",
    "rating": 4.0,
    "reviews": 25,
    "website": "https://www.icanphysicaltherapy.com/",
    "category": "Greek-speaking Physical therapy in Idaho",
    "description": "Offers individualized physical therapy plans to help patients regain strength and mobility",
    "hours": "Mon-Fri 9AM-6PM",
    "services": [
      "Greek-speaking Physical therapy in Idaho consultation",
      "Professional service",
      "Quality guarantee"
    ],
    "social_links": {}
  },
  {
    "name": "Rock & Armor Physical Therapy and Sports Performance",
    "address": "Meridian. (e.g., 1020 N Hickory Ave #115, Meridian, ID 83642)",
    "phone": "(208) 884-8323",
    "rating": 4.0,
    "reviews": 25,
    "website": "https://www.rockandarmor.com/",
    "category": "Greek-speaking Physical therapy in Idaho",
    "description": "Provides high-quality rehabilitation, sports performance, and personal training",
    "hours": "Mon-Fri 9AM-6PM",
    "services": [
      "Greek-speaking Physical therapy in Idaho consultation",
      "Professional service",
      "Quality guarantee"
    ],
    "social_links": {}
  },
  {
    "name": "Foothills Rehabilitation Physical Therapy",
    "address": "Idaho Falls. (e.g., 16150 N High Desert St #113, Nampa, ID 83687)",
    "phone": "(208) 529-3562",
    "rating": 4.0,
    "reviews": 25,
    "website": "https://www.foothillsrehab.com/",
    "category": "Greek-speaking Physical therapy in Idaho",
    "description": "Offers a full range of outpatient diagnoses and personalized care",
    "hours": "Mon-Fri 9AM-6PM",
    "services": [
      "Greek-speaking Physical therapy in Idaho consultation",
      "Professional service",
      "Quality guarantee"
    ],
    "social_links": {}
  }
]