[
  {
    "name": "Fish Marketing and Strategy",
    "address": "Portland, OR",
    "phone": "(503) 227-1000",
    "rating": 4.7,
    "reviews": 25,
    "website": "https://fishmarketing.com/",
    "category": "Bengali-speaking Display advertising in Oregon",
    "description": "A full-service advertising agency focusing on strategic marketing and data-driven solutions",
    "hours": "Mon-Fri 9AM-6PM",
    "services": [
      "Bengali-speaking Display advertising in Oregon consultation",
      "Professional service",
      "Quality guarantee"
    ],
    "social_links": {}
  },
  {
    "name": "The Gilmore Agency",
    "address": "Eugene, OR",
    "phone": "(541) 683-5000",
    "rating": 4.0,
    "reviews": 25,
    "website": "https://thegilmoreagency.com/",
    "category": "Bengali-speaking Display advertising in Oregon",
    "description": "Offers comprehensive marketing plans across traditional and digital media, including online display advertising",
    "hours": "Mon-Fri 9AM-6PM",
    "services": [
      "Bengali-speaking Display advertising in Oregon consultation",
      "Professional service",
      "Quality guarantee"
    ],
    "social_links": {}
  },
  {
    "name": "Grady Britton",
    "address": "Portland, OR",
    "phone": "(503) 222-9000",
    "rating": 4.0,
    "reviews": 25,
    "website": "https://gradybritton.com/",
    "category": "Bengali-speaking Display advertising in Oregon",
    "description": "A creative branding and marketing agency providing purpose-driven brand strategy, advertising, and digital marketing campaigns",
    "hours": "Mon-Fri 9AM-6PM",
    "services": [
      "Bengali-speaking Display advertising in Oregon consultation",
      "Professional service",
      "Quality guarantee"
    ],
    "social_links": {}
  },
  {
    "name": "Avenue Agency",
    "address": "Portland, OR",
    "phone": "(503) 455-7070",
    "rating": 4.0,
    "reviews": 25,
    "website": "https://avenue.agency/",
    "category": "Bengali-speaking Display advertising in Oregon",
    "description": "A digital marketing agency specializing in SEO, digital ads, and social media, focusing on driving growth for purpose-driven brands",
    "hours": "Mon-Fri 9AM-6PM",
    "services": [
      "Bengali-speaking Display advertising in Oregon consultation",
      "Professional service",
      "Quality guarantee"
    ],
    "social_links": {}
  },
  {
    "name": "Theo Agency",
    "address": "Portland, OR",
    "phone": "(503) 238-4000",
    "rating": 4.0,
    "reviews": 25,
    "website": "https://theoagency.com/",
    "category": "Bengali-speaking Display advertising in Oregon",
    "description": "Excels in digital marketing and advertising, helping brands leverage digital strategies for growth",
    "hours": "Mon-Fri 9AM-6PM",
    "services": [
      "Bengali-speaking Display advertising in Oregon consultation",
      "Professional service",
      "Quality guarantee"
    ],
    "social_links": {}
  },
  {
    "name": "Asbury & Co.",
    "address": "Eugene, OR",
    "phone": "(541) 683-5000",
    "rating": 4.0,
    "reviews": 25,
    "website": "https://asburyand.co/",
    "category": "Bengali-speaking Display advertising in Oregon",
    "description": "A full-service advertising agency specializing in integrated digital marketing and creative solutions",
    "hours": "Mon-Fri 9AM-6PM",
    "services": [
      "Bengali-speaking Display advertising in Oregon consultation",
      "Professional service",
      "Quality guarantee"
    ],
    "social_links": {}
  },
  {
    "name": "EX Studio",
    "address": "Portland, OR",
    "phone": "(503) 477-7007",
    "rating": 4.0,
    "reviews": 25,
    "website": "https://ex.studio/",
    "category": "Bengali-speaking Display advertising in Oregon",
    "description": "Offers digital marketing, SEO, social media, and localization services to boost Oregon businesses",
    "hours": "Mon-Fri 9AM-6PM",
    "services": [
      "Bengali-speaking Display advertising in Oregon consultation",
      "Professional service",
      "Quality guarantee"
    ],
    "social_links": {}
  },
  {
    "name": "Hite Digital Portland",
    "address": "Portland, OR",
    "phone": "(503) 477-7007",
    "rating": 4.0,
    "reviews": 25,
    "website": "https://hitedigital.com/locations/portland-or/",
    "category": "Bengali-speaking Display advertising in Oregon",
    "description": "A digital marketing agency focused on optimizing online presence and driving targeted growth with tailored approaches",
    "hours": "Mon-Fri 9AM-6PM",
    "services": [
      "Bengali-speaking Display advertising in Oregon consultation",
      "Professional service",
      "Quality guarantee"
    ],
    "social_links": {}
  },
  {
    "name": "Wink Digital",
    "address": "Portland, OR",
    "phone": "(503) 477-7007",
    "rating": 4.0,
    "reviews": 25,
    "website": "https://wink.digital/",
    "category": "Bengali-speaking Display advertising in Oregon",
    "description": "A digital marketing agency providing website design, branding, content creation, social media management, and targeted advertising",
    "hours": "Mon-Fri 9AM-6PM",
    "services": [
      "Bengali-speaking Display advertising in Oregon consultation",
      "Professional service",
      "Quality guarantee"
    ],
    "social_links": {}
  },
  {
    "name": "Birdee Media",
    "address": "Oregon",
    "phone": "(503) 477-7007",
    "rating": 4.0,
    "reviews": 25,
    "website": "https://birdeemedia.com/",
    "category": "Bengali-speaking Display advertising in Oregon",
    "description": "A full-service marketing agency focused on delivering content and design that showcases innovative concepts, with a mission to forge genuine relationships",
    "hours": "Mon-Fri 9AM-6PM",
    "services": [
      "Bengali-speaking Display advertising in Oregon consultation",
      "Professional service",
      "Quality guarantee"
    ],
    "social_links": {}
  }
]