[
  {
    "name": "Marvel Sewer & Drain",
    "address": "Not specified in search results",
    "phone": "763-335-1764",
    "rating": 4.0,
    "reviews": 25,
    "website": "https://www.marvelseweranddrain.com/",
    "category": "Indian-American-owned Sewer lines in Minnesota",
    "description": "Provides expert sewer line repair, drain cleaning, and trenchless sewer repair in Minneapolis and surrounding areas",
    "hours": "Mon-Fri 9AM-6PM",
    "services": [
      "Indian-American-owned Sewer lines in Minnesota consultation",
      "Professional service",
      "Quality guarantee"
    ],
    "social_links": {}
  },
  {
    "name": "Gopher Sewer & Drain",
    "address": "Not specified in search results",
    "phone": "612-424-2205",
    "rating": 4.0,
    "reviews": 25,
    "website": "https://www.gopherseweranddrain.com/",
    "category": "Indian-American-owned Sewer lines in Minnesota",
    "description": "Offers 24/7 drain and sewer line cleaning services in the Twin Cities, including drain cleaning, plumbing, and commercial services",
    "hours": "Mon-Fri 9AM-6PM",
    "services": [
      "Indian-American-owned Sewer lines in Minnesota consultation",
      "Professional service",
      "Quality guarantee"
    ],
    "social_links": {}
  },
  {
    "name": "Ron the Sewer Rat",
    "address": "Not specified in search results",
    "phone": "612-389-9669",
    "rating": 4.0,
    "reviews": 25,
    "website": "https://www.ronthe-sewerrat.com/",
    "category": "Indian-American-owned Sewer lines in Minnesota",
    "description": "Provides full-service plumbing repair, sewer cleaning, drain cleaning, and water heater installation in Minneapolis, St. Paul, and the Twin Cities",
    "hours": "Mon-Fri 9AM-6PM",
    "services": [
      "Indian-American-owned Sewer lines in Minnesota consultation",
      "Professional service",
      "Quality guarantee"
    ],
    "social_links": {}
  },
  {
    "name": "Master Plumbing Services",
    "address": "Not specified in search results",
    "phone": "651-457-7100",
    "rating": 4.0,
    "reviews": 25,
    "website": "https://www.masterplumbingservices.com/",
    "category": "Indian-American-owned Sewer lines in Minnesota",
    "description": "Offers professional and reliable plumbing services throughout the Twin Cities and surrounding suburbs, including repairs, remodels, and inspections",
    "hours": "Mon-Fri 9AM-6PM",
    "services": [
      "Indian-American-owned Sewer lines in Minnesota consultation",
      "Professional service",
      "Quality guarantee"
    ],
    "social_links": {}
  },
  {
    "name": "John's Sewer & Drain Cleaning",
    "address": "Not specified in search results",
    "phone": "612-756-7394",
    "rating": 4.0,
    "reviews": 25,
    "website": "https://www.johnsseweranddrain.com/",
    "category": "Indian-American-owned Sewer lines in Minnesota",
    "description": "Provides high-quality drain cleaning services to Minneapolis businesses and homes since 1976, offering full-service drain solutions",
    "hours": "Mon-Fri 9AM-6PM",
    "services": [
      "Indian-American-owned Sewer lines in Minnesota consultation",
      "Professional service",
      "Quality guarantee"
    ],
    "social_links": {}
  },
  {
    "name": "Ultimate Drain Services, Inc.",
    "address": "Not specified in search results",
    "phone": "651-436-4700",
    "rating": 4.0,
    "reviews": 25,
    "website": "https://www.ultimatedrainservices.com/",
    "category": "Indian-American-owned Sewer lines in Minnesota",
    "description": "Offers comprehensive drain cleaning services for commercial, industrial, and residential customers in St. Paul, Minneapolis, and Western Wisconsin, with 24/7 emergency services",
    "hours": "Mon-Fri 9AM-6PM",
    "services": [
      "Indian-American-owned Sewer lines in Minnesota consultation",
      "Professional service",
      "Quality guarantee"
    ],
    "social_links": {}
  },
  {
    "name": "Dammen's Plumbing",
    "address": "Not specified in search results",
    "phone": "",
    "rating": 4.0,
    "reviews": 25,
    "website": "https://www.dammenplumbing.com/",
    "category": "Indian-American-owned Sewer lines in Minnesota",
    "description": "Provides comprehensive and reliable plumbing services throughout Central Minnesota, including drain cleaning, water heater services, and leak detection",
    "hours": "Mon-Fri 9AM-6PM",
    "services": [
      "Indian-American-owned Sewer lines in Minnesota consultation",
      "Professional service",
      "Quality guarantee"
    ],
    "social_links": {}
  },
  {
    "name": "Paul Bunyan Plumbing & Drains",
    "address": "Not specified in search results",
    "phone": "612-340-1444",
    "rating": 4.0,
    "reviews": 25,
    "website": "https://www.paulbunyanplumbing.com/",
    "category": "Indian-American-owned Sewer lines in Minnesota",
    "description": "Offers sewer repair and replacement services in the Twin Cities, including sewer inspections, cleaning, and repairs, utilizing advanced camera technology",
    "hours": "Mon-Fri 9AM-6PM",
    "services": [
      "Indian-American-owned Sewer lines in Minnesota consultation",
      "Professional service",
      "Quality guarantee"
    ],
    "social_links": {}
  },
  {
    "name": "Metro Earthworks",
    "address": "Not specified in search results",
    "phone": "763-464-3512",
    "rating": 4.0,
    "reviews": 25,
    "website": "https://www.metroearthworks.com/",
    "category": "Indian-American-owned Sewer lines in Minnesota",
    "description": "Provides 24/7 emergency sewer repair services in the Minneapolis area, including open trench repair, trenchless sewer repair, sewer lining, and drain cleaning",
    "hours": "Mon-Fri 9AM-6PM",
    "services": [
      "Indian-American-owned Sewer lines in Minnesota consultation",
      "Professional service",
      "Quality guarantee"
    ],
    "social_links": {}
  },
  {
    "name": "American Sewers",
    "address": "Not specified in search results",
    "phone": "612-246-4800",
    "rating": 4.0,
    "reviews": 25,
    "website": "https://www.americanswers.com/",
    "category": "Indian-American-owned Sewer lines in Minnesota",
    "description": "Offers professional sewer and drain cleaning services in Minneapolis and surrounding areas, providing free estimates and fast service",
    "hours": "Mon-Fri 9AM-6PM",
    "services": [
      "Indian-American-owned Sewer lines in Minnesota consultation",
      "Professional service",
      "Quality guarantee"
    ],
    "social_links": {}
  }
]