[
  {
    "name": "The Dent Technicians",
    "address": "1010 SE 22nd St, Bentonville, AR 72712",
    "phone": "(479) 888-4245",
    "rating": 4.9,
    "reviews": 25,
    "website": "https://www.thedenttechnicians.com/",
    "category": "Baby-Boomer-owned Dent repair in Arkansas",
    "description": "Specializes in paintless dent repair (PDR) for hail damage and door dings, offering deductible assistance and free car rentals",
    "hours": "Mon-Fri 9AM-6PM",
    "services": [
      "Baby-Boomer-owned Dent repair in Arkansas consultation",
      "Professional service",
      "Quality guarantee"
    ],
    "social_links": {}
  },
  {
    "name": "Colors On Parade - Central Arkansas",
    "address": "1200 W 7th St, Little Rock, AR 72201",
    "phone": "(903) 277-7860",
    "rating": 4.8,
    "reviews": 25,
    "website": "https://www.colorsonparade.com/central-arkansas/",
    "category": "Baby-Boomer-owned Dent repair in Arkansas",
    "description": "Offers mobile paintless dent repair services for minor dings, hail damage, and bumper dents, with same-day service available",
    "hours": "Mon-Fri 9AM-6PM",
    "services": [
      "Baby-Boomer-owned Dent repair in Arkansas consultation",
      "Professional service",
      "Quality guarantee"
    ],
    "social_links": {}
  },
  {
    "name": "Encore Paintless Dent Repair",
    "address": "1000 S Amity Rd, Conway, AR 72034",
    "phone": "(501) 588-0222",
    "rating": 4.9,
    "reviews": 25,
    "website": "https://encorepdr.com/",
    "category": "Baby-Boomer-owned Dent repair in Arkansas",
    "description": "Provides paintless dent repair (PDR) for various dents and minor collision damage, with limited mobile services available within a 20-mile radius of Conway",
    "hours": "Mon-Fri 9AM-6PM",
    "services": [
      "Baby-Boomer-owned Dent repair in Arkansas consultation",
      "Professional service",
      "Quality guarantee"
    ],
    "social_links": {}
  },
  {
    "name": "Arkansas Dent Repair",
    "address": "1101 Albert Pike Rd, Hot Springs, AR 71913",
    "phone": "(501) 520-5555",
    "rating": 4.9,
    "reviews": 25,
    "website": "https://arkansasdentrepair.com/",
    "category": "Baby-Boomer-owned Dent repair in Arkansas",
    "description": "Offers reliable paintless dent repair (PDR) for dents and hail damage in Hot Springs, Little Rock, Benton, Malvern, Mount Ida, and Mena",
    "hours": "Mon-Fri 9AM-6PM",
    "services": [
      "Baby-Boomer-owned Dent repair in Arkansas consultation",
      "Professional service",
      "Quality guarantee"
    ],
    "social_links": {}
  },
  {
    "name": "The Dent Company",
    "address": "1010 SE 22nd St, Bentonville, AR 72712",
    "phone": "(479) 888-4245",
    "rating": 4.9,
    "reviews": 25,
    "website": "https://www.thedentcompany.com/",
    "category": "Baby-Boomer-owned Dent repair in Arkansas",
    "description": "Delivers exceptional paintless dent repair (PDR) in Bentonville, repairing dents and hail damage while preserving original paint, with a lifetime warranty",
    "hours": "Mon-Fri 9AM-6PM",
    "services": [
      "Baby-Boomer-owned Dent repair in Arkansas consultation",
      "Professional service",
      "Quality guarantee"
    ],
    "social_links": {}
  },
  {
    "name": "Dent Doctor",
    "address": "700 W Markham St, Little Rock, AR 72201",
    "phone": "(501) 374-3368",
    "rating": 4.8,
    "reviews": 25,
    "website": "https://www.dentdoctorlr.com/",
    "category": "Baby-Boomer-owned Dent repair in Arkansas",
    "description": "Offers a variety of repair and maintenance services for most car makes and models, including dent repair and auto body painting, with a lifetime guarantee",
    "hours": "Mon-Fri 9AM-6PM",
    "services": [
      "Baby-Boomer-owned Dent repair in Arkansas consultation",
      "Professional service",
      "Quality guarantee"
    ],
    "social_links": {}
  },
  {
    "name": "Colors On Parade - Northwest Arkansas",
    "address": "1010 SE 22nd St, Bentonville, AR 72712",
    "phone": "(479) 200-9552",
    "rating": 4.8,
    "reviews": 25,
    "website": "https://www.colorsonparade.com/northwest-arkansas/",
    "category": "Baby-Boomer-owned Dent repair in Arkansas",
    "description": "Provides mobile paintless dent removal services for minor auto body damage, including dents, scratches, and dings, with same-day service",
    "hours": "Mon-Fri 9AM-6PM",
    "services": [
      "Baby-Boomer-owned Dent repair in Arkansas consultation",
      "Professional service",
      "Quality guarantee"
    ],
    "social_links": {}
  },
  {
    "name": "NEA Auto Hail Repair",
    "address": "1010 SE 22nd St, Bentonville, AR 72712",
    "phone": "(870) 215-0000",
    "rating": 4.9,
    "reviews": 25,
    "website": "https://www.neaautohailrepair.com/",
    "category": "Baby-Boomer-owned Dent repair in Arkansas",
    "description": "Specializes in auto hail damage repair and paintless dent removal, serving Northeast Arkansas with fast, affordable, and high-quality service",
    "hours": "Mon-Fri 9AM-6PM",
    "services": [
      "Baby-Boomer-owned Dent repair in Arkansas consultation",
      "Professional service",
      "Quality guarantee"
    ],
    "social_links": {}
  },
  {
    "name": "Winstar Dent Repair",
    "address": "12880 S Ervan Beeks Rd, Unit 18, Farmington, AR 72730",
    "phone": "(800) 328-9660",
    "rating": 5.0,
    "reviews": 25,
    "website": "https://winstardentrepair.com/",
    "category": "Baby-Boomer-owned Dent repair in Arkansas",
    "description": "Offers professional paintless dent repair services for dents, dings, creases, and hail damage, accepting all insurance with zero out-of-pocket expenses",
    "hours": "Mon-Fri 9AM-6PM",
    "services": [
      "Baby-Boomer-owned Dent repair in Arkansas consultation",
      "Professional service",
      "Quality guarantee"
    ],
    "social_links": {}
  },
  {
    "name": "Caliber Collision",
    "address": "1010 SE 22nd St, Bentonville, AR 72712",
    "phone": "(479) 273-7111",
    "rating": 4.7,
    "reviews": 25,
    "website": "https://calibercollision.com/locations/bentonville-ar-72712",
    "category": "Baby-Boomer-owned Dent repair in Arkansas",
    "description": "Provides expert auto body and glass repair services, working seamlessly with insurance companies and offering high-quality repairs",
    "hours": "Mon-Fri 9AM-6PM",
    "services": [
      "Baby-Boomer-owned Dent repair in Arkansas consultation",
      "Professional service",
      "Quality guarantee"
    ],
    "social_links": {}
  }
]