[
  {
    "name": "Murphy Plastic Surgery & Medical Spa",
    "address": "10455 Double R Blvd, Reno, NV 89521",
    "phone": "(775) 322-3446",
    "rating": 4.0,
    "reviews": 25,
    "website": "http://www.murphymedicalspa.com/",
    "category": "Black-owned IPL therapy in Nevada",
    "description": "Offers IPL therapy for sun-damaged skin, hyperpigmentation, and rosacea",
    "hours": "Mon-Fri 9AM-6PM",
    "services": [
      "Black-owned IPL therapy in Nevada consultation",
      "Professional service",
      "Quality guarantee"
    ],
    "social_links": {}
  },
  {
    "name": "Advanced Vision Institute",
    "address": "8545 W Sahara Ave Ste 100, Las Vegas, NV 89117",
    "phone": "(702) 819-9800",
    "rating": 4.0,
    "reviews": 25,
    "website": "https://www.advancedvisioninstitute.com/",
    "category": "Black-owned IPL therapy in Nevada",
    "description": "Provides IPL laser treatment for eye care, including dry eye and photofacial effects",
    "hours": "Mon-Fri 9AM-6PM",
    "services": [
      "Black-owned IPL therapy in Nevada consultation",
      "Professional service",
      "Quality guarantee"
    ],
    "social_links": {}
  },
  {
    "name": "Dr. K Beauty LV",
    "address": "7330 Smoke Ranch Rd Ste 110, Las Vegas, NV 89128",
    "phone": "(725) 550-5325",
    "rating": 4.0,
    "reviews": 25,
    "website": "https://drkbeautylv.com/",
    "category": "Black-owned IPL therapy in Nevada",
    "description": "Offers IPL Photofacial treatments for various skin concerns",
    "hours": "Mon-Fri 9AM-6PM",
    "services": [
      "Black-owned IPL therapy in Nevada consultation",
      "Professional service",
      "Quality guarantee"
    ],
    "social_links": {}
  },
  {
    "name": "YESnick Vision Center",
    "address": "8945 W. Russell Road, Suite 120, Las Vegas, NV 89148",
    "phone": "(702) 966-2020",
    "rating": 4.0,
    "reviews": 25,
    "website": "https://www.yesnickvision.com/",
    "category": "Black-owned IPL therapy in Nevada",
    "description": "Provides Intense Pulsed Light (IPL) Therapy for dry eye",
    "hours": "Mon-Fri 9AM-6PM",
    "services": [
      "Black-owned IPL therapy in Nevada consultation",
      "Professional service",
      "Quality guarantee"
    ],
    "social_links": {}
  },
  {
    "name": "Nursie Cosmetics & Aesthetics Wellness Center",
    "address": "7020 W Charleston Blvd Ste 100, Las Vegas, NV 89117",
    "phone": "(702) 800-0770",
    "rating": 4.0,
    "reviews": 25,
    "website": "https://nursiecosmetics.com/",
    "category": "Black-owned IPL therapy in Nevada",
    "description": "Offers a range of cosmetic and aesthetic services, including laser treatments",
    "hours": "Mon-Fri 9AM-6PM",
    "services": [
      "Black-owned IPL therapy in Nevada consultation",
      "Professional service",
      "Quality guarantee"
    ],
    "social_links": {}
  },
  {
    "name": "Sugar Glow Esthetics and Wellness LLC",
    "address": "7585 W Sahara Ave Ste 101, Las Vegas, NV 89117",
    "phone": "(702) 900-3717",
    "rating": 4.0,
    "reviews": 25,
    "website": "https://sugarglowlv.com/",
    "category": "Black-owned IPL therapy in Nevada",
    "description": "Offers sugaring hair removal and facials, with a focus on natural and organic products",
    "hours": "Mon-Fri 9AM-6PM",
    "services": [
      "Black-owned IPL therapy in Nevada consultation",
      "Professional service",
      "Quality guarantee"
    ],
    "social_links": {}
  },
  {
    "name": "Truly You Med Spa",
    "address": "1040 S. Lake Shore Dr. Ste 102, Lake Charles, LA 70605 (Note: This address appears to be in Louisiana, not Nevada. The search results may have had an error.)",
    "phone": "",
    "rating": 4.0,
    "reviews": 25,
    "website": "https://trulyyoumedspa.com/",
    "category": "Black-owned IPL therapy in Nevada",
    "description": "Offers cutting-edge cosmetic procedures and personalized aesthetic treatments",
    "hours": "Mon-Fri 9AM-6PM",
    "services": [
      "Black-owned IPL therapy in Nevada consultation",
      "Professional service",
      "Quality guarantee"
    ],
    "social_links": {}
  },
  {
    "name": "Milan Laser in Las Vegas, NV",
    "address": "7020 W Charleston Blvd Ste 100, Las Vegas, NV 89117",
    "phone": "(702) 570-2100",
    "rating": 4.0,
    "reviews": 25,
    "website": "https://www.milanlaser.com/locations/las-vegas-charleston-blvd/",
    "category": "Black-owned IPL therapy in Nevada",
    "description": "Specializes in laser hair removal, including for darker skin tones",
    "hours": "Mon-Fri 9AM-6PM",
    "services": [
      "Black-owned IPL therapy in Nevada consultation",
      "Professional service",
      "Quality guarantee"
    ],
    "social_links": {}
  },
  {
    "name": "SEV Laser",
    "address": "7375 S Durango Dr Ste 100, Las Vegas, NV 89113",
    "phone": "(702) 847-0007",
    "rating": 4.0,
    "reviews": 25,
    "website": "https://www.sevlaser.com/locations/las-vegas-summerlin/",
    "category": "Black-owned IPL therapy in Nevada",
    "description": "Offers professional laser hair removal, facials, and skin treatments",
    "hours": "Mon-Fri 9AM-6PM",
    "services": [
      "Black-owned IPL therapy in Nevada consultation",
      "Professional service",
      "Quality guarantee"
    ],
    "social_links": {}
  },
  {
    "name": "Via Laser",
    "address": "7375 S Durango Dr Ste 100, Las Vegas, NV 89113",
    "phone": "(702) 900-7007",
    "rating": 4.0,
    "reviews": 25,
    "website": "https://via-laser.com/",
    "category": "Black-owned IPL therapy in Nevada",
    "description": "Provides laser hair removal and skincare solutions using Candela technology",
    "hours": "Mon-Fri 9AM-6PM",
    "services": [
      "Black-owned IPL therapy in Nevada consultation",
      "Professional service",
      "Quality guarantee"
    ],
    "social_links": {}
  }
]