[
  {
    "name": "Cheryl's Southern Style Restaurant",
    "address": "The Artisans Exchange, West Chester, PA (Specific street address not readily available)",
    "phone": "",
    "rating": 4.0,
    "reviews": 25,
    "website": "https://www.google.com/maps/search/Cheryl's+Southern+Style+Restaurant+in+Pennsylvania",
    "category": "African-American-owned Specialty cuisine catering in Pennsylvania",
    "description": "A Black-owned soul food catering company offering take-out and frozen foods",
    "hours": "Mon-Fri 9AM-6PM",
    "services": [
      "African-American-owned Specialty cuisine catering in Pennsylvania consultation",
      "Professional service",
      "Quality guarantee"
    ],
    "social_links": {}
  },
  {
    "name": "Rosa's Jar",
    "address": "4030 Saw Mill Run Blvd., Pittsburgh, PA",
    "phone": "(412) 918-0083",
    "rating": 4.0,
    "reviews": 25,
    "website": "https://www.google.com/maps/search/Rosa's+Jar+in+Pennsylvania",
    "category": "African-American-owned Specialty cuisine catering in Pennsylvania",
    "description": "A small cafe and catering company specializing in desserts and baked goods in jars, also known for savory items like breakfast sandwiches, soups, and hot dogs",
    "hours": "Mon-Fri 9AM-6PM",
    "services": [
      "African-American-owned Specialty cuisine catering in Pennsylvania consultation",
      "Professional service",
      "Quality guarantee"
    ],
    "social_links": {}
  },
  {
    "name": "Sandy Boo's Delights at Dana's Bakery",
    "address": "4600 Jonestown Rd., Lancaster, PA",
    "phone": "(717) 370-4267",
    "rating": 4.0,
    "reviews": 25,
    "website": "https://www.google.com/maps/search/Sandy+Boo's+Delights+at+Dana's+Bakery+in+Pennsylvania",
    "category": "African-American-owned Specialty cuisine catering in Pennsylvania",
    "description": "Carries on the tradition of a neighborhood bakery, specializing in Italian ice, donuts, cupcakes, and cookies",
    "hours": "Mon-Fri 9AM-6PM",
    "services": [
      "African-American-owned Specialty cuisine catering in Pennsylvania consultation",
      "Professional service",
      "Quality guarantee"
    ],
    "social_links": {}
  },
  {
    "name": "Soulcialize Catering",
    "address": "31 S. Duke St., Lancaster, PA",
    "phone": "(717) 826-1119",
    "rating": 4.0,
    "reviews": 25,
    "website": "https://www.google.com/maps/search/Soulcialize+Catering+in+Pennsylvania",
    "category": "African-American-owned Specialty cuisine catering in Pennsylvania",
    "description": "Offers Southern-style soul food with specialties like meatloaf, chicken fried steak, and shrimp and grits",
    "hours": "Mon-Fri 9AM-6PM",
    "services": [
      "African-American-owned Specialty cuisine catering in Pennsylvania consultation",
      "Professional service",
      "Quality guarantee"
    ],
    "social_links": {}
  },
  {
    "name": "African Eats Cuisine",
    "address": "2032 Murray Ave., Pittsburgh, PA",
    "phone": "(412) 307-0294",
    "rating": 4.0,
    "reviews": 25,
    "website": "https://www.google.com/maps/search/African+Eats+Cuisine+in+Pennsylvania",
    "category": "African-American-owned Specialty cuisine catering in Pennsylvania",
    "description": "Brings traditional Nigerian and West African dishes to Pittsburgh, with a menu spanning breakfast, lunch, and dinner",
    "hours": "Mon-Fri 9AM-6PM",
    "services": [
      "African-American-owned Specialty cuisine catering in Pennsylvania consultation",
      "Professional service",
      "Quality guarantee"
    ],
    "social_links": {}
  },
  {
    "name": "Jes Catering",
    "address": "Lancaster, PA (Specific street address not readily available)",
    "phone": "(703) 221-8405",
    "rating": 4.0,
    "reviews": 25,
    "website": "https://www.google.com/maps/search/Jes+Catering+in+Pennsylvania",
    "category": "African-American-owned Specialty cuisine catering in Pennsylvania",
    "description": "A professional catering service that can cater events for up to 75 people, offering various menu options",
    "hours": "Mon-Fri 9AM-6PM",
    "services": [
      "African-American-owned Specialty cuisine catering in Pennsylvania consultation",
      "Professional service",
      "Quality guarantee"
    ],
    "social_links": {}
  },
  {
    "name": "Kilimanjaro Flavour",
    "address": "Pittsburgh, PA (Food truck, location varies)",
    "phone": "(203) 998-8055",
    "rating": 4.0,
    "reviews": 25,
    "website": "https://www.google.com/maps/search/Kilimanjaro+Flavour+in+Pennsylvania",
    "category": "African-American-owned Specialty cuisine catering in Pennsylvania",
    "description": "Offers Tanzanian cuisine with dishes like Bhajia, puff puffs, samosas, and plantains from a food truck",
    "hours": "Mon-Fri 9AM-6PM",
    "services": [
      "African-American-owned Specialty cuisine catering in Pennsylvania consultation",
      "Professional service",
      "Quality guarantee"
    ],
    "social_links": {}
  },
  {
    "name": "Aunt Cheryl's Cafe",
    "address": "1601 Duss Ave., Ambridge, PA",
    "phone": "(724) 385-0522",
    "rating": 4.0,
    "reviews": 25,
    "website": "https://www.google.com/maps/search/Aunt+Cheryl's+Cafe+in+Pennsylvania",
    "category": "African-American-owned Specialty cuisine catering in Pennsylvania",
    "description": "Focuses on hearty, home-cooked food, with popular items including breakfast platters, cheesesteak hoagies, and signature turkey salad sandwiches",
    "hours": "Mon-Fri 9AM-6PM",
    "services": [
      "African-American-owned Specialty cuisine catering in Pennsylvania consultation",
      "Professional service",
      "Quality guarantee"
    ],
    "social_links": {}
  },
  {
    "name": "Smokin' Sones Fresh Grill, LLC",
    "address": "310 South 48th Street, Philadelphia, PA 19143",
    "phone": "(267) 226-1491",
    "rating": 4.0,
    "reviews": 25,
    "website": "https://www.google.com/maps/search/Smokin'+Sones+Fresh+Grill,+LLC+in+Pennsylvania",
    "category": "African-American-owned Specialty cuisine catering in Pennsylvania",
    "description": "Listed under the African American Chamber of Commerce of PA, NJ & DE for catering",
    "hours": "Mon-Fri 9AM-6PM",
    "services": [
      "African-American-owned Specialty cuisine catering in Pennsylvania consultation",
      "Professional service",
      "Quality guarantee"
    ],
    "social_links": {}
  },
  {
    "name": "Eatible Delights Catering",
    "address": "1540 E. Wadsworth Avenue, Philadelphia, PA 19150",
    "phone": "(215) 236-3900",
    "rating": 4.0,
    "reviews": 25,
    "website": "https://www.google.com/maps/search/Eatible+Delights+Catering+in+Pennsylvania",
    "category": "African-American-owned Specialty cuisine catering in Pennsylvania",
    "description": "Listed under the African American Chamber of Commerce of PA, NJ & DE for catering",
    "hours": "Mon-Fri 9AM-6PM",
    "services": [
      "African-American-owned Specialty cuisine catering in Pennsylvania consultation",
      "Professional service",
      "Quality guarantee"
    ],
    "social_links": {}
  }
]