[
  {
    "name": "C&A Insurance Agency",
    "address": "41 Elizabeth Street, Suite 300, New York, NY 10013",
    "phone": "(212) 431-8101",
    "rating": 4.0,
    "reviews": 25,
    "website": "https://www.cainsurance.com/",
    "category": "Asian-owned Business insurance in New-Jersey",
    "description": "Offers life, auto, homeowners, health, and business insurance. They state they are a leading agency for Chinese, Cambodian, and Vietnamese communities in New York and New Jersey",
    "hours": "Mon-Fri 9AM-6PM",
    "services": [
      "Asian-owned Business insurance in New-Jersey consultation",
      "Professional service",
      "Quality guarantee"
    ],
    "social_links": {}
  },
  {
    "name": "Sangha Insurance Agency",
    "address": "1477 Oak Tree Rd Unit - 7A, Iselin, NJ 08830",
    "phone": "(732) 306-5889",
    "rating": 4.0,
    "reviews": 25,
    "website": "https://www.google.com/maps/search/Sangha+Insurance+Agency+New+Jersey",
    "category": "Asian-owned Business insurance in New-Jersey",
    "description": "Specializes in providing businesses with insurance packages, offering auto, home, health, dental, and business insurance",
    "hours": "Mon-Fri 9AM-6PM",
    "services": [
      "Asian-owned Business insurance in New-Jersey consultation",
      "Professional service",
      "Quality guarantee"
    ],
    "social_links": {}
  },
  {
    "name": "Korean General Insurance Agency",
    "address": "9 Davies Ct, Wayne, NJ 07470",
    "phone": "(201) 461-3000",
    "rating": 4.0,
    "reviews": 25,
    "website": "https://www.21insurance.com/",
    "category": "Asian-owned Business insurance in New-Jersey",
    "description": "A Progressive agent offering renters insurance and other types of insurance. They list Korean as one of the languages spoken",
    "hours": "Mon-Fri 9AM-6PM",
    "services": [
      "Asian-owned Business insurance in New-Jersey consultation",
      "Professional service",
      "Quality guarantee"
    ],
    "social_links": {}
  },
  {
    "name": "Dong-E Insurance Agency",
    "address": "635 E Palisade Ave, Englewood Cliffs, NJ",
    "phone": "201.503.0003",
    "rating": 4.0,
    "reviews": 25,
    "website": "https://www.google.com/maps/search/Dong-E+Insurance+Agency+New+Jersey",
    "category": "Asian-owned Business insurance in New-Jersey",
    "description": "Offers home, auto, business, and renters insurance. They serve clients in New York and New Jersey",
    "hours": "Mon-Fri 9AM-6PM",
    "services": [
      "Asian-owned Business insurance in New-Jersey consultation",
      "Professional service",
      "Quality guarantee"
    ],
    "social_links": {}
  },
  {
    "name": "JNC Insurance Agency, LLC",
    "address": "Fort Lee, NJ",
    "phone": "(201) 496-6901",
    "rating": 4.0,
    "reviews": 25,
    "website": "https://www.google.com/maps/search/JNC+Insurance+Agency,+LLC+New+Jersey",
    "category": "Asian-owned Business insurance in New-Jersey",
    "description": "Offers various insurance products, including business insurance",
    "hours": "Mon-Fri 9AM-6PM",
    "services": [
      "Asian-owned Business insurance in New-Jersey consultation",
      "Professional service",
      "Quality guarantee"
    ],
    "social_links": {}
  },
  {
    "name": "Manan Parikh Insurance",
    "address": "Edison, NJ",
    "phone": "646-759-9545",
    "rating": 4.0,
    "reviews": 25,
    "website": "https://www.google.com/maps/search/Manan+Parikh+Insurance+New+Jersey",
    "category": "Asian-owned Business insurance in New-Jersey",
    "description": "Offers property insurance and other services. Located in Edison, NJ",
    "hours": "Mon-Fri 9AM-6PM",
    "services": [
      "Asian-owned Business insurance in New-Jersey consultation",
      "Professional service",
      "Quality guarantee"
    ],
    "social_links": {}
  },
  {
    "name": "Arora Insurance Agency Inc.",
    "address": "Edison, NJ",
    "phone": "",
    "rating": 4.0,
    "reviews": 25,
    "website": "https://www.google.com/maps/search/Arora+Insurance+Agency+Inc.+New+Jersey",
    "category": "Asian-owned Business insurance in New-Jersey",
    "description": "Mentioned in the context of small business insurance solutions in Edison, NJ",
    "hours": "Mon-Fri 9AM-6PM",
    "services": [
      "Asian-owned Business insurance in New-Jersey consultation",
      "Professional service",
      "Quality guarantee"
    ],
    "social_links": {}
  },
  {
    "name": "AKM Financial Services",
    "address": "Edison, NJ",
    "phone": "",
    "rating": 4.0,
    "reviews": 25,
    "website": "https://www.google.com/maps/search/AKM+Financial+Services+New+Jersey",
    "category": "Asian-owned Business insurance in New-Jersey",
    "description": "Offers financial services and is mentioned in the context of small business insurance solutions in Edison, NJ",
    "hours": "Mon-Fri 9AM-6PM",
    "services": [
      "Asian-owned Business insurance in New-Jersey consultation",
      "Professional service",
      "Quality guarantee"
    ],
    "social_links": {}
  },
  {
    "name": "Insurance Agencies Inc.",
    "address": "Northfield, NJ / Atlantic City, NJ",
    "phone": "609-646-1000",
    "rating": 4.0,
    "reviews": 25,
    "website": "https://www.google.com/maps/search/Insurance+Agencies+Inc.+New+Jersey",
    "category": "Asian-owned Business insurance in New-Jersey",
    "description": "Locally owned and operated since 1879, specializing in business, home, auto, and flood insurance",
    "hours": "Mon-Fri 9AM-6PM",
    "services": [
      "Asian-owned Business insurance in New-Jersey consultation",
      "Professional service",
      "Quality guarantee"
    ],
    "social_links": {}
  },
  {
    "name": "Asian Insurance",
    "address": "Not specified in search results",
    "phone": "",
    "rating": 4.0,
    "reviews": 25,
    "website": "https://www.google.com/maps/search/Asian+Insurance+New+Jersey",
    "category": "Asian-owned Business insurance in New-Jersey",
    "description": "Focuses on insurance coverage for growing businesses and commercial vehicles, including rideshare drivers",
    "hours": "Mon-Fri 9AM-6PM",
    "services": [
      "Asian-owned Business insurance in New-Jersey consultation",
      "Professional service",
      "Quality guarantee"
    ],
    "social_links": {}
  }
]