[
  {
    "name": "Batteries Plus",
    "address": "3023 Columbia Ave, Lancaster, PA 17603",
    "phone": "(717) 393-2200",
    "rating": 4.3,
    "reviews": 25,
    "website": "https://www.batteriesplus.com/",
    "category": "Black-owned Battery service in Pennsylvania",
    "description": "Offers a wide selection of batteries for various applications, including car batteries, as well as key fob replacement and phone repair services",
    "hours": "Mon-Fri 9AM-6PM",
    "services": [
      "Black-owned Battery service in Pennsylvania consultation",
      "Professional service",
      "Quality guarantee"
    ],
    "social_links": {}
  },
  {
    "name": "Batteries Plus",
    "address": "4808 McKnight Rd, Pittsburgh, PA 15237",
    "phone": "(412) 366-3658",
    "rating": 4.3,
    "reviews": 25,
    "website": "https://www.batteriesplus.com/",
    "category": "Black-owned Battery service in Pennsylvania",
    "description": "Provides batteries, light bulbs, chargers, and accessories, with services like car battery replacement and phone repair",
    "hours": "Mon-Fri 9AM-6PM",
    "services": [
      "Black-owned Battery service in Pennsylvania consultation",
      "Professional service",
      "Quality guarantee"
    ],
    "social_links": {}
  },
  {
    "name": "Batteries Plus",
    "address": "3912 Library Rd, Pittsburgh, PA 15234",
    "phone": "(412) 207-8362",
    "rating": 4.3,
    "reviews": 25,
    "website": "https://www.batteriesplus.com/",
    "category": "Black-owned Battery service in Pennsylvania",
    "description": "Offers a comprehensive selection of batteries and related services, including car battery testing and replacement",
    "hours": "Mon-Fri 9AM-6PM",
    "services": [
      "Black-owned Battery service in Pennsylvania consultation",
      "Professional service",
      "Quality guarantee"
    ],
    "social_links": {}
  },
  {
    "name": "Batteries Plus",
    "address": "76 Old Mill Blvd, Washington, PA 15301",
    "phone": "(724) 225-7587",
    "rating": 4.3,
    "reviews": 25,
    "website": "https://www.batteriesplus.com/",
    "category": "Black-owned Battery service in Pennsylvania",
    "description": "A Batteries Plus location offering battery solutions for vehicles, electronics, and more, along with repair services",
    "hours": "Mon-Fri 9AM-6PM",
    "services": [
      "Black-owned Battery service in Pennsylvania consultation",
      "Professional service",
      "Quality guarantee"
    ],
    "social_links": {}
  },
  {
    "name": "Jacksonville Auto Repair",
    "address": "404 Jacksonville Rd, Hatboro, PA 19040",
    "phone": "(215) 675-1555",
    "rating": 4.7,
    "reviews": 25,
    "website": "https://www.jacksonvilleautorepair.com/",
    "category": "Black-owned Battery service in Pennsylvania",
    "description": "Provides expert car battery examination, diagnosis, and replacement services",
    "hours": "Mon-Fri 9AM-6PM",
    "services": [
      "Black-owned Battery service in Pennsylvania consultation",
      "Professional service",
      "Quality guarantee"
    ],
    "social_links": {}
  },
  {
    "name": "Midas",
    "address": "854-60 Cottman Avenue, Philadelphia, PA 19111",
    "phone": "(215) 268-6002",
    "rating": 4.3,
    "reviews": 25,
    "website": "https://www.midas.com/locations/pa/philadelphia/cottman-ave-854-60-10023",
    "category": "Black-owned Battery service in Pennsylvania",
    "description": "Offers car battery services, including replacement, and handles other electrical system issues",
    "hours": "Mon-Fri 9AM-6PM",
    "services": [
      "Black-owned Battery service in Pennsylvania consultation",
      "Professional service",
      "Quality guarantee"
    ],
    "social_links": {}
  },
  {
    "name": "Joe Black's Auto Repair",
    "address": "3042 Butler Pike, Conshohocken, PA 19428",
    "phone": "(610) 825-7650",
    "rating": 4.8,
    "reviews": 25,
    "website": "https://www.joesblackautorepair.com/",
    "category": "Black-owned Battery service in Pennsylvania",
    "description": "A full-service auto repair shop specializing in foreign and domestic vehicles, offering maintenance and repair services",
    "hours": "Mon-Fri 9AM-6PM",
    "services": [
      "Black-owned Battery service in Pennsylvania consultation",
      "Professional service",
      "Quality guarantee"
    ],
    "social_links": {}
  },
  {
    "name": "Black Diamonds Auto",
    "address": "(Mobile service, serves Philadelphia, PA)",
    "phone": "(267) 317-7070",
    "rating": 5.0,
    "reviews": 25,
    "website": "https://blackdiamondsauto.com/",
    "category": "Black-owned Battery service in Pennsylvania",
    "description": "Provides fast and reliable mobile battery replacement services, jump starts, and other roadside assistance",
    "hours": "Mon-Fri 9AM-6PM",
    "services": [
      "Black-owned Battery service in Pennsylvania consultation",
      "Professional service",
      "Quality guarantee"
    ],
    "social_links": {}
  },
  {
    "name": "Service Tire Auto Service Center",
    "address": "601 W Union Blvd, Bethlehem, PA 18017",
    "phone": "(610) 868-8503",
    "rating": 4.5,
    "reviews": 25,
    "website": "https://www.servicetireauto.com/locations/bethlehem-pa/",
    "category": "Black-owned Battery service in Pennsylvania",
    "description": "Offers car battery replacement and other auto repair services, with a focus on tires and vehicle maintenance",
    "hours": "Mon-Fri 9AM-6PM",
    "services": [
      "Black-owned Battery service in Pennsylvania consultation",
      "Professional service",
      "Quality guarantee"
    ],
    "social_links": {}
  },
  {
    "name": "Black Forest Auto",
    "address": "1100 W Bridge St, Phoenixville, PA 19460",
    "phone": "(610) 935-7071",
    "rating": 4.8,
    "reviews": 25,
    "website": "https://www.blackforestautophx.com/",
    "category": "Black-owned Battery service in Pennsylvania",
    "description": "A family-owned auto repair shop providing quality workmanship and excellent customer service, including battery services",
    "hours": "Mon-Fri 9AM-6PM",
    "services": [
      "Black-owned Battery service in Pennsylvania consultation",
      "Professional service",
      "Quality guarantee"
    ],
    "social_links": {}
  }
]