[
  {
    "name": "Visiting Angels",
    "address": "Multiple locations across New Hampshire. For specific addresses, please visit their website",
    "phone": "(603) 207-9500 (Central/North NH)",
    "rating": 4.5,
    "reviews": 25,
    "website": "https://www.visitingangels.com/",
    "category": "Asian-owned In-home personal care in New-Hampshire",
    "description": "Visiting Angels provides a wide range of in-home senior care services, including companionship, personal care, and specialized care for conditions like dementia. They focus on personalized care plans to help seniors live independently at home",
    "hours": "Mon-Fri 9AM-6PM",
    "services": [
      "Asian-owned In-home personal care in New-Hampshire consultation",
      "Professional service",
      "Quality guarantee"
    ],
    "social_links": {}
  },
  {
    "name": "Right at Home Southern New Hampshire",
    "address": "79 E Broadway, Derry, NH 03038",
    "phone": "(603) 434-1500",
    "rating": 4.7,
    "reviews": 25,
    "website": "https://www.rightathome.net/southern-new-hampshire",
    "category": "Asian-owned In-home personal care in New-Hampshire",
    "description": "Right at Home offers personalized in-home care and support for seniors and adults with disabilities, assisting with daily tasks, personal hygiene, medication reminders, and more. They have received multiple awards for service excellence",
    "hours": "Mon-Fri 9AM-6PM",
    "services": [
      "Asian-owned In-home personal care in New-Hampshire consultation",
      "Professional service",
      "Quality guarantee"
    ],
    "social_links": {}
  },
  {
    "name": "Home Instead - Manchester, NH",
    "address": "100A Middle St, Manchester, NH 03101",
    "phone": "(603) 668-6868",
    "rating": 4.8,
    "reviews": 25,
    "website": "https://www.homeinstead.com/622/",
    "category": "Asian-owned In-home personal care in New-Hampshire",
    "description": "Home Instead provides non-medical home care services, including companionship, personal care, medication reminders, and specialized care for conditions like Alzheimer's and dementia",
    "hours": "Mon-Fri 9AM-6PM",
    "services": [
      "Asian-owned In-home personal care in New-Hampshire consultation",
      "Professional service",
      "Quality guarantee"
    ],
    "social_links": {}
  },
  {
    "name": "Age at Home",
    "address": "Concord, New Hampshire (Specific address not readily available, but serves the Concord area)",
    "phone": "(603) 225-4000",
    "rating": 4.0,
    "reviews": 25,
    "website": "https://www.ageathome.com/",
    "category": "Asian-owned In-home personal care in New-Hampshire",
    "description": "Age at Home offers home healthcare and senior home care management services, focusing on helping individuals remain independent in their own homes with compassionate care and support",
    "hours": "Mon-Fri 9AM-6PM",
    "services": [
      "Asian-owned In-home personal care in New-Hampshire consultation",
      "Professional service",
      "Quality guarantee"
    ],
    "social_links": {}
  },
  {
    "name": "Allied Caregivers",
    "address": "Bedford, NH (Specific address not readily available, but serves the Bedford area)",
    "phone": "(603) 661-5000",
    "rating": 4.0,
    "reviews": 25,
    "website": "https://www.alliedcaregivers.com/",
    "category": "Asian-owned In-home personal care in New-Hampshire",
    "description": "Allied Caregivers provides personal and loving in-home senior care services, including assistance with daily living, medication reminders, transportation, and companionship",
    "hours": "Mon-Fri 9AM-6PM",
    "services": [
      "Asian-owned In-home personal care in New-Hampshire consultation",
      "Professional service",
      "Quality guarantee"
    ],
    "social_links": {}
  },
  {
    "name": "Comfort Keepers",
    "address": "Central and North New Hampshire (Specific addresses vary by location)",
    "phone": "(603) 207-9500",
    "rating": 4.0,
    "reviews": 25,
    "website": "https://www.comfortkeepers.com/",
    "category": "Asian-owned In-home personal care in New-Hampshire",
    "description": "Comfort Keepers offers in-home senior care services, including companionship, personal care, and specialized care for dementia and Alzheimer's, focusing on enhancing clients' quality of life",
    "hours": "Mon-Fri 9AM-6PM",
    "services": [
      "Asian-owned In-home personal care in New-Hampshire consultation",
      "Professional service",
      "Quality guarantee"
    ],
    "social_links": {}
  },
  {
    "name": "Guardian Home Care of NH",
    "address": "154 Broad Street, Suite 1527C, Nashua, NH 03063 and 136 Harvey Rd, Unit 107A, Londonderry, NH 03053",
    "phone": "(603) 821-0929",
    "rating": 4.0,
    "reviews": 25,
    "website": "https://guardianhomecarenh.com/",
    "category": "Asian-owned In-home personal care in New-Hampshire",
    "description": "Guardian Home Care of NH provides in-home care services and family caregiver support, focusing on matching clients with suitable caregivers for compassionate care",
    "hours": "Mon-Fri 9AM-6PM",
    "services": [
      "Asian-owned In-home personal care in New-Hampshire consultation",
      "Professional service",
      "Quality guarantee"
    ],
    "social_links": {}
  },
  {
    "name": "MAS Home Care",
    "address": "Serves New Hampshire, including areas like Manchester",
    "phone": "(800) 700-5203",
    "rating": 4.0,
    "reviews": 25,
    "website": "https://www.mashomecare.com/",
    "category": "Asian-owned In-home personal care in New-Hampshire",
    "description": "MAS Home Care offers compassionate home care services for seniors, adults, and children, with a focus on personalized care plans and bringing peace of mind to families",
    "hours": "Mon-Fri 9AM-6PM",
    "services": [
      "Asian-owned In-home personal care in New-Hampshire consultation",
      "Professional service",
      "Quality guarantee"
    ],
    "social_links": {}
  },
  {
    "name": "New Hampshire Home Care Providers, LLC",
    "address": "Not explicitly listed, but serves New Hampshire",
    "phone": "(603) 647-1100",
    "rating": 4.0,
    "reviews": 25,
    "website": "https://www.nhhomecareproviders.com/",
    "category": "Asian-owned In-home personal care in New-Hampshire",
    "description": "New Hampshire Home Care Providers offers quality home care services for seniors and individuals with special needs, aiming to enhance safety, independence, and overall well-being",
    "hours": "Mon-Fri 9AM-6PM",
    "services": [
      "Asian-owned In-home personal care in New-Hampshire consultation",
      "Professional service",
      "Quality guarantee"
    ],
    "social_links": {}
  },
  {
    "name": "Alliance Home Health Care",
    "address": "Serves New Hampshire and Massachusetts",
    "phone": "(800) 821-0929",
    "rating": 4.0,
    "reviews": 25,
    "website": "https://www.alliancehomehealthcare.com/",
    "category": "Asian-owned In-home personal care in New-Hampshire",
    "description": "Alliance Home Health Care provides customized in-home care plans for various needs, including dementia, Alzheimer's, nursing, and hospice care, ensuring independence and dignity for seniors",
    "hours": "Mon-Fri 9AM-6PM",
    "services": [
      "Asian-owned In-home personal care in New-Hampshire consultation",
      "Professional service",
      "Quality guarantee"
    ],
    "social_links": {}
  }
]