[
  {
    "name": "Good Earth Landscape",
    "address": "1000 W. Peace St., Brandon, MS 39042",
    "phone": "(601) 829-0000",
    "rating": 4.0,
    "reviews": 25,
    "website": "http://www.good-earth-landscape.com/",
    "category": "American-Indian-owned Greenhouse services in Mississippi",
    "description": "Offers greenhouse services, landscaping, and a wide variety of plants and gardening products",
    "hours": "Mon-Fri 9AM-6PM",
    "services": [
      "American-Indian-owned Greenhouse services in Mississippi consultation",
      "Professional service",
      "Quality guarantee"
    ],
    "social_links": {}
  },
  {
    "name": "Walton's Greenhouse",
    "address": "Multiple locations including: 1000 Amory St, Amory, MS 38821; 2000 Tupelo, MS 38801; 1000 Columbus, MS 39701; 1000 Fulton, MS 38843; 1000 New Albany, MS 38652",
    "phone": "(662) 256-2111 (Amory location)",
    "rating": 4.0,
    "reviews": 25,
    "website": "https://waltonsgreenhouse.com/",
    "category": "American-Indian-owned Greenhouse services in Mississippi",
    "description": "A family-owned business with multiple locations offering a wide selection of plants, outdoor structures, and gardening supplies",
    "hours": "Mon-Fri 9AM-6PM",
    "services": [
      "American-Indian-owned Greenhouse services in Mississippi consultation",
      "Professional service",
      "Quality guarantee"
    ],
    "social_links": {}
  },
  {
    "name": "Anderson Enterprises",
    "address": "1000 W. Second St., Wiggins, MS 39577",
    "phone": "(601) 928-0030",
    "rating": 4.0,
    "reviews": 25,
    "website": "https://www.andersonent.com/greenhouses",
    "category": "American-Indian-owned Greenhouse services in Mississippi",
    "description": "Specializes in crafting customizable greenhouses and offers other services like moving portable buildings",
    "hours": "Mon-Fri 9AM-6PM",
    "services": [
      "American-Indian-owned Greenhouse services in Mississippi consultation",
      "Professional service",
      "Quality guarantee"
    ],
    "social_links": {}
  },
  {
    "name": "Rivers Greenhouse & Garden",
    "address": "201 Pollard Road, Starkville, MS 39759",
    "phone": "(662) 323-1742",
    "rating": 4.0,
    "reviews": 25,
    "website": "https://www.oktibeha.com/rivers-greenhouse-and-garden",
    "category": "American-Indian-owned Greenhouse services in Mississippi",
    "description": "A family-owned nursery since 1979, offering a wide array of homegrown plants, shrubs, trees, and gardening supplies",
    "hours": "Mon-Fri 9AM-6PM",
    "services": [
      "American-Indian-owned Greenhouse services in Mississippi consultation",
      "Professional service",
      "Quality guarantee"
    ],
    "social_links": {}
  },
  {
    "name": "Camp Creek Native Plants",
    "address": "921 Sam T. Barkley Dr., New Albany, MS 38652",
    "phone": "(662) 539-7175",
    "rating": 4.0,
    "reviews": 25,
    "website": "https://campcreeknativeplants.com/",
    "category": "American-Indian-owned Greenhouse services in Mississippi",
    "description": "Mississippi's first greenhouse primarily focused on native species, offering a wide selection of native plants, consultations, and landscaping services",
    "hours": "Mon-Fri 9AM-6PM",
    "services": [
      "American-Indian-owned Greenhouse services in Mississippi consultation",
      "Professional service",
      "Quality guarantee"
    ],
    "social_links": {}
  },
  {
    "name": "Choctaw Fresh Produce",
    "address": "Ag Center Dr., Choctaw, MS 39350",
    "phone": "(601) 650-1517",
    "rating": 4.0,
    "reviews": 25,
    "website": "http://choctawproduce.com/",
    "category": "American-Indian-owned Greenhouse services in Mississippi",
    "description": "A tribally-owned farm growing organic produce in high tunnels (greenhouses) to supply local restaurants and tribal members",
    "hours": "Mon-Fri 9AM-6PM",
    "services": [
      "American-Indian-owned Greenhouse services in Mississippi consultation",
      "Professional service",
      "Quality guarantee"
    ],
    "social_links": {}
  },
  {
    "name": "Bond's Nursery",
    "address": "214 Wes Havard Rd, Lucedale, MS 39452",
    "phone": "(601) 550-4063",
    "rating": 4.0,
    "reviews": 25,
    "website": "https://www.google.com/maps/search/Bond's+Nursery+in+Mississippi",
    "category": "American-Indian-owned Greenhouse services in Mississippi",
    "description": "A nursery offering plants and gardening supplies",
    "hours": "Mon-Fri 9AM-6PM",
    "services": [
      "American-Indian-owned Greenhouse services in Mississippi consultation",
      "Professional service",
      "Quality guarantee"
    ],
    "social_links": {}
  },
  {
    "name": "Buds N' Blooms Nursery, LLC",
    "address": "3074 Hwy 550 NW, Wesson, MS 39191",
    "phone": "(601) 835-1332",
    "rating": 4.0,
    "reviews": 25,
    "website": "https://www.google.com/maps/search/Buds+N'+Blooms+Nursery,+LLC+in+Mississippi",
    "category": "American-Indian-owned Greenhouse services in Mississippi",
    "description": "A nursery offering a variety of plants",
    "hours": "Mon-Fri 9AM-6PM",
    "services": [
      "American-Indian-owned Greenhouse services in Mississippi consultation",
      "Professional service",
      "Quality guarantee"
    ],
    "social_links": {}
  },
  {
    "name": "Green Oak Nursery",
    "address": "5009 Old Canton Rd, Jackson, MS 39211",
    "phone": "(601) 956-7150",
    "rating": 4.0,
    "reviews": 25,
    "website": "http://www.greenoakms.com/",
    "category": "American-Indian-owned Greenhouse services in Mississippi",
    "description": "A nursery offering plants and gardening services",
    "hours": "Mon-Fri 9AM-6PM",
    "services": [
      "American-Indian-owned Greenhouse services in Mississippi consultation",
      "Professional service",
      "Quality guarantee"
    ],
    "social_links": {}
  },
  {
    "name": "Homestead Farms",
    "address": "255 Hardin Lane, Coldwater, MS 38618",
    "phone": "(662) 622-5424",
    "rating": 4.0,
    "reviews": 25,
    "website": "http://www.homesteadfarmsnursery.com/",
    "category": "American-Indian-owned Greenhouse services in Mississippi",
    "description": "A nursery offering plants and gardening supplies",
    "hours": "Mon-Fri 9AM-6PM",
    "services": [
      "American-Indian-owned Greenhouse services in Mississippi consultation",
      "Professional service",
      "Quality guarantee"
    ],
    "social_links": {}
  }
]