[
  {
    "name": "Kidcadia Play Caf\u00e9",
    "address": "13939 Michigan Avenue, Dearborn, MI 48126",
    "phone": "(313) 406-2100",
    "rating": 4.5,
    "reviews": 25,
    "website": "https://kidcadia.com/",
    "category": "Baby-Boomer-owned Childrens activities in Michigan",
    "description": "Kidcadia is a magical indoor play space designed for children, offering creative play zones, climbing structures, and interactive activities. It also provides a relaxing environment for parents",
    "hours": "Mon-Fri 9AM-6PM",
    "services": [
      "Baby-Boomer-owned Childrens activities in Michigan consultation",
      "Professional service",
      "Quality guarantee"
    ],
    "social_links": {}
  },
  {
    "name": "HappyKids Indoor Playground",
    "address": "2430 44th St SE, Grand Rapids, MI 49508",
    "phone": "(616) 284-5437",
    "rating": 4.4,
    "reviews": 25,
    "website": "https://www.happykidsgr.com/",
    "category": "Baby-Boomer-owned Childrens activities in Michigan",
    "description": "HappyKids Indoor Playground offers a safe and exciting environment with climbing walls and soft play areas, designed for children up to 10 years old. They also host birthday parties",
    "hours": "Mon-Fri 9AM-6PM",
    "services": [
      "Baby-Boomer-owned Childrens activities in Michigan consultation",
      "Professional service",
      "Quality guarantee"
    ],
    "social_links": {}
  },
  {
    "name": "Ann Arbor Hands-On Museum",
    "address": "220 E Ann St, Ann Arbor, MI 48104",
    "phone": "(734) 995-5439",
    "rating": 4.6,
    "reviews": 25,
    "website": "https://www.aahom.org/",
    "category": "Baby-Boomer-owned Childrens activities in Michigan",
    "description": "This museum provides interactive, hands-on exhibits where children can build, explore, and learn about science and art",
    "hours": "Mon-Fri 9AM-6PM",
    "services": [
      "Baby-Boomer-owned Childrens activities in Michigan consultation",
      "Professional service",
      "Quality guarantee"
    ],
    "social_links": {}
  },
  {
    "name": "Upper Peninsula Children's Museum",
    "address": "123 W Baraga Ave, Marquette, MI 49855",
    "phone": "(906) 226-3911",
    "rating": 4.5,
    "reviews": 25,
    "website": "https://www.upchildrensmuseum.org/",
    "category": "Baby-Boomer-owned Childrens activities in Michigan",
    "description": "The U.P. Children's Museum offers engaging exhibits that encourage exploration and learning, including a giant intestine slide and an animal hospital",
    "hours": "Mon-Fri 9AM-6PM",
    "services": [
      "Baby-Boomer-owned Childrens activities in Michigan consultation",
      "Professional service",
      "Quality guarantee"
    ],
    "social_links": {}
  },
  {
    "name": "Saginaw Children's Zoo",
    "address": "1730 S Washington Ave, Saginaw, MI 48601",
    "phone": "(989) 759-1408",
    "rating": 4.5,
    "reviews": 25,
    "website": "https://www.saginawzoo.com/",
    "category": "Baby-Boomer-owned Childrens activities in Michigan",
    "description": "This zoo provides a family-friendly environment to see animals from around the world, with attractions like a carousel and train rides",
    "hours": "Mon-Fri 9AM-6PM",
    "services": [
      "Baby-Boomer-owned Childrens activities in Michigan consultation",
      "Professional service",
      "Quality guarantee"
    ],
    "social_links": {}
  },
  {
    "name": "Detroit Zoo",
    "address": "8450 W 10 Mile Rd, Royal Oak, MI 48067",
    "phone": "(248) 541-5717",
    "rating": 4.6,
    "reviews": 25,
    "website": "https://detroitzoo.org/",
    "category": "Baby-Boomer-owned Childrens activities in Michigan",
    "description": "The Detroit Zoo is a large zoological park featuring over 2,000 animals and various attractions like a railroad and a penguin conservatory",
    "hours": "Mon-Fri 9AM-6PM",
    "services": [
      "Baby-Boomer-owned Childrens activities in Michigan consultation",
      "Professional service",
      "Quality guarantee"
    ],
    "social_links": {}
  },
  {
    "name": "Binder Park Zoo",
    "address": "7400 Division Dr, Battle Creek, MI 49014",
    "phone": "(269) 979-1351",
    "rating": 4.5,
    "reviews": 25,
    "website": "https://www.binderparkzoo.org/",
    "category": "Baby-Boomer-owned Childrens activities in Michigan",
    "description": "Binder Park Zoo offers a wilderness tram tour, a conservation carousel, and opportunities to hand-feed giraffes",
    "hours": "Mon-Fri 9AM-6PM",
    "services": [
      "Baby-Boomer-owned Childrens activities in Michigan consultation",
      "Professional service",
      "Quality guarantee"
    ],
    "social_links": {}
  },
  {
    "name": "John Ball Zoo",
    "address": "1300 W Fulton St, Grand Rapids, MI 49504",
    "phone": "(616) 336-4300",
    "rating": 4.5,
    "reviews": 25,
    "website": "https://www.jbzoo.org/",
    "category": "Baby-Boomer-owned Childrens activities in Michigan",
    "description": "John Ball Zoo features a variety of animals, a zipline and ropes course, and a funicular, offering a unique zoo experience on a hillside",
    "hours": "Mon-Fri 9AM-6PM",
    "services": [
      "Baby-Boomer-owned Childrens activities in Michigan consultation",
      "Professional service",
      "Quality guarantee"
    ],
    "social_links": {}
  },
  {
    "name": "The Henry Ford Museum of American Innovation",
    "address": "20900 Oakwood Blvd, Dearborn, MI 48124",
    "phone": "(313) 982-6001",
    "rating": 4.7,
    "reviews": 25,
    "website": "https://www.thehenryford.org/",
    "category": "Baby-Boomer-owned Childrens activities in Michigan",
    "description": "This museum brings American history to life with iconic artifacts like Thomas Edison's laboratory and Rosa Parks' bus, offering educational and engaging experiences for families",
    "hours": "Mon-Fri 9AM-6PM",
    "services": [
      "Baby-Boomer-owned Childrens activities in Michigan consultation",
      "Professional service",
      "Quality guarantee"
    ],
    "social_links": {}
  },
  {
    "name": "Curious Kids' Museum & Discovery Zone",
    "address": "415 Lake Shore Dr, St Joseph, MI 49085",
    "phone": "(269) 983-2543",
    "rating": 4.4,
    "reviews": 25,
    "website": "https://curiouskidsmuseum.org/",
    "category": "Baby-Boomer-owned Childrens activities in Michigan",
    "description": "Located near Lake Michigan, this museum and discovery zone provide hands-on exhibits and play areas designed to spark curiosity and inspire learning in children",
    "hours": "Mon-Fri 9AM-6PM",
    "services": [
      "Baby-Boomer-owned Childrens activities in Michigan consultation",
      "Professional service",
      "Quality guarantee"
    ],
    "social_links": {}
  }
]