[
  {
    "name": "Mejia's Quality Concrete",
    "address": "Martinsburg, WV (Specific street address not provided in search results)",
    "phone": "(304) 433-4516",
    "rating": 4.0,
    "reviews": 25,
    "website": "https://www.google.com/maps/search/Mejia's+Quality+Concrete+West+Virginia",
    "category": "Central-American-owned Concrete work in West-Virginia",
    "description": "Specializes in patios, porches, walkways, stairways, driveways, and concrete repairs. They serve Martinsburg and surrounding areas in Berkeley and Jefferson Counties, WV",
    "hours": "Mon-Fri 9AM-6PM",
    "services": [
      "Central-American-owned Concrete work in West-Virginia consultation",
      "Professional service",
      "Quality guarantee"
    ],
    "social_links": {}
  },
  {
    "name": "Fuscardo Concrete",
    "address": "Weirton, WV (Specific street address not provided in search results)",
    "phone": "(304) 374-2002",
    "rating": 4.0,
    "reviews": 25,
    "website": "https://www.google.com/maps/search/Fuscardo+Concrete+West+Virginia",
    "category": "Central-American-owned Concrete work in West-Virginia",
    "description": "A family-owned company specializing in residential, commercial, industrial, and decorative concrete solutions. They serve West Virginia, Ohio, and Pennsylvania",
    "hours": "Mon-Fri 9AM-6PM",
    "services": [
      "Central-American-owned Concrete work in West-Virginia consultation",
      "Professional service",
      "Quality guarantee"
    ],
    "social_links": {}
  },
  {
    "name": "Manor Concrete",
    "address": "Not specified in search results, but serves the \"quad state area.\"",
    "phone": "",
    "rating": 4.0,
    "reviews": 25,
    "website": "https://www.google.com/maps/search/Manor+Concrete+West+Virginia",
    "category": "Central-American-owned Concrete work in West-Virginia",
    "description": "Offers Ready Mix concrete, all phases of concrete construction, and excavating advice. They are a woman-owned company",
    "hours": "Mon-Fri 9AM-6PM",
    "services": [
      "Central-American-owned Concrete work in West-Virginia consultation",
      "Professional service",
      "Quality guarantee"
    ],
    "social_links": {}
  },
  {
    "name": "Central Supply Company",
    "address": "Multiple locations in North Central West Virginia, including Clarksburg, WV, and Bridgeport, WV",
    "phone": "(304) 592-5577 (Bridgeport, WV), (304) 592-3217 (general)",
    "rating": 4.0,
    "reviews": 25,
    "website": "https://www.google.com/maps/search/Central+Supply+Company+West+Virginia",
    "category": "Central-American-owned Concrete work in West-Virginia",
    "description": "A long-standing supplier of ready-mix concrete and building materials in North Central West Virginia",
    "hours": "Mon-Fri 9AM-6PM",
    "services": [
      "Central-American-owned Concrete work in West-Virginia consultation",
      "Professional service",
      "Quality guarantee"
    ],
    "social_links": {}
  },
  {
    "name": "Premier Concrete Inc.",
    "address": "974 Greasy Ridge Road (Specific city not provided in search results)",
    "phone": "(304) 425-5329",
    "rating": 4.0,
    "reviews": 25,
    "website": "https://www.google.com/maps/search/Premier+Concrete+Inc.+West+Virginia",
    "category": "Central-American-owned Concrete work in West-Virginia",
    "description": "A concrete contractor in West Virginia",
    "hours": "Mon-Fri 9AM-6PM",
    "services": [
      "Central-American-owned Concrete work in West-Virginia consultation",
      "Professional service",
      "Quality guarantee"
    ],
    "social_links": {}
  },
  {
    "name": "Concrete Construction",
    "address": "3211 Big Otter Highway, Ivydale, West Virginia 25113",
    "phone": "(304) 286-4524",
    "rating": 4.0,
    "reviews": 25,
    "website": "https://www.google.com/maps/search/Concrete+Construction+West+Virginia",
    "category": "Central-American-owned Concrete work in West-Virginia",
    "description": "A concrete construction business",
    "hours": "Mon-Fri 9AM-6PM",
    "services": [
      "Central-American-owned Concrete work in West-Virginia consultation",
      "Professional service",
      "Quality guarantee"
    ],
    "social_links": {}
  },
  {
    "name": "8ch's Contracting, LLC",
    "address": "P.O. Box 336, Kermit, WV 25674",
    "phone": "304-928-1800",
    "rating": 4.0,
    "reviews": 25,
    "website": "https://www.google.com/maps/search/8ch's+Contracting,+LLC+West+Virginia",
    "category": "Central-American-owned Concrete work in West-Virginia",
    "description": "Offers services including concrete pouring, traffic control, and water/sewer line installation",
    "hours": "Mon-Fri 9AM-6PM",
    "services": [
      "Central-American-owned Concrete work in West-Virginia consultation",
      "Professional service",
      "Quality guarantee"
    ],
    "social_links": {}
  },
  {
    "name": "C & F Enterprises, Inc.",
    "address": "PO Box 132, 23 Lake Drive, Nitro, WV 25143",
    "phone": "304-880-9447",
    "rating": 4.0,
    "reviews": 25,
    "website": "https://www.google.com/maps/search/C+&+F+Enterprises,+Inc.+West+Virginia",
    "category": "Central-American-owned Concrete work in West-Virginia",
    "description": "Provides other heavy and civil engineering construction services",
    "hours": "Mon-Fri 9AM-6PM",
    "services": [
      "Central-American-owned Concrete work in West-Virginia consultation",
      "Professional service",
      "Quality guarantee"
    ],
    "social_links": {}
  },
  {
    "name": "Ellerbee Construction, Inc.",
    "address": "22 Capital Street, Suite 100, Charleston, WV 25302",
    "phone": "304-346-0505",
    "rating": 4.0,
    "reviews": 25,
    "website": "https://www.google.com/maps/search/Ellerbee+Construction,+Inc.+West+Virginia",
    "category": "Central-American-owned Concrete work in West-Virginia",
    "description": "Specializes in highway, street, and bridge construction",
    "hours": "Mon-Fri 9AM-6PM",
    "services": [
      "Central-American-owned Concrete work in West-Virginia consultation",
      "Professional service",
      "Quality guarantee"
    ],
    "social_links": {}
  },
  {
    "name": "Hardscapes Construction, Inc.",
    "address": "621 Central Ave., E. Box 4, Edgewater, MD 21037",
    "phone": "800-334-6078",
    "rating": 4.0,
    "reviews": 25,
    "website": "https://www.google.com/maps/search/Hardscapes+Construction,+Inc.+West+Virginia",
    "category": "Central-American-owned Concrete work in West-Virginia",
    "description": "Offers pavement and specialty placement services",
    "hours": "Mon-Fri 9AM-6PM",
    "services": [
      "Central-American-owned Concrete work in West-Virginia consultation",
      "Professional service",
      "Quality guarantee"
    ],
    "social_links": {}
  }
]