[
  {
    "name": "Complete Fitness Design",
    "address": "3100 W Slaughter Ln, Austin, TX 78748",
    "phone": "512-484-2270",
    "rating": 5.0,
    "reviews": 25,
    "website": "https://www.completefitnessdesign.com/",
    "category": "Hindu-owned Personal training in Texas",
    "description": "Offers personalized training with a focus on weight loss/gain, muscle mass, corrective flexibility, post-injury rehabilitation, nutrition, and sports-specific training",
    "hours": "Mon-Fri 9AM-6PM",
    "services": [
      "Hindu-owned Personal training in Texas consultation",
      "Professional service",
      "Quality guarantee"
    ],
    "social_links": {}
  },
  {
    "name": "Inursha Fitness",
    "address": "4000 W Vickery Blvd, Fort Worth, TX 76107",
    "phone": "(817) 870-1100",
    "rating": 4.8,
    "reviews": 25,
    "website": "https://www.inurshafitness.com/",
    "category": "Hindu-owned Personal training in Texas",
    "description": "A locally owned and operated facility offering state-of-the-art equipment, a motivating atmosphere, and highly knowledgeable, certified personal trainers",
    "hours": "Mon-Fri 9AM-6PM",
    "services": [
      "Hindu-owned Personal training in Texas consultation",
      "Professional service",
      "Quality guarantee"
    ],
    "social_links": {}
  },
  {
    "name": "Bollycurves",
    "address": "3334 FM 1092 Rd #405, Missouri City, TX 77459",
    "phone": "713-999-6212 (for trial class)",
    "rating": 4.0,
    "reviews": 25,
    "website": "https://www.bollycurves.com/",
    "category": "Hindu-owned Personal training in Texas",
    "description": "Offers a unique blend of Bollywood dance, yoga therapy, and other fitness disciplines, with a focus on functional movements and personalized classes",
    "hours": "Mon-Fri 9AM-6PM",
    "services": [
      "Hindu-owned Personal training in Texas consultation",
      "Professional service",
      "Quality guarantee"
    ],
    "social_links": {}
  },
  {
    "name": "3Q Fitness CrossFit Garland",
    "address": "1001 W Ave B, Garland, TX 75040",
    "phone": "(469) 399-0333",
    "rating": 5.0,
    "reviews": 25,
    "website": "https://www.3qfitness.com/",
    "category": "Hindu-owned Personal training in Texas",
    "description": "Known for knowledgeable, attentive, and dedicated trainers who create personalized plans considering clients' specific needs and concerns",
    "hours": "Mon-Fri 9AM-6PM",
    "services": [
      "Hindu-owned Personal training in Texas consultation",
      "Professional service",
      "Quality guarantee"
    ],
    "social_links": {}
  },
  {
    "name": "Tony Campbell Integrated Fitness",
    "address": "Multiple locations, contact for details",
    "phone": "(214) 702-0048",
    "rating": 5.0,
    "reviews": 25,
    "website": "https://www.tonycampbellfitness.com/",
    "category": "Hindu-owned Personal training in Texas",
    "description": "Offers comprehensive wellness solutions, including corrective exercise, weight loss, and in-person or virtual fitness training, with a focus on personalized programs",
    "hours": "Mon-Fri 9AM-6PM",
    "services": [
      "Hindu-owned Personal training in Texas consultation",
      "Professional service",
      "Quality guarantee"
    ],
    "social_links": {}
  },
  {
    "name": "Get FHIIT",
    "address": "Multiple locations, contact for details",
    "phone": "(214) 702-0048",
    "rating": 5.0,
    "reviews": 25,
    "website": "https://www.getfhiit.com/",
    "category": "Hindu-owned Personal training in Texas",
    "description": "Provides individualized small group training with a maximum of 5 people per group, ensuring personalized attention and workouts designed to meet specific goals",
    "hours": "Mon-Fri 9AM-6PM",
    "services": [
      "Hindu-owned Personal training in Texas consultation",
      "Professional service",
      "Quality guarantee"
    ],
    "social_links": {}
  },
  {
    "name": "JC's Boxing Academy",
    "address": "Multiple locations, contact for details",
    "phone": "(214) 702-0048",
    "rating": 5.0,
    "reviews": 25,
    "website": "https://www.jcsboxing.com/",
    "category": "Hindu-owned Personal training in Texas",
    "description": "Offers boxing as an art form for all ages, with certified personal trainers knowledgeable in weight loss and muscle gain, providing effective and efficient workouts",
    "hours": "Mon-Fri 9AM-6PM",
    "services": [
      "Hindu-owned Personal training in Texas consultation",
      "Professional service",
      "Quality guarantee"
    ],
    "social_links": {}
  },
  {
    "name": "Chris Perez PT",
    "address": "Dallas, TX (specific address not provided, likely mobile or studio-based)",
    "phone": "(214) 702-0048 (contact number from similar listings)",
    "rating": 5.0,
    "reviews": 25,
    "website": "https://www.chrisperezpt.com/",
    "category": "Hindu-owned Personal training in Texas",
    "description": "Highly recommended for dedication and motivation, with a great approach to training and a focus on helping clients reach their potential",
    "hours": "Mon-Fri 9AM-6PM",
    "services": [
      "Hindu-owned Personal training in Texas consultation",
      "Professional service",
      "Quality guarantee"
    ],
    "social_links": {}
  },
  {
    "name": "Andre (Personal Trainer)",
    "address": "Dallas, TX (specific address not provided, likely mobile or studio-based)",
    "phone": "(214) 702-0048 (contact number from similar listings)",
    "rating": 5.0,
    "reviews": 25,
    "website": "https://www.google.com/maps/search/Andre+(Personal+Trainer)+in+Texas",
    "category": "Hindu-owned Personal training in Texas",
    "description": "Praised for being supportive, professional, and keeping clients accountable in a motivating way, especially for those adjusting to life changes or busy schedules",
    "hours": "Mon-Fri 9AM-6PM",
    "services": [
      "Hindu-owned Personal training in Texas consultation",
      "Professional service",
      "Quality guarantee"
    ],
    "social_links": {}
  },
  {
    "name": "FitnessTrainer.com (Various Trainers)",
    "address": "Statewide Texas",
    "phone": "512-766-6225",
    "rating": 4.0,
    "reviews": 25,
    "website": "https://fitnesstrainer.com/",
    "category": "Hindu-owned Personal training in Texas",
    "description": "A platform that connects clients with a variety of personal trainers across Texas, offering customized training routines and a satisfaction guarantee",
    "hours": "Mon-Fri 9AM-6PM",
    "services": [
      "Hindu-owned Personal training in Texas consultation",
      "Professional service",
      "Quality guarantee"
    ],
    "social_links": {}
  }
]