[
  {
    "name": "Good Fellas Landscaping",
    "address": "Multiple locations in Indianapolis, IN",
    "phone": "(317) 456-1700",
    "rating": 4.9,
    "reviews": 25,
    "website": "https://www.goodfellaslandscaping.com/",
    "category": "Atheist-owned Flower bed maintenance in Indiana",
    "description": "Offers a full range of landscaping and lawn care services, including spring clean-up, mulching, flower bed maintenance, weed control, and shrub trimming",
    "hours": "Mon-Fri 9AM-6PM",
    "services": [
      "Atheist-owned Flower bed maintenance in Indiana consultation",
      "Professional service",
      "Quality guarantee"
    ],
    "social_links": {}
  },
  {
    "name": "Indy Landscaping 360",
    "address": "Indianapolis, IN",
    "phone": "(317) 559-4500",
    "rating": 4.8,
    "reviews": 25,
    "website": "https://indylandscaping360.com/",
    "category": "Atheist-owned Flower bed maintenance in Indiana",
    "description": "Specializes in rejuvenating outdoor spaces with top-tier flower bed clean-up services, including trimming, weeding, nurturing gardens, and soil enrichment",
    "hours": "Mon-Fri 9AM-6PM",
    "services": [
      "Atheist-owned Flower bed maintenance in Indiana consultation",
      "Professional service",
      "Quality guarantee"
    ],
    "social_links": {}
  },
  {
    "name": "Indiana Lawn Care, LLC",
    "address": "Indianapolis, IN",
    "phone": "(317) 500-4233",
    "rating": 4.6,
    "reviews": 25,
    "website": "https://indianalawncare.com/",
    "category": "Atheist-owned Flower bed maintenance in Indiana",
    "description": "Provides reliable lawn and landscape services for commercial and residential properties, focusing on attention to detail and quality service at affordable prices",
    "hours": "Mon-Fri 9AM-6PM",
    "services": [
      "Atheist-owned Flower bed maintenance in Indiana consultation",
      "Professional service",
      "Quality guarantee"
    ],
    "social_links": {}
  },
  {
    "name": "AAA Indy Landscaping",
    "address": "Indianapolis, IN",
    "phone": "(317) 430-0075",
    "rating": 4.8,
    "reviews": 25,
    "website": "https://aaaindylandscaping.com/",
    "category": "Atheist-owned Flower bed maintenance in Indiana",
    "description": "Offers comprehensive landscaping services including hardscape, planting, mulching, yard clean-up, and maintenance, with a dedicated crew for flower bed beautification",
    "hours": "Mon-Fri 9AM-6PM",
    "services": [
      "Atheist-owned Flower bed maintenance in Indiana consultation",
      "Professional service",
      "Quality guarantee"
    ],
    "social_links": {}
  },
  {
    "name": "Spider Landscape, Inc.",
    "address": "19187 Outer Bank Road, Noblesville, IN 46062",
    "phone": "(317) 776-0000",
    "rating": 4.9,
    "reviews": 25,
    "website": "https://spiderlandscape.com/",
    "category": "Atheist-owned Flower bed maintenance in Indiana",
    "description": "Provides professional and reliable landscaping services, including yard maintenance and beautification, with a focus on customer satisfaction",
    "hours": "Mon-Fri 9AM-6PM",
    "services": [
      "Atheist-owned Flower bed maintenance in Indiana consultation",
      "Professional service",
      "Quality guarantee"
    ],
    "social_links": {}
  },
  {
    "name": "The Lawn Squad",
    "address": "Bloomington, IN",
    "phone": "(812) 327-5296",
    "rating": 4.9,
    "reviews": 25,
    "website": "https://thelawnsq.com/",
    "category": "Atheist-owned Flower bed maintenance in Indiana",
    "description": "A top-rated provider of bed maintenance services, dedicated to preserving the beauty and health of garden beds with meticulous and professional services",
    "hours": "Mon-Fri 9AM-6PM",
    "services": [
      "Atheist-owned Flower bed maintenance in Indiana consultation",
      "Professional service",
      "Quality guarantee"
    ],
    "social_links": {}
  },
  {
    "name": "Fralich's Landscape",
    "address": "959 W. 100 N., Greenfield, IN 46140",
    "phone": "(317) 477-0405",
    "rating": 4.7,
    "reviews": 25,
    "website": "https://fralichslandscape.com/",
    "category": "Atheist-owned Flower bed maintenance in Indiana",
    "description": "Offers expert garden and flower bed care with over 20 years of experience, providing seasonal weed control, plant health care, pruning, mulching, and turf maintenance",
    "hours": "Mon-Fri 9AM-6PM",
    "services": [
      "Atheist-owned Flower bed maintenance in Indiana consultation",
      "Professional service",
      "Quality guarantee"
    ],
    "social_links": {}
  },
  {
    "name": "Blumling Lawn Care",
    "address": "Lafayette, IN (serving Tippecanoe County)",
    "phone": "(765) 374-8687",
    "rating": 4.8,
    "reviews": 25,
    "website": "https://blumlinglawncare.com/",
    "category": "Atheist-owned Flower bed maintenance in Indiana",
    "description": "Provides comprehensive lawn maintenance and landscaping services, including meticulous flower bed maintenance with weed control to ensure blooms flourish",
    "hours": "Mon-Fri 9AM-6PM",
    "services": [
      "Atheist-owned Flower bed maintenance in Indiana consultation",
      "Professional service",
      "Quality guarantee"
    ],
    "social_links": {}
  },
  {
    "name": "Professional Landscaping Services",
    "address": "Anderson, IN",
    "phone": "(765) 617-1000",
    "rating": 4.8,
    "reviews": 25,
    "website": "https://www.professionallandscapingservices.com/",
    "category": "Atheist-owned Flower bed maintenance in Indiana",
    "description": "Offers a wide range of landscaping services, including design, installation, and maintenance, with a focus on customer input and efficient, quality work",
    "hours": "Mon-Fri 9AM-6PM",
    "services": [
      "Atheist-owned Flower bed maintenance in Indiana consultation",
      "Professional service",
      "Quality guarantee"
    ],
    "social_links": {}
  },
  {
    "name": "Fine Touch Services",
    "address": "Indianapolis, IN",
    "phone": "(317) 559-1000",
    "rating": 4.7,
    "reviews": 25,
    "website": "https://finetouchservices.com/",
    "category": "Atheist-owned Flower bed maintenance in Indiana",
    "description": "Provides landscaping and lawn care services, including property maintenance, landscape design, and outdoor lighting solutions, with a commitment to professional and clean work",
    "hours": "Mon-Fri 9AM-6PM",
    "services": [
      "Atheist-owned Flower bed maintenance in Indiana consultation",
      "Professional service",
      "Quality guarantee"
    ],
    "social_links": {}
  }
]