[
  {
    "name": "Center for Equity and Inclusion (CEI)",
    "address": "Portland, OR (Specific address not publicly available)",
    "phone": "503-451-3003",
    "rating": 4.0,
    "reviews": 25,
    "website": "https://www.google.com/maps/search/Center+for+Equity+and+Inclusion+(CEI)+in+Oregon",
    "category": "Agnostic-owned Diversity training in Oregon",
    "description": "Promotes equity and opportunity for all cultures and identities through various services",
    "hours": "Mon-Fri 9AM-6PM",
    "services": [
      "Agnostic-owned Diversity training in Oregon consultation",
      "Professional service",
      "Quality guarantee"
    ],
    "social_links": {}
  },
  {
    "name": "TransPonder-RISE",
    "address": "Eugene, OR (Specific address not publicly available)",
    "phone": "541-321-0872",
    "rating": 4.0,
    "reviews": 25,
    "website": "https://www.google.com/maps/search/TransPonder-RISE+in+Oregon",
    "category": "Agnostic-owned Diversity training in Oregon",
    "description": "Offers Training, Equity, and Advocacy Services (TEAS) to educate the community",
    "hours": "Mon-Fri 9AM-6PM",
    "services": [
      "Agnostic-owned Diversity training in Oregon consultation",
      "Professional service",
      "Quality guarantee"
    ],
    "social_links": {}
  },
  {
    "name": "Basic Rights Oregon (BRO)",
    "address": "Portland, OR (Specific address not publicly available)",
    "phone": "503-222-6151",
    "rating": 4.0,
    "reviews": 25,
    "website": "https://www.google.com/maps/search/Basic+Rights+Oregon+(BRO)+in+Oregon",
    "category": "Agnostic-owned Diversity training in Oregon",
    "description": "Works to improve experiences for LGBTQ+ community members",
    "hours": "Mon-Fri 9AM-6PM",
    "services": [
      "Agnostic-owned Diversity training in Oregon consultation",
      "Professional service",
      "Quality guarantee"
    ],
    "social_links": {}
  },
  {
    "name": "Lower Columbia Q Center (LCQC)",
    "address": "Astoria, OR (Specific address not publicly available)",
    "phone": "503-468-5155",
    "rating": 4.0,
    "reviews": 25,
    "website": "https://www.google.com/maps/search/Lower+Columbia+Q+Center+(LCQC)+in+Oregon",
    "category": "Agnostic-owned Diversity training in Oregon",
    "description": "Provides outreach, education, and support for LGBTQ+ community members",
    "hours": "Mon-Fri 9AM-6PM",
    "services": [
      "Agnostic-owned Diversity training in Oregon consultation",
      "Professional service",
      "Quality guarantee"
    ],
    "social_links": {}
  },
  {
    "name": "The Learning Well",
    "address": "Medford, OR (Specific address not publicly available)",
    "phone": "541-494-4796",
    "rating": 4.0,
    "reviews": 25,
    "website": "https://www.google.com/maps/search/The+Learning+Well+in+Oregon",
    "category": "Agnostic-owned Diversity training in Oregon",
    "description": "Offers workshops, education, and advocacy to support well-being and integrate DEI practices",
    "hours": "Mon-Fri 9AM-6PM",
    "services": [
      "Agnostic-owned Diversity training in Oregon consultation",
      "Professional service",
      "Quality guarantee"
    ],
    "social_links": {}
  },
  {
    "name": "South Coast Equity Coalition",
    "address": "Coos & Curry Counties, OR (Specific address not publicly available)",
    "phone": "541-267-5202",
    "rating": 4.0,
    "reviews": 25,
    "website": "https://www.google.com/maps/search/South+Coast+Equity+Coalition+in+Oregon",
    "category": "Agnostic-owned Diversity training in Oregon",
    "description": "Promotes health equity through community outreach and education, cultural events, and youth engagement",
    "hours": "Mon-Fri 9AM-6PM",
    "services": [
      "Agnostic-owned Diversity training in Oregon consultation",
      "Professional service",
      "Quality guarantee"
    ],
    "social_links": {}
  },
  {
    "name": "The Next Door",
    "address": "The Dalles, OR (Specific address not publicly available)",
    "phone": "541-296-8118",
    "rating": 4.0,
    "reviews": 25,
    "website": "https://www.google.com/maps/search/The+Next+Door+in+Oregon",
    "category": "Agnostic-owned Diversity training in Oregon",
    "description": "Supports community members on their pathways towards DEI through learning, listening, and skill-building",
    "hours": "Mon-Fri 9AM-6PM",
    "services": [
      "Agnostic-owned Diversity training in Oregon consultation",
      "Professional service",
      "Quality guarantee"
    ],
    "social_links": {}
  },
  {
    "name": "Project 986 Consulting",
    "address": "Oregon (Specific address not publicly available)",
    "phone": "",
    "rating": 4.0,
    "reviews": 25,
    "website": "https://www.google.com/maps/search/Project+986+Consulting+in+Oregon",
    "category": "Agnostic-owned Diversity training in Oregon",
    "description": "Offers DEI training programs, diversity and inclusion consulting, and coaching focused on creating safe workspaces and promoting marginalized communities",
    "hours": "Mon-Fri 9AM-6PM",
    "services": [
      "Agnostic-owned Diversity training in Oregon consultation",
      "Professional service",
      "Quality guarantee"
    ],
    "social_links": {}
  },
  {
    "name": "Construct the Present",
    "address": "Oregon (Specific address not publicly available)",
    "phone": "",
    "rating": 4.0,
    "reviews": 25,
    "website": "https://www.google.com/maps/search/Construct+the+Present+in+Oregon",
    "category": "Agnostic-owned Diversity training in Oregon",
    "description": "Provides DEI consulting, workshops, and training designed to facilitate learning, experimentation, and connection, with a focus on systemic and sustainable change",
    "hours": "Mon-Fri 9AM-6PM",
    "services": [
      "Agnostic-owned Diversity training in Oregon consultation",
      "Professional service",
      "Quality guarantee"
    ],
    "social_links": {}
  },
  {
    "name": "Donaldson Consulting LLC",
    "address": "Oregon (Specific address not publicly available)",
    "phone": "",
    "rating": 4.0,
    "reviews": 25,
    "website": "https://www.google.com/maps/search/Donaldson+Consulting+LLC+in+Oregon",
    "category": "Agnostic-owned Diversity training in Oregon",
    "description": "Offers diversity consulting, certified small business organization, outreach, training, and mentorship, with a focus on creating a level playing field for underserved businesses",
    "hours": "Mon-Fri 9AM-6PM",
    "services": [
      "Agnostic-owned Diversity training in Oregon consultation",
      "Professional service",
      "Quality guarantee"
    ],
    "social_links": {}
  }
]