[
  {
    "name": "Alpine Maids",
    "address": "Denver, CO (Specific address not publicly listed, but serves the Denver area)",
    "phone": "(303) 888-7427",
    "rating": 4.8,
    "reviews": 25,
    "website": "https://alpinemaids.com/",
    "category": "Arabic-speaking Deep cleaning in Colorado",
    "description": "Alpine Maids offers eco-friendly deep cleaning services in Denver, focusing on a thorough, top-to-bottom clean with a satisfaction guarantee",
    "hours": "Mon-Fri 9AM-6PM",
    "services": [
      "Arabic-speaking Deep cleaning in Colorado consultation",
      "Professional service",
      "Quality guarantee"
    ],
    "social_links": {}
  },
  {
    "name": "MAK Cleaning LLC",
    "address": "Thornton, CO (Serves Thornton and surrounding areas)",
    "phone": "(720) 737-0770",
    "rating": 4.9,
    "reviews": 25,
    "website": "https://makcleaning.com/",
    "category": "Arabic-speaking Deep cleaning in Colorado",
    "description": "MAK Cleaning LLC provides professional deep cleaning services for both residential and commercial properties in Thornton and the surrounding areas, emphasizing attention to detail and punctuality",
    "hours": "Mon-Fri 9AM-6PM",
    "services": [
      "Arabic-speaking Deep cleaning in Colorado consultation",
      "Professional service",
      "Quality guarantee"
    ],
    "social_links": {}
  },
  {
    "name": "Homeaglow",
    "address": "Westminster, CO (Platform connecting clients with cleaners in Westminster)",
    "phone": "",
    "rating": 4.8,
    "reviews": 25,
    "website": "https://homeaglow.com/co/westminster/deep-cleaning",
    "category": "Arabic-speaking Deep cleaning in Colorado",
    "description": "Homeaglow is a platform that connects users with pre-screened and background-checked deep cleaning professionals in Westminster, offering affordable rates and easy online booking",
    "hours": "Mon-Fri 9AM-6PM",
    "services": [
      "Arabic-speaking Deep cleaning in Colorado consultation",
      "Professional service",
      "Quality guarantee"
    ],
    "social_links": {}
  },
  {
    "name": "Sparkling and Beyond",
    "address": "Pueblo, CO (Serves Pueblo and surrounding areas)",
    "phone": "(719) 671-0280",
    "rating": 4.9,
    "reviews": 25,
    "website": "https://sparklingandbeyond.com/",
    "category": "Arabic-speaking Deep cleaning in Colorado",
    "description": "Sparkling and Beyond offers professional deep cleaning services in Pueblo, CO, with skilled cleaners focused on client satisfaction and improving indoor air quality",
    "hours": "Mon-Fri 9AM-6PM",
    "services": [
      "Arabic-speaking Deep cleaning in Colorado consultation",
      "Professional service",
      "Quality guarantee"
    ],
    "social_links": {}
  },
  {
    "name": "Maple's Cleaning Services",
    "address": "Westminster, CO (Serves Westminster and surrounding areas)",
    "phone": "(303) 219-8035",
    "rating": 4.9,
    "reviews": 25,
    "website": "https://maplescleaningservices.com/westminster-co-cleaning-services/",
    "category": "Arabic-speaking Deep cleaning in Colorado",
    "description": "Maple's Cleaning Services provides comprehensive deep cleaning and other maid services in Westminster, CO, with highly vetted cleaners and tailored solutions",
    "hours": "Mon-Fri 9AM-6PM",
    "services": [
      "Arabic-speaking Deep cleaning in Colorado consultation",
      "Professional service",
      "Quality guarantee"
    ],
    "social_links": {}
  },
  {
    "name": "Roochii Cleaning",
    "address": "Thornton, CO (Serves Thornton and surrounding areas)",
    "phone": "(720) 513-8741",
    "rating": 4.9,
    "reviews": 25,
    "website": "https://roochiicleaning.com/thornton-cleaning-services/",
    "category": "Arabic-speaking Deep cleaning in Colorado",
    "description": "Roochii Cleaning offers award-winning deep cleaning services in Thornton, CO, using eco-friendly products and a proprietary checklist for thorough results",
    "hours": "Mon-Fri 9AM-6PM",
    "services": [
      "Arabic-speaking Deep cleaning in Colorado consultation",
      "Professional service",
      "Quality guarantee"
    ],
    "social_links": {}
  },
  {
    "name": "Summit Cleaning",
    "address": "Thornton, CO (Serves Thornton, Arvada, Westminster, and surrounding areas)",
    "phone": "(303) 886-2251",
    "rating": 4.8,
    "reviews": 25,
    "website": "https://summitcleaning.co/deep-cleaning-services/",
    "category": "Arabic-speaking Deep cleaning in Colorado",
    "description": "Summit Cleaning provides exceptional deep house cleaning services in Thornton, CO, with seasoned professionals trained to meticulously clean all surfaces",
    "hours": "Mon-Fri 9AM-6PM",
    "services": [
      "Arabic-speaking Deep cleaning in Colorado consultation",
      "Professional service",
      "Quality guarantee"
    ],
    "social_links": {}
  },
  {
    "name": "The Blue Bucket Cleaning",
    "address": "Denver, CO (Serves the Denver Metro Area)",
    "phone": "(720) 505-7022",
    "rating": 4.9,
    "reviews": 25,
    "website": "https://thebluebucketcleaning.com/deep-cleaning-denver/",
    "category": "Arabic-speaking Deep cleaning in Colorado",
    "description": "The Blue Bucket Cleaning offers professional deep cleaning services in the Denver Metro Area, focusing on getting into every nook and cranny for a top-to-bottom clean",
    "hours": "Mon-Fri 9AM-6PM",
    "services": [
      "Arabic-speaking Deep cleaning in Colorado consultation",
      "Professional service",
      "Quality guarantee"
    ],
    "social_links": {}
  },
  {
    "name": "Two Maids",
    "address": "Centennial, CO (Serves Centennial and surrounding areas)",
    "phone": "(303) 800-0625",
    "rating": 4.9,
    "reviews": 25,
    "website": "https://www.twomaids.com/locations/centennial/",
    "category": "Arabic-speaking Deep cleaning in Colorado",
    "description": "Two Maids in Centennial, CO, provides professional deep cleaning services, supplying all necessary cleaning supplies and equipment with experienced, background-checked cleaners",
    "hours": "Mon-Fri 9AM-6PM",
    "services": [
      "Arabic-speaking Deep cleaning in Colorado consultation",
      "Professional service",
      "Quality guarantee"
    ],
    "social_links": {}
  },
  {
    "name": "Kathy Clean",
    "address": "Centennial, CO (Serves Centennial and surrounding areas)",
    "phone": "(303) 500-7550",
    "rating": 4.9,
    "reviews": 25,
    "website": "https://kathyclean.com/",
    "category": "Arabic-speaking Deep cleaning in Colorado",
    "description": "Kathy Clean offers top-rated deep cleaning services in Centennial, CO, with a 48-hour satisfaction guarantee and a commitment to meticulous care",
    "hours": "Mon-Fri 9AM-6PM",
    "services": [
      "Arabic-speaking Deep cleaning in Colorado consultation",
      "Professional service",
      "Quality guarantee"
    ],
    "social_links": {}
  }
]