[
  {
    "name": "Almaden Dental Associates",
    "address": "841 Blossom Hill Rd #213, San Jose, CA 95123",
    "phone": "(408) 224-0404",
    "rating": 4.8,
    "reviews": 25,
    "website": "https://www.almadendentalassociates.com/",
    "category": "Hebrew-speaking Teeth whitening in California",
    "description": "This dental practice offers a wide range of services, including teeth whitening, and states they are fluent in multiple languages",
    "hours": "Mon-Fri 9AM-6PM",
    "services": [
      "Hebrew-speaking Teeth whitening in California consultation",
      "Professional service",
      "Quality guarantee"
    ],
    "social_links": {}
  },
  {
    "name": "Irina V Ganzha DDS",
    "address": "1625 The Alameda, Suite 101, San Jose, CA 95126",
    "phone": "(408) 719-8600",
    "rating": 4.7,
    "reviews": 25,
    "website": "https://www.irinanorthcountydental.com/",
    "category": "Hebrew-speaking Teeth whitening in California",
    "description": "Offers teeth whitening services, including laser treatments and take-home trays",
    "hours": "Mon-Fri 9AM-6PM",
    "services": [
      "Hebrew-speaking Teeth whitening in California consultation",
      "Professional service",
      "Quality guarantee"
    ],
    "social_links": {}
  },
  {
    "name": "Berna Sanayei DDS, Inc.",
    "address": "2929 The Villages Pkwy, San Jose, CA 95135",
    "phone": "(408) 274-9554",
    "rating": 4.8,
    "reviews": 25,
    "website": "https://www.bsanayeidds.com/",
    "category": "Hebrew-speaking Teeth whitening in California",
    "description": "Provides professional in-office teeth whitening and other cosmetic dentistry services",
    "hours": "Mon-Fri 9AM-6PM",
    "services": [
      "Hebrew-speaking Teeth whitening in California consultation",
      "Professional service",
      "Quality guarantee"
    ],
    "social_links": {}
  },
  {
    "name": "Dr. David Hakham (Vertex Dental)",
    "address": "1313 W Montebello Blvd, Montebello, CA 90640",
    "phone": "(323) 721-1500",
    "rating": 4.9,
    "reviews": 25,
    "website": "https://www.vertexaisearch.cloud.google.com/grounding-api-redirect/AUZIYQEUEiTLKeruRXuqxf9zqhoYGhIwYkiUH16y58xTXmmVcM4-5ZkPC-itoh0camts645a5p7PIQoKe55hLbU8MQbpWUxRShuUjG8EL_C3S4nWyI76OPxz4IAYwqVnGMzb1FXq2PfzEzns4zX5ZsZkiW4AFb0L9aZ4GlSh4xL8aGYSqqQLBEcNgWFWSrjVTthaAw==",
    "category": "Hebrew-speaking Teeth whitening in California",
    "description": "Offers professional Zoom teeth whitening for a brighter smile",
    "hours": "Mon-Fri 9AM-6PM",
    "services": [
      "Hebrew-speaking Teeth whitening in California consultation",
      "Professional service",
      "Quality guarantee"
    ],
    "social_links": {}
  },
  {
    "name": "Dr. Nivedita Nijhawan, DDS",
    "address": "7337 N Fresno St #101, Fresno, CA 93720",
    "phone": "(559) 224-1303",
    "rating": 4.9,
    "reviews": 25,
    "website": "https://www.nijhawandds.com/",
    "category": "Hebrew-speaking Teeth whitening in California",
    "description": "Provides professional teeth whitening services, including convenient take-home kits",
    "hours": "Mon-Fri 9AM-6PM",
    "services": [
      "Hebrew-speaking Teeth whitening in California consultation",
      "Professional service",
      "Quality guarantee"
    ],
    "social_links": {}
  },
  {
    "name": "Shahbazyan DDS Cosmetic & General Dentistry",
    "address": "4041 N Cedar Ave #101, Fresno, CA 93726",
    "phone": "(559) 221-3000",
    "rating": 4.9,
    "reviews": 25,
    "website": "https://www.shahbazyandds.com/",
    "category": "Hebrew-speaking Teeth whitening in California",
    "description": "Offers POLA In-Office & Take-Home Whitening for a \"Movie Star\" smile",
    "hours": "Mon-Fri 9AM-6PM",
    "services": [
      "Hebrew-speaking Teeth whitening in California consultation",
      "Professional service",
      "Quality guarantee"
    ],
    "social_links": {}
  },
  {
    "name": "Paladin Dental",
    "address": "2747 W Bullard Ave #103, Fresno, CA 93711",
    "phone": "(559) 436-8288",
    "rating": 4.9,
    "reviews": 25,
    "website": "https://www.paladindental.com/",
    "category": "Hebrew-speaking Teeth whitening in California",
    "description": "Offers professional teeth whitening services using high-quality, safe bleaching agents",
    "hours": "Mon-Fri 9AM-6PM",
    "services": [
      "Hebrew-speaking Teeth whitening in California consultation",
      "Professional service",
      "Quality guarantee"
    ],
    "social_links": {}
  },
  {
    "name": "Mirelez Wellness Dental",
    "address": "1777 E Fir Ave, Fresno, CA 93720",
    "phone": "(559) 435-3000",
    "rating": 4.9,
    "reviews": 25,
    "website": "https://www.mirelezwellnessdental.com/",
    "category": "Hebrew-speaking Teeth whitening in California",
    "description": "Offers K\u00f6R professional teeth whitening for safe and effective results",
    "hours": "Mon-Fri 9AM-6PM",
    "services": [
      "Hebrew-speaking Teeth whitening in California consultation",
      "Professional service",
      "Quality guarantee"
    ],
    "social_links": {}
  },
  {
    "name": "Smile Studios",
    "address": "4040 Genesee Ave Suite 200, San Diego, CA 92111",
    "phone": "(858) 586-9195",
    "rating": 5.0,
    "reviews": 25,
    "website": "https://www.smilestudios.com/",
    "category": "Hebrew-speaking Teeth whitening in California",
    "description": "Rated as the #1 Teeth Whitening Service in San Diego, offering in-office treatments",
    "hours": "Mon-Fri 9AM-6PM",
    "services": [
      "Hebrew-speaking Teeth whitening in California consultation",
      "Professional service",
      "Quality guarantee"
    ],
    "social_links": {}
  },
  {
    "name": "University Dental Family Dentistry and Orthodontics",
    "address": "3821 4th Ave, San Diego, CA 92103",
    "phone": "(619) 582-4224",
    "rating": 4.7,
    "reviews": 25,
    "website": "https://www.universitydentalsd.com/",
    "category": "Hebrew-speaking Teeth whitening in California",
    "description": "Specializes in teeth whitening and offers Zoom Teeth Whitening",
    "hours": "Mon-Fri 9AM-6PM",
    "services": [
      "Hebrew-speaking Teeth whitening in California consultation",
      "Professional service",
      "Quality guarantee"
    ],
    "social_links": {}
  }
]