[
  {
    "name": "Dimock Matthews, LLC",
    "address": "Denver, CO (Specific address not provided in search results)",
    "phone": "",
    "rating": 4.0,
    "reviews": 25,
    "website": "https://www.google.com/maps/search/Dimock+Matthews,+LLC+in+Colorado",
    "category": "African-American-owned Litigation in Colorado",
    "description": "This is a woman and Black-owned law firm focusing on Family Law, DUI Defense, and Employment Discrimination/Civil Rights cases",
    "hours": "Mon-Fri 9AM-6PM",
    "services": [
      "African-American-owned Litigation in Colorado consultation",
      "Professional service",
      "Quality guarantee"
    ],
    "social_links": {}
  },
  {
    "name": "Black, Blink, & Associates LLC",
    "address": "Colorado Springs, CO (Specific address not provided in search results)",
    "phone": "719-694-0578",
    "rating": 4.0,
    "reviews": 25,
    "website": "https://www.google.com/maps/search/Black,+Blink,+&+Associates+LLC+in+Colorado",
    "category": "African-American-owned Litigation in Colorado",
    "description": "This firm handles business disputes, criminal charges, and personal injury claims",
    "hours": "Mon-Fri 9AM-6PM",
    "services": [
      "African-American-owned Litigation in Colorado consultation",
      "Professional service",
      "Quality guarantee"
    ],
    "social_links": {}
  },
  {
    "name": "Tyrone Glover Law",
    "address": "2590 Walnut Street, Denver, CO 80205",
    "phone": "(303) 577-1655",
    "rating": 4.0,
    "reviews": 25,
    "website": "https://www.google.com/maps/search/Tyrone+Glover+Law+in+Colorado",
    "category": "African-American-owned Litigation in Colorado",
    "description": "Specializes in civil rights, employment discrimination, personal injury, and criminal defense",
    "hours": "Mon-Fri 9AM-6PM",
    "services": [
      "African-American-owned Litigation in Colorado consultation",
      "Professional service",
      "Quality guarantee"
    ],
    "social_links": {}
  },
  {
    "name": "City Park Law Group, LLC",
    "address": "12075 E. 45th Ave Suite 100B, Denver, CO 80239",
    "phone": "(303) 377-2933",
    "rating": 4.0,
    "reviews": 25,
    "website": "https://www.google.com/maps/search/City+Park+Law+Group,+LLC+in+Colorado",
    "category": "African-American-owned Litigation in Colorado",
    "description": "Attorneys specializing in real estate, small business development, civil disputes, estate planning, and probate matters. This firm is designated as Black/African American owned",
    "hours": "Mon-Fri 9AM-6PM",
    "services": [
      "African-American-owned Litigation in Colorado consultation",
      "Professional service",
      "Quality guarantee"
    ],
    "social_links": {}
  },
  {
    "name": "Colorado Affordable Legal Services, LLC",
    "address": "110 16th Street Mall Suite #1325, Denver, CO 80202-5202",
    "phone": "(303) 996-0010",
    "rating": 4.0,
    "reviews": 25,
    "website": "https://www.google.com/maps/search/Colorado+Affordable+Legal+Services,+LLC+in+Colorado",
    "category": "African-American-owned Litigation in Colorado",
    "description": "Founded in 2011 to provide community members with legal services. This firm is designated as Black/African American owned",
    "hours": "Mon-Fri 9AM-6PM",
    "services": [
      "African-American-owned Litigation in Colorado consultation",
      "Professional service",
      "Quality guarantee"
    ],
    "social_links": {}
  }
]