[
  {
    "name": "Digital Spark Studios",
    "address": "1225 S Mint St, Charlotte, NC 28203",
    "phone": "(704) 717-7777",
    "rating": 5.0,
    "reviews": 25,
    "website": "https://digitalsparkstudios.com/",
    "category": "Arabic-speaking Motion graphics in North-Carolina",
    "description": "A video production company specializing in high-quality video content, animation, and motion graphics for brands and organizations",
    "hours": "Mon-Fri 9AM-6PM",
    "services": [
      "Arabic-speaking Motion graphics in North-Carolina consultation",
      "Professional service",
      "Quality guarantee"
    ],
    "social_links": {}
  },
  {
    "name": "Amazing Studios",
    "address": "1000 Perimeter Park Dr, Suite 100, Morrisville, NC 27560",
    "phone": "(919) 847-0000",
    "rating": 5.0,
    "reviews": 25,
    "website": "https://www.amazingstudios.com/",
    "category": "Arabic-speaking Motion graphics in North-Carolina",
    "description": "An award-winning video production and animation studio creating visual content for brands and agencies, with expertise in both animated and live-action videos",
    "hours": "Mon-Fri 9AM-6PM",
    "services": [
      "Arabic-speaking Motion graphics in North-Carolina consultation",
      "Professional service",
      "Quality guarantee"
    ],
    "social_links": {}
  },
  {
    "name": "Millbrook Studios",
    "address": "1000 Wake Forest Rd, Raleigh, NC 27604",
    "phone": "(919) 803-0000",
    "rating": 5.0,
    "reviews": 25,
    "website": "https://millbrookstudios.com/",
    "category": "Arabic-speaking Motion graphics in North-Carolina",
    "description": "A video production company in Raleigh specializing in high-concept commercial and corporate work, offering a full-service studio and equipment",
    "hours": "Mon-Fri 9AM-6PM",
    "services": [
      "Arabic-speaking Motion graphics in North-Carolina consultation",
      "Professional service",
      "Quality guarantee"
    ],
    "social_links": {}
  },
  {
    "name": "Dash Studio",
    "address": "1100 Garner Rd, Raleigh, NC 27610",
    "phone": "(919) 803-0000",
    "rating": 4.9,
    "reviews": 25,
    "website": "https://www.dashstudio.com/",
    "category": "Arabic-speaking Motion graphics in North-Carolina",
    "description": "A high-end animation and motion design studio specializing in animation and video production",
    "hours": "Mon-Fri 9AM-6PM",
    "services": [
      "Arabic-speaking Motion graphics in North-Carolina consultation",
      "Professional service",
      "Quality guarantee"
    ],
    "social_links": {}
  },
  {
    "name": "Eagle Video Productions Inc.",
    "address": "3000 Wake Forest Rd, Raleigh, NC 27604",
    "phone": "(919) 818-5556",
    "rating": 4.8,
    "reviews": 25,
    "website": "https://www.eaglevideoproductions.com/",
    "category": "Arabic-speaking Motion graphics in North-Carolina",
    "description": "Specializes in customized marketing, training, and informational videos, with a broad range of clients including Fortune 500 companies",
    "hours": "Mon-Fri 9AM-6PM",
    "services": [
      "Arabic-speaking Motion graphics in North-Carolina consultation",
      "Professional service",
      "Quality guarantee"
    ],
    "social_links": {}
  },
  {
    "name": "Blueforest Studios",
    "address": "1000 Wake Forest Rd, Raleigh, NC 27604",
    "phone": "(919) 803-0000",
    "rating": 4.7,
    "reviews": 25,
    "website": "https://www.blueforeststudios.com/",
    "category": "Arabic-speaking Motion graphics in North-Carolina",
    "description": "A premier animation studio helping clients tell complex brand stories using creative animated video and motion graphics",
    "hours": "Mon-Fri 9AM-6PM",
    "services": [
      "Arabic-speaking Motion graphics in North-Carolina consultation",
      "Professional service",
      "Quality guarantee"
    ],
    "social_links": {}
  },
  {
    "name": "Wheelhouse Media",
    "address": "1000 S Mint St, Charlotte, NC 28203",
    "phone": "(704) 717-7777",
    "rating": 4.9,
    "reviews": 25,
    "website": "https://wheelhousemedia.com/",
    "category": "Arabic-speaking Motion graphics in North-Carolina",
    "description": "An award-winning video production company in Charlotte creating branded content across all media platforms, including motion design and animation",
    "hours": "Mon-Fri 9AM-6PM",
    "services": [
      "Arabic-speaking Motion graphics in North-Carolina consultation",
      "Professional service",
      "Quality guarantee"
    ],
    "social_links": {}
  },
  {
    "name": "Animink",
    "address": "1000 S Mint St, Charlotte, NC 28203",
    "phone": "(704) 717-7777",
    "rating": 4.8,
    "reviews": 25,
    "website": "https://animink.com/",
    "category": "Arabic-speaking Motion graphics in North-Carolina",
    "description": "A leading animation studio in North Carolina with nearly 20 years of experience, creating animation for websites, videos, and commercials",
    "hours": "Mon-Fri 9AM-6PM",
    "services": [
      "Arabic-speaking Motion graphics in North-Carolina consultation",
      "Professional service",
      "Quality guarantee"
    ],
    "social_links": {}
  },
  {
    "name": "Pixeldust Studios",
    "address": "1000 S Mint St, Charlotte, NC 28203",
    "phone": "(704) 717-7777",
    "rating": 4.9,
    "reviews": 25,
    "website": "https://pixelduststudios.com/",
    "category": "Arabic-speaking Motion graphics in North-Carolina",
    "description": "A leading animation and TV production company creating visually striking, engaging, and impactful videos and animations for a diverse range of clients",
    "hours": "Mon-Fri 9AM-6PM",
    "services": [
      "Arabic-speaking Motion graphics in North-Carolina consultation",
      "Professional service",
      "Quality guarantee"
    ],
    "social_links": {}
  },
  {
    "name": "Carousel",
    "address": "1000 Broadway St, Asheville, NC 28801",
    "phone": "(828) 552-0000",
    "rating": 4.7,
    "reviews": 25,
    "website": "https://carousel.design/",
    "category": "Arabic-speaking Motion graphics in North-Carolina",
    "description": "A motion design studio specializing in 3D, design, and animation, focused on putting stories, ideas, and brands in motion",
    "hours": "Mon-Fri 9AM-6PM",
    "services": [
      "Arabic-speaking Motion graphics in North-Carolina consultation",
      "Professional service",
      "Quality guarantee"
    ],
    "social_links": {}
  }
]