[
  {
    "name": "Blodgett Supply",
    "address": "100 Ave D, Williston, VT 05495",
    "phone": "(802) 863-3000",
    "rating": 4.0,
    "reviews": 25,
    "website": "https://www.blodgettsupply.com/",
    "category": "Arabic-speaking Plumbing fixtures in Vermont",
    "description": "Offers an extensive range of plumbing supplies and tools for professionals and homeowners. They have multiple locations in Vermont",
    "hours": "Mon-Fri 9AM-6PM",
    "services": [
      "Arabic-speaking Plumbing fixtures in Vermont consultation",
      "Professional service",
      "Quality guarantee"
    ],
    "social_links": {}
  },
  {
    "name": "Johnson Hardware",
    "address": "1444 US-2, Montpelier, VT 05602",
    "phone": "(802) 223-5271",
    "rating": 4.0,
    "reviews": 25,
    "website": "https://www.johnsonhardware.com/",
    "category": "Arabic-speaking Plumbing fixtures in Vermont",
    "description": "A comprehensive supplier of plumbing, heating, and hardware needs, serving municipalities, contractors, and homeowners with a vast inventory",
    "hours": "Mon-Fri 9AM-6PM",
    "services": [
      "Arabic-speaking Plumbing fixtures in Vermont consultation",
      "Professional service",
      "Quality guarantee"
    ],
    "social_links": {}
  },
  {
    "name": "Appalachian Supply Inc.",
    "address": "1477 US-5, St Johnsbury, VT 05819",
    "phone": "(802) 748-8111",
    "rating": 4.0,
    "reviews": 25,
    "website": "https://www.appalachiansupply.com/",
    "category": "Arabic-speaking Plumbing fixtures in Vermont",
    "description": "A family-owned plumbing, heating, and electrical supply warehouse and hardware store catering to wholesale and retail customers",
    "hours": "Mon-Fri 9AM-6PM",
    "services": [
      "Arabic-speaking Plumbing fixtures in Vermont consultation",
      "Professional service",
      "Quality guarantee"
    ],
    "social_links": {}
  },
  {
    "name": "Ferguson Waterworks",
    "address": "156 North Main Street, Rutland, VT 05701",
    "phone": "(802) 775-5500",
    "rating": 4.0,
    "reviews": 25,
    "website": "https://www.ferguson.com/locations/waterworks/rutland-vt",
    "category": "Arabic-speaking Plumbing fixtures in Vermont",
    "description": "A leading supplier for waterworks, stormwater, and water/wastewater management needs, offering a wide inventory of pipe, valves, and fittings",
    "hours": "Mon-Fri 9AM-6PM",
    "services": [
      "Arabic-speaking Plumbing fixtures in Vermont consultation",
      "Professional service",
      "Quality guarantee"
    ],
    "social_links": {}
  },
  {
    "name": "Frank Webb Home",
    "address": "100 Ave D, Williston, VT 05495",
    "phone": "(802) 862-6000",
    "rating": 4.0,
    "reviews": 25,
    "website": "https://www.frankwebb.com/locations/williston-vt",
    "category": "Arabic-speaking Plumbing fixtures in Vermont",
    "description": "A showroom featuring bath and kitchen plumbing fixtures and accessories, as well as lighting",
    "hours": "Mon-Fri 9AM-6PM",
    "services": [
      "Arabic-speaking Plumbing fixtures in Vermont consultation",
      "Professional service",
      "Quality guarantee"
    ],
    "social_links": {}
  },
  {
    "name": "Gilmore Home Center",
    "address": "427 Route 4A West, Bomoseen, VT 05732",
    "phone": "(802) 468-5676",
    "rating": 4.0,
    "reviews": 25,
    "website": "https://gilmorehomecenter.com/",
    "category": "Arabic-speaking Plumbing fixtures in Vermont",
    "description": "Offers a wide variety of plumbing solutions and products, including faucets from various brands",
    "hours": "Mon-Fri 9AM-6PM",
    "services": [
      "Arabic-speaking Plumbing fixtures in Vermont consultation",
      "Professional service",
      "Quality guarantee"
    ],
    "social_links": {}
  },
  {
    "name": "Bradford Kitchen and Bath",
    "address": "18 Creek Rd, Middlebury, VT 05753",
    "phone": "(802) 458-8999",
    "rating": 4.0,
    "reviews": 25,
    "website": "https://www.bradfordkitchenandbath.com/",
    "category": "Arabic-speaking Plumbing fixtures in Vermont",
    "description": "Provides sinks, faucets, tubs, showers, toilets, and other plumbing fixtures from leading brands",
    "hours": "Mon-Fri 9AM-6PM",
    "services": [
      "Arabic-speaking Plumbing fixtures in Vermont consultation",
      "Professional service",
      "Quality guarantee"
    ],
    "social_links": {}
  },
  {
    "name": "Red Rock Mechanical, LLC",
    "address": "150 South Winooski Ave, Burlington, VT 05401",
    "phone": "(802) 655-1100",
    "rating": 4.0,
    "reviews": 25,
    "website": "https://www.redrockmechanical.com/",
    "category": "Arabic-speaking Plumbing fixtures in Vermont",
    "description": "A family-owned plumbing contractor serving Northwest Vermont and Northeast New York, offering a personal touch and expert service",
    "hours": "Mon-Fri 9AM-6PM",
    "services": [
      "Arabic-speaking Plumbing fixtures in Vermont consultation",
      "Professional service",
      "Quality guarantee"
    ],
    "social_links": {}
  },
  {
    "name": "Laplante's Plumbing & Heating",
    "address": "1044 W Lakeshore Dr, Colchester, VT 05446",
    "phone": "(802) 655-0000",
    "rating": 4.0,
    "reviews": 25,
    "website": "https://laplantesplumbing.com/",
    "category": "Arabic-speaking Plumbing fixtures in Vermont",
    "description": "Plumbing, heating, and cooling experts providing installation, service, and repair for residential and commercial clients",
    "hours": "Mon-Fri 9AM-6PM",
    "services": [
      "Arabic-speaking Plumbing fixtures in Vermont consultation",
      "Professional service",
      "Quality guarantee"
    ],
    "social_links": {}
  },
  {
    "name": "Platinum Plumbing LLC",
    "address": "150 South Winooski Ave, Burlington, VT 05401",
    "phone": "(802) 655-1100",
    "rating": 4.0,
    "reviews": 25,
    "website": "https://www.platinumplumbingvt.com/",
    "category": "Arabic-speaking Plumbing fixtures in Vermont",
    "description": "Family-owned and operated, specializing in residential plumbing, heating, and air conditioning systems",
    "hours": "Mon-Fri 9AM-6PM",
    "services": [
      "Arabic-speaking Plumbing fixtures in Vermont consultation",
      "Professional service",
      "Quality guarantee"
    ],
    "social_links": {}
  }
]