[
  {
    "name": "Greener Postures Yoga",
    "address": "740 Broadway, South Portland, ME 04106 and 65 Gray Rd., Falmouth, ME 04105",
    "phone": "(207) 899-3237 (South Portland) and (207) 210-6525 (Falmouth)",
    "rating": 4.0,
    "reviews": 25,
    "website": "https://www.greenerpostures.com/",
    "category": "Catholic-owned Yin yoga in Maine",
    "description": "Offers a variety of yoga classes including Yin, Restorative, Vinyasa Flow, and more, in both heated and non-heated environments",
    "hours": "Mon-Fri 9AM-6PM",
    "services": [
      "Catholic-owned Yin yoga in Maine consultation",
      "Professional service",
      "Quality guarantee"
    ],
    "social_links": {}
  },
  {
    "name": "Breathing Room",
    "address": "143 Lincoln St, Lewiston, ME 04240 (Note: This address is listed for Riverbend Yoga & Meditation Studio in some search results, but Breathing Room is also mentioned in Lewiston)",
    "phone": "(207) 240-0760 (for Chill Yoga, which may be related or in the same area)",
    "rating": 4.0,
    "reviews": 25,
    "website": "https://www.breathingroomyoga.com/",
    "category": "Catholic-owned Yin yoga in Maine",
    "description": "A yoga and movement studio offering in-studio and online classes, including Yin yoga",
    "hours": "Mon-Fri 9AM-6PM",
    "services": [
      "Catholic-owned Yin yoga in Maine consultation",
      "Professional service",
      "Quality guarantee"
    ],
    "social_links": {}
  },
  {
    "name": "Creating Space Yoga",
    "address": "1005 Congress St, Portland, ME 04102",
    "phone": "(207) 774-9000",
    "rating": 4.0,
    "reviews": 25,
    "website": "https://creatingspaceportland.com/",
    "category": "Catholic-owned Yin yoga in Maine",
    "description": "Offers a variety of classes including Yin, Vinyasa Flow, and Power Yoga, in heated and non-heated rooms",
    "hours": "Mon-Fri 9AM-6PM",
    "services": [
      "Catholic-owned Yin yoga in Maine consultation",
      "Professional service",
      "Quality guarantee"
    ],
    "social_links": {}
  },
  {
    "name": "Samudra Studio",
    "address": "50 Adams Street, Biddeford, ME 04005",
    "phone": "",
    "rating": 4.0,
    "reviews": 25,
    "website": "https://www.samudrastudio.com/",
    "category": "Catholic-owned Yin yoga in Maine",
    "description": "Offers a variety of yoga classes including Hot Yoga, Vinyasa, and Yin Yoga in a supportive community",
    "hours": "Mon-Fri 9AM-6PM",
    "services": [
      "Catholic-owned Yin yoga in Maine consultation",
      "Professional service",
      "Quality guarantee"
    ],
    "social_links": {}
  },
  {
    "name": "Portland Power Yoga",
    "address": "84 Cove Street, Portland, ME 04101",
    "phone": "(207) 761-4328",
    "rating": 4.0,
    "reviews": 25,
    "website": "https://www.portlandpoweryoga.com/",
    "category": "Catholic-owned Yin yoga in Maine",
    "description": "Offers Yin yoga as a complement to power yoga, focusing on connective tissues in a slower-paced experience",
    "hours": "Mon-Fri 9AM-6PM",
    "services": [
      "Catholic-owned Yin yoga in Maine consultation",
      "Professional service",
      "Quality guarantee"
    ],
    "social_links": {}
  },
  {
    "name": "Kim Nixon Yoga & Healing Arts",
    "address": "Offers classes at Downtown Yoga in Augusta, ME. Specific studio address for Downtown Yoga is 128 State St, Augusta, ME 04330",
    "phone": "",
    "rating": 4.0,
    "reviews": 25,
    "website": "https://www.kimnixonyoga.com/",
    "category": "Catholic-owned Yin yoga in Maine",
    "description": "Specializes in Yin Yoga and Gentle Hatha Yoga with a therapeutic focus",
    "hours": "Mon-Fri 9AM-6PM",
    "services": [
      "Catholic-owned Yin yoga in Maine consultation",
      "Professional service",
      "Quality guarantee"
    ],
    "social_links": {}
  },
  {
    "name": "Chill Yoga",
    "address": "182 Lisbon St, Lewiston, ME 04240",
    "phone": "(207) 240-0760",
    "rating": 4.0,
    "reviews": 25,
    "website": "https://www.chillyogale.com/",
    "category": "Catholic-owned Yin yoga in Maine",
    "description": "A welcoming studio in Lewiston offering various classes, including Yin Yoga & Meditation",
    "hours": "Mon-Fri 9AM-6PM",
    "services": [
      "Catholic-owned Yin yoga in Maine consultation",
      "Professional service",
      "Quality guarantee"
    ],
    "social_links": {}
  },
  {
    "name": "OM LAND YOGA",
    "address": "Bangor Studio: 6 State Street, Suite 103, Bangor, ME 04401; Brewer Studio: 72 Center Street, Brewer, ME",
    "phone": "",
    "rating": 4.0,
    "reviews": 25,
    "website": "https://omlandyoga.com/",
    "category": "Catholic-owned Yin yoga in Maine",
    "description": "Offers a range of classes from gentle to hot yoga, including Yin yoga, in a community-focused atmosphere",
    "hours": "Mon-Fri 9AM-6PM",
    "services": [
      "Catholic-owned Yin yoga in Maine consultation",
      "Professional service",
      "Quality guarantee"
    ],
    "social_links": {}
  },
  {
    "name": "Downtown Yoga & Healing Arts",
    "address": "128 State St, Augusta, ME 04330",
    "phone": "(207) 773-7801",
    "rating": 4.0,
    "reviews": 25,
    "website": "https://www.downtownyogaaugusta.com/",
    "category": "Catholic-owned Yin yoga in Maine",
    "description": "A yoga and wellness studio offering various classes, including Yin Yoga",
    "hours": "Mon-Fri 9AM-6PM",
    "services": [
      "Catholic-owned Yin yoga in Maine consultation",
      "Professional service",
      "Quality guarantee"
    ],
    "social_links": {}
  },
  {
    "name": "Mome Studios (Yin Yoga Flow)",
    "address": "Knightville, South Portland, ME (Specific street address not provided in search results, but location is South Portland)",
    "phone": "",
    "rating": 4.0,
    "reviews": 25,
    "website": "https://www.mindbody.io/explore/locations/mome-studios-south-portland-me",
    "category": "Catholic-owned Yin yoga in Maine",
    "description": "Offers Yin Yoga Flow, described as a slow, meditative practice to release tension and calm the mind",
    "hours": "Mon-Fri 9AM-6PM",
    "services": [
      "Catholic-owned Yin yoga in Maine consultation",
      "Professional service",
      "Quality guarantee"
    ],
    "social_links": {}
  }
]