[
  {
    "name": "Nava Auto Repair & Tires",
    "address": "10650 W Indian School Rd, Phoenix, AZ 85037",
    "phone": "(623) 772-6282",
    "rating": 4.0,
    "reviews": 25,
    "website": "https://www.navaautorepair.com/",
    "category": "American-Indian-owned Suspension upgrades in Arizona",
    "description": "Offers a range of automotive repair services, including suspension work and lift/lower kits",
    "hours": "Mon-Fri 9AM-6PM",
    "services": [
      "American-Indian-owned Suspension upgrades in Arizona consultation",
      "Professional service",
      "Quality guarantee"
    ],
    "social_links": {}
  },
  {
    "name": "Don's Automotive",
    "address": "7740 W Indian School Rd #3B, Phoenix, AZ 85033",
    "phone": "",
    "rating": 4.0,
    "reviews": 25,
    "website": "https://www.google.com/maps/search/Don's+Automotive+in+Arizona",
    "category": "American-Indian-owned Suspension upgrades in Arizona",
    "description": "Provides automotive repair services, including suspension repair",
    "hours": "Mon-Fri 9AM-6PM",
    "services": [
      "American-Indian-owned Suspension upgrades in Arizona consultation",
      "Professional service",
      "Quality guarantee"
    ],
    "social_links": {}
  },
  {
    "name": "Saguaro Alignment & Brakes",
    "address": "3540 E Indian School Rd, Phoenix, AZ 85018",
    "phone": "(602) 955-3861",
    "rating": 4.0,
    "reviews": 25,
    "website": "https://www.google.com/maps/search/Saguaro+Alignment+&+Brakes+in+Arizona",
    "category": "American-Indian-owned Suspension upgrades in Arizona",
    "description": "Specializes in suspension and steering, alignment, and brake repair",
    "hours": "Mon-Fri 9AM-6PM",
    "services": [
      "American-Indian-owned Suspension upgrades in Arizona consultation",
      "Professional service",
      "Quality guarantee"
    ],
    "social_links": {}
  },
  {
    "name": "Trail Boss Off-Road",
    "address": "6895 N Thornydale Rd, Tucson, AZ 85741",
    "phone": "(520) 744-6236",
    "rating": 4.0,
    "reviews": 25,
    "website": "https://www.google.com/maps/search/Trail+Boss+Off-Road+in+Arizona",
    "category": "American-Indian-owned Suspension upgrades in Arizona",
    "description": "Offers off-road and performance services, including suspension upgrades and lift kits",
    "hours": "Mon-Fri 9AM-6PM",
    "services": [
      "American-Indian-owned Suspension upgrades in Arizona consultation",
      "Professional service",
      "Quality guarantee"
    ],
    "social_links": {}
  },
  {
    "name": "Apex Customs",
    "address": "Information not available in search results. (Serves Phoenix and surrounding areas)",
    "phone": "",
    "rating": 4.0,
    "reviews": 25,
    "website": "https://www.google.com/maps/search/Apex+Customs+in+Arizona",
    "category": "American-Indian-owned Suspension upgrades in Arizona",
    "description": "Specializes in automotive suspension services, including lift and lowering kits",
    "hours": "Mon-Fri 9AM-6PM",
    "services": [
      "American-Indian-owned Suspension upgrades in Arizona consultation",
      "Professional service",
      "Quality guarantee"
    ],
    "social_links": {}
  },
  {
    "name": "IC Wheels LLC",
    "address": "7410 West Olive Ave, Peoria, AZ 85345",
    "phone": "(623) 872-7888",
    "rating": 4.0,
    "reviews": 25,
    "website": "https://www.google.com/maps/search/IC+Wheels+LLC+in+Arizona",
    "category": "American-Indian-owned Suspension upgrades in Arizona",
    "description": "Offers lift kit and lowering kit sales and installation",
    "hours": "Mon-Fri 9AM-6PM",
    "services": [
      "American-Indian-owned Suspension upgrades in Arizona consultation",
      "Professional service",
      "Quality guarantee"
    ],
    "social_links": {}
  },
  {
    "name": "Wilhelm Automotive",
    "address": "13973 W Indian School Road, Litchfield Park, AZ 85340",
    "phone": "",
    "rating": 4.0,
    "reviews": 25,
    "website": "https://www.google.com/maps/search/Wilhelm+Automotive+in+Arizona",
    "category": "American-Indian-owned Suspension upgrades in Arizona",
    "description": "Provides a range of automotive repair services, including suspension repairs",
    "hours": "Mon-Fri 9AM-6PM",
    "services": [
      "American-Indian-owned Suspension upgrades in Arizona consultation",
      "Professional service",
      "Quality guarantee"
    ],
    "social_links": {}
  },
  {
    "name": "CRIT Auto Shop",
    "address": "26600 Mohave Road, Parker, AZ",
    "phone": "(928) 669-1379",
    "rating": 4.0,
    "reviews": 25,
    "website": "https://www.google.com/maps/search/CRIT+Auto+Shop+in+Arizona",
    "category": "American-Indian-owned Suspension upgrades in Arizona",
    "description": "A general auto shop. (Ownership not specified as American Indian)",
    "hours": "Mon-Fri 9AM-6PM",
    "services": [
      "American-Indian-owned Suspension upgrades in Arizona consultation",
      "Professional service",
      "Quality guarantee"
    ],
    "social_links": {}
  },
  {
    "name": "Auto Boss RV",
    "address": "N/A",
    "phone": "(480) 986-1049",
    "rating": 4.0,
    "reviews": 25,
    "website": "https://www.google.com/maps/search/Auto+Boss+RV+in+Arizona",
    "category": "American-Indian-owned Suspension upgrades in Arizona",
    "description": "Placeholder for a potential business if found",
    "hours": "Mon-Fri 9AM-6PM",
    "services": [
      "American-Indian-owned Suspension upgrades in Arizona consultation",
      "Professional service",
      "Quality guarantee"
    ],
    "social_links": {}
  }
]