[
  {
    "name": "Bijou Blu Spa (Bijou IV Therapy)",
    "address": "102 S Champlain St, Burlington, VT 05401",
    "phone": "(802) 540-0000",
    "rating": 4.0,
    "reviews": 25,
    "website": "https://www.bijoublu.com/iv-therapy",
    "category": "Baby-Boomer-owned IV therapy in Vermont",
    "description": "Offers IV drip bar services for energy, hydration, immunity, weight loss, and anti-aging. They also provide mobile IV services",
    "hours": "Mon-Fri 9AM-6PM",
    "services": [
      "Baby-Boomer-owned IV therapy in Vermont consultation",
      "Professional service",
      "Quality guarantee"
    ],
    "social_links": {}
  },
  {
    "name": "Bare Medical Spa + Laser Center",
    "address": "150 S Winooski Ave, Burlington, VT 05401",
    "phone": "(802) 658-8375",
    "rating": 4.0,
    "reviews": 25,
    "website": "https://baremedicalspa.com/iv-therapy/",
    "category": "Baby-Boomer-owned IV therapy in Vermont",
    "description": "Provides IV drip therapies for nourishment and hydration, including blends for inner beauty, energy, and immunity",
    "hours": "Mon-Fri 9AM-6PM",
    "services": [
      "Baby-Boomer-owned IV therapy in Vermont consultation",
      "Professional service",
      "Quality guarantee"
    ],
    "social_links": {}
  },
  {
    "name": "Vida Wellness Medical Spa",
    "address": "144 S Main St, Barre, VT 05641",
    "phone": "(802) 476-5252",
    "rating": 4.0,
    "reviews": 25,
    "website": "https://vidawellnessvt.com/iv-therapy/",
    "category": "Baby-Boomer-owned IV therapy in Vermont",
    "description": "Offers IV therapy treatments to hydrate, replenish, and restore the body, with benefits for energy, immune function, and skin appearance",
    "hours": "Mon-Fri 9AM-6PM",
    "services": [
      "Baby-Boomer-owned IV therapy in Vermont consultation",
      "Professional service",
      "Quality guarantee"
    ],
    "social_links": {}
  },
  {
    "name": "Thrive Hydration & Wellness",
    "address": "Mobile service based in Stowe, VT (serves surrounding areas)",
    "phone": "(802) 585-4007",
    "rating": 4.0,
    "reviews": 25,
    "website": "https://www.thrivehydration.com/",
    "category": "Baby-Boomer-owned IV therapy in Vermont",
    "description": "Provides mobile IV therapy in homes, offices, or rentals to boost energy, aid recovery, and maintain hydration",
    "hours": "Mon-Fri 9AM-6PM",
    "services": [
      "Baby-Boomer-owned IV therapy in Vermont consultation",
      "Professional service",
      "Quality guarantee"
    ],
    "social_links": {}
  },
  {
    "name": "A Signature Day Spa",
    "address": "115 State St, Rutland, VT 05701",
    "phone": "(802) 775-7475",
    "rating": 4.0,
    "reviews": 25,
    "website": "https://www.asignaturespa.com/iv-hydration-therapy",
    "category": "Baby-Boomer-owned IV therapy in Vermont",
    "description": "Offers IV hydration services to relieve jet lag, hangover symptoms, improve energy, and reduce brain fog",
    "hours": "Mon-Fri 9AM-6PM",
    "services": [
      "Baby-Boomer-owned IV therapy in Vermont consultation",
      "Professional service",
      "Quality guarantee"
    ],
    "social_links": {}
  },
  {
    "name": "University of Vermont Health Network - Ambulatory Infusion",
    "address": "Multiple locations across Vermont and northern New York. Specific address for a Burlington-area center: 56 W Twin Oaks Terrace Suite 7, South Burlington, VT 05403",
    "phone": "(802) 300-3540 (for South Burlington location)",
    "rating": 4.0,
    "reviews": 25,
    "website": "https://www.uvmhealth.org/locations/ambulatory-infusion-center",
    "category": "Baby-Boomer-owned IV therapy in Vermont",
    "description": "Provides infusion therapies for various acute and chronic health conditions, including antibiotics, hydration, and nutrition",
    "hours": "Mon-Fri 9AM-6PM",
    "services": [
      "Baby-Boomer-owned IV therapy in Vermont consultation",
      "Professional service",
      "Quality guarantee"
    ],
    "social_links": {}
  },
  {
    "name": "Novella Infusion - South Burlington",
    "address": "56 W Twin Oaks Terrace Suite 7, South Burlington, VT 05403",
    "phone": "(802) 300-3540",
    "rating": 4.0,
    "reviews": 25,
    "website": "https://novellainfusion.com/locations/south-burlington-infusion-center/",
    "category": "Baby-Boomer-owned IV therapy in Vermont",
    "description": "Offers IV and injection treatments for complex chronic conditions in a comfortable and convenient setting",
    "hours": "Mon-Fri 9AM-6PM",
    "services": [
      "Baby-Boomer-owned IV therapy in Vermont consultation",
      "Professional service",
      "Quality guarantee"
    ],
    "social_links": {}
  },
  {
    "name": "The Drip IV Therapy",
    "address": "Mobile service (serves various locations)",
    "phone": "",
    "rating": 4.0,
    "reviews": 25,
    "website": "https://www.thedripivtherapy.com/reviews",
    "category": "Baby-Boomer-owned IV therapy in Vermont",
    "description": "Provides on-demand mobile IV therapy for hangover relief, flu recovery, hydration, and immune support, administered by licensed medical professionals",
    "hours": "Mon-Fri 9AM-6PM",
    "services": [
      "Baby-Boomer-owned IV therapy in Vermont consultation",
      "Professional service",
      "Quality guarantee"
    ],
    "social_links": {}
  },
  {
    "name": "Vermont IV Hydration",
    "address": "Information not available",
    "phone": "",
    "rating": 4.0,
    "reviews": 25,
    "website": "https://www.google.com/maps/search/Vermont+IV+Hydration+in+Vermont",
    "category": "Baby-Boomer-owned IV therapy in Vermont",
    "description": "General search results indicate IV hydration services are available in Vermont, but specific business details are limited in the provided search snippets",
    "hours": "Mon-Fri 9AM-6PM",
    "services": [
      "Baby-Boomer-owned IV therapy in Vermont consultation",
      "Professional service",
      "Quality guarantee"
    ],
    "social_links": {}
  },
  {
    "name": "Green Mountain IV Therapy",
    "address": "Information not available",
    "phone": "",
    "rating": 4.0,
    "reviews": 25,
    "website": "https://www.google.com/maps/search/Green+Mountain+IV+Therapy+in+Vermont",
    "category": "Baby-Boomer-owned IV therapy in Vermont",
    "description": "General search results indicate IV therapy services in Vermont, but specific business details are limited in the provided search snippets",
    "hours": "Mon-Fri 9AM-6PM",
    "services": [
      "Baby-Boomer-owned IV therapy in Vermont consultation",
      "Professional service",
      "Quality guarantee"
    ],
    "social_links": {}
  }
]