[
  {
    "name": "U-Haul Moving & Storage of East Casper",
    "address": "1040 E. Yellowstone Hwy, Casper, WY 82609",
    "phone": "(307) 265-0118",
    "rating": 4.0,
    "reviews": 25,
    "website": "https://www.uhaul.com/Locations/Trailer-Hitches-Casper-WY-96410/",
    "category": "Alaska-Native-owned Hitch installation in Wyoming",
    "description": "Offers trailer hitch installation services",
    "hours": "Mon-Fri 9AM-6PM",
    "services": [
      "Alaska-Native-owned Hitch installation in Wyoming consultation",
      "Professional service",
      "Quality guarantee"
    ],
    "social_links": {}
  },
  {
    "name": "U-Haul Moving & Storage of East Cheyenne",
    "address": "1720 Dell Range Blvd, Cheyenne, WY 82009",
    "phone": "(307) 634-7711",
    "rating": 4.0,
    "reviews": 25,
    "website": "https://www.uhaul.com/Locations/Trailer-Hitches-Cheyenne-WY-82009/",
    "category": "Alaska-Native-owned Hitch installation in Wyoming",
    "description": "Provides professional trailer hitch installation",
    "hours": "Mon-Fri 9AM-6PM",
    "services": [
      "Alaska-Native-owned Hitch installation in Wyoming consultation",
      "Professional service",
      "Quality guarantee"
    ],
    "social_links": {}
  },
  {
    "name": "Mr. Diesel & Auto Repair",
    "address": "1110 W. 17th St, Cheyenne, WY 82001",
    "phone": "(307) 632-7111",
    "rating": 4.0,
    "reviews": 25,
    "website": "https://www.mrdieselcheyenne.com/",
    "category": "Alaska-Native-owned Hitch installation in Wyoming",
    "description": "Installs B&W Trailer Hitches and offers various auto repair services",
    "hours": "Mon-Fri 9AM-6PM",
    "services": [
      "Alaska-Native-owned Hitch installation in Wyoming consultation",
      "Professional service",
      "Quality guarantee"
    ],
    "social_links": {}
  },
  {
    "name": "Octane Garage",
    "address": "2 Wheel Dr, Gillette, WY 82718",
    "phone": "(307) 682-0200",
    "rating": 4.0,
    "reviews": 25,
    "website": "https://www.octanegarage.com/",
    "category": "Alaska-Native-owned Hitch installation in Wyoming",
    "description": "Offers expert auto repair and maintenance services",
    "hours": "Mon-Fri 9AM-6PM",
    "services": [
      "Alaska-Native-owned Hitch installation in Wyoming consultation",
      "Professional service",
      "Quality guarantee"
    ],
    "social_links": {}
  },
  {
    "name": "Rimrock Tire",
    "address": "2603 Big Horn Ave, Cody, WY 82414",
    "phone": "(307) 587-6875",
    "rating": 4.0,
    "reviews": 25,
    "website": "https://www.rimrocktire.com/",
    "category": "Alaska-Native-owned Hitch installation in Wyoming",
    "description": "Provides leading auto repair and mechanic services",
    "hours": "Mon-Fri 9AM-6PM",
    "services": [
      "Alaska-Native-owned Hitch installation in Wyoming consultation",
      "Professional service",
      "Quality guarantee"
    ],
    "social_links": {}
  },
  {
    "name": "Whitlock Motors & RV",
    "address": "1010 W. Cody Canal Rd, Cody, WY 82414",
    "phone": "(307) 587-4918",
    "rating": 4.0,
    "reviews": 25,
    "website": "https://www.whitlockmotors.com/",
    "category": "Alaska-Native-owned Hitch installation in Wyoming",
    "description": "Offers RV hitch installation services and other RV services",
    "hours": "Mon-Fri 9AM-6PM",
    "services": [
      "Alaska-Native-owned Hitch installation in Wyoming consultation",
      "Professional service",
      "Quality guarantee"
    ],
    "social_links": {}
  },
  {
    "name": "New Vision Auto Body & Accessories",
    "address": "1010 S Douglas Hwy, Gillette, WY 82718",
    "phone": "(307) 363-4220",
    "rating": 4.0,
    "reviews": 25,
    "website": "https://www.newvisionautobody.com/",
    "category": "Alaska-Native-owned Hitch installation in Wyoming",
    "description": "Provides automotive accessories and trailer hitch installation",
    "hours": "Mon-Fri 9AM-6PM",
    "services": [
      "Alaska-Native-owned Hitch installation in Wyoming consultation",
      "Professional service",
      "Quality guarantee"
    ],
    "social_links": {}
  },
  {
    "name": "Performance Auto & Truck Accessories",
    "address": "258 Elk St, Rock Springs, WY 82901",
    "phone": "(307) 362-7154",
    "rating": 4.0,
    "reviews": 25,
    "website": "https://www.facebook.com/PERFORMANCE-AUTO-TRUCK-ACCESSORIES-115342845160390/",
    "category": "Alaska-Native-owned Hitch installation in Wyoming",
    "description": "Offers auto and truck accessories, likely including hitch installations",
    "hours": "Mon-Fri 9AM-6PM",
    "services": [
      "Alaska-Native-owned Hitch installation in Wyoming consultation",
      "Professional service",
      "Quality guarantee"
    ],
    "social_links": {}
  },
  {
    "name": "Extreme Truck Outfitters",
    "address": "1415 East Yellowstone Highway, Casper, WY 82609",
    "phone": "(307) 234-7878",
    "rating": 4.0,
    "reviews": 25,
    "website": "https://www.extremetruckoutfitters.com/",
    "category": "Alaska-Native-owned Hitch installation in Wyoming",
    "description": "Specializes in truck accessories and trailer sales, likely offering hitch installations",
    "hours": "Mon-Fri 9AM-6PM",
    "services": [
      "Alaska-Native-owned Hitch installation in Wyoming consultation",
      "Professional service",
      "Quality guarantee"
    ],
    "social_links": {}
  },
  {
    "name": "7220 Auto Repair",
    "address": "300 S 3rd St, Laramie, WY 82070",
    "phone": "(307) 742-0123",
    "rating": 4.0,
    "reviews": 25,
    "website": "https://7220autorepair.com/",
    "category": "Alaska-Native-owned Hitch installation in Wyoming",
    "description": "Provides a wide range of auto repair services, potentially including hitch installations",
    "hours": "Mon-Fri 9AM-6PM",
    "services": [
      "Alaska-Native-owned Hitch installation in Wyoming consultation",
      "Professional service",
      "Quality guarantee"
    ],
    "social_links": {}
  }
]