[
  {
    "name": "Cloud Solutions",
    "address": "PO Box 215, 141 N Palmetto Ave, Eagle, ID 83616",
    "phone": "+1 (208) 901-8943",
    "rating": 4.0,
    "reviews": 25,
    "website": "https://cloudsolutionsidaho.com/",
    "category": "Chinese-speaking Cloud infrastructure management in Idaho",
    "description": "Offers custom cloud software development, cloud migration & integration, and security & compliance audits",
    "hours": "Mon-Fri 9AM-6PM",
    "services": [
      "Chinese-speaking Cloud infrastructure management in Idaho consultation",
      "Professional service",
      "Quality guarantee"
    ],
    "social_links": {}
  },
  {
    "name": "CMIT Solutions of Idaho Falls",
    "address": "Rexburg, ID 83440 (service area includes Idaho Falls)",
    "phone": "(208) 516-2647",
    "rating": 4.0,
    "reviews": 25,
    "website": "https://www.cmitsolutions.com/idaho-falls/",
    "category": "Chinese-speaking Cloud infrastructure management in Idaho",
    "description": "Provides managed IT services, cybersecurity, productivity applications, and cloud services",
    "hours": "Mon-Fri 9AM-6PM",
    "services": [
      "Chinese-speaking Cloud infrastructure management in Idaho consultation",
      "Professional service",
      "Quality guarantee"
    ],
    "social_links": {}
  },
  {
    "name": "Orion Integration Group",
    "address": "Boise, Idaho",
    "phone": "",
    "rating": 4.0,
    "reviews": 25,
    "website": "https://www.orionig.com/",
    "category": "Chinese-speaking Cloud infrastructure management in Idaho",
    "description": "Offers managed IT services, including 24/7 helpdesk, remote monitoring, and IT consulting",
    "hours": "Mon-Fri 9AM-6PM",
    "services": [
      "Chinese-speaking Cloud infrastructure management in Idaho consultation",
      "Professional service",
      "Quality guarantee"
    ],
    "social_links": {}
  },
  {
    "name": "Treasure Valley IT",
    "address": "Meridian, Idaho",
    "phone": "208.367.1000",
    "rating": 4.0,
    "reviews": 25,
    "website": "https://www.treasurevalleyit.com/",
    "category": "Chinese-speaking Cloud infrastructure management in Idaho",
    "description": "Provides comprehensive IT management, cybersecurity, and cloud solutions",
    "hours": "Mon-Fri 9AM-6PM",
    "services": [
      "Chinese-speaking Cloud infrastructure management in Idaho consultation",
      "Professional service",
      "Quality guarantee"
    ],
    "social_links": {}
  },
  {
    "name": "DataTap Technologies",
    "address": "Boise, Idaho",
    "phone": "",
    "rating": 4.0,
    "reviews": 25,
    "website": "https://datatap.com/",
    "category": "Chinese-speaking Cloud infrastructure management in Idaho",
    "description": "Offers managed IT services, cloud support, and migrations",
    "hours": "Mon-Fri 9AM-6PM",
    "services": [
      "Chinese-speaking Cloud infrastructure management in Idaho consultation",
      "Professional service",
      "Quality guarantee"
    ],
    "social_links": {}
  },
  {
    "name": "XXL IT Services",
    "address": "Meridian, ID",
    "phone": "(208) 328-4500",
    "rating": 4.0,
    "reviews": 25,
    "website": "https://xxlitservices.com/",
    "category": "Chinese-speaking Cloud infrastructure management in Idaho",
    "description": "Provides IT support, cybersecurity, and cloud solutions for businesses in the Treasure Valley",
    "hours": "Mon-Fri 9AM-6PM",
    "services": [
      "Chinese-speaking Cloud infrastructure management in Idaho consultation",
      "Professional service",
      "Quality guarantee"
    ],
    "social_links": {}
  },
  {
    "name": "MOATiT",
    "address": "Idaho (service area includes Idaho, Utah, Wyoming, and Montana)",
    "phone": "",
    "rating": 4.0,
    "reviews": 25,
    "website": "https://moatit.com/",
    "category": "Chinese-speaking Cloud infrastructure management in Idaho",
    "description": "Offers managed IT services, cybersecurity, and compliance security services",
    "hours": "Mon-Fri 9AM-6PM",
    "services": [
      "Chinese-speaking Cloud infrastructure management in Idaho consultation",
      "Professional service",
      "Quality guarantee"
    ],
    "social_links": {}
  },
  {
    "name": "Benconnected",
    "address": "Boise, Meridian, and Nampa, Idaho",
    "phone": "",
    "rating": 4.0,
    "reviews": 25,
    "website": "https://benconnected.com/",
    "category": "Chinese-speaking Cloud infrastructure management in Idaho",
    "description": "Provides remote managed IT support, including cloud, network, and security services",
    "hours": "Mon-Fri 9AM-6PM",
    "services": [
      "Chinese-speaking Cloud infrastructure management in Idaho consultation",
      "Professional service",
      "Quality guarantee"
    ],
    "social_links": {}
  },
  {
    "name": "MicroTech Systems",
    "address": "Boise, Idaho",
    "phone": "",
    "rating": 4.0,
    "reviews": 25,
    "website": "https://www.microtechsystems.com/",
    "category": "Chinese-speaking Cloud infrastructure management in Idaho",
    "description": "Offers cloud computing services, including cloud-based email platforms and managed IT solutions",
    "hours": "Mon-Fri 9AM-6PM",
    "services": [
      "Chinese-speaking Cloud infrastructure management in Idaho consultation",
      "Professional service",
      "Quality guarantee"
    ],
    "social_links": {}
  },
  {
    "name": "Northwest IT Company",
    "address": "Idaho (service area includes Idaho, Montana, Oregon, and Washington)",
    "phone": "",
    "rating": 4.0,
    "reviews": 25,
    "website": "https://nwit.com/",
    "category": "Chinese-speaking Cloud infrastructure management in Idaho",
    "description": "Provides managed IT services, IT consulting, and cloud solutions",
    "hours": "Mon-Fri 9AM-6PM",
    "services": [
      "Chinese-speaking Cloud infrastructure management in Idaho consultation",
      "Professional service",
      "Quality guarantee"
    ],
    "social_links": {}
  }
]