[
  {
    "name": "Border Construction",
    "address": "Fargo, ND",
    "phone": "",
    "rating": 4.0,
    "reviews": 25,
    "website": "https://www.borderconstruction.com/",
    "category": "Bengali-speaking Manual labor for projects in North-Dakota",
    "description": "Full-service construction company offering pre-construction, general contracting, design-build, and construction management services",
    "hours": "Mon-Fri 9AM-6PM",
    "services": [
      "Bengali-speaking Manual labor for projects in North-Dakota consultation",
      "Professional service",
      "Quality guarantee"
    ],
    "social_links": {}
  },
  {
    "name": "TWO MEN AND A TRUCK",
    "address": "3317 Fiechtner Dr, Fargo, ND 58103",
    "phone": "(701) 237-4411",
    "rating": 4.7,
    "reviews": 25,
    "website": "https://twomenandatruck.com/movers/nd/fargo",
    "category": "Bengali-speaking Manual labor for projects in North-Dakota",
    "description": "Offers local and long-distance moving services, including packing, unpacking, and labor-only services. They have an A+ rating from the Better Business Bureau",
    "hours": "Mon-Fri 9AM-6PM",
    "services": [
      "Bengali-speaking Manual labor for projects in North-Dakota consultation",
      "Professional service",
      "Quality guarantee"
    ],
    "social_links": {}
  },
  {
    "name": "Helping Hands Cleaning",
    "address": "Fargo, ND USA 58104",
    "phone": "(701) 429-7993",
    "rating": 4.0,
    "reviews": 25,
    "website": "https://www.helpinghandscleaningfargo.com/",
    "category": "Bengali-speaking Manual labor for projects in North-Dakota",
    "description": "Provides residential cleaning services within a 20-mile radius of Fargo, including housekeeping, deep cleaning, and move-in/move-out cleaning",
    "hours": "Mon-Fri 9AM-6PM",
    "services": [
      "Bengali-speaking Manual labor for projects in North-Dakota consultation",
      "Professional service",
      "Quality guarantee"
    ],
    "social_links": {}
  },
  {
    "name": "Signature Landscapes",
    "address": "Fargo, ND",
    "phone": "",
    "rating": 4.0,
    "reviews": 25,
    "website": "https://www.signaturelandscapes.com/",
    "category": "Bengali-speaking Manual labor for projects in North-Dakota",
    "description": "Offers high-quality landscape design, installation, and maintenance services",
    "hours": "Mon-Fri 9AM-6PM",
    "services": [
      "Bengali-speaking Manual labor for projects in North-Dakota consultation",
      "Professional service",
      "Quality guarantee"
    ],
    "social_links": {}
  },
  {
    "name": "Hanson-Maves Company",
    "address": "Minot, ND",
    "phone": "(701) 852-1055",
    "rating": 4.0,
    "reviews": 25,
    "website": "https://hansonmaves.com/",
    "category": "Bengali-speaking Manual labor for projects in North-Dakota",
    "description": "Provides residential and commercial moving services, including local, long-distance, and international moves",
    "hours": "Mon-Fri 9AM-6PM",
    "services": [
      "Bengali-speaking Manual labor for projects in North-Dakota consultation",
      "Professional service",
      "Quality guarantee"
    ],
    "social_links": {}
  },
  {
    "name": "Dandee Services, Inc.",
    "address": "Bismarck, ND",
    "phone": "(701) 226-4884",
    "rating": 4.0,
    "reviews": 25,
    "website": "https://www.dandeeservices.com/",
    "category": "Bengali-speaking Manual labor for projects in North-Dakota",
    "description": "Offers handyman and home repair services for residential and commercial properties",
    "hours": "Mon-Fri 9AM-6PM",
    "services": [
      "Bengali-speaking Manual labor for projects in North-Dakota consultation",
      "Professional service",
      "Quality guarantee"
    ],
    "social_links": {}
  },
  {
    "name": "Clean Freak Maid Services",
    "address": "Fargo\u2013Moorhead area",
    "phone": "",
    "rating": 4.0,
    "reviews": 25,
    "website": "https://www.cleanfreakmaidservices.com/",
    "category": "Bengali-speaking Manual labor for projects in North-Dakota",
    "description": "Provides residential cleaning services with a 24-hour satisfaction guarantee",
    "hours": "Mon-Fri 9AM-6PM",
    "services": [
      "Bengali-speaking Manual labor for projects in North-Dakota consultation",
      "Professional service",
      "Quality guarantee"
    ],
    "social_links": {}
  },
  {
    "name": "5 Star Moving",
    "address": "Fargo, ND",
    "phone": "(701) 356-6683",
    "rating": 4.0,
    "reviews": 25,
    "website": "https://5starmovingfargo.com/",
    "category": "Bengali-speaking Manual labor for projects in North-Dakota",
    "description": "Locally owned moving company offering residential and commercial moving, as well as packing services",
    "hours": "Mon-Fri 9AM-6PM",
    "services": [
      "Bengali-speaking Manual labor for projects in North-Dakota consultation",
      "Professional service",
      "Quality guarantee"
    ],
    "social_links": {}
  },
  {
    "name": "Handyman Kota",
    "address": "Bismarck, ND",
    "phone": "",
    "rating": 4.0,
    "reviews": 25,
    "website": "https://www.handymankota.com/",
    "category": "Bengali-speaking Manual labor for projects in North-Dakota",
    "description": "Provides commercial handyman and maintenance services, as well as home improvement and remodeling services",
    "hours": "Mon-Fri 9AM-6PM",
    "services": [
      "Bengali-speaking Manual labor for projects in North-Dakota consultation",
      "Professional service",
      "Quality guarantee"
    ],
    "social_links": {}
  },
  {
    "name": "Weisz & Sons",
    "address": "Bismarck, ND",
    "phone": "(701) 258-9770",
    "rating": 4.0,
    "reviews": 25,
    "website": "https://www.weiszandsons.net/",
    "category": "Bengali-speaking Manual labor for projects in North-Dakota",
    "description": "General contractor with extensive experience in industrial, commercial, and residential projects",
    "hours": "Mon-Fri 9AM-6PM",
    "services": [
      "Bengali-speaking Manual labor for projects in North-Dakota consultation",
      "Professional service",
      "Quality guarantee"
    ],
    "social_links": {}
  }
]