[
  {
    "name": "The Open Gym Albuquerque",
    "address": "3401 San Mateo Blvd NE, Albuquerque, NM 87110",
    "phone": "(505) 875-0000",
    "rating": 4.0,
    "reviews": 25,
    "website": "http://www.theopengymabq.com/",
    "category": "African-American-owned 24-hour fitness centers in New-Mexico",
    "description": "A 24-hour gym in Albuquerque focused on affordable, convenient, and cost-effective fitness with free classes and personal trainers",
    "hours": "Mon-Fri 9AM-6PM",
    "services": [
      "African-American-owned 24-hour fitness centers in New-Mexico consultation",
      "Professional service",
      "Quality guarantee"
    ],
    "social_links": {}
  },
  {
    "name": "United Fit",
    "address": "3305 Vassar Dr NE, Albuquerque, NM 87107",
    "phone": "(505) 553-1838",
    "rating": 4.0,
    "reviews": 25,
    "website": "http://www.unitedfitnm.com/",
    "category": "African-American-owned 24-hour fitness centers in New-Mexico",
    "description": "A local Albuquerque gym offering high-quality fitness and wellness opportunities, with 24/7 access for members",
    "hours": "Mon-Fri 9AM-6PM",
    "services": [
      "African-American-owned 24-hour fitness centers in New-Mexico consultation",
      "Professional service",
      "Quality guarantee"
    ],
    "social_links": {}
  },
  {
    "name": "Anytime Fitness Hobbs",
    "address": "1900 N Grimes St, Hobbs, NM 88240",
    "phone": "(575) 393-1111",
    "rating": 4.0,
    "reviews": 25,
    "website": "https://www.anytimefitness.com/gyms/3215/hobbs-nm-1900-n-grimes-st-88240/",
    "category": "African-American-owned 24-hour fitness centers in New-Mexico",
    "description": "A locally owned and operated 24/7 access gym offering a supportive community and expert coaches",
    "hours": "Mon-Fri 9AM-6PM",
    "services": [
      "African-American-owned 24-hour fitness centers in New-Mexico consultation",
      "Professional service",
      "Quality guarantee"
    ],
    "social_links": {}
  },
  {
    "name": "Russell Fit 24/7",
    "address": "1200 E 1st St, Portales, NM 88130",
    "phone": "(575) 356-3000",
    "rating": 5.0,
    "reviews": 25,
    "website": "http://www.russellfit247.com/",
    "category": "African-American-owned 24-hour fitness centers in New-Mexico",
    "description": "A fitness center offering 24/7 access and unlimited classes",
    "hours": "Mon-Fri 9AM-6PM",
    "services": [
      "African-American-owned 24-hour fitness centers in New-Mexico consultation",
      "Professional service",
      "Quality guarantee"
    ],
    "social_links": {}
  },
  {
    "name": "Chuze Fitness (Coors & Central)",
    "address": "12310 Central Ave SW, Albuquerque, NM 87121",
    "phone": "(505) 792-3300",
    "rating": 4.0,
    "reviews": 25,
    "website": "https://www.chuzefitness.com/locations/coors-central-albuquerque-nm/",
    "category": "African-American-owned 24-hour fitness centers in New-Mexico",
    "description": "A state-of-the-art fitness center with a wide array of classes and equipment, offering 24/7 access",
    "hours": "Mon-Fri 9AM-6PM",
    "services": [
      "African-American-owned 24-hour fitness centers in New-Mexico consultation",
      "Professional service",
      "Quality guarantee"
    ],
    "social_links": {}
  },
  {
    "name": "Chuze Fitness (Winrock Town Center)",
    "address": "7400 Indian School Rd NE, Albuquerque, NM 87110",
    "phone": "(505) 639-5156",
    "rating": 4.0,
    "reviews": 25,
    "website": "https://www.chuzefitness.com/locations/winrock-town-center-albuquerque-nm/",
    "category": "African-American-owned 24-hour fitness centers in New-Mexico",
    "description": "A state-of-the-art gym offering premium amenities at a lower cost, with 24/7 access for members",
    "hours": "Mon-Fri 9AM-6PM",
    "services": [
      "African-American-owned 24-hour fitness centers in New-Mexico consultation",
      "Professional service",
      "Quality guarantee"
    ],
    "social_links": {}
  },
  {
    "name": "Anytime Fitness Albuquerque (Central Ave SW)",
    "address": "6301 Central Ave SW, Albuquerque, NM 87105",
    "phone": "(505) 839-0008",
    "rating": 4.0,
    "reviews": 25,
    "website": "https://www.anytimefitness.com/gyms/2780/albuquerque-nm-6301-central-ave-sw-87105/",
    "category": "African-American-owned 24-hour fitness centers in New-Mexico",
    "description": "A locally owned and operated gym offering 24/7 access and personalized fitness plans",
    "hours": "Mon-Fri 9AM-6PM",
    "services": [
      "African-American-owned 24-hour fitness centers in New-Mexico consultation",
      "Professional service",
      "Quality guarantee"
    ],
    "social_links": {}
  },
  {
    "name": "Anytime Fitness Albuquerque (Paseo del Norte Blvd NE)",
    "address": "7201 Paseo Del Norte Blvd NE, Albuquerque, NM 87113",
    "phone": "(505) 821-1111",
    "rating": 4.0,
    "reviews": 25,
    "website": "https://www.anytimefitness.com/gyms/3787/albuquerque-nm-7201-paseo-del-norte-blvd-ne-87113/",
    "category": "African-American-owned 24-hour fitness centers in New-Mexico",
    "description": "Offers 24/7 access, a supportive community, and expert coaches to help members reach their goals",
    "hours": "Mon-Fri 9AM-6PM",
    "services": [
      "African-American-owned 24-hour fitness centers in New-Mexico consultation",
      "Professional service",
      "Quality guarantee"
    ],
    "social_links": {}
  },
  {
    "name": "CBM (Community Body Mind)",
    "address": "400 Gold Ave SW Ste 130, Albuquerque, NM 87102",
    "phone": "(505) 308-3174",
    "rating": 4.0,
    "reviews": 25,
    "website": "http://www.cbm-wellness.com/",
    "category": "African-American-owned 24-hour fitness centers in New-Mexico",
    "description": "A fitness center in downtown Albuquerque offering 24-hour access, virtual classes, and various training options",
    "hours": "Mon-Fri 9AM-6PM",
    "services": [
      "African-American-owned 24-hour fitness centers in New-Mexico consultation",
      "Professional service",
      "Quality guarantee"
    ],
    "social_links": {}
  },
  {
    "name": "Defined Fitness Sandia Club",
    "address": "3301 Juan Tabo NE, Albuquerque, NM 87111",
    "phone": "(505) 296-7000",
    "rating": 4.0,
    "reviews": 25,
    "website": "https://defined.com/locations/sandia-club/",
    "category": "African-American-owned 24-hour fitness centers in New-Mexico",
    "description": "One of the largest gyms in New Mexico, offering a wide range of amenities including strength training, cardio, classes, and a kids' club. Note: This facility has specific operating hours and is not a 24-hour gym",
    "hours": "Mon-Fri 9AM-6PM",
    "services": [
      "African-American-owned 24-hour fitness centers in New-Mexico consultation",
      "Professional service",
      "Quality guarantee"
    ],
    "social_links": {}
  }
]