[
  {
    "name": "Ryan Lawn & Tree",
    "address": "1001 N 102nd St, Omaha, NE 68114",
    "phone": "(402) 738-1718",
    "rating": 4.0,
    "reviews": 25,
    "website": "https://www.ryanlawn.com/",
    "category": "Black-owned Irrigation repair in Nebraska",
    "description": "Provides complete lawn irrigation system services, including installation, repair, maintenance, spring turn-on, and fall winterization",
    "hours": "Mon-Fri 9AM-6PM",
    "services": [
      "Black-owned Irrigation repair in Nebraska consultation",
      "Professional service",
      "Quality guarantee"
    ],
    "social_links": {}
  },
  {
    "name": "Groundscapes, Inc.",
    "address": "11026 P St, Omaha, NE 68137",
    "phone": "(402) 397-5930",
    "rating": 4.0,
    "reviews": 25,
    "website": "https://www.groundscapesinc.com/",
    "category": "Black-owned Irrigation repair in Nebraska",
    "description": "Offers design, installation, repair, winterization, and startup services for irrigation systems, including smart and drip irrigation options",
    "hours": "Mon-Fri 9AM-6PM",
    "services": [
      "Black-owned Irrigation repair in Nebraska consultation",
      "Professional service",
      "Quality guarantee"
    ],
    "social_links": {}
  },
  {
    "name": "Rapid Irrigation Services",
    "address": "4020 N 1st St, Lincoln, NE 68521",
    "phone": "(402) 477-0000",
    "rating": 4.0,
    "reviews": 25,
    "website": "https://www.rapidirrigation.com/",
    "category": "Black-owned Irrigation repair in Nebraska",
    "description": "A full-service sprinkler company specializing in servicing and repairing all brands of sprinkler systems for residential and commercial properties, including winterization",
    "hours": "Mon-Fri 9AM-6PM",
    "services": [
      "Black-owned Irrigation repair in Nebraska consultation",
      "Professional service",
      "Quality guarantee"
    ],
    "social_links": {}
  },
  {
    "name": "Storm Irrigation",
    "address": "12025 S 136th St, La Vista, NE 68138",
    "phone": "(402) 614-7100",
    "rating": 4.0,
    "reviews": 25,
    "website": "https://stormirrigation.com/",
    "category": "Black-owned Irrigation repair in Nebraska",
    "description": "Provides sprinkler system installation and service to the Omaha area and surrounding cities. They service all sprinkler brands and install efficient systems",
    "hours": "Mon-Fri 9AM-6PM",
    "services": [
      "Black-owned Irrigation repair in Nebraska consultation",
      "Professional service",
      "Quality guarantee"
    ],
    "social_links": {}
  },
  {
    "name": "Quality Irrigation",
    "address": "13025 S 136th St, Omaha, NE 68138",
    "phone": "(402) 401-7255",
    "rating": 5.0,
    "reviews": 25,
    "website": "https://www.qualityirrigationomaha.com/",
    "category": "Black-owned Irrigation repair in Nebraska",
    "description": "Specializes in installation, maintenance, and repair of residential and commercial sprinkler and irrigation systems. They have received numerous awards and accolades for their service",
    "hours": "Mon-Fri 9AM-6PM",
    "services": [
      "Black-owned Irrigation repair in Nebraska consultation",
      "Professional service",
      "Quality guarantee"
    ],
    "social_links": {}
  },
  {
    "name": "Lien Lawn Sprinklers",
    "address": "801 N Washington St, Lexington, NE 68850",
    "phone": "(308) 324-7328",
    "rating": 4.0,
    "reviews": 25,
    "website": "https://lienlawnsprinklers.com/",
    "category": "Black-owned Irrigation repair in Nebraska",
    "description": "Provides lawn and landscaping services, including sprinkler system installations, repairs, and maintenance in the Lexington, NE area",
    "hours": "Mon-Fri 9AM-6PM",
    "services": [
      "Black-owned Irrigation repair in Nebraska consultation",
      "Professional service",
      "Quality guarantee"
    ],
    "social_links": {}
  },
  {
    "name": "Sprinkler Master Repair (Lincoln, NE)",
    "address": "2901 Sumner St, Lincoln, NE 68502",
    "phone": "(402) 575-1770",
    "rating": 4.0,
    "reviews": 25,
    "website": "https://sprinklermasterrepair.com/lincoln-ne/",
    "category": "Black-owned Irrigation repair in Nebraska",
    "description": "Offers services such as replacing nozzles, drip irrigation, fixing lawn dry spots, and general repairs for sprinkler systems",
    "hours": "Mon-Fri 9AM-6PM",
    "services": [
      "Black-owned Irrigation repair in Nebraska consultation",
      "Professional service",
      "Quality guarantee"
    ],
    "social_links": {}
  },
  {
    "name": "Heads Up Irrigation SC",
    "address": "11710 W Center Rd, Omaha, NE 68144",
    "phone": "(402) 612-7070",
    "rating": 5.0,
    "reviews": 25,
    "website": "https://www.google.com/maps/search/Heads+Up+Irrigation+SC+in+Nebraska",
    "category": "Black-owned Irrigation repair in Nebraska",
    "description": "Provides timely and professional irrigation repair services",
    "hours": "Mon-Fri 9AM-6PM",
    "services": [
      "Black-owned Irrigation repair in Nebraska consultation",
      "Professional service",
      "Quality guarantee"
    ],
    "social_links": {}
  },
  {
    "name": "Greenstar Lawn Management LLC",
    "address": "14006 P St, Omaha, NE 68137",
    "phone": "(402) 990-0444",
    "rating": 4.0,
    "reviews": 25,
    "website": "https://www.greenstarlawn.com/",
    "category": "Black-owned Irrigation repair in Nebraska",
    "description": "A full-service lawn care company offering services from lawn mowing to sprinkler repair",
    "hours": "Mon-Fri 9AM-6PM",
    "services": [
      "Black-owned Irrigation repair in Nebraska consultation",
      "Professional service",
      "Quality guarantee"
    ],
    "social_links": {}
  },
  {
    "name": "Green Inc.",
    "address": "14006 P St, Omaha, NE 68137",
    "phone": "(402) 990-0444",
    "rating": 4.0,
    "reviews": 25,
    "website": "https://www.greeninc.com/",
    "category": "Black-owned Irrigation repair in Nebraska",
    "description": "A full-service landscape company that also specializes in sprinkler repair",
    "hours": "Mon-Fri 9AM-6PM",
    "services": [
      "Black-owned Irrigation repair in Nebraska consultation",
      "Professional service",
      "Quality guarantee"
    ],
    "social_links": {}
  }
]