[
  {
    "name": "Rainbow Pest Experts",
    "address": "14710 31st Ave N, Plymouth, MN 55447",
    "phone": "(763) 434-5220",
    "rating": 4.8,
    "reviews": 25,
    "website": "https://www.rainbowpestexperts.com/",
    "category": "Arabic-speaking Wasp control in Minnesota",
    "description": "Offers comprehensive wasp and hornet removal services, including preventative treatments and year-round protection plans. They focus on identifying nests and using professional-grade products for elimination",
    "hours": "Mon-Fri 9AM-6PM",
    "services": [
      "Arabic-speaking Wasp control in Minnesota consultation",
      "Professional service",
      "Quality guarantee"
    ],
    "social_links": {}
  },
  {
    "name": "Valor Pest Solutions",
    "address": "1000 Westgate Dr, Suite 100, St Paul, MN 55114",
    "phone": "(763) 777-7010",
    "rating": 4.7,
    "reviews": 25,
    "website": "https://www.valorpestcontrol.com/",
    "category": "Arabic-speaking Wasp control in Minnesota",
    "description": "A local Minnesota pest control company with over 30 years of experience, offering customized pest control services for all seasons, including wasp control. They prioritize safe and effective treatments",
    "hours": "Mon-Fri 9AM-6PM",
    "services": [
      "Arabic-speaking Wasp control in Minnesota consultation",
      "Professional service",
      "Quality guarantee"
    ],
    "social_links": {}
  },
  {
    "name": "Adams Pest Control",
    "address": "1600 109th Ave NE, Blaine, MN 55434",
    "phone": "(763) 566-1360",
    "rating": 4.6,
    "reviews": 25,
    "website": "https://www.adamspestcontrol.com/",
    "category": "Arabic-speaking Wasp control in Minnesota",
    "description": "Provides fast, affordable, and guaranteed pest control services for homes and businesses since 1971. They handle wasps and other pests using safe and eco-friendly treatments",
    "hours": "Mon-Fri 9AM-6PM",
    "services": [
      "Arabic-speaking Wasp control in Minnesota consultation",
      "Professional service",
      "Quality guarantee"
    ],
    "social_links": {}
  },
  {
    "name": "EcoTech Natural Pest Control",
    "address": "1000 Westgate Dr, Suite 100, St Paul, MN 55114",
    "phone": "(612) 234-1200",
    "rating": 4.9,
    "reviews": 25,
    "website": "https://ecotechpest.com/",
    "category": "Arabic-speaking Wasp control in Minnesota",
    "description": "A professional, family-owned business offering all-natural pest control solutions for residential and commercial locations, including wasp control. They focus on environmentally friendly methods",
    "hours": "Mon-Fri 9AM-6PM",
    "services": [
      "Arabic-speaking Wasp control in Minnesota consultation",
      "Professional service",
      "Quality guarantee"
    ],
    "social_links": {}
  },
  {
    "name": "Pest Detective MN",
    "address": "17500 101st Ave N, Maple Grove, MN 55311",
    "phone": "(651) 321-0021",
    "rating": 4.9,
    "reviews": 25,
    "website": "https://www.pestdetectivemn.com/",
    "category": "Arabic-speaking Wasp control in Minnesota",
    "description": "Offers comprehensive wasp control and removal services in the Twin Cities East Metro area, including nest removal, preventative treatments, and eco-friendly solutions. They provide 24/7 emergency services",
    "hours": "Mon-Fri 9AM-6PM",
    "services": [
      "Arabic-speaking Wasp control in Minnesota consultation",
      "Professional service",
      "Quality guarantee"
    ],
    "social_links": {}
  },
  {
    "name": "Be There Pest Control",
    "address": "3100 77th Ave N, Brooklyn Park, MN 55443",
    "phone": "(612) 324-1000",
    "rating": 4.8,
    "reviews": 25,
    "website": "https://betherepestcontrol.com/",
    "category": "Arabic-speaking Wasp control in Minnesota",
    "description": "Specializes in treating all types of wasps, including yellow jackets, paper wasps, and bald-faced hornets. They offer effective removal and prevention with a 90-day guarantee on wasp treatments",
    "hours": "Mon-Fri 9AM-6PM",
    "services": [
      "Arabic-speaking Wasp control in Minnesota consultation",
      "Professional service",
      "Quality guarantee"
    ],
    "social_links": {}
  },
  {
    "name": "Moxie Pest Control",
    "address": "701 4th Ave S, Minneapolis, MN 55415",
    "phone": "(612) 474-2288",
    "rating": 4.7,
    "reviews": 25,
    "website": "https://www.moxiepestcontrol.com/minneapolis/",
    "category": "Arabic-speaking Wasp control in Minnesota",
    "description": "Provides professional home services to ensure homes are safe and pest-free, offering custom pest control plans for year-round protection against common pests, including wasps",
    "hours": "Mon-Fri 9AM-6PM",
    "services": [
      "Arabic-speaking Wasp control in Minnesota consultation",
      "Professional service",
      "Quality guarantee"
    ],
    "social_links": {}
  },
  {
    "name": "Abra Kadabra Environmental Services",
    "address": "7100 West Broadway Ave, Brooklyn Park, MN 55428",
    "phone": "(763) 537-0330",
    "rating": 4.7,
    "reviews": 25,
    "website": "https://www.abrakadabraenvironmental.com/",
    "category": "Arabic-speaking Wasp control in Minnesota",
    "description": "Offers bee and wasp control services with a focus on efficient and environmentally mindful pest treatments. They are members of the Better Business Bureau with an A+ rating",
    "hours": "Mon-Fri 9AM-6PM",
    "services": [
      "Arabic-speaking Wasp control in Minnesota consultation",
      "Professional service",
      "Quality guarantee"
    ],
    "social_links": {}
  },
  {
    "name": "MN Pest Elimination",
    "address": "17001 170th St, Big Lake, MN 55309",
    "phone": "(763) 263-0000",
    "rating": 4.9,
    "reviews": 25,
    "website": "https://mnpestelimination.com/",
    "category": "Arabic-speaking Wasp control in Minnesota",
    "description": "Provides quick and precise wasp nest removal services with local experts and no hidden fees. They offer customized service plans and focus on delivering sting-free results",
    "hours": "Mon-Fri 9AM-6PM",
    "services": [
      "Arabic-speaking Wasp control in Minnesota consultation",
      "Professional service",
      "Quality guarantee"
    ],
    "social_links": {}
  },
  {
    "name": "Westside Pest Solutions Inc.",
    "address": "1000 Westgate Dr, Suite 100, St Paul, MN 55114",
    "phone": "(763) 434-5220",
    "rating": 4.7,
    "reviews": 25,
    "website": "https://westsidesolutions.com/",
    "category": "Arabic-speaking Wasp control in Minnesota",
    "description": "Specializes in the control of bees, wasps, and hornets, offering competitive pricing and specialized tools. They provide both one-spot treatments for individual nests and seasonal preventative services",
    "hours": "Mon-Fri 9AM-6PM",
    "services": [
      "Arabic-speaking Wasp control in Minnesota consultation",
      "Professional service",
      "Quality guarantee"
    ],
    "social_links": {}
  }
]