[
  {
    "name": "B.A.S.E. - Before and After School Enrichment at Holy Trinity Catholic School",
    "address": "16280 Duluth Avenue SE, South St. Paul, MN 55075",
    "phone": "(651) 455-1501",
    "rating": 4.0,
    "reviews": 25,
    "website": "https://www.htschool.com/base-program",
    "category": "Catholic-owned After school care in Minnesota",
    "description": "Offers a safe and supervised environment for students from preschool through 8th grade, with creative and recreational activities",
    "hours": "Mon-Fri 9AM-6PM",
    "services": [
      "Catholic-owned After school care in Minnesota consultation",
      "Professional service",
      "Quality guarantee"
    ],
    "social_links": {}
  },
  {
    "name": "After School Care Programs at St. Michael Catholic School",
    "address": "16280 Duluth Avenue SE, Prior Lake, MN 55372",
    "phone": "(952) 447-2124",
    "rating": 4.0,
    "reviews": 25,
    "website": "https://www.stmcatholic.org/after-school-care",
    "category": "Catholic-owned After school care in Minnesota",
    "description": "Provides after-school care for preschool and K-5th grade students, partnering with Kidokinetics for sports and activities",
    "hours": "Mon-Fri 9AM-6PM",
    "services": [
      "Catholic-owned After school care in Minnesota consultation",
      "Professional service",
      "Quality guarantee"
    ],
    "social_links": {}
  },
  {
    "name": "E Plus After-School Program at Epiphany Catholic School",
    "address": "1900 111th Ave NW, Coon Rapids, MN 55433",
    "phone": "(763) 862-4320",
    "rating": 4.0,
    "reviews": 25,
    "website": "https://www.epiphanycatholic.org/e-plus-after-school-program",
    "category": "Catholic-owned After school care in Minnesota",
    "description": "A high-quality after-school program offering homework help, games, and activities for Pre-K and K-8 students",
    "hours": "Mon-Fri 9AM-6PM",
    "services": [
      "Catholic-owned After school care in Minnesota consultation",
      "Professional service",
      "Quality guarantee"
    ],
    "social_links": {}
  },
  {
    "name": "Extended School Care (ESC) at St. Joseph School",
    "address": "1450 Manning Ave E, Rosemount, MN 55068",
    "phone": "(651) 423-1301",
    "rating": 4.0,
    "reviews": 25,
    "website": "https://www.stjosephschool.info/esc",
    "category": "Catholic-owned After school care in Minnesota",
    "description": "Offers before and after-school care for students in grades K-6, including breakfast and snacks, with homework time",
    "hours": "Mon-Fri 9AM-6PM",
    "services": [
      "Catholic-owned After school care in Minnesota consultation",
      "Professional service",
      "Quality guarantee"
    ],
    "social_links": {}
  },
  {
    "name": "After School Program at Annunciation Catholic K-8 School",
    "address": "509 W 54th St, Minneapolis, MN 55419",
    "phone": "(612) 925-2324",
    "rating": 4.0,
    "reviews": 25,
    "website": "https://www.annunciationmsp.org/after-school",
    "category": "Catholic-owned After school care in Minnesota",
    "description": "Guarantees a spot in their after-school and extended day programs, offering various enrichment classes and activities",
    "hours": "Mon-Fri 9AM-6PM",
    "services": [
      "Catholic-owned After school care in Minnesota consultation",
      "Professional service",
      "Quality guarantee"
    ],
    "social_links": {}
  },
  {
    "name": "After School Care at St. Vincent de Paul Catholic School",
    "address": "9100 99th Ave N, Brooklyn Park, MN 55445",
    "phone": "(763) 425-7700",
    "rating": 4.0,
    "reviews": 25,
    "website": "https://www.stvincentdepaul.org/after-school-care",
    "category": "Catholic-owned After school care in Minnesota",
    "description": "Provides childcare programs for students from preschool through 8th grade during the school year",
    "hours": "Mon-Fri 9AM-6PM",
    "services": [
      "Catholic-owned After school care in Minnesota consultation",
      "Professional service",
      "Quality guarantee"
    ],
    "social_links": {}
  },
  {
    "name": "Aftercare Program at St. Charles Catholic School",
    "address": "2727 Stinson Blvd NE, St. Anthony, MN 55418",
    "phone": "(612) 781-2643",
    "rating": 4.0,
    "reviews": 25,
    "website": "https://www.stchbs.org/aftercare",
    "category": "Catholic-owned After school care in Minnesota",
    "description": "Offers a supervised and safe environment for students in kindergarten through 8th grade, with homework help and activities",
    "hours": "Mon-Fri 9AM-6PM",
    "services": [
      "Catholic-owned After school care in Minnesota consultation",
      "Professional service",
      "Quality guarantee"
    ],
    "social_links": {}
  },
  {
    "name": "After School Care at Ave Maria Academy",
    "address": "13600 County Rd 15, Maple Grove, MN 55311",
    "phone": "(763) 420-2430",
    "rating": 4.0,
    "reviews": 25,
    "website": "https://www.avemariaacademy.org/after-school-care",
    "category": "Catholic-owned After school care in Minnesota",
    "description": "A private Catholic school offering after-school care for students",
    "hours": "Mon-Fri 9AM-6PM",
    "services": [
      "Catholic-owned After school care in Minnesota consultation",
      "Professional service",
      "Quality guarantee"
    ],
    "social_links": {}
  },
  {
    "name": "Extended Care Programs at Rochester Catholic Schools (Holy Spirit, St. Francis of Assisi, St. Pius X)",
    "address": "(Varies by school, e.g., Holy Spirit: 5455 50th Ave NW, Rochester, MN 55901)",
    "phone": "(507) 424-1817 (Central Office)",
    "rating": 4.0,
    "reviews": 25,
    "website": "https://www.rcsmn.org/extended-care",
    "category": "Catholic-owned After school care in Minnesota",
    "description": "Provides extended care for students in kindergarten through eighth grade at multiple school locations",
    "hours": "Mon-Fri 9AM-6PM",
    "services": [
      "Catholic-owned After school care in Minnesota consultation",
      "Professional service",
      "Quality guarantee"
    ],
    "social_links": {}
  },
  {
    "name": "Catholic Charities Northside Child Development Center",
    "address": "1007 E 14th St, Minneapolis, MN 55404",
    "phone": "(612) 204-8500",
    "rating": 4.0,
    "reviews": 25,
    "website": "https://www.cctwincities.org/northside-child-development-center",
    "category": "Catholic-owned After school care in Minnesota",
    "description": "Offers early childhood education, family support, and out-of-school programs for children ages 6 weeks to 12 years",
    "hours": "Mon-Fri 9AM-6PM",
    "services": [
      "Catholic-owned After school care in Minnesota consultation",
      "Professional service",
      "Quality guarantee"
    ],
    "social_links": {}
  }
]