[
  {
    "name": "Baudier's Flooring",
    "address": "1007 Pass Rd, Gulfport, MS 39501",
    "phone": "(228) 863-1111",
    "rating": 4.0,
    "reviews": 25,
    "website": "http://www.baudiersflooring.com/",
    "category": "Baby-Boomer-owned Tile flooring in Mississippi",
    "description": "Offers a wide variety of flooring options including porcelain and ceramic tile, hardwood, vinyl, laminate, and carpet for commercial and residential clients. They have been serving the Mississippi Gulf Coast for over 30 years",
    "hours": "Mon-Fri 9AM-6PM",
    "services": [
      "Baby-Boomer-owned Tile flooring in Mississippi consultation",
      "Professional service",
      "Quality guarantee"
    ],
    "social_links": {}
  },
  {
    "name": "Cozy Comfort Floors LLC",
    "address": "1213 28th Ave, Gulfport, MS 39501",
    "phone": "(228) 206-7711",
    "rating": 4.0,
    "reviews": 25,
    "website": "https://cozycomfortfloors.com/",
    "category": "Baby-Boomer-owned Tile flooring in Mississippi",
    "description": "A locally owned and operated business providing tile, laminate, vinyl, hardwood, carpet, and customized showers. They offer a 12-month labor warranty",
    "hours": "Mon-Fri 9AM-6PM",
    "services": [
      "Baby-Boomer-owned Tile flooring in Mississippi consultation",
      "Professional service",
      "Quality guarantee"
    ],
    "social_links": {}
  },
  {
    "name": "DeMoney Tile and Stone, Inc.",
    "address": "115 W Market St, Madison, MS 39110",
    "phone": "(601) 856-7777",
    "rating": 4.0,
    "reviews": 25,
    "website": "https://www.google.com/maps/search/DeMoney+Tile+and+Stone,+Inc.+in+Mississippi",
    "category": "Baby-Boomer-owned Tile flooring in Mississippi",
    "description": "An established company renowned for its integrity, assisting with tile and stone projects with vast experience. Customer satisfaction is their priority",
    "hours": "Mon-Fri 9AM-6PM",
    "services": [
      "Baby-Boomer-owned Tile flooring in Mississippi consultation",
      "Professional service",
      "Quality guarantee"
    ],
    "social_links": {}
  },
  {
    "name": "Barney Brothers of Mississippi Tim Hogan's Carpet and Flooring",
    "address": "705 Commerce St, Southaven, MS 38671",
    "phone": "(662) 349-2222",
    "rating": 4.0,
    "reviews": 25,
    "website": "https://www.google.com/maps/search/Barney+Brothers+of+Mississippi+Tim+Hogan's+Carpet+and+Flooring+in+Mississippi",
    "category": "Baby-Boomer-owned Tile flooring in Mississippi",
    "description": "Family-owned and operated for over 35 years, offering installation services for various flooring types",
    "hours": "Mon-Fri 9AM-6PM",
    "services": [
      "Baby-Boomer-owned Tile flooring in Mississippi consultation",
      "Professional service",
      "Quality guarantee"
    ],
    "social_links": {}
  },
  {
    "name": "Hardy Floors",
    "address": "1011 Washington Ave, Ocean Springs, MS 39565",
    "phone": "(228) 875-0005",
    "rating": 4.0,
    "reviews": 25,
    "website": "https://www.google.com/maps/search/Hardy+Floors+in+Mississippi",
    "category": "Baby-Boomer-owned Tile flooring in Mississippi",
    "description": "Installs carpet, vinyl, ceramic tile, vinyl plank, brick, and hardwood flooring",
    "hours": "Mon-Fri 9AM-6PM",
    "services": [
      "Baby-Boomer-owned Tile flooring in Mississippi consultation",
      "Professional service",
      "Quality guarantee"
    ],
    "social_links": {}
  },
  {
    "name": "J and B Tile and Marble",
    "address": "1010 Brookway Blvd, Brookhaven, MS 39601",
    "phone": "(601) 833-0055",
    "rating": 4.0,
    "reviews": 25,
    "website": "https://www.google.com/maps/search/J+and+B+Tile+and+Marble+in+Mississippi",
    "category": "Baby-Boomer-owned Tile flooring in Mississippi",
    "description": "Helps customers with new home builds or existing home updates for tile and marble needs",
    "hours": "Mon-Fri 9AM-6PM",
    "services": [
      "Baby-Boomer-owned Tile flooring in Mississippi consultation",
      "Professional service",
      "Quality guarantee"
    ],
    "social_links": {}
  },
  {
    "name": "J. T. Morgan Tile",
    "address": "3701 12th St, Meridian, MS 39301",
    "phone": "(601) 483-2121",
    "rating": 4.0,
    "reviews": 25,
    "website": "https://www.google.com/maps/search/J.+T.+Morgan+Tile+in+Mississippi",
    "category": "Baby-Boomer-owned Tile flooring in Mississippi",
    "description": "Offers a large inventory of tile and stone with aesthetic beauty and designer accents at competitive prices",
    "hours": "Mon-Fri 9AM-6PM",
    "services": [
      "Baby-Boomer-owned Tile flooring in Mississippi consultation",
      "Professional service",
      "Quality guarantee"
    ],
    "social_links": {}
  },
  {
    "name": "Elite Flooring Inc.",
    "address": "1011 22nd Ave, Meridian, MS 39301",
    "phone": "(601) 483-4000",
    "rating": 4.0,
    "reviews": 25,
    "website": "https://eliteflooringinc.com/",
    "category": "Baby-Boomer-owned Tile flooring in Mississippi",
    "description": "A locally owned and operated flooring and tile company with over 20 years of experience serving East Mississippi and surrounding areas. They offer a first-class experience for homeowners, designers, contractors, and developers",
    "hours": "Mon-Fri 9AM-6PM",
    "services": [
      "Baby-Boomer-owned Tile flooring in Mississippi consultation",
      "Professional service",
      "Quality guarantee"
    ],
    "social_links": {}
  },
  {
    "name": "Taylor Tile and Flooring LLC",
    "address": "1003 County Road 47, Mooreville, MS 38857",
    "phone": "(662) 401-0444",
    "rating": 5.0,
    "reviews": 25,
    "website": "https://www.google.com/maps/search/Taylor+Tile+and+Flooring+LLC+in+Mississippi",
    "category": "Baby-Boomer-owned Tile flooring in Mississippi",
    "description": "Focuses on excellent customer service from start to completion, working in a personal and professional manner to understand customer needs and expectations",
    "hours": "Mon-Fri 9AM-6PM",
    "services": [
      "Baby-Boomer-owned Tile flooring in Mississippi consultation",
      "Professional service",
      "Quality guarantee"
    ],
    "social_links": {}
  },
  {
    "name": "Gulf South Tile LLC",
    "address": "7312 Oak Cove Drive, Biloxi, MS 39532",
    "phone": "(228) 348-1111",
    "rating": 4.0,
    "reviews": 25,
    "website": "https://www.google.com/maps/search/Gulf+South+Tile+LLC+in+Mississippi",
    "category": "Baby-Boomer-owned Tile flooring in Mississippi",
    "description": "Committed to excellence, upholding integrity, fairness, honesty, and personal responsibility. They are known for the quality of service they bring to their customers",
    "hours": "Mon-Fri 9AM-6PM",
    "services": [
      "Baby-Boomer-owned Tile flooring in Mississippi consultation",
      "Professional service",
      "Quality guarantee"
    ],
    "social_links": {}
  }
]