[
  {
    "name": "Catholic Charities of Louisville",
    "address": "2911 South 4th Street, Louisville, KY 40208",
    "phone": "(502) 637-9786",
    "rating": 4.0,
    "reviews": 25,
    "website": "https://www.ccolou.com/",
    "category": "Catholic-owned Probate law in Kentucky",
    "description": "While primarily focused on immigration legal services, Catholic Charities of Louisville offers a range of support and may be able to provide referrals for probate matters",
    "hours": "Mon-Fri 9AM-6PM",
    "services": [
      "Catholic-owned Probate law in Kentucky consultation",
      "Professional service",
      "Quality guarantee"
    ],
    "social_links": {}
  },
  {
    "name": "Legal Aid Society",
    "address": "416 W. Muhammad Ali Boulevard, Suite 300, Louisville, KY 40202",
    "phone": "(502) 584-1254",
    "rating": 4.0,
    "reviews": 25,
    "website": "https://laslou.org/",
    "category": "Catholic-owned Probate law in Kentucky",
    "description": "Provides free civil legal assistance to low-income individuals in 15 Kentucky counties, including assistance with probate matters",
    "hours": "Mon-Fri 9AM-6PM",
    "services": [
      "Catholic-owned Probate law in Kentucky consultation",
      "Professional service",
      "Quality guarantee"
    ],
    "social_links": {}
  },
  {
    "name": "Kentucky Estate Planning Law Center",
    "address": "108 East Poplar Street, Elizabethtown, KY 42701",
    "phone": "(270) 982-2883",
    "rating": 4.0,
    "reviews": 25,
    "website": "https://www.humphrieslaw.org/",
    "category": "Catholic-owned Probate law in Kentucky",
    "description": "Focuses on estate planning, elder law, and probate/trust administration",
    "hours": "Mon-Fri 9AM-6PM",
    "services": [
      "Catholic-owned Probate law in Kentucky consultation",
      "Professional service",
      "Quality guarantee"
    ],
    "social_links": {}
  },
  {
    "name": "David Black Law Office",
    "address": "137 S. Sherrin Ave., Louisville, KY 40207",
    "phone": "(502) 451-0000",
    "rating": 4.8,
    "reviews": 25,
    "website": "https://www.davidblacklaw.com/",
    "category": "Catholic-owned Probate law in Kentucky",
    "description": "Specializes in estate planning, estate administration, wills, trusts, and probate law",
    "hours": "Mon-Fri 9AM-6PM",
    "services": [
      "Catholic-owned Probate law in Kentucky consultation",
      "Professional service",
      "Quality guarantee"
    ],
    "social_links": {}
  },
  {
    "name": "Moak and Nunnery, P.S.C.",
    "address": "101 N. Main Street, Madisonville, KY 42431",
    "phone": "(270) 821-7000",
    "rating": 4.0,
    "reviews": 25,
    "website": "https://www.moaknunnery.com/",
    "category": "Catholic-owned Probate law in Kentucky",
    "description": "Offers services in probate, estate planning, and family law, among other areas",
    "hours": "Mon-Fri 9AM-6PM",
    "services": [
      "Catholic-owned Probate law in Kentucky consultation",
      "Professional service",
      "Quality guarantee"
    ],
    "social_links": {}
  },
  {
    "name": "Berkley Oliver PLLC",
    "address": "501 Main Street, Shelbyville, KY 40065",
    "phone": "(502) 633-0550",
    "rating": 4.9,
    "reviews": 25,
    "website": "https://www.berkleyoliver.com/",
    "category": "Catholic-owned Probate law in Kentucky",
    "description": "Provides legal representation in estate planning, probate, elder law, and family law",
    "hours": "Mon-Fri 9AM-6PM",
    "services": [
      "Catholic-owned Probate law in Kentucky consultation",
      "Professional service",
      "Quality guarantee"
    ],
    "social_links": {}
  },
  {
    "name": "Kentucky ElderLaw, PLLC",
    "address": "416 W. Muhammad Ali Blvd., Suite 300, Louisville, KY 40202 (and other locations)",
    "phone": "(502) 581-1111",
    "rating": 4.0,
    "reviews": 25,
    "website": "https://www.kentuckyelderlaw.com/",
    "category": "Catholic-owned Probate law in Kentucky",
    "description": "Focuses on estate planning, long-term care planning, and probate/estate administration",
    "hours": "Mon-Fri 9AM-6PM",
    "services": [
      "Catholic-owned Probate law in Kentucky consultation",
      "Professional service",
      "Quality guarantee"
    ],
    "social_links": {}
  },
  {
    "name": "Elder Law Guidance",
    "address": "1000 Dupont Road, Suite 200, Louisville, KY 40207",
    "phone": "(502) 459-0090",
    "rating": 4.9,
    "reviews": 25,
    "website": "https://www.elderlawguidance.com/",
    "category": "Catholic-owned Probate law in Kentucky",
    "description": "Offers legal services in probate law and estate administration",
    "hours": "Mon-Fri 9AM-6PM",
    "services": [
      "Catholic-owned Probate law in Kentucky consultation",
      "Professional service",
      "Quality guarantee"
    ],
    "social_links": {}
  },
  {
    "name": "Fayette County Legal Help Center",
    "address": "1049 E. Main Street, Lexington, KY 40502",
    "phone": "(859) 253-0072",
    "rating": 4.0,
    "reviews": 25,
    "website": "https://www.fayettecountyky.gov/legal_help_center.htm",
    "category": "Catholic-owned Probate law in Kentucky",
    "description": "Offers information and assistance with simple probate matters for those handling their own legal issues",
    "hours": "Mon-Fri 9AM-6PM",
    "services": [
      "Catholic-owned Probate law in Kentucky consultation",
      "Professional service",
      "Quality guarantee"
    ],
    "social_links": {}
  },
  {
    "name": "Access Justice",
    "address": "3845 Southern Parkway, Louisville, KY 40214",
    "phone": "(502) 451-7200",
    "rating": 4.0,
    "reviews": 25,
    "website": "https://www.accessjc.org/",
    "category": "Catholic-owned Probate law in Kentucky",
    "description": "Provides legal services for various issues, including wills and potentially probate-related matters, for those in need",
    "hours": "Mon-Fri 9AM-6PM",
    "services": [
      "Catholic-owned Probate law in Kentucky consultation",
      "Professional service",
      "Quality guarantee"
    ],
    "social_links": {}
  }
]