[
  {
    "name": "Black Optix Tint\u00ae Window Tinting & Auto Restyling",
    "address": "230 N. Thompson Ln, Murfreesboro, TN 37129",
    "phone": "(615) 962-8428",
    "rating": 4.0,
    "reviews": 25,
    "website": "https://www.blackoptixtint.com/murfreesboro",
    "category": "Black-owned Auto glass replacement in Tennessee",
    "description": "Specializes in auto and truck window tinting, commercial and residential window tinting, ceramic coatings, paint protection film, and wraps",
    "hours": "Mon-Fri 9AM-6PM",
    "services": [
      "Black-owned Auto glass replacement in Tennessee consultation",
      "Professional service",
      "Quality guarantee"
    ],
    "social_links": {}
  },
  {
    "name": "Black Optix Tint\u00ae Window Tinting & Auto Restyling",
    "address": "213 Whitsett Road, Unit B, Nashville, TN 37210",
    "phone": "(615) 757-6871",
    "rating": 4.0,
    "reviews": 25,
    "website": "https://www.blackoptixtint.com/nashville",
    "category": "Black-owned Auto glass replacement in Tennessee",
    "description": "Offers auto and truck window tinting, commercial and residential window tinting, car audio, marine audio, boat tints, ceramic coatings, paint protection film, wheels and tires, lift kits, wraps, and accessories",
    "hours": "Mon-Fri 9AM-6PM",
    "services": [
      "Black-owned Auto glass replacement in Tennessee consultation",
      "Professional service",
      "Quality guarantee"
    ],
    "social_links": {}
  },
  {
    "name": "The Glass Man",
    "address": "2114 Chapman Rd. Ste. 109, Chattanooga, TN 37421",
    "phone": "(423) 930-8474",
    "rating": 4.0,
    "reviews": 25,
    "website": "https://www.theglassman.com/",
    "category": "Black-owned Auto glass replacement in Tennessee",
    "description": "Locally owned and operated, specializing in auto, residential, and commercial glass repair and replacement services",
    "hours": "Mon-Fri 9AM-6PM",
    "services": [
      "Black-owned Auto glass replacement in Tennessee consultation",
      "Professional service",
      "Quality guarantee"
    ],
    "social_links": {}
  },
  {
    "name": "Amazing Auto Glass",
    "address": "(Serves Nashville and surrounding areas, specific address not listed in search results)",
    "phone": "(615) 586-6030 or (615) 591-4431",
    "rating": 4.0,
    "reviews": 25,
    "website": "https://www.amazingautoglass.com/",
    "category": "Black-owned Auto glass replacement in Tennessee",
    "description": "Premier provider of auto glass services, including windshield replacement, serving the Nashville region since 2003",
    "hours": "Mon-Fri 9AM-6PM",
    "services": [
      "Black-owned Auto glass replacement in Tennessee consultation",
      "Professional service",
      "Quality guarantee"
    ],
    "social_links": {}
  },
  {
    "name": "S & S Auto Glass & Tint",
    "address": "195 Cave St., Clarksville, TN 37042",
    "phone": "(931) 648-8000",
    "rating": 4.0,
    "reviews": 25,
    "website": "https://www.ssautoglassclarksville.com/",
    "category": "Black-owned Auto glass replacement in Tennessee",
    "description": "Trusted name in auto glass and vehicle protection services since 1998, offering auto glass repair & replacement and window tinting",
    "hours": "Mon-Fri 9AM-6PM",
    "services": [
      "Black-owned Auto glass replacement in Tennessee consultation",
      "Professional service",
      "Quality guarantee"
    ],
    "social_links": {}
  },
  {
    "name": "Jack Morris Auto Glass",
    "address": "(Serves Jackson, TN - specific address not listed in search results)",
    "phone": "(731) 668-1000 (for Jackson location)",
    "rating": 4.0,
    "reviews": 25,
    "website": "https://www.jackmorrisautoglass.com/",
    "category": "Black-owned Auto glass replacement in Tennessee",
    "description": "Offers expert auto glass repair and windshield replacement services, including ADAS calibration and mobile services",
    "hours": "Mon-Fri 9AM-6PM",
    "services": [
      "Black-owned Auto glass replacement in Tennessee consultation",
      "Professional service",
      "Quality guarantee"
    ],
    "social_links": {}
  },
  {
    "name": "Auto Glass Service",
    "address": "5944 Shallowford Rd, Ste A, Chattanooga, TN 37421",
    "phone": "(423) 490-0204",
    "rating": 4.0,
    "reviews": 25,
    "website": "https://www.autoglassservice.com/locations/chattanooga-tn/",
    "category": "Black-owned Auto glass replacement in Tennessee",
    "description": "One of the largest independently-owned auto glass repair & replacement companies in the U.S., offering free mobile service",
    "hours": "Mon-Fri 9AM-6PM",
    "services": [
      "Black-owned Auto glass replacement in Tennessee consultation",
      "Professional service",
      "Quality guarantee"
    ],
    "social_links": {}
  },
  {
    "name": "Astro Auto Glass",
    "address": "(Serves Memphis, TN - specific address not listed in search results)",
    "phone": "(901) 363-1111",
    "rating": 4.0,
    "reviews": 25,
    "website": "https://www.astroautoglassmemphis.com/",
    "category": "Black-owned Auto glass replacement in Tennessee",
    "description": "Locally owned and family-operated business with 35 years of experience in auto glass repair and replacement, offering new and used glass and mobile service",
    "hours": "Mon-Fri 9AM-6PM",
    "services": [
      "Black-owned Auto glass replacement in Tennessee consultation",
      "Professional service",
      "Quality guarantee"
    ],
    "social_links": {}
  },
  {
    "name": "Auto Glass Now",
    "address": "3620 Lamar Ave., Memphis, TN 38118",
    "phone": "(901) 410-4000",
    "rating": 4.0,
    "reviews": 25,
    "website": "https://www.autoglassnow.com/locations/memphis-tn/",
    "category": "Black-owned Auto glass replacement in Tennessee",
    "description": "Leading provider of windshield repair and replacement services, offering competitive pricing, fast service, and mobile options",
    "hours": "Mon-Fri 9AM-6PM",
    "services": [
      "Black-owned Auto glass replacement in Tennessee consultation",
      "Professional service",
      "Quality guarantee"
    ],
    "social_links": {}
  },
  {
    "name": "Glass Monkey",
    "address": "(Serves Murfreesboro, TN and surrounding areas - specific address not listed in search results)",
    "phone": "(615) 900-5162",
    "rating": 4.0,
    "reviews": 25,
    "website": "https://www.glassmonkeytn.com/",
    "category": "Black-owned Auto glass replacement in Tennessee",
    "description": "Local, family-owned auto glass service offering repair and replacement for windshields, car door glass, and rear windshields, with mobile service available",
    "hours": "Mon-Fri 9AM-6PM",
    "services": [
      "Black-owned Auto glass replacement in Tennessee consultation",
      "Professional service",
      "Quality guarantee"
    ],
    "social_links": {}
  }
]