[
  {
    "name": "Soil Seed and Water",
    "address": "1634 N 19th Ave. Phoenix, AZ 85009 (Production Facility in Congress, AZ)",
    "phone": "(928) 550-1649",
    "rating": 4.0,
    "reviews": 25,
    "website": "https://www.soilseedandwater.com/",
    "category": "Latino-owned Soil amendment in Arizona",
    "description": "Wholesale supplier of organic soil amendments, compost, and potting soil in bulk quantities",
    "hours": "Mon-Fri 9AM-6PM",
    "services": [
      "Latino-owned Soil amendment in Arizona consultation",
      "Professional service",
      "Quality guarantee"
    ],
    "social_links": {}
  },
  {
    "name": "The Arizona Worm Farm",
    "address": "Information not available",
    "phone": "",
    "rating": 4.0,
    "reviews": 25,
    "website": "https://www.arizonawormfarm.com/",
    "category": "Latino-owned Soil amendment in Arizona",
    "description": "Offers soil amendments such as ground basalt rocks, coco coir bricks, perlite, and vermiculite",
    "hours": "Mon-Fri 9AM-6PM",
    "services": [
      "Latino-owned Soil amendment in Arizona consultation",
      "Professional service",
      "Quality guarantee"
    ],
    "social_links": {}
  },
  {
    "name": "SummerWinds Nursery",
    "address": "Multiple locations across Arizona (e.g., Phoenix, Tucson, Mesa). Specific address for soil amendment sales not detailed",
    "phone": "Varies by location (e.g., 602-943-5555 for Phoenix)",
    "rating": 4.0,
    "reviews": 25,
    "website": "https://www.summerwindsnursery.com/",
    "category": "Latino-owned Soil amendment in Arizona",
    "description": "Offers a variety of soil amendments including organic planting mix, biochar, and earthworm castings",
    "hours": "Mon-Fri 9AM-6PM",
    "services": [
      "Latino-owned Soil amendment in Arizona consultation",
      "Professional service",
      "Quality guarantee"
    ],
    "social_links": {}
  },
  {
    "name": "Pioneer",
    "address": "Multiple locations across Arizona (e.g., Phoenix, Tucson, Flagstaff)",
    "phone": "",
    "rating": 4.0,
    "reviews": 25,
    "website": "https://www.pioneer.build/",
    "category": "Latino-owned Soil amendment in Arizona",
    "description": "Landscape material supplier offering various soil products and blends to improve soil",
    "hours": "Mon-Fri 9AM-6PM",
    "services": [
      "Latino-owned Soil amendment in Arizona consultation",
      "Professional service",
      "Quality guarantee"
    ],
    "social_links": {}
  },
  {
    "name": "Acme Sand & Gravel",
    "address": "Tucson, AZ (Specific street address not provided in search results)",
    "phone": "520-296-6231",
    "rating": 4.0,
    "reviews": 25,
    "website": "https://www.google.com/maps/search/Acme+Sand+&+Gravel+in+Arizona",
    "category": "Latino-owned Soil amendment in Arizona",
    "description": "Offers soil amendments like pumice, lava sand, pecan shells, compost, manure, and peat moss",
    "hours": "Mon-Fri 9AM-6PM",
    "services": [
      "Latino-owned Soil amendment in Arizona consultation",
      "Professional service",
      "Quality guarantee"
    ],
    "social_links": {}
  }
]