[
  {
    "name": "Robert A. Levine, Esq.",
    "address": "17 South St, Portland, ME 04101",
    "phone": "(207) 871-0036",
    "rating": 4.0,
    "reviews": 25,
    "website": "https://www.google.com/maps/search/Robert+A.+Levine,+Esq.+in+Maine",
    "category": "Armenian-speaking Criminal defense in Maine",
    "description": "Specializes in criminal law, personal injury, family law & divorce, and Social Security disability. Awarded \"Unsung Hero\" by the Maine Association of Criminal Defense Lawyers",
    "hours": "Mon-Fri 9AM-6PM",
    "services": [
      "Armenian-speaking Criminal defense in Maine consultation",
      "Professional service",
      "Quality guarantee"
    ],
    "social_links": {}
  },
  {
    "name": "Law Office of Maurice Porter",
    "address": "22 Waterford Road, P.O. Box 149, Norway, ME 04268-4804",
    "phone": "(207) 671-3755",
    "rating": 4.0,
    "reviews": 25,
    "website": "https://www.google.com/maps/search/Law+Office+of+Maurice+Porter+in+Maine",
    "category": "Armenian-speaking Criminal defense in Maine",
    "description": "Focuses exclusively on criminal defense, with over 15 years of experience",
    "hours": "Mon-Fri 9AM-6PM",
    "services": [
      "Armenian-speaking Criminal defense in Maine consultation",
      "Professional service",
      "Quality guarantee"
    ],
    "social_links": {}
  },
  {
    "name": "The Maine Criminal Defense Group",
    "address": "Offices in Kennebunk, Portland, & Brunswick, ME",
    "phone": "",
    "rating": 4.0,
    "reviews": 25,
    "website": "https://www.google.com/maps/search/The+Maine+Criminal+Defense+Group+in+Maine",
    "category": "Armenian-speaking Criminal defense in Maine",
    "description": "Provides aggressive criminal defense representation for various charges including OUI, DUI, DWI, assault, theft, drug possession, and domestic violence",
    "hours": "Mon-Fri 9AM-6PM",
    "services": [
      "Armenian-speaking Criminal defense in Maine consultation",
      "Professional service",
      "Quality guarantee"
    ],
    "social_links": {}
  },
  {
    "name": "The Nielsen Group",
    "address": "5 Alfred St Ste 202, Biddeford, ME 04005-0351",
    "phone": "(207) 571-8555",
    "rating": 4.0,
    "reviews": 25,
    "website": "https://www.google.com/maps/search/The+Nielsen+Group+in+Maine",
    "category": "Armenian-speaking Criminal defense in Maine",
    "description": "A criminal defense firm in Portland, Maine, defending individuals accused of crimes, with a focus on OUI/DUI and other criminal offenses",
    "hours": "Mon-Fri 9AM-6PM",
    "services": [
      "Armenian-speaking Criminal defense in Maine consultation",
      "Professional service",
      "Quality guarantee"
    ],
    "social_links": {}
  },
  {
    "name": "Nichols & Tucker, P.A.",
    "address": "Portland, Maine",
    "phone": "207-879-4000",
    "rating": 4.0,
    "reviews": 25,
    "website": "https://www.google.com/maps/search/Nichols+&+Tucker,+P.A.+in+Maine",
    "category": "Armenian-speaking Criminal defense in Maine",
    "description": "Specializes in OUI/DUI and Criminal Defense",
    "hours": "Mon-Fri 9AM-6PM",
    "services": [
      "Armenian-speaking Criminal defense in Maine consultation",
      "Professional service",
      "Quality guarantee"
    ],
    "social_links": {}
  },
  {
    "name": "Dylan Boyd (Webb Law Firm)",
    "address": "Southern Maine",
    "phone": "(207) 536-7147",
    "rating": 4.0,
    "reviews": 25,
    "website": "https://www.google.com/maps/search/Dylan+Boyd+(Webb+Law+Firm)+in+Maine",
    "category": "Armenian-speaking Criminal defense in Maine",
    "description": "Provides legal representation for criminal defense, family law, and estate planning",
    "hours": "Mon-Fri 9AM-6PM",
    "services": [
      "Armenian-speaking Criminal defense in Maine consultation",
      "Professional service",
      "Quality guarantee"
    ],
    "social_links": {}
  },
  {
    "name": "Tim Zerillo (Zerillo Law Firm)",
    "address": "Portland, ME",
    "phone": "",
    "rating": 4.0,
    "reviews": 25,
    "website": "https://www.google.com/maps/search/Tim+Zerillo+(Zerillo+Law+Firm)+in+Maine",
    "category": "Armenian-speaking Criminal defense in Maine",
    "description": "Nationally-recognized criminal defense lawyer with extensive trial experience. Past President of the Maine Association of Criminal Defense Lawyers",
    "hours": "Mon-Fri 9AM-6PM",
    "services": [
      "Armenian-speaking Criminal defense in Maine consultation",
      "Professional service",
      "Quality guarantee"
    ],
    "social_links": {}
  },
  {
    "name": "Richard S. Berne (The Law Office of Richard S. Berne)",
    "address": "Downtown Portland, Maine",
    "phone": "",
    "rating": 4.0,
    "reviews": 25,
    "website": "https://www.google.com/maps/search/Richard+S.+Berne+(The+Law+Office+of+Richard+S.+Berne)+in+Maine",
    "category": "Armenian-speaking Criminal defense in Maine",
    "description": "Over 42 years of experience in criminal defense, handling cases in state and federal courts, including white-collar crimes, violent felonies, drug offenses, and OUI/DUI",
    "hours": "Mon-Fri 9AM-6PM",
    "services": [
      "Armenian-speaking Criminal defense in Maine consultation",
      "Professional service",
      "Quality guarantee"
    ],
    "social_links": {}
  },
  {
    "name": "Law Office of Ross Fichthorn",
    "address": "124 State Street, Augusta, Maine 04330",
    "phone": "(207) 322-0300",
    "rating": 4.0,
    "reviews": 25,
    "website": "https://www.google.com/maps/search/Law+Office+of+Ross+Fichthorn+in+Maine",
    "category": "Armenian-speaking Criminal defense in Maine",
    "description": "Top-rated Maine OUI/Criminal Defense Attorney with over 21 years of experience and numerous jury trials",
    "hours": "Mon-Fri 9AM-6PM",
    "services": [
      "Armenian-speaking Criminal defense in Maine consultation",
      "Professional service",
      "Quality guarantee"
    ],
    "social_links": {}
  },
  {
    "name": "Chris Nielsen (The Nielsen Group)",
    "address": "5 Alfred St Ste 202, Biddeford, ME 04005-0351",
    "phone": "(207) 571-8555",
    "rating": 4.0,
    "reviews": 25,
    "website": "https://www.google.com/maps/search/Chris+Nielsen+(The+Nielsen+Group)+in+Maine",
    "category": "Armenian-speaking Criminal defense in Maine",
    "description": "Focuses on defending individuals accused of crimes, particularly OUI/DUI offenses",
    "hours": "Mon-Fri 9AM-6PM",
    "services": [
      "Armenian-speaking Criminal defense in Maine consultation",
      "Professional service",
      "Quality guarantee"
    ],
    "social_links": {}
  }
]