[
  {
    "name": "Advanced Dental Implant and TMJ Center",
    "address": "7365 Hwy 51 N, Southaven, MS 38671",
    "phone": "(662) 536-5100",
    "rating": 4.0,
    "reviews": 25,
    "website": "https://www.advanceddentalimplant.com/",
    "category": "American-Indian-owned Dental implants in Mississippi",
    "description": "Offers dental implants, gum disease treatment, and sedation dentistry. Voted \"Desoto's Best\" for seven consecutive years",
    "hours": "Mon-Fri 9AM-6PM",
    "services": [
      "American-Indian-owned Dental implants in Mississippi consultation",
      "Professional service",
      "Quality guarantee"
    ],
    "social_links": {}
  },
  {
    "name": "Dental Implants Jackson, MS - Brandon, MS - Implant Dentistry",
    "address": "Multiple locations including Jackson, Brandon, Raymond, and Pelahatchie. (Specific addresses not provided in search results, but contact number for Jackson office is (601) 987-8722)",
    "phone": "(601) 987-8722",
    "rating": 4.0,
    "reviews": 25,
    "website": "https://www.implantdentistryms.com/",
    "category": "American-Indian-owned Dental implants in Mississippi",
    "description": "Provides dental implant services with advanced imaging technology and offers sedation options",
    "hours": "Mon-Fri 9AM-6PM",
    "services": [
      "American-Indian-owned Dental implants in Mississippi consultation",
      "Professional service",
      "Quality guarantee"
    ],
    "social_links": {}
  },
  {
    "name": "Affordable Dentures & Implants (Meridian, MS)",
    "address": "1410 23rd Ave, Meridian, MS 39301",
    "phone": "(601) 485-0000",
    "rating": 4.0,
    "reviews": 25,
    "website": "https://www.affordabledentures.com/locations/ms/meridian/",
    "category": "American-Indian-owned Dental implants in Mississippi",
    "description": "Offers dentures and dental implants with a focus on affordability and patient satisfaction",
    "hours": "Mon-Fri 9AM-6PM",
    "services": [
      "American-Indian-owned Dental implants in Mississippi consultation",
      "Professional service",
      "Quality guarantee"
    ],
    "social_links": {}
  },
  {
    "name": "Golden Triangle Periodontal Center",
    "address": "Locations in Columbus and Starkville, MS. (Specific addresses not provided in search results, but contact number for Columbus office is (662) 329-2696)",
    "phone": "(662) 329-2696",
    "rating": 4.0,
    "reviews": 25,
    "website": "https://www.gtperio.com/",
    "category": "American-Indian-owned Dental implants in Mississippi",
    "description": "Specializes in dental implants, including bone grafts and sinus lifts, with offices in Columbus and Starkville",
    "hours": "Mon-Fri 9AM-6PM",
    "services": [
      "American-Indian-owned Dental implants in Mississippi consultation",
      "Professional service",
      "Quality guarantee"
    ],
    "social_links": {}
  },
  {
    "name": "Fowler Dental Implants",
    "address": "Locations in Oxford and Southaven, MS. (Specific addresses not provided in search results, but contact number is (866) 667-4867)",
    "phone": "(866) 667-4867",
    "rating": 4.0,
    "reviews": 25,
    "website": "https://www.fowlerdentalimplants.com/",
    "category": "American-Indian-owned Dental implants in Mississippi",
    "description": "Provides exceptional dental implant and periodontal care, with expertise in various surgical techniques",
    "hours": "Mon-Fri 9AM-6PM",
    "services": [
      "American-Indian-owned Dental implants in Mississippi consultation",
      "Professional service",
      "Quality guarantee"
    ],
    "social_links": {}
  },
  {
    "name": "John A. Smith, DDS - Mississippi Mini Dental Implants",
    "address": "Information not available in search results",
    "phone": "",
    "rating": 4.0,
    "reviews": 25,
    "website": "https://www.minidentalimplantsms.com/",
    "category": "American-Indian-owned Dental implants in Mississippi",
    "description": "Specializes in mini dental implants as a less invasive option for tooth replacement",
    "hours": "Mon-Fri 9AM-6PM",
    "services": [
      "American-Indian-owned Dental implants in Mississippi consultation",
      "Professional service",
      "Quality guarantee"
    ],
    "social_links": {}
  },
  {
    "name": "South Mississippi Oral Surgery & Implant Center",
    "address": "1015 Broad Ave, Gulfport, MS 39501",
    "phone": "(228) 863-1111",
    "rating": 4.0,
    "reviews": 25,
    "website": "https://www.smosurg.com/",
    "category": "American-Indian-owned Dental implants in Mississippi",
    "description": "Offers state-of-the-art dental implant services with board-certified oral surgeons",
    "hours": "Mon-Fri 9AM-6PM",
    "services": [
      "American-Indian-owned Dental implants in Mississippi consultation",
      "Professional service",
      "Quality guarantee"
    ],
    "social_links": {}
  },
  {
    "name": "Centre for Smile Designs",
    "address": "2015 25th Ave, Gulfport, MS 39501",
    "phone": "(228) 864-4400",
    "rating": 5.0,
    "reviews": 25,
    "website": "https://www.centreforsmiledesigns.com/",
    "category": "American-Indian-owned Dental implants in Mississippi",
    "description": "Provides dental implants and other cosmetic dentistry services with a focus on patient care and professionalism",
    "hours": "Mon-Fri 9AM-6PM",
    "services": [
      "American-Indian-owned Dental implants in Mississippi consultation",
      "Professional service",
      "Quality guarantee"
    ],
    "social_links": {}
  },
  {
    "name": "Affordable Dentures & Implants (Flowood/Jackson, MS)",
    "address": "101 Stone Creek Dr, Flowood, MS 39232",
    "phone": "(601) 480-1000",
    "rating": 4.0,
    "reviews": 25,
    "website": "https://www.affordabledentures.com/locations/ms/jackson-flowood/",
    "category": "American-Indian-owned Dental implants in Mississippi",
    "description": "Offers affordable dentures and dental implants, with an on-site dental lab for faster service",
    "hours": "Mon-Fri 9AM-6PM",
    "services": [
      "American-Indian-owned Dental implants in Mississippi consultation",
      "Professional service",
      "Quality guarantee"
    ],
    "social_links": {}
  },
  {
    "name": "Love Dental",
    "address": "7080 Greenbriar Dr, Southaven, MS 38671",
    "phone": "(662) 536-6450",
    "rating": 4.0,
    "reviews": 25,
    "website": "https://lovedentalimplants.com/",
    "category": "American-Indian-owned Dental implants in Mississippi",
    "description": "Provides dental implants and other cosmetic dentistry services with an on-site lab for faster results",
    "hours": "Mon-Fri 9AM-6PM",
    "services": [
      "American-Indian-owned Dental implants in Mississippi consultation",
      "Professional service",
      "Quality guarantee"
    ],
    "social_links": {}
  }
]