[
  {
    "name": "StorageMart",
    "address": "Multiple locations including 1501 S Mahaffie St, Olathe, KS 66062; 1310 S Enterprise St, Olathe, KS 66061; 1285 W Dennis Ave, Olathe, KS 66061",
    "phone": "(800) 264-9485",
    "rating": 4.0,
    "reviews": 25,
    "website": "https://www.storage-mart.com/",
    "category": "Black-owned Warehouse storage in Kansas",
    "description": "Offers a variety of storage unit sizes, climate-controlled storage, and vehicle storage",
    "hours": "Mon-Fri 9AM-6PM",
    "services": [
      "Black-owned Warehouse storage in Kansas consultation",
      "Professional service",
      "Quality guarantee"
    ],
    "social_links": {}
  },
  {
    "name": "iStorage Facility",
    "address": "13371 S Black Bob Rd, Olathe, KS 66062",
    "phone": "(913) 444-5780",
    "rating": 4.0,
    "reviews": 25,
    "website": "https://www.istorage-selfstorage.com/locations/olathe-ks/13371-s-black-bob-rd/",
    "category": "Black-owned Warehouse storage in Kansas",
    "description": "Offers climate-controlled storage units, electronic gated access, and security cameras",
    "hours": "Mon-Fri 9AM-6PM",
    "services": [
      "Black-owned Warehouse storage in Kansas consultation",
      "Professional service",
      "Quality guarantee"
    ],
    "social_links": {}
  },
  {
    "name": "Storage Center of Olathe",
    "address": "309 N Lindenwood Drive, Olathe, KS",
    "phone": "",
    "rating": 4.0,
    "reviews": 25,
    "website": "https://www.google.com/maps/search/Storage+Center+of+Olathe+in+Kansas",
    "category": "Black-owned Warehouse storage in Kansas",
    "description": "Offers affordable and secure storage solutions with security cameras and indoor parking",
    "hours": "Mon-Fri 9AM-6PM",
    "services": [
      "Black-owned Warehouse storage in Kansas consultation",
      "Professional service",
      "Quality guarantee"
    ],
    "social_links": {}
  },
  {
    "name": "Mini Mall Storage",
    "address": "Multiple locations in Salina, KS, including 440 S. Clark St., Salina, KS 67401; 3335 S. 9th St., Salina, KS 67401; 1314 Beverly Dr., Salina, KS 67401; 2141 Centennial Rd., Salina, KS 67401; 2820 Foxboro Dr., Salina, KS 67401",
    "phone": "(785) 645-3450 (for 440 S. Clark St.)",
    "rating": 4.0,
    "reviews": 25,
    "website": "https://www.minimallstorage.com/locations/kansas/salina/",
    "category": "Black-owned Warehouse storage in Kansas",
    "description": "Offers a variety of storage options in Salina, Kansas",
    "hours": "Mon-Fri 9AM-6PM",
    "services": [
      "Black-owned Warehouse storage in Kansas consultation",
      "Professional service",
      "Quality guarantee"
    ],
    "social_links": {}
  },
  {
    "name": "Manhattan Mini Storage",
    "address": "(This company appears to be based in New York, not Kansas, based on search results.)",
    "phone": "",
    "rating": 4.0,
    "reviews": 25,
    "website": "https://www.manhattanministorage.com/",
    "category": "Black-owned Warehouse storage in Kansas",
    "description": "A self-storage company with locations in New York and New Jersey",
    "hours": "Mon-Fri 9AM-6PM",
    "services": [
      "Black-owned Warehouse storage in Kansas consultation",
      "Professional service",
      "Quality guarantee"
    ],
    "social_links": {}
  },
  {
    "name": "Mini Mall Storage (Hutchinson)",
    "address": "1703 E. 4th Ave, Hutchinson, KS 67501",
    "phone": "",
    "rating": 4.0,
    "reviews": 25,
    "website": "https://www.minimallstorage.com/locations/kansas/hutchinson/",
    "category": "Black-owned Warehouse storage in Kansas",
    "description": "Offers affordable storage units with drive-up accessibility and security features",
    "hours": "Mon-Fri 9AM-6PM",
    "services": [
      "Black-owned Warehouse storage in Kansas consultation",
      "Professional service",
      "Quality guarantee"
    ],
    "social_links": {}
  },
  {
    "name": "Spacelocks Storage",
    "address": "406 SE 45th St, Topeka, KS 66605",
    "phone": "(785) 369-1868",
    "rating": 4.4,
    "reviews": 25,
    "website": "https://spacelocksstorage.com/",
    "category": "Black-owned Warehouse storage in Kansas",
    "description": "Offers secure storage units with personal gate code access and 24/7 security camera monitoring",
    "hours": "Mon-Fri 9AM-6PM",
    "services": [
      "Black-owned Warehouse storage in Kansas consultation",
      "Professional service",
      "Quality guarantee"
    ],
    "social_links": {}
  },
  {
    "name": "Central Kansas Self Storage",
    "address": "Multiple locations including 810 E First, McPherson, KS 67460; 425 E Union, Lindsborg, KS 67456; 605 Western Heights Cir, Hillsboro, KS 67063. (Note: These are not in Salina, but are in central Kansas.)",
    "phone": "(620) 241-6222 (McPherson)",
    "rating": 4.0,
    "reviews": 25,
    "website": "https://www.google.com/maps/search/Central+Kansas+Self+Storage+in+Kansas",
    "category": "Black-owned Warehouse storage in Kansas",
    "description": "Offers secure and affordable storage units with 24/7 access",
    "hours": "Mon-Fri 9AM-6PM",
    "services": [
      "Black-owned Warehouse storage in Kansas consultation",
      "Professional service",
      "Quality guarantee"
    ],
    "social_links": {}
  },
  {
    "name": "Access Storage Inc",
    "address": "Not specified in search results for a specific Kansas location, but mentions Salina",
    "phone": "785-826-0700",
    "rating": 4.0,
    "reviews": 25,
    "website": "https://www.google.com/maps/search/Access+Storage+Inc+in+Kansas",
    "category": "Black-owned Warehouse storage in Kansas",
    "description": "Offers 24-hour access, spacious units, and affordable rates",
    "hours": "Mon-Fri 9AM-6PM",
    "services": [
      "Black-owned Warehouse storage in Kansas consultation",
      "Professional service",
      "Quality guarantee"
    ],
    "social_links": {}
  },
  {
    "name": "Store Stuff",
    "address": "411 N Iowa, Lawrence, KS 66044",
    "phone": "",
    "rating": 4.0,
    "reviews": 25,
    "website": "https://www.google.com/maps/search/Store+Stuff+in+Kansas",
    "category": "Black-owned Warehouse storage in Kansas",
    "description": "Offers clean self-storage solutions for household or business needs",
    "hours": "Mon-Fri 9AM-6PM",
    "services": [
      "Black-owned Warehouse storage in Kansas consultation",
      "Professional service",
      "Quality guarantee"
    ],
    "social_links": {}
  }
]