[
  {
    "name": "Gentle Smiles of Colorado",
    "address": "2709 S Colorado Blvd, Denver, CO 80222, USA",
    "phone": "+1 303-756-2770",
    "rating": 4.0,
    "reviews": 25,
    "website": "https://www.google.com/maps/search/Gentle+Smiles+of+Colorado+in+Colorado",
    "category": "Catholic-owned Dentists in Colorado",
    "description": "Offers a variety of dental treatments with a focus on patient care in a welcoming environment",
    "hours": "Mon-Fri 9AM-6PM",
    "services": [
      "Catholic-owned Dentists in Colorado consultation",
      "Professional service",
      "Quality guarantee"
    ],
    "social_links": {}
  },
  {
    "name": "Harman Family Dental Center",
    "address": "19700 E Parker Square Dr, Parker, CO 80134, USA",
    "phone": "+1 720-605-1696",
    "rating": 4.0,
    "reviews": 25,
    "website": "https://www.google.com/maps/search/Harman+Family+Dental+Center+in+Colorado",
    "category": "Catholic-owned Dentists in Colorado",
    "description": "Provides family dentistry in a relaxed environment, aiming to alleviate dental anxiety",
    "hours": "Mon-Fri 9AM-6PM",
    "services": [
      "Catholic-owned Dentists in Colorado consultation",
      "Professional service",
      "Quality guarantee"
    ],
    "social_links": {}
  },
  {
    "name": "Wood Mark D DDS",
    "address": "1140 W South Boulder Rd #103, Lafayette, CO 80026, USA",
    "phone": "+1 303-604-9663",
    "rating": 4.0,
    "reviews": 25,
    "website": "http://www.woodendo.com",
    "category": "Catholic-owned Dentists in Colorado",
    "description": "An endodontist practice focused on delivering high standards of patient care in a comfortable atmosphere",
    "hours": "Mon-Fri 9AM-6PM",
    "services": [
      "Catholic-owned Dentists in Colorado consultation",
      "Professional service",
      "Quality guarantee"
    ],
    "social_links": {}
  },
  {
    "name": "Dr. Jared Stasi (Comfort Dental Braces South)",
    "address": "8223 S Quebec St, Centennial, CO 80112, USA",
    "phone": "(303) 220-0550",
    "rating": 4.0,
    "reviews": 25,
    "website": "https://comfortdental.com",
    "category": "Catholic-owned Dentists in Colorado",
    "description": "Provides top-quality family dental care in a comfortable and welcoming environment",
    "hours": "Mon-Fri 9AM-6PM",
    "services": [
      "Catholic-owned Dentists in Colorado consultation",
      "Professional service",
      "Quality guarantee"
    ],
    "social_links": {}
  },
  {
    "name": "Phillips & Walker (associated with Catholic Dentists Network)",
    "address": "Lakewood, CO (Specific address not provided in search results)",
    "phone": "",
    "rating": 4.0,
    "reviews": 25,
    "website": "https://www.google.com/maps/search/Phillips+&+Walker+(associated+with+Catholic+Dentists+Network)+in+Colorado",
    "category": "Catholic-owned Dentists in Colorado",
    "description": "Listed as a featured Catholic Dentist",
    "hours": "Mon-Fri 9AM-6PM",
    "services": [
      "Catholic-owned Dentists in Colorado consultation",
      "Professional service",
      "Quality guarantee"
    ],
    "social_links": {}
  },
  {
    "name": "Foothills Family Dental",
    "address": "Fort Collins, CO 80524 (Specific street address not provided in search results)",
    "phone": "(970) 482-6841",
    "rating": 4.0,
    "reviews": 25,
    "website": "https://www.google.com/maps/search/Foothills+Family+Dental+in+Colorado",
    "category": "Catholic-owned Dentists in Colorado",
    "description": "Offers comprehensive dental services in a family-friendly environment, including emergency care",
    "hours": "Mon-Fri 9AM-6PM",
    "services": [
      "Catholic-owned Dentists in Colorado consultation",
      "Professional service",
      "Quality guarantee"
    ],
    "social_links": {}
  },
  {
    "name": "Front Range Dental Center",
    "address": "Fort Collins, Colorado (Specific address not provided in search results)",
    "phone": "(970) 673-7321",
    "rating": 4.0,
    "reviews": 25,
    "website": "https://www.google.com/maps/search/Front+Range+Dental+Center+in+Colorado",
    "category": "Catholic-owned Dentists in Colorado",
    "description": "A dental clinic specializing in cosmetic, family, and general dentistry",
    "hours": "Mon-Fri 9AM-6PM",
    "services": [
      "Catholic-owned Dentists in Colorado consultation",
      "Professional service",
      "Quality guarantee"
    ],
    "social_links": {}
  },
  {
    "name": "Layton Family Dental",
    "address": "Fort Collins, CO (Specific street address not provided in search results)",
    "phone": "(970) 419-4711",
    "rating": 4.0,
    "reviews": 25,
    "website": "https://www.google.com/maps/search/Layton+Family+Dental+in+Colorado",
    "category": "Catholic-owned Dentists in Colorado",
    "description": "Provides personalized dental care for all ages, including general, cosmetic, and restorative dentistry",
    "hours": "Mon-Fri 9AM-6PM",
    "services": [
      "Catholic-owned Dentists in Colorado consultation",
      "Professional service",
      "Quality guarantee"
    ],
    "social_links": {}
  },
  {
    "name": "Briargate Dental",
    "address": "7750 N. Union Blvd #101, Colorado Springs, CO 80920",
    "phone": "(719) 598-1293",
    "rating": 4.0,
    "reviews": 25,
    "website": "https://www.google.com/maps/search/Briargate+Dental+in+Colorado",
    "category": "Catholic-owned Dentists in Colorado",
    "description": "Specializes in family, general, and cosmetic dentistry, using the latest technology",
    "hours": "Mon-Fri 9AM-6PM",
    "services": [
      "Catholic-owned Dentists in Colorado consultation",
      "Professional service",
      "Quality guarantee"
    ],
    "social_links": {}
  },
  {
    "name": "Spring Creek Dental",
    "address": "2001 S Shields St, Bldg C1, Fort Collins, CO 80526",
    "phone": "(970) 482-8883",
    "rating": 4.0,
    "reviews": 25,
    "website": "https://www.google.com/maps/search/Spring+Creek+Dental+in+Colorado",
    "category": "Catholic-owned Dentists in Colorado",
    "description": "Offers preventative, cosmetic, and implant dentistry for families since 1977",
    "hours": "Mon-Fri 9AM-6PM",
    "services": [
      "Catholic-owned Dentists in Colorado consultation",
      "Professional service",
      "Quality guarantee"
    ],
    "social_links": {}
  }
]