[
  {
    "name": "Nevada Mobile Detailing",
    "address": "Las Vegas, NV (Mobile service available)",
    "phone": "(702) 707-7477",
    "rating": 5.0,
    "reviews": 25,
    "website": "https://www.nevadamobiledetailing.com/",
    "category": "Atheist-owned Paint correction in Nevada",
    "description": "Offers comprehensive paint correction, ceramic coating, and mobile detailing services in Las Vegas and surrounding areas",
    "hours": "Mon-Fri 9AM-6PM",
    "services": [
      "Atheist-owned Paint correction in Nevada consultation",
      "Professional service",
      "Quality guarantee"
    ],
    "social_links": {}
  },
  {
    "name": "BWA Detailing",
    "address": "Las Vegas, NV (In-shop and mobile services)",
    "phone": "(702) 800-1200",
    "rating": 5.0,
    "reviews": 25,
    "website": "https://bwadetailing.com/",
    "category": "Atheist-owned Paint correction in Nevada",
    "description": "Specializes in paint protection film, ceramic coatings, and mobile detailing, serving Las Vegas, Henderson, Summerlin, and more",
    "hours": "Mon-Fri 9AM-6PM",
    "services": [
      "Atheist-owned Paint correction in Nevada consultation",
      "Professional service",
      "Quality guarantee"
    ],
    "social_links": {}
  },
  {
    "name": "Zaro Detailing",
    "address": "Las Vegas, NV (Mobile service available)",
    "phone": "(702) 425-7171",
    "rating": 5.0,
    "reviews": 25,
    "website": "https://zarodetailing.com/",
    "category": "Atheist-owned Paint correction in Nevada",
    "description": "Provides exceptional car detailing, ceramic coatings, and expert paint correction services in Las Vegas and surrounding areas",
    "hours": "Mon-Fri 9AM-6PM",
    "services": [
      "Atheist-owned Paint correction in Nevada consultation",
      "Professional service",
      "Quality guarantee"
    ],
    "social_links": {}
  },
  {
    "name": "Tornado Mobile Detailing",
    "address": "Las Vegas, NV (Mobile service available)",
    "phone": "(702) 702-1111",
    "rating": 5.0,
    "reviews": 25,
    "website": "https://www.tornadomobiledetailing.com/",
    "category": "Atheist-owned Paint correction in Nevada",
    "description": "A highly-rated mobile detailing company offering professional services at your doorstep in Las Vegas and surrounding areas",
    "hours": "Mon-Fri 9AM-6PM",
    "services": [
      "Atheist-owned Paint correction in Nevada consultation",
      "Professional service",
      "Quality guarantee"
    ],
    "social_links": {}
  },
  {
    "name": "Reflectionz Detail Las Vegas",
    "address": "Las Vegas, NV",
    "phone": "(702) 444-4185",
    "rating": 4.0,
    "reviews": 25,
    "website": "https://www.reflectionzdetail.com/",
    "category": "Atheist-owned Paint correction in Nevada",
    "description": "Offers auto spa detailing, ceramic coatings, custom vehicle wraps, and paint protection films",
    "hours": "Mon-Fri 9AM-6PM",
    "services": [
      "Atheist-owned Paint correction in Nevada consultation",
      "Professional service",
      "Quality guarantee"
    ],
    "social_links": {}
  },
  {
    "name": "Aloha Mobile Detail",
    "address": "Las Vegas, NV (Mobile service available)",
    "phone": "(951) 249-1758",
    "rating": 4.0,
    "reviews": 25,
    "website": "https://alohamobiledetail.com/",
    "category": "Atheist-owned Paint correction in Nevada",
    "description": "Provides mobile detailing, car wash, and engine cleaning services in Las Vegas, NV, and surrounding areas for various vehicles",
    "hours": "Mon-Fri 9AM-6PM",
    "services": [
      "Atheist-owned Paint correction in Nevada consultation",
      "Professional service",
      "Quality guarantee"
    ],
    "social_links": {}
  },
  {
    "name": "MADhouse Detailing & Customs",
    "address": "Las Vegas, NV",
    "phone": "(702) 540-5841",
    "rating": 4.0,
    "reviews": 25,
    "website": "https://madhousdetailing.com/",
    "category": "Atheist-owned Paint correction in Nevada",
    "description": "Offers expert paint correction services in Las Vegas, NV, designed to restore shine and prepare surfaces for ceramic coatings",
    "hours": "Mon-Fri 9AM-6PM",
    "services": [
      "Atheist-owned Paint correction in Nevada consultation",
      "Professional service",
      "Quality guarantee"
    ],
    "social_links": {}
  },
  {
    "name": "Joe's Mobile Detailing",
    "address": "Las Vegas, NV (Mobile service available)",
    "phone": "(702) 370-9418",
    "rating": 4.0,
    "reviews": 25,
    "website": "https://www.joesmobiledetailing.com/",
    "category": "Atheist-owned Paint correction in Nevada",
    "description": "A preferred provider of mobile paint correction services in Las Vegas, NV, with extensive experience in various paint correction techniques",
    "hours": "Mon-Fri 9AM-6PM",
    "services": [
      "Atheist-owned Paint correction in Nevada consultation",
      "Professional service",
      "Quality guarantee"
    ],
    "social_links": {}
  },
  {
    "name": "LFL Mobile Carwash of Summerlin Vegas",
    "address": "Las Vegas, NV (Mobile service available)",
    "phone": "(702) 551-5577",
    "rating": 4.0,
    "reviews": 25,
    "website": "https://www.lfldetailing.com/",
    "category": "Atheist-owned Paint correction in Nevada",
    "description": "Provides expert scratch removal services in Las Vegas, NV, restoring shine and protecting vehicles with their mobile detailing service",
    "hours": "Mon-Fri 9AM-6PM",
    "services": [
      "Atheist-owned Paint correction in Nevada consultation",
      "Professional service",
      "Quality guarantee"
    ],
    "social_links": {}
  },
  {
    "name": "Gloss It Detail Studio",
    "address": "5032 W. Post Road, Las Vegas, NV 89118",
    "phone": "(702) 252-4000",
    "rating": 4.0,
    "reviews": 25,
    "website": "https://www.gloss-it.com/",
    "category": "Atheist-owned Paint correction in Nevada",
    "description": "Offers outstanding paint correction and car paint restoration services in Las Vegas, NV, using advanced techniques to permanently remove imperfections",
    "hours": "Mon-Fri 9AM-6PM",
    "services": [
      "Atheist-owned Paint correction in Nevada consultation",
      "Professional service",
      "Quality guarantee"
    ],
    "social_links": {}
  }
]