[
  {
    "name": "Consigliere Wine and Sound Bar",
    "address": "31 Warren Street, Newark, NJ 07101",
    "phone": "(973) 230-2780",
    "rating": 4.8,
    "reviews": 25,
    "website": "https://consiglierewine.com/",
    "category": "Chinese-speaking Wine bars in New-Jersey",
    "description": "A unique wine, cocktail, and sound bar that offers a curated selection of wines and a vibrant atmosphere with music",
    "hours": "Mon-Fri 9AM-6PM",
    "services": [
      "Chinese-speaking Wine bars in New-Jersey consultation",
      "Professional service",
      "Quality guarantee"
    ],
    "social_links": {}
  },
  {
    "name": "Spuntino Wine Bar and Italian Tapas",
    "address": "70 Kingsland Road, Clifton, NJ 07014",
    "phone": "(973) 772-0005",
    "rating": 4.5,
    "reviews": 25,
    "website": "https://www.spuntinowinebar.com/",
    "category": "Chinese-speaking Wine bars in New-Jersey",
    "description": "An award-winning wine bar with a large selection of Italian tapas and over 1,800 bottles of wine",
    "hours": "Mon-Fri 9AM-6PM",
    "services": [
      "Chinese-speaking Wine bars in New-Jersey consultation",
      "Professional service",
      "Quality guarantee"
    ],
    "social_links": {}
  },
  {
    "name": "Bin 14",
    "address": "1314 Washington Street, Hoboken, NJ 07030",
    "phone": "(201) 942-1414",
    "rating": 4.4,
    "reviews": 25,
    "website": "https://bin14.com/",
    "category": "Chinese-speaking Wine bars in New-Jersey",
    "description": "Hoboken's first wine bar, offering Italian-inspired tapas and a curated selection of wines from around the world",
    "hours": "Mon-Fri 9AM-6PM",
    "services": [
      "Chinese-speaking Wine bars in New-Jersey consultation",
      "Professional service",
      "Quality guarantee"
    ],
    "social_links": {}
  },
  {
    "name": "VINO 61",
    "address": "61 High Street, Mount Holly, NJ 08060",
    "phone": "(609) 261-1013",
    "rating": 4.7,
    "reviews": 25,
    "website": "https://www.vino61.com/",
    "category": "Chinese-speaking Wine bars in New-Jersey",
    "description": "A wine bar and restaurant in Mount Holly offering a wide selection of premium wines, handcrafted cocktails, and a cozy, upscale ambiance",
    "hours": "Mon-Fri 9AM-6PM",
    "services": [
      "Chinese-speaking Wine bars in New-Jersey consultation",
      "Professional service",
      "Quality guarantee"
    ],
    "social_links": {}
  },
  {
    "name": "Cree Wine Company",
    "address": "245 US-206, Hampton, NJ 08827",
    "phone": "(908) 537-4000",
    "rating": 4.8,
    "reviews": 25,
    "website": "https://creewine.com/",
    "category": "Chinese-speaking Wine bars in New-Jersey",
    "description": "A wine bar and kitchen founded by a Master of Wine, offering a vast wine program, seasonal menu, and wine education classes",
    "hours": "Mon-Fri 9AM-6PM",
    "services": [
      "Chinese-speaking Wine bars in New-Jersey consultation",
      "Professional service",
      "Quality guarantee"
    ],
    "social_links": {}
  },
  {
    "name": "The Wine Loft",
    "address": "32 Laird Street, Long Branch, NJ 07740",
    "phone": "(732) 222-7770",
    "rating": 4.3,
    "reviews": 25,
    "website": "https://www.lanapiervillage.com/",
    "category": "Chinese-speaking Wine bars in New-Jersey",
    "description": "A wine bar with over 50 wines by the glass, a full-service bar, food, and live music",
    "hours": "Mon-Fri 9AM-6PM",
    "services": [
      "Chinese-speaking Wine bars in New-Jersey consultation",
      "Professional service",
      "Quality guarantee"
    ],
    "social_links": {}
  },
  {
    "name": "Rosie's Wine Bar",
    "address": "514 North Avenue, Garwood, NJ 07027",
    "phone": "(908) 271-2240",
    "rating": 4.6,
    "reviews": 25,
    "website": "https://rosieswinebar.com/",
    "category": "Chinese-speaking Wine bars in New-Jersey",
    "description": "A wine bar focused on spreading the joy of wine through a wide selection of wines by the glass and bottle, with options for creating custom flights",
    "hours": "Mon-Fri 9AM-6PM",
    "services": [
      "Chinese-speaking Wine bars in New-Jersey consultation",
      "Professional service",
      "Quality guarantee"
    ],
    "social_links": {}
  },
  {
    "name": "Versi Vino",
    "address": "100 W Maple Ave, Maple Shade, NJ 08052",
    "phone": "(856) 200-1200",
    "rating": 4.5,
    "reviews": 25,
    "website": "https://versivino.com/",
    "category": "Chinese-speaking Wine bars in New-Jersey",
    "description": "A wine bar and restaurant with state-of-the-art wine dispensing machines for tasting and exploring wines from around the globe",
    "hours": "Mon-Fri 9AM-6PM",
    "services": [
      "Chinese-speaking Wine bars in New-Jersey consultation",
      "Professional service",
      "Quality guarantee"
    ],
    "social_links": {}
  },
  {
    "name": "Amanti Vino",
    "address": "30 Church Street, Montclair, NJ 07042",
    "phone": "(973) 509-WINE (9463)",
    "rating": 4.7,
    "reviews": 25,
    "website": "https://amantivino.com/",
    "category": "Chinese-speaking Wine bars in New-Jersey",
    "description": "A wine shop that also functions as a wine bar, offering free tastings on Saturday afternoons and a nationally-rated wine list",
    "hours": "Mon-Fri 9AM-6PM",
    "services": [
      "Chinese-speaking Wine bars in New-Jersey consultation",
      "Professional service",
      "Quality guarantee"
    ],
    "social_links": {}
  },
  {
    "name": "Uncorked Wine Lounge",
    "address": "650 Union Boulevard, Totowa, NJ 07512",
    "phone": "(973) 237-0001",
    "rating": 4.5,
    "reviews": 25,
    "website": "https://uncorkedwinelounge.com/",
    "category": "Chinese-speaking Wine bars in New-Jersey",
    "description": "An upscale wine bar that offers a sophisticated atmosphere for daytime work or evening socializing, with a diverse selection of wines and other beverages",
    "hours": "Mon-Fri 9AM-6PM",
    "services": [
      "Chinese-speaking Wine bars in New-Jersey consultation",
      "Professional service",
      "Quality guarantee"
    ],
    "social_links": {}
  }
]