[
  {
    "name": "Great Northern Cleaning",
    "address": "PO Box 7213 Gilford, NH 03249 (Main Office) / 116 Hounsell Ave #7 Laconia, NH 03246 (Location)",
    "phone": "(603) 527-2610",
    "rating": 4.7,
    "reviews": 25,
    "website": "https://www.google.com/maps/search/Great+Northern+Cleaning+New+Hampshire",
    "category": "Khmer-speaking Deep cleaning in New-Hampshire",
    "description": "A long-standing cleaning service in central NH since 1981, offering a wide range of residential and commercial cleaning, including deep cleaning",
    "hours": "Mon-Fri 9AM-6PM",
    "services": [
      "Khmer-speaking Deep cleaning in New-Hampshire consultation",
      "Professional service",
      "Quality guarantee"
    ],
    "social_links": {}
  },
  {
    "name": "Kika Cleaning Services",
    "address": "Bedford, NH",
    "phone": "(603) 422-2831",
    "rating": 4.0,
    "reviews": 25,
    "website": "https://www.google.com/maps/search/Kika+Cleaning+Services+New+Hampshire",
    "category": "Khmer-speaking Deep cleaning in New-Hampshire",
    "description": "Specializes in high-standard residential and commercial cleaning with nearly two decades of experience",
    "hours": "Mon-Fri 9AM-6PM",
    "services": [
      "Khmer-speaking Deep cleaning in New-Hampshire consultation",
      "Professional service",
      "Quality guarantee"
    ],
    "social_links": {}
  },
  {
    "name": "Maid For You",
    "address": "Concord, NH (and services Hooksett, Manchester, and other nearby communities)",
    "phone": "(603) 574-4878",
    "rating": 4.0,
    "reviews": 25,
    "website": "https://www.google.com/maps/search/Maid+For+You+New+Hampshire",
    "category": "Khmer-speaking Deep cleaning in New-Hampshire",
    "description": "Offers deep cleaning services for homeowners since 2003, providing meticulous top-to-bottom cleaning",
    "hours": "Mon-Fri 9AM-6PM",
    "services": [
      "Khmer-speaking Deep cleaning in New-Hampshire consultation",
      "Professional service",
      "Quality guarantee"
    ],
    "social_links": {}
  },
  {
    "name": "Sweetly Clean",
    "address": "Seacoast NH region",
    "phone": "603-605-0210 (for commercial cleaning inquiries)",
    "rating": 4.7,
    "reviews": 25,
    "website": "https://www.google.com/maps/search/Sweetly+Clean+New+Hampshire",
    "category": "Khmer-speaking Deep cleaning in New-Hampshire",
    "description": "Revolutionized cleaning with technology, offering deep cleaning and other services with a focus on quality and customer satisfaction",
    "hours": "Mon-Fri 9AM-6PM",
    "services": [
      "Khmer-speaking Deep cleaning in New-Hampshire consultation",
      "Professional service",
      "Quality guarantee"
    ],
    "social_links": {}
  },
  {
    "name": "Penny's Cleaning Services",
    "address": "East Kingston, NH",
    "phone": "",
    "rating": 4.0,
    "reviews": 25,
    "website": "https://www.google.com/maps/search/Penny's+Cleaning+Services+New+Hampshire",
    "category": "Khmer-speaking Deep cleaning in New-Hampshire",
    "description": "Known for experience, expertise, quality, and customer service, with a reputation based on service, safety, and quality",
    "hours": "Mon-Fri 9AM-6PM",
    "services": [
      "Khmer-speaking Deep cleaning in New-Hampshire consultation",
      "Professional service",
      "Quality guarantee"
    ],
    "social_links": {}
  },
  {
    "name": "Merry Maids",
    "address": "Manchester, NH (and services Londonderry and beyond)",
    "phone": "",
    "rating": 4.0,
    "reviews": 25,
    "website": "https://www.google.com/maps/search/Merry+Maids+New+Hampshire",
    "category": "Khmer-speaking Deep cleaning in New-Hampshire",
    "description": "Offers a range of home cleaning services, including deep cleaning, with professional and friendly cleaners",
    "hours": "Mon-Fri 9AM-6PM",
    "services": [
      "Khmer-speaking Deep cleaning in New-Hampshire consultation",
      "Professional service",
      "Quality guarantee"
    ],
    "social_links": {}
  },
  {
    "name": "Green Maids",
    "address": "Portsmouth, NH (servicing the Seacoast of New Hampshire)",
    "phone": "603-605-0242",
    "rating": 4.0,
    "reviews": 25,
    "website": "https://www.google.com/maps/search/Green+Maids+New+Hampshire",
    "category": "Khmer-speaking Deep cleaning in New-Hampshire",
    "description": "Provides professional, eco-friendly house cleaning services using all-natural products",
    "hours": "Mon-Fri 9AM-6PM",
    "services": [
      "Khmer-speaking Deep cleaning in New-Hampshire consultation",
      "Professional service",
      "Quality guarantee"
    ],
    "social_links": {}
  },
  {
    "name": "DreamClean 123",
    "address": "Westmoreland, NH (and services Vermont & New Hampshire)",
    "phone": "",
    "rating": 4.0,
    "reviews": 25,
    "website": "https://www.google.com/maps/search/DreamClean+123+New+Hampshire",
    "category": "Khmer-speaking Deep cleaning in New-Hampshire",
    "description": "Offers reliable, high-quality residential cleaning services, including deep cleaning with eco-friendly products",
    "hours": "Mon-Fri 9AM-6PM",
    "services": [
      "Khmer-speaking Deep cleaning in New-Hampshire consultation",
      "Professional service",
      "Quality guarantee"
    ],
    "social_links": {}
  },
  {
    "name": "M and M Multi-Cleaning Services LLC",
    "address": "Merrimack, NH area",
    "phone": "603.856. 7260",
    "rating": 4.0,
    "reviews": 25,
    "website": "https://www.google.com/maps/search/M+and+M+Multi-Cleaning+Services+LLC+New+Hampshire",
    "category": "Khmer-speaking Deep cleaning in New-Hampshire",
    "description": "A locally-owned and operated company committed to delivering top house and office cleaning services, including deep cleaning",
    "hours": "Mon-Fri 9AM-6PM",
    "services": [
      "Khmer-speaking Deep cleaning in New-Hampshire consultation",
      "Professional service",
      "Quality guarantee"
    ],
    "social_links": {}
  },
  {
    "name": "SERVPRO of Cheshire County",
    "address": "Keene, NH (and surrounding areas)",
    "phone": "(603) 352-7251",
    "rating": 4.8,
    "reviews": 25,
    "website": "https://www.google.com/maps/search/SERVPRO+of+Cheshire+County+New+Hampshire",
    "category": "Khmer-speaking Deep cleaning in New-Hampshire",
    "description": "Offers professional cleaning services, including deep cleaning, with advanced technologies and a focus on customer satisfaction",
    "hours": "Mon-Fri 9AM-6PM",
    "services": [
      "Khmer-speaking Deep cleaning in New-Hampshire consultation",
      "Professional service",
      "Quality guarantee"
    ],
    "social_links": {}
  }
]