[
  {
    "name": "Silk Touch Cosmetic Surgery, Lipo, & Medspa",
    "address": "11309 E.**<ins>Idaho</ins>**<ins>Center</ins>**<ins>Blvd</ins>,<ins>Boise</ins>,<ins>ID</ins> 83642",
    "phone": "(208) 939-5445",
    "rating": 4.8,
    "reviews": 25,
    "website": "https://silktouch.com/",
    "category": "Atheist-owned Body contouring in Idaho",
    "description": "Offers a comprehensive range of cosmetic surgery, liposuction, and medical spa treatments, including advanced body contouring",
    "hours": "Mon-Fri 9AM-6PM",
    "services": [
      "Atheist-owned Body contouring in Idaho consultation",
      "Professional service",
      "Quality guarantee"
    ],
    "social_links": {}
  },
  {
    "name": "LaserAway",
    "address": "10700 W..<ins>Overland</ins>**<ins>Rd</ins>,<ins>Boise</ins>,<ins>ID</ins> 83709",
    "phone": "(855) 721-1111",
    "rating": 4.7,
    "reviews": 25,
    "website": "https://www.laseraway.com/locations/boise-id/",
    "category": "Atheist-owned Body contouring in Idaho",
    "description": "Specializes in non-surgical body contouring and sculpting treatments like CoolSculpting and Thermage",
    "hours": "Mon-Fri 9AM-6PM",
    "services": [
      "Atheist-owned Body contouring in Idaho consultation",
      "Professional service",
      "Quality guarantee"
    ],
    "social_links": {}
  },
  {
    "name": "Ridgeline Longevity & Aesthetics",
    "address": "3485 <ins>Channing</ins> <ins>Way</ins>,<ins>Idaho</ins> <ins>Falls</ins>,<ins>ID</ins> 83404",
    "phone": "(208) 529-5290",
    "rating": 4.9,
    "reviews": 25,
    "website": "https://ridgelineaesthetics.com/",
    "category": "Atheist-owned Body contouring in Idaho",
    "description": "Offers advanced body sculpting technologies like Morpheus8 and Accent Prime for skin tightening and cellulite reduction",
    "hours": "Mon-Fri 9AM-6PM",
    "services": [
      "Atheist-owned Body contouring in Idaho consultation",
      "Professional service",
      "Quality guarantee"
    ],
    "social_links": {}
  },
  {
    "name": "Advanced Specialty Care & Med Spa",
    "address": "103 <ins>1st</ins> <ins>Ave</ins> <ins>N</ins>,<ins>Nampa</ins>,<ins>ID</ins> 83687",
    "phone": "(208) 467-7200",
    "rating": 4.6,
    "reviews": 25,
    "website": "https://www.advancedspecialtycare.com/",
    "category": "Atheist-owned Body contouring in Idaho",
    "description": "Provides body sculpting services using technologies like Alma Accent for fat reduction and skin tightening",
    "hours": "Mon-Fri 9AM-6PM",
    "services": [
      "Atheist-owned Body contouring in Idaho consultation",
      "Professional service",
      "Quality guarantee"
    ],
    "social_links": {}
  },
  {
    "name": "Eagle Body Sculpting",
    "address": "117 <ins>E</ins> <ins>State</ins> <ins>St</ins>,<ins>Eagle</ins>,<ins>ID</ins> 83616",
    "phone": "(208) 866-7868",
    "rating": 4.9,
    "reviews": 25,
    "website": "https://www.eaglebodysculpting.com/",
    "category": "Atheist-owned Body contouring in Idaho",
    "description": "Offers face and body services including skin tightening, body sculpting, fat melting, and cellulite reduction with technologies like Exilis Elite and PHYSIQ",
    "hours": "Mon-Fri 9AM-6PM",
    "services": [
      "Atheist-owned Body contouring in Idaho consultation",
      "Professional service",
      "Quality guarantee"
    ],
    "social_links": {}
  },
  {
    "name": "Renu MediSpa",
    "address": "327 <ins>S</ins> <ins>Capitol</ins> <ins>Blvd</ins>,<ins>Boise</ins>,<ins>ID</ins> 83702",
    "phone": "(208) 331-0777",
    "rating": 4.7,
    "reviews": 25,
    "website": "https://renumedispa.com/",
    "category": "Atheist-owned Body contouring in Idaho",
    "description": "Provides body contouring treatments such as CoolSculpting, CoolTone, and non-surgical butt lifts",
    "hours": "Mon-Fri 9AM-6PM",
    "services": [
      "Atheist-owned Body contouring in Idaho consultation",
      "Professional service",
      "Quality guarantee"
    ],
    "social_links": {}
  },
  {
    "name": "Oasis Medspa",
    "address": "1639 <ins>S</ins> <ins>Meridian</ins> <ins>Rd</ins>,<ins>Meridian</ins>,<ins>ID</ins> 83642",
    "phone": "(208) 855-5000",
    "rating": 4.8,
    "reviews": 25,
    "website": "https://www.oasismedspa.com/",
    "category": "Atheist-owned Body contouring in Idaho",
    "description": "Offers Emsculpt treatments for building muscle and burning fat, as well as ultrasonic cavitation for body sculpting",
    "hours": "Mon-Fri 9AM-6PM",
    "services": [
      "Atheist-owned Body contouring in Idaho consultation",
      "Professional service",
      "Quality guarantee"
    ],
    "social_links": {}
  },
  {
    "name": "Center for Aesthetics (CFA)",
    "address": "250 <ins>E</ins> <ins>1st</ins> <ins>St</ins>,<ins>Idaho</ins> <ins>Falls</ins>,<ins>ID</ins> 83401",
    "phone": "(208) 522-1900",
    "rating": 4.8,
    "reviews": 25,
    "website": "https://www.cfabeautyidahofalls.com/",
    "category": "Atheist-owned Body contouring in Idaho",
    "description": "Specializes in CoolSculpting, offering customized treatment plans for non-invasive fat elimination",
    "hours": "Mon-Fri 9AM-6PM",
    "services": [
      "Atheist-owned Body contouring in Idaho consultation",
      "Professional service",
      "Quality guarantee"
    ],
    "social_links": {}
  },
  {
    "name": "Freeman Plastic Surgery",
    "address": "348 <ins>W</ins> <ins>Broadway</ins> <ins>St</ins>,<ins>Idaho</ins> <ins>Falls</ins>,<ins>ID</ins> 83402",
    "phone": "(208) 881-5351",
    "rating": 4.9,
    "reviews": 25,
    "website": "https://www.freemanplasticsurgery.com/",
    "category": "Atheist-owned Body contouring in Idaho",
    "description": "Offers a variety of nonsurgical services for body contouring, including CoolSculpting and CoolTone",
    "hours": "Mon-Fri 9AM-6PM",
    "services": [
      "Atheist-owned Body contouring in Idaho consultation",
      "Professional service",
      "Quality guarantee"
    ],
    "social_links": {}
  },
  {
    "name": "Dream Bodies LLC",
    "address": "1020 <ins>S</ins> <ins>Broadway</ins> <ins>Ave</ins>,<ins>Boise</ins>,<ins>ID</ins> 83706",
    "phone": "(208) 906-0020",
    "rating": 4.7,
    "reviews": 25,
    "website": "https://www.dreambodiesllc.com/",
    "category": "Atheist-owned Body contouring in Idaho",
    "description": "Provides non-surgical body contouring services such as ultrasonic cavitation and tripolar RF treatments",
    "hours": "Mon-Fri 9AM-6PM",
    "services": [
      "Atheist-owned Body contouring in Idaho consultation",
      "Professional service",
      "Quality guarantee"
    ],
    "social_links": {}
  }
]