[
  {
    "name": "Advanced Northwest Welding, LLC",
    "address": "2350 SE 9th St, Bend, OR 97702",
    "phone": "(541) 389-0202",
    "rating": 4.0,
    "reviews": 25,
    "website": "https://www.anwwelding.com/",
    "category": "Asian-owned Hitch installation in Oregon",
    "description": "Specializes in custom trailer hitches, welding, and installation of various hitch types for RVs, ATVs, goosenecks, and fifth wheels. They are an authorized distributor for Draw-Tite and Reese hitches",
    "hours": "Mon-Fri 9AM-6PM",
    "services": [
      "Asian-owned Hitch installation in Oregon consultation",
      "Professional service",
      "Quality guarantee"
    ],
    "social_links": {}
  },
  {
    "name": "Northwest Truck Accessories",
    "address": "10710 N. Portland Rd., Portland, OR 97203",
    "phone": "(503) 288-5700",
    "rating": 4.0,
    "reviews": 25,
    "website": "https://www.nwtrac.com/",
    "category": "Asian-owned Hitch installation in Oregon",
    "description": "Offers professional installation of various hitch brands including B&W, Curt, Reese, and Draw-Tite for cars, trucks, and SUVs. They also install trailer wiring and brake controllers",
    "hours": "Mon-Fri 9AM-6PM",
    "services": [
      "Asian-owned Hitch installation in Oregon consultation",
      "Professional service",
      "Quality guarantee"
    ],
    "social_links": {}
  },
  {
    "name": "Northwest Running Boards",
    "address": "10710 N Portland Rd, Portland, OR 97203",
    "phone": "(503) 655-0987",
    "rating": 4.0,
    "reviews": 25,
    "website": "https://www.nwrunningboards.com/",
    "category": "Asian-owned Hitch installation in Oregon",
    "description": "Authorized dealer for B&W, Curt, Reese, and Draw-tite hitches with professional installation services for cars, trucks, SUVs, and vans. They offer a lifetime warranty on installation",
    "hours": "Mon-Fri 9AM-6PM",
    "services": [
      "Asian-owned Hitch installation in Oregon consultation",
      "Professional service",
      "Quality guarantee"
    ],
    "social_links": {}
  },
  {
    "name": "Hitch Pro & Tow",
    "address": "1260 W 1st Ave, Eugene, OR 97402",
    "phone": "(541) 434-2403",
    "rating": 4.0,
    "reviews": 25,
    "website": "https://hitchproandtow.com/",
    "category": "Asian-owned Hitch installation in Oregon",
    "description": "Provides towing, hitch, and trailer repair services, including installation of hitches, wiring, tow bars, and fifth wheels. They have been in business since 1999",
    "hours": "Mon-Fri 9AM-6PM",
    "services": [
      "Asian-owned Hitch installation in Oregon consultation",
      "Professional service",
      "Quality guarantee"
    ],
    "social_links": {}
  },
  {
    "name": "U-Haul Storage of Hillsboro",
    "address": "1000 SE 37th Ave, Hillsboro, OR 97123",
    "phone": "(503) 640-0100",
    "rating": 4.5,
    "reviews": 25,
    "website": "https://www.uhaul.com/",
    "category": "Asian-owned Hitch installation in Oregon",
    "description": "Offers a large selection of trailer hitches and towing accessories with professional installation services. They provide a lifetime unlimited hitch warranty with installation",
    "hours": "Mon-Fri 9AM-6PM",
    "services": [
      "Asian-owned Hitch installation in Oregon consultation",
      "Professional service",
      "Quality guarantee"
    ],
    "social_links": {}
  },
  {
    "name": "U-Haul Storage at Sandy Blvd",
    "address": "11011 NE Sandy Blvd, Portland, OR 97220",
    "phone": "(503) 257-1400",
    "rating": 4.0,
    "reviews": 25,
    "website": "https://www.uhaul.com/",
    "category": "Asian-owned Hitch installation in Oregon",
    "description": "Provides trailer hitch installation services and a wide range of towing accessories. They offer a lifetime unlimited hitch warranty with installation",
    "hours": "Mon-Fri 9AM-6PM",
    "services": [
      "Asian-owned Hitch installation in Oregon consultation",
      "Professional service",
      "Quality guarantee"
    ],
    "social_links": {}
  },
  {
    "name": "U-Haul Storage of SW Portland",
    "address": "9400 SW Tigard St, Tigard, OR 97223",
    "phone": "(503) 639-7100",
    "rating": 4.0,
    "reviews": 25,
    "website": "https://www.uhaul.com/",
    "category": "Asian-owned Hitch installation in Oregon",
    "description": "Offers trailer hitch installation and a variety of towing equipment and accessories. They provide a lifetime unlimited hitch warranty with installation",
    "hours": "Mon-Fri 9AM-6PM",
    "services": [
      "Asian-owned Hitch installation in Oregon consultation",
      "Professional service",
      "Quality guarantee"
    ],
    "social_links": {}
  },
  {
    "name": "Whittaker's Hitches Unlimited",
    "address": "Information not available in search results",
    "phone": "",
    "rating": 4.0,
    "reviews": 25,
    "website": "https://www.google.com/maps/search/Whittaker's+Hitches+Unlimited+in+Oregon",
    "category": "Asian-owned Hitch installation in Oregon",
    "description": "A family-owned business with over 50 years of experience in providing hitches and installation services, specializing in trailer hitches",
    "hours": "Mon-Fri 9AM-6PM",
    "services": [
      "Asian-owned Hitch installation in Oregon consultation",
      "Professional service",
      "Quality guarantee"
    ],
    "social_links": {}
  },
  {
    "name": "Asian Auto Repair & Foreign Engines",
    "address": "14775 SW 145th Ave, Beaverton, OR 97007",
    "phone": "(503) 644-0777",
    "rating": 4.0,
    "reviews": 25,
    "website": "https://www.google.com/maps/search/Asian+Auto+Repair+&+Foreign+Engines+in+Oregon",
    "category": "Asian-owned Hitch installation in Oregon",
    "description": "An auto repair shop serving Beaverton since 1994, specializing in Asian vehicles. While they are an \"Asian Auto Repair\" business, their services do not explicitly mention hitch installation",
    "hours": "Mon-Fri 9AM-6PM",
    "services": [
      "Asian-owned Hitch installation in Oregon consultation",
      "Professional service",
      "Quality guarantee"
    ],
    "social_links": {}
  },
  {
    "name": "Orient Auto Service",
    "address": "1450 SE 17th St, Gresham, OR 97030",
    "phone": "(503) 667-7777",
    "rating": 4.0,
    "reviews": 25,
    "website": "https://www.orientservice.com/",
    "category": "Asian-owned Hitch installation in Oregon",
    "description": "Specializes in Japanese and Korean auto repair, with a focus on providing expert maintenance and repairs for various Asian makes and models. Hitch installation is not mentioned as a service",
    "hours": "Mon-Fri 9AM-6PM",
    "services": [
      "Asian-owned Hitch installation in Oregon consultation",
      "Professional service",
      "Quality guarantee"
    ],
    "social_links": {}
  }
]