[
  {
    "name": "Presto-X",
    "address": "Multiple locations in South Dakota (e.g., Sioux Falls)",
    "phone": "1-800-759-1942",
    "rating": 4.0,
    "reviews": 25,
    "website": "https://www.prestox.com/",
    "category": "Central-American-owned Rodent control in South-Dakota",
    "description": "Offers comprehensive pest control solutions for residential and commercial properties, including rodent control, with a focus on local knowledge and integrated pest management",
    "hours": "Mon-Fri 9AM-6PM",
    "services": [
      "Central-American-owned Rodent control in South-Dakota consultation",
      "Professional service",
      "Quality guarantee"
    ],
    "social_links": {}
  },
  {
    "name": "Terminix",
    "address": "Multiple locations nationwide, including South Dakota",
    "phone": "1-877-819-5061 (general inquiry number)",
    "rating": 4.0,
    "reviews": 25,
    "website": "https://www.terminix.com/",
    "category": "Central-American-owned Rodent control in South-Dakota",
    "description": "A large, established pest control company offering services for a wide range of pests, including rodents, with free initial inspections",
    "hours": "Mon-Fri 9AM-6PM",
    "services": [
      "Central-American-owned Rodent control in South-Dakota consultation",
      "Professional service",
      "Quality guarantee"
    ],
    "social_links": {}
  },
  {
    "name": "Orkin",
    "address": "Multiple locations nationwide, including South Dakota",
    "phone": "877-819-5061",
    "rating": 4.0,
    "reviews": 25,
    "website": "https://www.orkin.com/",
    "category": "Central-American-owned Rodent control in South-Dakota",
    "description": "Offers a broad range of pest control services, including rodent control, with a focus on preventative services and a satisfaction guarantee",
    "hours": "Mon-Fri 9AM-6PM",
    "services": [
      "Central-American-owned Rodent control in South-Dakota consultation",
      "Professional service",
      "Quality guarantee"
    ],
    "social_links": {}
  },
  {
    "name": "Olson's Pest Technicians",
    "address": "124 Gorder Dr, Aberdeen, SD 57401 (and other locations like Pierre)",
    "phone": "605-665-5181",
    "rating": 4.0,
    "reviews": 25,
    "website": "https://www.olsonspest.com/",
    "category": "Central-American-owned Rodent control in South-Dakota",
    "description": "Provides comprehensive rodent control and other pest management solutions for residential and commercial clients, emphasizing family and pet-friendly approaches",
    "hours": "Mon-Fri 9AM-6PM",
    "services": [
      "Central-American-owned Rodent control in South-Dakota consultation",
      "Professional service",
      "Quality guarantee"
    ],
    "social_links": {}
  },
  {
    "name": "Pests B Dead LLC",
    "address": "Brookings, SD and surrounding areas",
    "phone": "605-690-0478",
    "rating": 4.0,
    "reviews": 25,
    "website": "https://www.pestsbdead.com/",
    "category": "Central-American-owned Rodent control in South-Dakota",
    "description": "Offers a variety of pest control services, including rodent control, for residential, agricultural, and commercial customers",
    "hours": "Mon-Fri 9AM-6PM",
    "services": [
      "Central-American-owned Rodent control in South-Dakota consultation",
      "Professional service",
      "Quality guarantee"
    ],
    "social_links": {}
  },
  {
    "name": "JanTech Pest Control",
    "address": "Rapid City, SD and the Black Hills area",
    "phone": "",
    "rating": 4.0,
    "reviews": 25,
    "website": "https://jantechpestcontrol.com/",
    "category": "Central-American-owned Rodent control in South-Dakota",
    "description": "Locally owned and operated, providing customized pest control services for residential and commercial properties, understanding local pest challenges",
    "hours": "Mon-Fri 9AM-6PM",
    "services": [
      "Central-American-owned Rodent control in South-Dakota consultation",
      "Professional service",
      "Quality guarantee"
    ],
    "social_links": {}
  },
  {
    "name": "Dakota Hills Pest Service",
    "address": "Not specified, but serves South Dakota",
    "phone": "",
    "rating": 4.0,
    "reviews": 25,
    "website": "https://www.dakotahillspestservice.com/",
    "category": "Central-American-owned Rodent control in South-Dakota",
    "description": "Offers certified residential and commercial pest control, specializing in rodents, and uses eco-friendly and child-safe methods",
    "hours": "Mon-Fri 9AM-6PM",
    "services": [
      "Central-American-owned Rodent control in South-Dakota consultation",
      "Professional service",
      "Quality guarantee"
    ],
    "social_links": {}
  },
  {
    "name": "Pfitzer Pest Control",
    "address": "Serves South Dakota (e.g., Aberdeen, Huron, Mitchell, Mobridge) and Wyoming",
    "phone": "888-995-4486",
    "rating": 4.0,
    "reviews": 25,
    "website": "https://pfitzerpestcontrol.com/",
    "category": "Central-American-owned Rodent control in South-Dakota",
    "description": "Provides personalized pest control treatments for various pests, including rodents, with 24/7 support and a focus on customized plans",
    "hours": "Mon-Fri 9AM-6PM",
    "services": [
      "Central-American-owned Rodent control in South-Dakota consultation",
      "Professional service",
      "Quality guarantee"
    ],
    "social_links": {}
  },
  {
    "name": "Fenix Pest Control, Inc.",
    "address": "309 E Shadow Creek Ln #2, Harrisburg, SD 57032",
    "phone": "(605) 202-5757",
    "rating": 4.0,
    "reviews": 25,
    "website": "https://fenixpestcontrol.com/",
    "category": "Central-American-owned Rodent control in South-Dakota",
    "description": "Offers pest control services, likely including rodent control, for residential and commercial clients",
    "hours": "Mon-Fri 9AM-6PM",
    "services": [
      "Central-American-owned Rodent control in South-Dakota consultation",
      "Professional service",
      "Quality guarantee"
    ],
    "social_links": {}
  },
  {
    "name": "Anderson's Pest Control",
    "address": "707 E 41st St #200, Sioux Falls, SD 57105",
    "phone": "(605) 271-2269",
    "rating": 4.0,
    "reviews": 25,
    "website": "https://andersonpestsd.com/",
    "category": "Central-American-owned Rodent control in South-Dakota",
    "description": "Provides pest control services in Sioux Falls, which would typically include rodent control",
    "hours": "Mon-Fri 9AM-6PM",
    "services": [
      "Central-American-owned Rodent control in South-Dakota consultation",
      "Professional service",
      "Quality guarantee"
    ],
    "social_links": {}
  }
]