[
  {
    "name": "Horizon Pest Control",
    "address": "110 W. Pleasant Ave, Maywood, NJ 07607",
    "phone": "(201) 447-2530",
    "rating": 4.7,
    "reviews": 25,
    "website": "https://www.horizonpestcontrol.com/",
    "category": "Haitian-Creole-speaking Wasp control in New-Jersey",
    "description": "Offers expert wasp and bee removal, with a focus on safe and effective eradication and prevention. They provide customized treatment plans and have been serving New Jersey and New York for years",
    "hours": "Mon-Fri 9AM-6PM",
    "services": [
      "Haitian-Creole-speaking Wasp control in New-Jersey consultation",
      "Professional service",
      "Quality guarantee"
    ],
    "social_links": {}
  },
  {
    "name": "Viking Pest Control",
    "address": "141 Route 17 North, Suite 101, Paramus, NJ 07652",
    "phone": "1-800-618-2847",
    "rating": 4.6,
    "reviews": 25,
    "website": "https://www.vikingpest.com/",
    "category": "Haitian-Creole-speaking Wasp control in New-Jersey",
    "description": "Provides comprehensive pest control services, including wasp control, using Integrated Pest Management (IPM) techniques to minimize risks to humans and the environment. They offer free estimates",
    "hours": "Mon-Fri 9AM-6PM",
    "services": [
      "Haitian-Creole-speaking Wasp control in New-Jersey consultation",
      "Professional service",
      "Quality guarantee"
    ],
    "social_links": {}
  },
  {
    "name": "Arrow Pest Control",
    "address": "455 S. Rte 18, East Brunswick, NJ 08816",
    "phone": "(732) 390-0095",
    "rating": 4.7,
    "reviews": 25,
    "website": "https://www.arrowpestcontrol.com/",
    "category": "Haitian-Creole-speaking Wasp control in New-Jersey",
    "description": "Offers expert wasp extermination and nest removal, focusing on eliminating infestations at the source and providing long-term prevention. They serve various counties in New Jersey",
    "hours": "Mon-Fri 9AM-6PM",
    "services": [
      "Haitian-Creole-speaking Wasp control in New-Jersey consultation",
      "Professional service",
      "Quality guarantee"
    ],
    "social_links": {}
  },
  {
    "name": "NJ Pest Control",
    "address": "1579 NJ-23, Wayne, NJ 07470",
    "phone": "(973) 697-1200",
    "rating": 4.8,
    "reviews": 25,
    "website": "https://www.njpestcontrol.com/",
    "category": "Haitian-Creole-speaking Wasp control in New-Jersey",
    "description": "A QualityPro certified company offering customized pest control plans for homes and businesses, with a strong emphasis on customer satisfaction and ethical solutions",
    "hours": "Mon-Fri 9AM-6PM",
    "services": [
      "Haitian-Creole-speaking Wasp control in New-Jersey consultation",
      "Professional service",
      "Quality guarantee"
    ],
    "social_links": {}
  },
  {
    "name": "Action Termite and Pest Control",
    "address": "1600 Rt 88, Brick, NJ 08724",
    "phone": "(732) 451-0000",
    "rating": 4.7,
    "reviews": 25,
    "website": "https://www.actionpestcontrol.com/",
    "category": "Haitian-Creole-speaking Wasp control in New-Jersey",
    "description": "Provides top-tier pest control solutions with over 50 years of experience, offering customized plans for residential and commercial properties, including wasp control and nest removal",
    "hours": "Mon-Fri 9AM-6PM",
    "services": [
      "Haitian-Creole-speaking Wasp control in New-Jersey consultation",
      "Professional service",
      "Quality guarantee"
    ],
    "social_links": {}
  },
  {
    "name": "Cowleys Pest Services",
    "address": "1550 S. Second Street, Edison, NJ 08817",
    "phone": "1-855-239-9059",
    "rating": 4.7,
    "reviews": 25,
    "website": "https://cowleys.com/",
    "category": "Haitian-Creole-speaking Wasp control in New-Jersey",
    "description": "Specializes in bee, wasp, and hornet removal with licensed and trained technicians. They offer safe and effective treatment solutions and free estimates",
    "hours": "Mon-Fri 9AM-6PM",
    "services": [
      "Haitian-Creole-speaking Wasp control in New-Jersey consultation",
      "Professional service",
      "Quality guarantee"
    ],
    "social_links": {}
  },
  {
    "name": "Ehrlich Pest Control",
    "address": "1500 S. Clinton Ave, Trenton, NJ 08611",
    "phone": "1-800-224-7378",
    "rating": 4.5,
    "reviews": 25,
    "website": "https://www.ehrlich.com/",
    "category": "Haitian-Creole-speaking Wasp control in New-Jersey",
    "description": "Offers comprehensive pest control services, including stinging insect control, with a satisfaction guarantee. They have local technicians who understand regional pest issues",
    "hours": "Mon-Fri 9AM-6PM",
    "services": [
      "Haitian-Creole-speaking Wasp control in New-Jersey consultation",
      "Professional service",
      "Quality guarantee"
    ],
    "social_links": {}
  },
  {
    "name": "Eastern Pest Services",
    "address": "145 Route 17, Suite 101, Paramus, NJ 07652",
    "phone": "(201) 599-0000",
    "rating": 4.8,
    "reviews": 25,
    "website": "https://www.easternpestservices.com/",
    "category": "Haitian-Creole-speaking Wasp control in New-Jersey",
    "description": "A leader in bee, wasp, and hornet control in North Jersey for over 35 years, offering safe and effective removal and exclusion practices",
    "hours": "Mon-Fri 9AM-6PM",
    "services": [
      "Haitian-Creole-speaking Wasp control in New-Jersey consultation",
      "Professional service",
      "Quality guarantee"
    ],
    "social_links": {}
  },
  {
    "name": "Bee-Gone Termite & Pest Control",
    "address": "1430 Rt 70, Lakewood, NJ 08701",
    "phone": "(732) 901-2900",
    "rating": 4.7,
    "reviews": 25,
    "website": "https://www.beegonepest.com/",
    "category": "Haitian-Creole-speaking Wasp control in New-Jersey",
    "description": "Provides expert pest control services across Monmouth, Ocean, and Union Counties, specializing in stinging insects, termites, and rodents with fast, local, and affordable service",
    "hours": "Mon-Fri 9AM-6PM",
    "services": [
      "Haitian-Creole-speaking Wasp control in New-Jersey consultation",
      "Professional service",
      "Quality guarantee"
    ],
    "social_links": {}
  },
  {
    "name": "Truly Nolen",
    "address": "1200 Neptune Blvd, Neptune City, NJ 07753",
    "phone": "(732) 922-0000",
    "rating": 4.4,
    "reviews": 25,
    "website": "https://www.trulynolen.com/",
    "category": "Haitian-Creole-speaking Wasp control in New-Jersey",
    "description": "Offers environmentally conscious pest control solutions with customized treatment plans and a satisfaction guarantee. They have a strong presence in New Jersey",
    "hours": "Mon-Fri 9AM-6PM",
    "services": [
      "Haitian-Creole-speaking Wasp control in New-Jersey consultation",
      "Professional service",
      "Quality guarantee"
    ],
    "social_links": {}
  }
]