[
  {
    "name": "We Do Nail",
    "address": "3830 Atkin St Suite B, Cheyenne, WY 82001",
    "phone": "(307) 432-0066",
    "rating": 4.0,
    "reviews": 25,
    "website": "https://wedonail.com/",
    "category": "Baby-Boomer-owned Nail art in Wyoming",
    "description": "Offers expert manicures, pedicures, acrylics, and custom nail art in a clean, relaxing environment",
    "hours": "Mon-Fri 9AM-6PM",
    "services": [
      "Baby-Boomer-owned Nail art in Wyoming consultation",
      "Professional service",
      "Quality guarantee"
    ],
    "social_links": {}
  },
  {
    "name": "Luna Salon & Spa",
    "address": "306 S 2nd St, Laramie, WY 82070",
    "phone": "(307) 742-0044",
    "rating": 4.0,
    "reviews": 25,
    "website": "https://www.lunahairsalonandspa.com/",
    "category": "Baby-Boomer-owned Nail art in Wyoming",
    "description": "Provides a variety of salon services including gel polish manicures, spa pedicures, and custom nail art",
    "hours": "Mon-Fri 9AM-6PM",
    "services": [
      "Baby-Boomer-owned Nail art in Wyoming consultation",
      "Professional service",
      "Quality guarantee"
    ],
    "social_links": {}
  },
  {
    "name": "Nailpro, inc.",
    "address": "2242 Coffeen Ave, Sheridan, WY 82801",
    "phone": "(307) 673-4347",
    "rating": 4.0,
    "reviews": 25,
    "website": "https://nailproinc.com/",
    "category": "Baby-Boomer-owned Nail art in Wyoming",
    "description": "Offers professional nail care with experienced staff who artistically create nail designs and maintain high sanitation standards",
    "hours": "Mon-Fri 9AM-6PM",
    "services": [
      "Baby-Boomer-owned Nail art in Wyoming consultation",
      "Professional service",
      "Quality guarantee"
    ],
    "social_links": {}
  },
  {
    "name": "Pearl Street Nail Spa",
    "address": "135 West Pearl Avenue, Jackson, WY 83001",
    "phone": "(307) 201-1223",
    "rating": 4.0,
    "reviews": 25,
    "website": "https://www.pearlstreetnailspa.com/",
    "category": "Baby-Boomer-owned Nail art in Wyoming",
    "description": "A premier nail salon offering unique manicures and pedicures, nail care, waxing, and spa services in Jackson, Wyoming",
    "hours": "Mon-Fri 9AM-6PM",
    "services": [
      "Baby-Boomer-owned Nail art in Wyoming consultation",
      "Professional service",
      "Quality guarantee"
    ],
    "social_links": {}
  },
  {
    "name": "Opal Nails & Spa",
    "address": "215 S 3rd st, Laramie, WY 82070",
    "phone": "(307) 399-4132",
    "rating": 4.0,
    "reviews": 25,
    "website": "https://www.opalnailsandspa.com/",
    "category": "Baby-Boomer-owned Nail art in Wyoming",
    "description": "A nail salon and spa specializing in gel nail services, including extensions and manicures, with waxing services also available",
    "hours": "Mon-Fri 9AM-6PM",
    "services": [
      "Baby-Boomer-owned Nail art in Wyoming consultation",
      "Professional service",
      "Quality guarantee"
    ],
    "social_links": {}
  }
]