[
  {
    "name": "Missouri Baptist Medical Center - Genetic Counseling",
    "address": "3015 North Ballas Road, St. Louis, MO 63131",
    "phone": "(314) 434-1000",
    "rating": 4.0,
    "reviews": 25,
    "website": "https://www.bjc.org/locations/missouri-baptist-medical-center",
    "category": "Bengali-speaking Genetic testing in Missouri",
    "description": "Offers genetic counseling services to provide accurate information about family health and potential genetic disorders",
    "hours": "Mon-Fri 9AM-6PM",
    "services": [
      "Bengali-speaking Genetic testing in Missouri consultation",
      "Professional service",
      "Quality guarantee"
    ],
    "social_links": {}
  },
  {
    "name": "AccuDNA",
    "address": "10330 Old Olive Street Road, St. Louis, MO 63141",
    "phone": "(314) 222-0000",
    "rating": 4.0,
    "reviews": 25,
    "website": "https://accudna.com/",
    "category": "Bengali-speaking Genetic testing in Missouri",
    "description": "Provides DNA testing services, including paternity, siblingship, and grandparentage testing, with a focus on affordability, confidentiality, and accuracy",
    "hours": "Mon-Fri 9AM-6PM",
    "services": [
      "Bengali-speaking Genetic testing in Missouri consultation",
      "Professional service",
      "Quality guarantee"
    ],
    "social_links": {}
  },
  {
    "name": "Test Smartly Labs",
    "address": "Multiple locations in Kansas and Missouri, including 1101 NE Rice Road, Lee's Summit, MO 64086",
    "phone": "(816) 525-2140",
    "rating": 4.0,
    "reviews": 25,
    "website": "https://www.testsmartlylabs.com/",
    "category": "Bengali-speaking Genetic testing in Missouri",
    "description": "Offers accurate, confidential, and court-admissible DNA testing services for relationship verification, legal matters, ancestry, and health",
    "hours": "Mon-Fri 9AM-6PM",
    "services": [
      "Bengali-speaking Genetic testing in Missouri consultation",
      "Professional service",
      "Quality guarantee"
    ],
    "social_links": {}
  },
  {
    "name": "North Kansas City Hospital - Genetic Counseling for Cancer",
    "address": "2800 Clay Edwards Drive, North Kansas City, MO 64116",
    "phone": "(816) 691-5195",
    "rating": 4.0,
    "reviews": 25,
    "website": "https://www.nkch.org/services/cancer-care/genetic-counseling-for-cancer/",
    "category": "Bengali-speaking Genetic testing in Missouri",
    "description": "Provides genetic testing and counseling specifically for cancer, helping individuals understand hereditary cancer risks",
    "hours": "Mon-Fri 9AM-6PM",
    "services": [
      "Bengali-speaking Genetic testing in Missouri consultation",
      "Professional service",
      "Quality guarantee"
    ],
    "social_links": {}
  },
  {
    "name": "PaternityUSA.com",
    "address": "Operates through a network of collection sites across Missouri",
    "phone": "1-800-770-7000",
    "rating": 4.0,
    "reviews": 25,
    "website": "https://paternityusa.com/",
    "category": "Bengali-speaking Genetic testing in Missouri",
    "description": "Offers fast, reliable, and confidential DNA testing services, including legal and informational tests, with affordable pricing",
    "hours": "Mon-Fri 9AM-6PM",
    "services": [
      "Bengali-speaking Genetic testing in Missouri consultation",
      "Professional service",
      "Quality guarantee"
    ],
    "social_links": {}
  },
  {
    "name": "Health-Link",
    "address": "Operates through a network of collection sites across Missouri, including locations in St. Louis and Kansas City",
    "phone": "(800) 300-5000",
    "rating": 4.0,
    "reviews": 25,
    "website": "https://www.health-link.com/dna-testing-missouri/",
    "category": "Bengali-speaking Genetic testing in Missouri",
    "description": "Provides legally admissible, AABB-accredited DNA testing with results available in 48-72 hours",
    "hours": "Mon-Fri 9AM-6PM",
    "services": [
      "Bengali-speaking Genetic testing in Missouri consultation",
      "Professional service",
      "Quality guarantee"
    ],
    "social_links": {}
  },
  {
    "name": "Choice DNA",
    "address": "Available at numerous locations throughout Missouri",
    "phone": "(800) 219-4362",
    "rating": 4.0,
    "reviews": 25,
    "website": "https://choicedna.com/missouri-dna-test-labs/",
    "category": "Bengali-speaking Genetic testing in Missouri",
    "description": "Offers a wide range of DNA testing services, including prenatal paternity testing, at many locations across Missouri",
    "hours": "Mon-Fri 9AM-6PM",
    "services": [
      "Bengali-speaking Genetic testing in Missouri consultation",
      "Professional service",
      "Quality guarantee"
    ],
    "social_links": {}
  },
  {
    "name": "CoxHealth - Genetic Counseling",
    "address": "3801 S National Ave, Springfield, MO 65807",
    "phone": "(417) 269-2110",
    "rating": 4.0,
    "reviews": 25,
    "website": "https://www.coxhealth.com/services/genetics/",
    "category": "Bengali-speaking Genetic testing in Missouri",
    "description": "Provides genetic counseling to help understand family health history, genetic testing options, and potential risks for inherited diseases",
    "hours": "Mon-Fri 9AM-6PM",
    "services": [
      "Bengali-speaking Genetic testing in Missouri consultation",
      "Professional service",
      "Quality guarantee"
    ],
    "social_links": {}
  },
  {
    "name": "Mercy - Genetic Counseling",
    "address": "Multiple locations in St. Louis, including 615 South New Ballas Road, St. Louis, MO 63141",
    "phone": "(314) 251-6000",
    "rating": 4.0,
    "reviews": 25,
    "website": "https://www.mercy.net/services/women-s-health/maternal-fetal-medicine/genetic-counseling/",
    "category": "Bengali-speaking Genetic testing in Missouri",
    "description": "Offers genetic counseling to help understand how genes, birth defects, and medical conditions may run in families",
    "hours": "Mon-Fri 9AM-6PM",
    "services": [
      "Bengali-speaking Genetic testing in Missouri consultation",
      "Professional service",
      "Quality guarantee"
    ],
    "social_links": {}
  },
  {
    "name": "Siteman Cancer Center - Washington University",
    "address": "Multiple locations in the St. Louis area, including 510 S. Euclid Ave., St. Louis, MO 63110",
    "phone": "(314) 454-6093",
    "rating": 4.0,
    "reviews": 25,
    "website": "https://siteman.wustl.edu/prevention/genetic-counseling-testing/",
    "category": "Bengali-speaking Genetic testing in Missouri",
    "description": "Provides renowned genetic services, including genetic counseling and testing, with a focus on cancer predisposition and prenatal diagnosis",
    "hours": "Mon-Fri 9AM-6PM",
    "services": [
      "Bengali-speaking Genetic testing in Missouri consultation",
      "Professional service",
      "Quality guarantee"
    ],
    "social_links": {}
  }
]