[
  {
    "name": "Goshin Karate & Judo Academy",
    "address": "14646 N. Northsight Blvd., Scottsdale, AZ 85260",
    "phone": "(480) 607-0707",
    "rating": 4.0,
    "reviews": 25,
    "website": "https://www.goshinkaratejudo.com/",
    "category": "Agnostic-owned Judo classes in Arizona",
    "description": "Offers Judo and Karate classes for all ages, focusing on self-defense, discipline, and fitness",
    "hours": "Mon-Fri 9AM-6PM",
    "services": [
      "Agnostic-owned Judo classes in Arizona consultation",
      "Professional service",
      "Quality guarantee"
    ],
    "social_links": {}
  },
  {
    "name": "Arizona Judo Academy",
    "address": "1840 E. Northern Ave., Phoenix, AZ 85020",
    "phone": "(602) 944-0700",
    "rating": 4.0,
    "reviews": 25,
    "website": "https://www.arizonajudoacademy.com/",
    "category": "Agnostic-owned Judo classes in Arizona",
    "description": "Provides Judo classes for children and adults, emphasizing physical fitness, self-defense, and mental development",
    "hours": "Mon-Fri 9AM-6PM",
    "services": [
      "Agnostic-owned Judo classes in Arizona consultation",
      "Professional service",
      "Quality guarantee"
    ],
    "social_links": {}
  },
  {
    "name": "Coach Decker's Martial Arts (Freestyle Judo)",
    "address": "1560 E. Eagles Way, Mesa, AZ 85206",
    "phone": "",
    "rating": 4.0,
    "reviews": 25,
    "website": "https://coachdecker.com/judo/",
    "category": "Agnostic-owned Judo classes in Arizona",
    "description": "Offers Freestyle Judo classes for kids and adults, focusing on a developmental and inclusive approach to the sport",
    "hours": "Mon-Fri 9AM-6PM",
    "services": [
      "Agnostic-owned Judo classes in Arizona consultation",
      "Professional service",
      "Quality guarantee"
    ],
    "social_links": {}
  },
  {
    "name": "Tucson Dojo - Higher Ground",
    "address": "400 W. Congress St., Tucson, AZ 85701",
    "phone": "(520) 304-0372",
    "rating": 4.0,
    "reviews": 25,
    "website": "https://www.tucsondojo.com/",
    "category": "Agnostic-owned Judo classes in Arizona",
    "description": "Teaches traditional Kodokan Judo classes for all levels, with a focus on family values and a positive learning environment. They offer free classes",
    "hours": "Mon-Fri 9AM-6PM",
    "services": [
      "Agnostic-owned Judo classes in Arizona consultation",
      "Professional service",
      "Quality guarantee"
    ],
    "social_links": {}
  },
  {
    "name": "Shogun Judo Club",
    "address": "1001 W. Baseline Rd., Tempe, AZ 85283",
    "phone": "(480) 452-6544",
    "rating": 4.0,
    "reviews": 25,
    "website": "https://shogunjudoclub.com/",
    "category": "Agnostic-owned Judo classes in Arizona",
    "description": "A community-focused Judo club that builds champions and better humans, offering classes for all ages and experience levels. They offer a free trial week",
    "hours": "Mon-Fri 9AM-6PM",
    "services": [
      "Agnostic-owned Judo classes in Arizona consultation",
      "Professional service",
      "Quality guarantee"
    ],
    "social_links": {}
  },
  {
    "name": "Riki Judo Dojo",
    "address": "1440 S. Longmore, Mesa, AZ 85202",
    "phone": "",
    "rating": 4.0,
    "reviews": 25,
    "website": "https://www.rikidojousa.com/",
    "category": "Agnostic-owned Judo classes in Arizona",
    "description": "Focuses on traditional Kodokan Judo and offers a supportive environment for learning",
    "hours": "Mon-Fri 9AM-6PM",
    "services": [
      "Agnostic-owned Judo classes in Arizona consultation",
      "Professional service",
      "Quality guarantee"
    ],
    "social_links": {}
  },
  {
    "name": "Desert Judo",
    "address": "6602 W. Glendale Ave., Glendale, AZ 85301",
    "phone": "",
    "rating": 4.0,
    "reviews": 25,
    "website": "https://www.google.com/maps/search/Desert+Judo+in+Arizona",
    "category": "Agnostic-owned Judo classes in Arizona",
    "description": "Offers Judo classes, with a focus on children's programs",
    "hours": "Mon-Fri 9AM-6PM",
    "services": [
      "Agnostic-owned Judo classes in Arizona consultation",
      "Professional service",
      "Quality guarantee"
    ],
    "social_links": {}
  },
  {
    "name": "Cactus Sage School",
    "address": "Information not available",
    "phone": "",
    "rating": 4.0,
    "reviews": 25,
    "website": "https://www.cactussageschool.com/",
    "category": "Agnostic-owned Judo classes in Arizona",
    "description": "A traditional yet inclusive martial arts school offering instruction in Judo and other Japanese martial arts",
    "hours": "Mon-Fri 9AM-6PM",
    "services": [
      "Agnostic-owned Judo classes in Arizona consultation",
      "Professional service",
      "Quality guarantee"
    ],
    "social_links": {}
  },
  {
    "name": "Black Flag Grappling",
    "address": "14646 N. Northsight Blvd., Scottsdale, AZ 85260",
    "phone": "(480) 607-0707",
    "rating": 4.0,
    "reviews": 25,
    "website": "https://www.goshinkaratejudo.com/",
    "category": "Agnostic-owned Judo classes in Arizona",
    "description": "Offers Judo classes as part of their martial arts offerings, emphasizing fitness and self-defense",
    "hours": "Mon-Fri 9AM-6PM",
    "services": [
      "Agnostic-owned Judo classes in Arizona consultation",
      "Professional service",
      "Quality guarantee"
    ],
    "social_links": {}
  }
]