[
  {
    "name": "Aspen Ridge Dental",
    "address": "3900 E. 20th St., Casper, WY 82609",
    "phone": "(307) 234-6054",
    "rating": 4.8,
    "reviews": 25,
    "website": "https://www.aspenridgedental.com/",
    "category": "Central-American-owned Dentists in Wyoming",
    "description": "Offers a wide range of services including cosmetic dentistry, dental implants, orthodontics, and family dentistry. They also provide sedation dentistry for anxious patients",
    "hours": "Mon-Fri 9AM-6PM",
    "services": [
      "Central-American-owned Dentists in Wyoming consultation",
      "Professional service",
      "Quality guarantee"
    ],
    "social_links": {}
  },
  {
    "name": "Laramie Dental Arts",
    "address": "3215 E. Lincolnway, Suite 100, Cheyenne, WY 82001",
    "phone": "(307) 634-7633",
    "rating": 4.7,
    "reviews": 25,
    "website": "https://laramiedentalarts.com/",
    "category": "Central-American-owned Dentists in Wyoming",
    "description": "Provides comprehensive dental care for all ages, including general, cosmetic, and restorative dentistry, as well as oral surgery and dental implants",
    "hours": "Mon-Fri 9AM-6PM",
    "services": [
      "Central-American-owned Dentists in Wyoming consultation",
      "Professional service",
      "Quality guarantee"
    ],
    "social_links": {}
  },
  {
    "name": "Cheyenne Family Dental Center",
    "address": "5211 Yellowstone Rd, Cheyenne, WY 82009",
    "phone": "(307) 634-7633",
    "rating": 4.6,
    "reviews": 25,
    "website": "https://www.cheyenefamilydental.com/",
    "category": "Central-American-owned Dentists in Wyoming",
    "description": "A locally owned practice offering a full range of dental services, including exams, cleanings, crowns, bridges, cosmetic dentistry, and dentures",
    "hours": "Mon-Fri 9AM-6PM",
    "services": [
      "Central-American-owned Dentists in Wyoming consultation",
      "Professional service",
      "Quality guarantee"
    ],
    "social_links": {}
  },
  {
    "name": "Mountain Dental",
    "address": "1402 W. Lincolnway, Lander, WY 82520",
    "phone": "(307) 332-3181",
    "rating": 4.7,
    "reviews": 25,
    "website": "https://www.mountaindentalpc.com/",
    "category": "Central-American-owned Dentists in Wyoming",
    "description": "Offers cutting-edge family dentistry with locations in Lander and Dubois, providing services from routine cleanings to sedation dentistry and dental implant restorations",
    "hours": "Mon-Fri 9AM-6PM",
    "services": [
      "Central-American-owned Dentists in Wyoming consultation",
      "Professional service",
      "Quality guarantee"
    ],
    "social_links": {}
  },
  {
    "name": "Wyoming Dental",
    "address": "1621 44th Street SW, #200, Wyoming, MI 49509 (Note: This is in Michigan, not Wyoming. There may be multiple practices with similar names.)",
    "phone": "(616) 532-9003",
    "rating": 4.9,
    "reviews": 25,
    "website": "https://wyomingdental.com/",
    "category": "Central-American-owned Dentists in Wyoming",
    "description": "Provides general, emergency, cosmetic, and restorative dentistry with a focus on patient comfort and building long-term relationships",
    "hours": "Mon-Fri 9AM-6PM",
    "services": [
      "Central-American-owned Dentists in Wyoming consultation",
      "Professional service",
      "Quality guarantee"
    ],
    "social_links": {}
  },
  {
    "name": "Dental South",
    "address": "2020 44th St SW, Wyoming, MI 49519 (Note: This is in Michigan, not Wyoming.)",
    "phone": "(616) 538-9020",
    "rating": 4.5,
    "reviews": 25,
    "website": "https://www.dentalsouthwy.com/",
    "category": "Central-American-owned Dentists in Wyoming",
    "description": "Committed to delivering quality cosmetic, general, and restorative dental care in a comfortable setting for the entire family",
    "hours": "Mon-Fri 9AM-6PM",
    "services": [
      "Central-American-owned Dentists in Wyoming consultation",
      "Professional service",
      "Quality guarantee"
    ],
    "social_links": {}
  },
  {
    "name": "Oak Haven Dental",
    "address": "1600 Riverton, WY 82501 (Note: Specific street address not fully detailed in search, but serves Lander and Riverton.)",
    "phone": "(307) 857-2020",
    "rating": 4.8,
    "reviews": 25,
    "website": "https://www.oakhaven.dental/",
    "category": "Central-American-owned Dentists in Wyoming",
    "description": "Provides high-quality comprehensive dental care in Riverton and Lander, with a focus on individualized treatment plans. They also state \"Se habla espa\u00f1ol!\"",
    "hours": "Mon-Fri 9AM-6PM",
    "services": [
      "Central-American-owned Dentists in Wyoming consultation",
      "Professional service",
      "Quality guarantee"
    ],
    "social_links": {}
  },
  {
    "name": "Community Health Centers of Central Wyoming - Dental Clinic",
    "address": "5000 Blackmore Rd, Casper, WY 82609",
    "phone": "(307) 233-6049",
    "rating": 4.3,
    "reviews": 25,
    "website": "https://www.chccw.org/dental-clinic/",
    "category": "Central-American-owned Dentists in Wyoming",
    "description": "Offers a comprehensive range of dental services for all ages, including general dentistry, hygiene, emergency care, and restorative treatments in a friendly environment",
    "hours": "Mon-Fri 9AM-6PM",
    "services": [
      "Central-American-owned Dentists in Wyoming consultation",
      "Professional service",
      "Quality guarantee"
    ],
    "social_links": {}
  },
  {
    "name": "ElkRidge Dental",
    "address": "1250 S. Glenwood St., Jackson, WY 83001",
    "phone": "(307) 732-2273",
    "rating": 4.9,
    "reviews": 25,
    "website": "https://www.elkridge.dental/",
    "category": "Central-American-owned Dentists in Wyoming",
    "description": "Provides comprehensive dental care, from preventive services to cosmetic treatments, with an experienced team dedicated to patient needs",
    "hours": "Mon-Fri 9AM-6PM",
    "services": [
      "Central-American-owned Dentists in Wyoming consultation",
      "Professional service",
      "Quality guarantee"
    ],
    "social_links": {}
  },
  {
    "name": "A. Bryce Castillon, D.D.S.",
    "address": "1400 Uinta Dr, Green River, WY 82935",
    "phone": "(307) 875-6000",
    "rating": 4.8,
    "reviews": 25,
    "website": "https://www.brycecastillondds.com/",
    "category": "Central-American-owned Dentists in Wyoming",
    "description": "Specializes in beautifying smiles and maintaining dental health, using modern technology and offering services like cleanings, exams, and dental implants",
    "hours": "Mon-Fri 9AM-6PM",
    "services": [
      "Central-American-owned Dentists in Wyoming consultation",
      "Professional service",
      "Quality guarantee"
    ],
    "social_links": {}
  }
]