[
  {
    "name": "The Man Barber",
    "address": "151 N University Ave, Provo, UT 84601",
    "phone": "(801) 374-2277",
    "rating": 4.8,
    "reviews": 25,
    "website": "https://www.themanbarber.com/",
    "category": "Catholic-owned Men's grooming in Utah",
    "description": "A traditional, full-service barbershop offering classic haircuts, straight razor shaves, and beard trims in an old-school environment",
    "hours": "Mon-Fri 9AM-6PM",
    "services": [
      "Catholic-owned Men's grooming in Utah consultation",
      "Professional service",
      "Quality guarantee"
    ],
    "social_links": {}
  },
  {
    "name": "Oscars Barbershop (South Jordan)",
    "address": "3731 S Jordan Pkwy Ste 101, South Jordan, UT 84009",
    "phone": "(385) 281-2158",
    "rating": 4.7,
    "reviews": 25,
    "website": "https://www.oscarsbarbershop.com/",
    "category": "Catholic-owned Men's grooming in Utah",
    "description": "Offers professional haircuts, beard trims, hot towel shaves, and more with a focus on customer confidence and a welcoming atmosphere",
    "hours": "Mon-Fri 9AM-6PM",
    "services": [
      "Catholic-owned Men's grooming in Utah consultation",
      "Professional service",
      "Quality guarantee"
    ],
    "social_links": {}
  },
  {
    "name": "City Barbers",
    "address": "151 E 400 S, Salt Lake City, UT 84111",
    "phone": "(801) 355-1000",
    "rating": 4.8,
    "reviews": 25,
    "website": "https://www.citybarbers.com/",
    "category": "Catholic-owned Men's grooming in Utah",
    "description": "A top-rated barbershop providing premium grooming services with a blend of traditional craftsmanship and modern style",
    "hours": "Mon-Fri 9AM-6PM",
    "services": [
      "Catholic-owned Men's grooming in Utah consultation",
      "Professional service",
      "Quality guarantee"
    ],
    "social_links": {}
  },
  {
    "name": "The Bureau Barber + Shop",
    "address": "318 E Broadway, Salt Lake City, UT 84111",
    "phone": "(801) 876-5110",
    "rating": 4.8,
    "reviews": 25,
    "website": "https://www.thebureaubarber.com/",
    "category": "Catholic-owned Men's grooming in Utah",
    "description": "A premier barbershop in downtown Salt Lake City known for precision cuts, traditional straight razor shaves, and a laid-back atmosphere",
    "hours": "Mon-Fri 9AM-6PM",
    "services": [
      "Catholic-owned Men's grooming in Utah consultation",
      "Professional service",
      "Quality guarantee"
    ],
    "social_links": {}
  },
  {
    "name": "Landis Lifestyle Salon",
    "address": "3939 Highland Dr, Salt Lake City, UT 84124",
    "phone": "(801) 272-0202",
    "rating": 4.6,
    "reviews": 25,
    "website": "https://www.landissalon.com/",
    "category": "Catholic-owned Men's grooming in Utah",
    "description": "An Aveda Salon offering a full array of men's services, including cuts, styling, and botanical hair and scalp therapy",
    "hours": "Mon-Fri 9AM-6PM",
    "services": [
      "Catholic-owned Men's grooming in Utah consultation",
      "Professional service",
      "Quality guarantee"
    ],
    "social_links": {}
  },
  {
    "name": "Aspen Salon",
    "address": "482 W 1200 N, Provo, UT 84604",
    "phone": "(801) 373-0700",
    "rating": 4.5,
    "reviews": 25,
    "website": "https://aspensalon.com/",
    "category": "Catholic-owned Men's grooming in Utah",
    "description": "A highly-rated salon in Provo offering a range of hair services for men, including cuts and styling",
    "hours": "Mon-Fri 9AM-6PM",
    "services": [
      "Catholic-owned Men's grooming in Utah consultation",
      "Professional service",
      "Quality guarantee"
    ],
    "social_links": {}
  },
  {
    "name": "Trolley Square Barbers",
    "address": "732 E 500 S, Salt Lake City, UT 84102",
    "phone": "(801) 596-7111",
    "rating": 4.7,
    "reviews": 25,
    "website": "https://www.trolleysquarebarbers.com/",
    "category": "Catholic-owned Men's grooming in Utah",
    "description": "Provides the traditional barber shop experience with services like beard trims, face shaves, and haircuts",
    "hours": "Mon-Fri 9AM-6PM",
    "services": [
      "Catholic-owned Men's grooming in Utah consultation",
      "Professional service",
      "Quality guarantee"
    ],
    "social_links": {}
  },
  {
    "name": "Savant Barbershops",
    "address": "Multiple locations, including 1136 E 2100 S, Salt Lake City, UT 84106",
    "phone": "(801) 485-3700",
    "rating": 4.7,
    "reviews": 25,
    "website": "https://www.savantbarbershops.com/",
    "category": "Catholic-owned Men's grooming in Utah",
    "description": "Offers grooming services with a focus on making clients look their best, with multiple locations across Utah",
    "hours": "Mon-Fri 9AM-6PM",
    "services": [
      "Catholic-owned Men's grooming in Utah consultation",
      "Professional service",
      "Quality guarantee"
    ],
    "social_links": {}
  },
  {
    "name": "Salt Lake Barber Co.",
    "address": "10 E 800 S, Salt Lake City, UT 84111",
    "phone": "(385) 261-2196",
    "rating": 4.8,
    "reviews": 25,
    "website": "https://www.saltlakebarberco.com/",
    "category": "Catholic-owned Men's grooming in Utah",
    "description": "A community-focused barbershop that celebrates diversity and offers high-level service for everyone",
    "hours": "Mon-Fri 9AM-6PM",
    "services": [
      "Catholic-owned Men's grooming in Utah consultation",
      "Professional service",
      "Quality guarantee"
    ],
    "social_links": {}
  },
  {
    "name": "UWM Barbershop",
    "address": "132 E 300 S, Salt Lake City, UT 84111",
    "phone": "(801) 876-5050",
    "rating": 4.9,
    "reviews": 25,
    "website": "https://www.uwmslc.com/",
    "category": "Catholic-owned Men's grooming in Utah",
    "description": "A traditional barbershop in Salt Lake City focused on restoring the artistry of barbering with personalized services",
    "hours": "Mon-Fri 9AM-6PM",
    "services": [
      "Catholic-owned Men's grooming in Utah consultation",
      "Professional service",
      "Quality guarantee"
    ],
    "social_links": {}
  }
]