[
  {
    "name": "South Carolina Veterinary Specialists & Emergency Care",
    "address": "3924 Fernandina Rd, Columbia, South Carolina 29210",
    "phone": "(803) 561-0015",
    "rating": 4.0,
    "reviews": 25,
    "website": "https://scvsc.com/",
    "category": "Catholic-owned Specialty veterinary in South-Carolina",
    "description": "Offers 24/7 emergency veterinary care and a range of specialty services",
    "hours": "Mon-Fri 9AM-6PM",
    "services": [
      "Catholic-owned Specialty veterinary in South-Carolina consultation",
      "Professional service",
      "Quality guarantee"
    ],
    "social_links": {}
  },
  {
    "name": "Carolina Veterinary Specialists (Rock Hill)",
    "address": "760 Addison Ave, Rock Hill, SC 29730",
    "phone": "(803) 909-8300",
    "rating": 4.0,
    "reviews": 25,
    "website": "https://www.carolinavet.com/",
    "category": "Catholic-owned Specialty veterinary in South-Carolina",
    "description": "Provides specialty and emergency veterinary care with board-certified specialists",
    "hours": "Mon-Fri 9AM-6PM",
    "services": [
      "Catholic-owned Specialty veterinary in South-Carolina consultation",
      "Professional service",
      "Quality guarantee"
    ],
    "social_links": {}
  },
  {
    "name": "Palmetto Veterinary Specialist",
    "address": "Mobile service for clinics across SC & NC",
    "phone": "",
    "rating": 4.0,
    "reviews": 25,
    "website": "https://www.palmettospecialist.com/",
    "category": "Catholic-owned Specialty veterinary in South-Carolina",
    "description": "Mobile veterinary surgical services, including orthopedic and soft tissue procedures, performed by board-certified surgeons",
    "hours": "Mon-Fri 9AM-6PM",
    "services": [
      "Catholic-owned Specialty veterinary in South-Carolina consultation",
      "Professional service",
      "Quality guarantee"
    ],
    "social_links": {}
  },
  {
    "name": "Upstate Vet Emergency & Specialty Care - Greenville",
    "address": "393 Woods Lake Rd, Greenville, SC 29607",
    "phone": "(864) 233-7650",
    "rating": 4.0,
    "reviews": 25,
    "website": "https://www.upstatevet.com/",
    "category": "Catholic-owned Specialty veterinary in South-Carolina",
    "description": "Offers emergency and specialty veterinary care",
    "hours": "Mon-Fri 9AM-6PM",
    "services": [
      "Catholic-owned Specialty veterinary in South-Carolina consultation",
      "Professional service",
      "Quality guarantee"
    ],
    "social_links": {}
  },
  {
    "name": "God's Creature Animal Hospital",
    "address": "136 S Howard Avenue, Landrum, SC 29356",
    "phone": "(864) 457-3565",
    "rating": 4.0,
    "reviews": 25,
    "website": "https://www.godscreaturesanimalhospital.com/",
    "category": "Catholic-owned Specialty veterinary in South-Carolina",
    "description": "A Christian-based veterinary hospital providing quality and compassionate care",
    "hours": "Mon-Fri 9AM-6PM",
    "services": [
      "Catholic-owned Specialty veterinary in South-Carolina consultation",
      "Professional service",
      "Quality guarantee"
    ],
    "social_links": {}
  },
  {
    "name": "Capital Animal Hospital",
    "address": "Columbia, SC (Specific address not detailed in search results, but located in Columbia)",
    "phone": "",
    "rating": 4.0,
    "reviews": 25,
    "website": "https://www.capitalanimalhospital.com/",
    "category": "Catholic-owned Specialty veterinary in South-Carolina",
    "description": "Focuses on advanced orthopedic surgeries for dogs and cats",
    "hours": "Mon-Fri 9AM-6PM",
    "services": [
      "Catholic-owned Specialty veterinary in South-Carolina consultation",
      "Professional service",
      "Quality guarantee"
    ],
    "social_links": {}
  },
  {
    "name": "Carolina Integrative Veterinary Hospital",
    "address": "Fort Mill, SC (Specific address not detailed in search results, but located in Fort Mill)",
    "phone": "(803) 548-2010",
    "rating": 4.0,
    "reviews": 25,
    "website": "https://www.carolinaintegrativevet.com/",
    "category": "Catholic-owned Specialty veterinary in South-Carolina",
    "description": "Offers holistic and integrative veterinary care",
    "hours": "Mon-Fri 9AM-6PM",
    "services": [
      "Catholic-owned Specialty veterinary in South-Carolina consultation",
      "Professional service",
      "Quality guarantee"
    ],
    "social_links": {}
  },
  {
    "name": "Florence Animal Hospital",
    "address": "Florence, SC (Specific address not detailed in search results, but located in Florence)",
    "phone": "",
    "rating": 4.0,
    "reviews": 25,
    "website": "https://florenceanimalhospital.com/",
    "category": "Catholic-owned Specialty veterinary in South-Carolina",
    "description": "Provides a wide range of veterinary services, including specialized services like orthopedic surgeries",
    "hours": "Mon-Fri 9AM-6PM",
    "services": [
      "Catholic-owned Specialty veterinary in South-Carolina consultation",
      "Professional service",
      "Quality guarantee"
    ],
    "social_links": {}
  },
  {
    "name": "Hartsville Animal Hospital",
    "address": "Hartsville, SC (Specific address not detailed in search results, but located in Hartsville)",
    "phone": "",
    "rating": 4.0,
    "reviews": 25,
    "website": "https://florenceanimalhospital.com/",
    "category": "Catholic-owned Specialty veterinary in South-Carolina",
    "description": "Offers comprehensive veterinary care, similar to Florence Animal Hospital",
    "hours": "Mon-Fri 9AM-6PM",
    "services": [
      "Catholic-owned Specialty veterinary in South-Carolina consultation",
      "Professional service",
      "Quality guarantee"
    ],
    "social_links": {}
  },
  {
    "name": "Animal Hospital of South Carolina",
    "address": "Pawleys Island, SC (Specific address not detailed in search results, but located in Pawleys Island)",
    "phone": "843-979-4410",
    "rating": 4.0,
    "reviews": 25,
    "website": "https://www.animalhospitalse.com/",
    "category": "Catholic-owned Specialty veterinary in South-Carolina",
    "description": "A full-service animal hospital offering routine, medical, surgical, and dental care, and also sees exotics, pocket pets, and birds",
    "hours": "Mon-Fri 9AM-6PM",
    "services": [
      "Catholic-owned Specialty veterinary in South-Carolina consultation",
      "Professional service",
      "Quality guarantee"
    ],
    "social_links": {}
  }
]