[
  {
    "name": "All Tech Automotive",
    "address": "Multiple locations in Omaha, NE, including West Omaha and Millard",
    "phone": "(402) 932-7000 (for Omaha location)",
    "rating": 4.0,
    "reviews": 25,
    "website": "https://www.alltechauto.com/",
    "category": "Black-owned Starter repair in Nebraska",
    "description": "Specializes in starter replacement and other auto electrical repair diagnostics. They offer mobile auto truck repair as well",
    "hours": "Mon-Fri 9AM-6PM",
    "services": [
      "Black-owned Starter repair in Nebraska consultation",
      "Professional service",
      "Quality guarantee"
    ],
    "social_links": {}
  },
  {
    "name": "Norm's Car Care",
    "address": "3440 N 27th St, Lincoln, NE 68510",
    "phone": "(402) 483-2418",
    "rating": 4.0,
    "reviews": 25,
    "website": "https://www.normscarcare.com/",
    "category": "Black-owned Starter repair in Nebraska",
    "description": "Offers auto electrical repair, including battery testing and replacement, and can diagnose and solve starter issues",
    "hours": "Mon-Fri 9AM-6PM",
    "services": [
      "Black-owned Starter repair in Nebraska consultation",
      "Professional service",
      "Quality guarantee"
    ],
    "social_links": {}
  },
  {
    "name": "Heartland Tires & Treads",
    "address": "6410 N 56th Street, Lincoln, NE 68504 and 6223 Grover Street, Omaha, NE 68106",
    "phone": "Lincoln: (402) 476-7200, Omaha: (402) 393-8900",
    "rating": 4.0,
    "reviews": 25,
    "website": "https://www.heartland-tire.com/",
    "category": "Black-owned Starter repair in Nebraska",
    "description": "Provides starter replacement services and can help identify the right starter for your vehicle",
    "hours": "Mon-Fri 9AM-6PM",
    "services": [
      "Black-owned Starter repair in Nebraska consultation",
      "Professional service",
      "Quality guarantee"
    ],
    "social_links": {}
  },
  {
    "name": "Nemnich Automotive",
    "address": "1220 10th St, Gering, NE 69341",
    "phone": "(308) 436-5500",
    "rating": 4.0,
    "reviews": 25,
    "website": "https://www.nemnichautomotive.com/",
    "category": "Black-owned Starter repair in Nebraska",
    "description": "Specializes in starter replacement services and can diagnose and fix starter issues",
    "hours": "Mon-Fri 9AM-6PM",
    "services": [
      "Black-owned Starter repair in Nebraska consultation",
      "Professional service",
      "Quality guarantee"
    ],
    "social_links": {}
  },
  {
    "name": "Lincoln Auto Repair",
    "address": "1120 R St, Lincoln, NE 68508",
    "phone": "(402) 477-4111",
    "rating": 4.0,
    "reviews": 25,
    "website": "https://www.lincolnautorepair.com/",
    "category": "Black-owned Starter repair in Nebraska",
    "description": "Offers a wide range of auto repair services, likely including starter repair",
    "hours": "Mon-Fri 9AM-6PM",
    "services": [
      "Black-owned Starter repair in Nebraska consultation",
      "Professional service",
      "Quality guarantee"
    ],
    "social_links": {}
  },
  {
    "name": "Central Nebraska Automotive",
    "address": "1611 North Hastings, Hastings, NE 68901",
    "phone": "(402) 463-4571",
    "rating": 4.0,
    "reviews": 25,
    "website": "https://centralneautomotive.com/",
    "category": "Black-owned Starter repair in Nebraska",
    "description": "Offers various auto repair and maintenance services, likely including starter repair",
    "hours": "Mon-Fri 9AM-6PM",
    "services": [
      "Black-owned Starter repair in Nebraska consultation",
      "Professional service",
      "Quality guarantee"
    ],
    "social_links": {}
  },
  {
    "name": "Auto Station",
    "address": "13209 Q Street, Omaha, NE 68137",
    "phone": "(402) 224-6680",
    "rating": 4.0,
    "reviews": 25,
    "website": "https://www.autostationomaha.com/",
    "category": "Black-owned Starter repair in Nebraska",
    "description": "Offers reliable, high-quality auto repair services at affordable prices",
    "hours": "Mon-Fri 9AM-6PM",
    "services": [
      "Black-owned Starter repair in Nebraska consultation",
      "Professional service",
      "Quality guarantee"
    ],
    "social_links": {}
  },
  {
    "name": "Meyers Auto Service",
    "address": "7707 Maple St, Omaha, NE 68134",
    "phone": "(402) 572-7111",
    "rating": 4.0,
    "reviews": 25,
    "website": "https://meyersautoservice.com/",
    "category": "Black-owned Starter repair in Nebraska",
    "description": "Provides quality repairs and maintenance for vehicles, likely including starter services",
    "hours": "Mon-Fri 9AM-6PM",
    "services": [
      "Black-owned Starter repair in Nebraska consultation",
      "Professional service",
      "Quality guarantee"
    ],
    "social_links": {}
  },
  {
    "name": "Auto Specialists, Inc.",
    "address": "8261 West Center Rd, Omaha, NE 68124",
    "phone": "(402) 393-9009",
    "rating": 4.0,
    "reviews": 25,
    "website": "https://www.autospecialistsomaha.com/",
    "category": "Black-owned Starter repair in Nebraska",
    "description": "A full-service automotive repair center handling various needs, including engine and electrical systems",
    "hours": "Mon-Fri 9AM-6PM",
    "services": [
      "Black-owned Starter repair in Nebraska consultation",
      "Professional service",
      "Quality guarantee"
    ],
    "social_links": {}
  },
  {
    "name": "Mr. Tire",
    "address": "Multiple locations in Nebraska, including Omaha",
    "phone": "",
    "rating": 4.0,
    "reviews": 25,
    "website": "https://www.mrtire.com/",
    "category": "Black-owned Starter repair in Nebraska",
    "description": "Offers a complete line of auto repair services, including maintenance and tire services",
    "hours": "Mon-Fri 9AM-6PM",
    "services": [
      "Black-owned Starter repair in Nebraska consultation",
      "Professional service",
      "Quality guarantee"
    ],
    "social_links": {}
  }
]