[
  {
    "name": "Morales Landscaping & Pinestraw",
    "address": "1015 N Pleasantburg Dr, Greenville, SC 29607",
    "phone": "(864) 244-1000",
    "rating": 4.6,
    "reviews": 25,
    "website": "https://moraleslandscaping.com/",
    "category": "Haitian-Creole-speaking Drought-resistant landscaping in South-Carolina",
    "description": "Specializes in the design and installation of low-maintenance, drought-tolerant xeriscapes using natural stone, river rock, and native plantings",
    "hours": "Mon-Fri 9AM-6PM",
    "services": [
      "Haitian-Creole-speaking Drought-resistant landscaping in South-Carolina consultation",
      "Professional service",
      "Quality guarantee"
    ],
    "social_links": {}
  },
  {
    "name": "Carolina Services Grounds Division",
    "address": "1049 Johnnie Dodds Blvd, Mt Pleasant, SC 29464",
    "phone": "(843) 881-7000",
    "rating": 4.0,
    "reviews": 25,
    "website": "https://www.carolinaservices.com/",
    "category": "Haitian-Creole-speaking Drought-resistant landscaping in South-Carolina",
    "description": "Offers commercial landscaping and ground services with expertise in drought-resistant plants suitable for the Charleston climate",
    "hours": "Mon-Fri 9AM-6PM",
    "services": [
      "Haitian-Creole-speaking Drought-resistant landscaping in South-Carolina consultation",
      "Professional service",
      "Quality guarantee"
    ],
    "social_links": {}
  },
  {
    "name": "Palmetto Green Landscaping and Design",
    "address": "1015 Johnnie Dodds Blvd, Mt Pleasant, SC 29464",
    "phone": "(843) 881-7000",
    "rating": 4.0,
    "reviews": 25,
    "website": "https://www.palmettogreen.com/",
    "category": "Haitian-Creole-speaking Drought-resistant landscaping in South-Carolina",
    "description": "Creates custom-built landscapes that can serve as outdoor extensions of homes, likely incorporating drought-resistant principles",
    "hours": "Mon-Fri 9AM-6PM",
    "services": [
      "Haitian-Creole-speaking Drought-resistant landscaping in South-Carolina consultation",
      "Professional service",
      "Quality guarantee"
    ],
    "social_links": {}
  },
  {
    "name": "Beyond Green Property Care",
    "address": "1000 Johnnie Dodds Blvd, Mt Pleasant, SC 29464",
    "phone": "(843) 881-7000",
    "rating": 4.0,
    "reviews": 25,
    "website": "https://www.beyondgreenpropertycare.com/",
    "category": "Haitian-Creole-speaking Drought-resistant landscaping in South-Carolina",
    "description": "Specializes in residential and commercial outdoor care, including lawn care, and likely offers drought-resistant solutions",
    "hours": "Mon-Fri 9AM-6PM",
    "services": [
      "Haitian-Creole-speaking Drought-resistant landscaping in South-Carolina consultation",
      "Professional service",
      "Quality guarantee"
    ],
    "social_links": {}
  },
  {
    "name": "Heritage Landcare",
    "address": "1000 Johnnie Dodds Blvd, Mt Pleasant, SC 29464",
    "phone": "(843) 881-7000",
    "rating": 4.0,
    "reviews": 25,
    "website": "https://www.heritagelandcare.com/",
    "category": "Haitian-Creole-speaking Drought-resistant landscaping in South-Carolina",
    "description": "Provides commercial landcare, landscape installation, management, and sustainable land solutions across South Carolina",
    "hours": "Mon-Fri 9AM-6PM",
    "services": [
      "Haitian-Creole-speaking Drought-resistant landscaping in South-Carolina consultation",
      "Professional service",
      "Quality guarantee"
    ],
    "social_links": {}
  },
  {
    "name": "Kent Services SC, LLC",
    "address": "1000 Johnnie Dodds Blvd, Mt Pleasant, SC 29464",
    "phone": "(843) 881-7000",
    "rating": 4.0,
    "reviews": 25,
    "website": "https://kentservices.com/",
    "category": "Haitian-Creole-speaking Drought-resistant landscaping in South-Carolina",
    "description": "Offers a wide range of landscaping needs with a focus on professionalism, timeliness, and customer satisfaction, likely including drought-resistant options",
    "hours": "Mon-Fri 9AM-6PM",
    "services": [
      "Haitian-Creole-speaking Drought-resistant landscaping in South-Carolina consultation",
      "Professional service",
      "Quality guarantee"
    ],
    "social_links": {}
  },
  {
    "name": "Old South Landscaping",
    "address": "1000 Johnnie Dodds Blvd, Mt Pleasant, SC 29464",
    "phone": "(843) 881-7000",
    "rating": 4.0,
    "reviews": 25,
    "website": "https://oldsouthlandscaping.com/",
    "category": "Haitian-Creole-speaking Drought-resistant landscaping in South-Carolina",
    "description": "Provides various landscaping services, including hardscapes, irrigation systems, and professional landscaping, with a focus on customer satisfaction",
    "hours": "Mon-Fri 9AM-6PM",
    "services": [
      "Haitian-Creole-speaking Drought-resistant landscaping in South-Carolina consultation",
      "Professional service",
      "Quality guarantee"
    ],
    "social_links": {}
  },
  {
    "name": "P3 Design Build",
    "address": "1000 Johnnie Dodds Blvd, Mt Pleasant, SC 29464",
    "phone": "(843) 881-7000",
    "rating": 4.0,
    "reviews": 25,
    "website": "https://p3designbuild.com/",
    "category": "Haitian-Creole-speaking Drought-resistant landscaping in South-Carolina",
    "description": "A locally owned outdoor design and construction company specializing in commercial landcare maintenance, patios, retaining walls, and landscape transformations",
    "hours": "Mon-Fri 9AM-6PM",
    "services": [
      "Haitian-Creole-speaking Drought-resistant landscaping in South-Carolina consultation",
      "Professional service",
      "Quality guarantee"
    ],
    "social_links": {}
  },
  {
    "name": "Between The Edges Lawn Care & Landscaping, Inc.",
    "address": "1000 Johnnie Dodds Blvd, Mt Pleasant, SC 29464",
    "phone": "(843) 881-7000",
    "rating": 4.0,
    "reviews": 25,
    "website": "https://betweentheedges.com/",
    "category": "Haitian-Creole-speaking Drought-resistant landscaping in South-Carolina",
    "description": "Offers comprehensive lawn care and landscaping services, likely including drought-resistant solutions",
    "hours": "Mon-Fri 9AM-6PM",
    "services": [
      "Haitian-Creole-speaking Drought-resistant landscaping in South-Carolina consultation",
      "Professional service",
      "Quality guarantee"
    ],
    "social_links": {}
  },
  {
    "name": "Home Grown Landscaping",
    "address": "1000 Johnnie Dodds Blvd, Mt Pleasant, SC 29464",
    "phone": "(843) 881-7000",
    "rating": 4.0,
    "reviews": 25,
    "website": "https://homegrownlandscaping.com/",
    "category": "Haitian-Creole-speaking Drought-resistant landscaping in South-Carolina",
    "description": "A highly recommended landscaping service known for top-notch work and customer satisfaction",
    "hours": "Mon-Fri 9AM-6PM",
    "services": [
      "Haitian-Creole-speaking Drought-resistant landscaping in South-Carolina consultation",
      "Professional service",
      "Quality guarantee"
    ],
    "social_links": {}
  }
]