[
  {
    "name": "Colorado Eye Consultants",
    "address": "Littleton, CO (Specific street address not provided in search results)",
    "phone": "",
    "rating": 4.0,
    "reviews": 25,
    "website": "https://www.coloradoeyeconsultants.com/",
    "category": "Baby-Boomer-owned Optical retail in Colorado",
    "description": "Offers a wide selection of frames and personalized care from trained opticians",
    "hours": "Mon-Fri 9AM-6PM",
    "services": [
      "Baby-Boomer-owned Optical retail in Colorado consultation",
      "Professional service",
      "Quality guarantee"
    ],
    "social_links": {}
  },
  {
    "name": "Look Optical",
    "address": "Denver metro area, CO (Specific street address not provided in search results)",
    "phone": "",
    "rating": 4.0,
    "reviews": 25,
    "website": "https://lookoptical.com/",
    "category": "Baby-Boomer-owned Optical retail in Colorado",
    "description": "Provides comprehensive eye exams, vision therapy, and a wide variety of eyeglasses and specialty contact lenses",
    "hours": "Mon-Fri 9AM-6PM",
    "services": [
      "Baby-Boomer-owned Optical retail in Colorado consultation",
      "Professional service",
      "Quality guarantee"
    ],
    "social_links": {}
  },
  {
    "name": "Europtics - Cherry Creek",
    "address": "100 Fillmore St, Denver, CO 80206",
    "phone": "+1 303-321-3000",
    "rating": 4.5,
    "reviews": 25,
    "website": "https://www.google.com/maps/search/Europtics+-+Cherry+Creek+in+Colorado",
    "category": "Baby-Boomer-owned Optical retail in Colorado",
    "description": "Eyewear gallery with a large selection of independent eyeglasses and sunglasses, offering custom-fit lenses",
    "hours": "Mon-Fri 9AM-6PM",
    "services": [
      "Baby-Boomer-owned Optical retail in Colorado consultation",
      "Professional service",
      "Quality guarantee"
    ],
    "social_links": {}
  },
  {
    "name": "International Optique",
    "address": "7800 E Hampden Ave, Denver, CO 80231",
    "phone": "+1 303-755-9880",
    "rating": 4.8,
    "reviews": 25,
    "website": "https://www.google.com/maps/search/International+Optique+in+Colorado",
    "category": "Baby-Boomer-owned Optical retail in Colorado",
    "description": "Offers top consultation, eye tests, and a selection of brands like Lindberg and Theo",
    "hours": "Mon-Fri 9AM-6PM",
    "services": [
      "Baby-Boomer-owned Optical retail in Colorado consultation",
      "Professional service",
      "Quality guarantee"
    ],
    "social_links": {}
  },
  {
    "name": "Central Denver Eye Care",
    "address": "1075 Acoma St, Denver, CO 80204",
    "phone": "+1 720-255-2412",
    "rating": 4.0,
    "reviews": 25,
    "website": "https://www.google.com/maps/search/Central+Denver+Eye+Care+in+Colorado",
    "category": "Baby-Boomer-owned Optical retail in Colorado",
    "description": "Provides eye tests and consultation, carrying brands such as Morel",
    "hours": "Mon-Fri 9AM-6PM",
    "services": [
      "Baby-Boomer-owned Optical retail in Colorado consultation",
      "Professional service",
      "Quality guarantee"
    ],
    "social_links": {}
  },
  {
    "name": "MyEyeDr.",
    "address": "1050 17th St, Denver, CO 80265",
    "phone": "+1 303-298-9410",
    "rating": 4.0,
    "reviews": 25,
    "website": "https://www.google.com/maps/search/MyEyeDr.+in+Colorado",
    "category": "Baby-Boomer-owned Optical retail in Colorado",
    "description": "Offers eye care services and carries brands like Matsuda",
    "hours": "Mon-Fri 9AM-6PM",
    "services": [
      "Baby-Boomer-owned Optical retail in Colorado consultation",
      "Professional service",
      "Quality guarantee"
    ],
    "social_links": {}
  },
  {
    "name": "University of Colorado Denver",
    "address": "1201 Larimer St, Denver, CO 80204",
    "phone": "+1 303-315-5969",
    "rating": 4.0,
    "reviews": 25,
    "website": "https://www.google.com/maps/search/University+of+Colorado+Denver+in+Colorado",
    "category": "Baby-Boomer-owned Optical retail in Colorado",
    "description": "(Description not provided in search results, likely a university clinic or department)",
    "hours": "Mon-Fri 9AM-6PM",
    "services": [
      "Baby-Boomer-owned Optical retail in Colorado consultation",
      "Professional service",
      "Quality guarantee"
    ],
    "social_links": {}
  },
  {
    "name": "Optique of Denver",
    "address": "1525 15th St, Denver, CO 80202",
    "phone": "+1 720-617-2321",
    "rating": 4.0,
    "reviews": 25,
    "website": "https://www.google.com/maps/search/Optique+of+Denver+in+Colorado",
    "category": "Baby-Boomer-owned Optical retail in Colorado",
    "description": "Offers a selection of brands including Barton Perreira, Face \u00e0 Face, and Theo",
    "hours": "Mon-Fri 9AM-6PM",
    "services": [
      "Baby-Boomer-owned Optical retail in Colorado consultation",
      "Professional service",
      "Quality guarantee"
    ],
    "social_links": {}
  },
  {
    "name": "The Bent Lens",
    "address": "1801 Wynkoop St, Denver, CO 80202",
    "phone": "",
    "rating": 4.0,
    "reviews": 25,
    "website": "https://www.google.com/maps/search/The+Bent+Lens+in+Colorado",
    "category": "Baby-Boomer-owned Optical retail in Colorado",
    "description": "(Description not provided in search results)",
    "hours": "Mon-Fri 9AM-6PM",
    "services": [
      "Baby-Boomer-owned Optical retail in Colorado consultation",
      "Professional service",
      "Quality guarantee"
    ],
    "social_links": {}
  },
  {
    "name": "Optical Masters",
    "address": "Denver, CO (Specific street address not provided in search results, but multiple locations implied)",
    "phone": "303.377.0752",
    "rating": 4.0,
    "reviews": 25,
    "website": "https://opticalmasters.com/",
    "category": "Baby-Boomer-owned Optical retail in Colorado",
    "description": "Offers affordable eyewear, contact lenses, and eye exams with a large selection of frames",
    "hours": "Mon-Fri 9AM-6PM",
    "services": [
      "Baby-Boomer-owned Optical retail in Colorado consultation",
      "Professional service",
      "Quality guarantee"
    ],
    "social_links": {}
  }
]