[
  {
    "name": "All 4 One Heating and Cooling",
    "address": "Kansas City, MO (Service area includes Kansas City, KS)",
    "phone": "",
    "rating": 4.0,
    "reviews": 25,
    "website": "https://www.iamblackbusiness.com/listing/all-4-one-heating-and-cooling/",
    "category": "Black-owned Boilers in Kansas",
    "description": "Offers HVAC services including furnace repair, air conditioning maintenance and repair, and emergency plumbing. They serve both residential and commercial customers",
    "hours": "Mon-Fri 9AM-6PM",
    "services": [
      "Black-owned Boilers in Kansas consultation",
      "Professional service",
      "Quality guarantee"
    ],
    "social_links": {}
  },
  {
    "name": "Dean's Heating and Cooling",
    "address": "Kansas City 64101, Missouri (Service area may include Kansas)",
    "phone": "816-778-1051",
    "rating": 4.0,
    "reviews": 25,
    "website": "https://www.supportblackowned.com/deans-heating-and-cooling",
    "category": "Black-owned Boilers in Kansas",
    "description": "Provides residential and commercial heating and air conditioning (HVAC) services",
    "hours": "Mon-Fri 9AM-6PM",
    "services": [
      "Black-owned Boilers in Kansas consultation",
      "Professional service",
      "Quality guarantee"
    ],
    "social_links": {}
  },
  {
    "name": "Dodd Heating & Cooling",
    "address": "Kansas City, Kansas",
    "phone": "",
    "rating": 4.0,
    "reviews": 25,
    "website": "https://www.supportblackowned.com/dodd-heating-cooling",
    "category": "Black-owned Boilers in Kansas",
    "description": "An HVAC company serving the Kansas City area",
    "hours": "Mon-Fri 9AM-6PM",
    "services": [
      "Black-owned Boilers in Kansas consultation",
      "Professional service",
      "Quality guarantee"
    ],
    "social_links": {}
  },
  {
    "name": "Jenko Mechanical Service",
    "address": "Kansas City, MO (Listed in KC Black Owned directory, may serve Kansas)",
    "phone": "",
    "rating": 4.0,
    "reviews": 25,
    "website": "https://kcblackowned.com/listing/jenko-mechanical-service/",
    "category": "Black-owned Boilers in Kansas",
    "description": "Offers heating, air conditioning, and refrigeration services",
    "hours": "Mon-Fri 9AM-6PM",
    "services": [
      "Black-owned Boilers in Kansas consultation",
      "Professional service",
      "Quality guarantee"
    ],
    "social_links": {}
  },
  {
    "name": "KB Complete",
    "address": "Kansas City, KS",
    "phone": "",
    "rating": 4.0,
    "reviews": 25,
    "website": "https://kbcomplete.com/",
    "category": "Black-owned Boilers in Kansas",
    "description": "Offers boiler maintenance, installation, and repair services for heating needs in the Kansas City, KS area",
    "hours": "Mon-Fri 9AM-6PM",
    "services": [
      "Black-owned Boilers in Kansas consultation",
      "Professional service",
      "Quality guarantee"
    ],
    "social_links": {}
  },
  {
    "name": "Air Care Heating & Cooling",
    "address": "Kansas City, KS",
    "phone": "",
    "rating": 4.0,
    "reviews": 25,
    "website": "https://aircarekc.com/",
    "category": "Black-owned Boilers in Kansas",
    "description": "A boiler company offering installation, tune-ups, and repairs for all types of boiler units. They have been in business since 1981",
    "hours": "Mon-Fri 9AM-6PM",
    "services": [
      "Black-owned Boilers in Kansas consultation",
      "Professional service",
      "Quality guarantee"
    ],
    "social_links": {}
  },
  {
    "name": "HVAC Cowboys",
    "address": "Kansas City, MO 64117 (Services a 50-mile radius, potentially including Kansas)",
    "phone": "(816) 808-8157",
    "rating": 4.0,
    "reviews": 25,
    "website": "https://www.hvac-cowboys.com/",
    "category": "Black-owned Boilers in Kansas",
    "description": "Offers HVAC installations and repairs, as well as plumbing services",
    "hours": "Mon-Fri 9AM-6PM",
    "services": [
      "Black-owned Boilers in Kansas consultation",
      "Professional service",
      "Quality guarantee"
    ],
    "social_links": {}
  },
  {
    "name": "Legacy Service Co",
    "address": "1529 E. Spruce St. Olathe, Kansas 66061",
    "phone": "(913) 800-9888",
    "rating": 4.7,
    "reviews": 25,
    "website": "https://legacyserviceco.com/",
    "category": "Black-owned Boilers in Kansas",
    "description": "A heating and cooling specialist that also offers plumbing repair and water heater repair",
    "hours": "Mon-Fri 9AM-6PM",
    "services": [
      "Black-owned Boilers in Kansas consultation",
      "Professional service",
      "Quality guarantee"
    ],
    "social_links": {}
  },
  {
    "name": "Bright Side Plumbing Kansas City",
    "address": "Kansas City, KS, MO (Jackson and Johnson County)",
    "phone": "",
    "rating": 4.0,
    "reviews": 25,
    "website": "https://brightsideplumbingkansascity.com/",
    "category": "Black-owned Boilers in Kansas",
    "description": "A family-owned plumbing company that handles emergency plumbing problems and routine maintenance",
    "hours": "Mon-Fri 9AM-6PM",
    "services": [
      "Black-owned Boilers in Kansas consultation",
      "Professional service",
      "Quality guarantee"
    ],
    "social_links": {}
  },
  {
    "name": "Andy's Pipe Dream Plumbing",
    "address": "Kansas City, MO (Service area includes Kansas)",
    "phone": "(913) 210-5818",
    "rating": 4.0,
    "reviews": 25,
    "website": "https://www.andyspipedreamplumbing.com/",
    "category": "Black-owned Boilers in Kansas",
    "description": "Provides expert plumbing services for garbage disposals, water heaters, and general plumbing needs",
    "hours": "Mon-Fri 9AM-6PM",
    "services": [
      "Black-owned Boilers in Kansas consultation",
      "Professional service",
      "Quality guarantee"
    ],
    "social_links": {}
  }
]