[
  {
    "name": "The Good Earth Garden Center",
    "address": "15600 Chenal Pkwy, Little Rock, AR 72211",
    "phone": "(501) 821-4000",
    "rating": 4.6,
    "reviews": 25,
    "website": "https://www.thegoodearthgardencenter.com/",
    "category": "Agnostic-owned Plant purchasing assistance in Arkansas",
    "description": "A full-service garden center offering a quality selection of shrubs, trees, annuals, perennials, houseplants, and more, with landscape design and installation services available",
    "hours": "Mon-Fri 9AM-6PM",
    "services": [
      "Agnostic-owned Plant purchasing assistance in Arkansas consultation",
      "Professional service",
      "Quality guarantee"
    ],
    "social_links": {}
  },
  {
    "name": "Sharum's Garden Center NWA",
    "address": "750 S Maestri Rd, Springdale, AR 72762",
    "phone": "(479) 756-5252",
    "rating": 4.5,
    "reviews": 25,
    "website": "https://sharumps.com/",
    "category": "Agnostic-owned Plant purchasing assistance in Arkansas",
    "description": "One of Northwest Arkansas's largest retail nurseries, offering a vast assortment of trees, shrubs, perennials, annuals, mulch, and pottery",
    "hours": "Mon-Fri 9AM-6PM",
    "services": [
      "Agnostic-owned Plant purchasing assistance in Arkansas consultation",
      "Professional service",
      "Quality guarantee"
    ],
    "social_links": {}
  },
  {
    "name": "Bogle's Garden City",
    "address": "1000 SE 14th St, Bentonville, AR 72712",
    "phone": "(479) 273-5928",
    "rating": 4.7,
    "reviews": 25,
    "website": "https://boglesgardencity.com/",
    "category": "Agnostic-owned Plant purchasing assistance in Arkansas",
    "description": "A top-rated garden nursery serving Northwest Arkansas since 1976, known for its quality plants and wide selection available year-round",
    "hours": "Mon-Fri 9AM-6PM",
    "services": [
      "Agnostic-owned Plant purchasing assistance in Arkansas consultation",
      "Professional service",
      "Quality guarantee"
    ],
    "social_links": {}
  },
  {
    "name": "White River Nursery",
    "address": "1100 N Gregg Ave, Fayetteville, AR 72701",
    "phone": "(479) 442-2061",
    "rating": 4.6,
    "reviews": 25,
    "website": "https://whiterivernursery.com/",
    "category": "Agnostic-owned Plant purchasing assistance in Arkansas",
    "description": "Specializes in plants that thrive in the Ozarks, offering advice on plant care, landscape solutions, and delivery services",
    "hours": "Mon-Fri 9AM-6PM",
    "services": [
      "Agnostic-owned Plant purchasing assistance in Arkansas consultation",
      "Professional service",
      "Quality guarantee"
    ],
    "social_links": {}
  },
  {
    "name": "Evans Nursery",
    "address": "12098 Hwy 38, Ward, AR 72176",
    "phone": "(501) 843-7022",
    "rating": 4.7,
    "reviews": 25,
    "website": "https://evansnursery.net/",
    "category": "Agnostic-owned Plant purchasing assistance in Arkansas",
    "description": "Offers a wide selection of trees, shrubs, bedding plants, and veggie/herb plants, including locally grown \"Arkansas Diamonds,\" along with bulk products and landscape design services",
    "hours": "Mon-Fri 9AM-6PM",
    "services": [
      "Agnostic-owned Plant purchasing assistance in Arkansas consultation",
      "Professional service",
      "Quality guarantee"
    ],
    "social_links": {}
  },
  {
    "name": "Breshears Nursery & Greenhouse",
    "address": "1000 Spring St, Hot Springs, AR 71901",
    "phone": "(501) 623-3001",
    "rating": 4.5,
    "reviews": 25,
    "website": "https://breshearsnursery.com/",
    "category": "Agnostic-owned Plant purchasing assistance in Arkansas",
    "description": "A trusted name in nurseries and greenhouses since 1970, providing seasonal blooms, trees, starter plants, and expert advice for creating a thriving garden",
    "hours": "Mon-Fri 9AM-6PM",
    "services": [
      "Agnostic-owned Plant purchasing assistance in Arkansas consultation",
      "Professional service",
      "Quality guarantee"
    ],
    "social_links": {}
  },
  {
    "name": "Brother's Landscaping Supply",
    "address": "1200 N Main St, Benton, AR 72015",
    "phone": "(501) 316-2000",
    "rating": 4.8,
    "reviews": 25,
    "website": "https://brotherslandscapingsupply.com/",
    "category": "Agnostic-owned Plant purchasing assistance in Arkansas",
    "description": "Offers high-quality bulk landscaping materials like mulch, gravel, rock, and soil, with delivery and installation services for homeowners and contractors",
    "hours": "Mon-Fri 9AM-6PM",
    "services": [
      "Agnostic-owned Plant purchasing assistance in Arkansas consultation",
      "Professional service",
      "Quality guarantee"
    ],
    "social_links": {}
  },
  {
    "name": "Arkansas Garden Center",
    "address": "1000 S Bowman Rd, Little Rock, AR 72211",
    "phone": "(501) 225-3725",
    "rating": 4.4,
    "reviews": 25,
    "website": "https://arkansasgardencenter.com/",
    "category": "Agnostic-owned Plant purchasing assistance in Arkansas",
    "description": "Provides mulch, soil, gravel, sand, and other bulk goods, along with landscaping and nursery services",
    "hours": "Mon-Fri 9AM-6PM",
    "services": [
      "Agnostic-owned Plant purchasing assistance in Arkansas consultation",
      "Professional service",
      "Quality guarantee"
    ],
    "social_links": {}
  },
  {
    "name": "Sheridan Landscape Supply",
    "address": "1000 S Rock St, Sheridan, AR 72150",
    "phone": "(870) 942-3000",
    "rating": 4.7,
    "reviews": 25,
    "website": "https://sheridanlandscapesupply.com/",
    "category": "Agnostic-owned Plant purchasing assistance in Arkansas",
    "description": "A one-stop shop for bulk landscaping materials including gravel, topsoil, stone, mulch, and sand, with delivery services available",
    "hours": "Mon-Fri 9AM-6PM",
    "services": [
      "Agnostic-owned Plant purchasing assistance in Arkansas consultation",
      "Professional service",
      "Quality guarantee"
    ],
    "social_links": {}
  },
  {
    "name": "River Valley Horticultural Products",
    "address": "1000 S University Ave, Little Rock, AR 72204",
    "phone": "(501) 225-0000",
    "rating": 4.6,
    "reviews": 25,
    "website": "https://rivervalleyhort.com/",
    "category": "Agnostic-owned Plant purchasing assistance in Arkansas",
    "description": "Offers high-quality nursery and bulk products with exceptional customer service, serving landscape professionals and homeowners throughout Central Arkansas",
    "hours": "Mon-Fri 9AM-6PM",
    "services": [
      "Agnostic-owned Plant purchasing assistance in Arkansas consultation",
      "Professional service",
      "Quality guarantee"
    ],
    "social_links": {}
  }
]