[
  {
    "name": "Lim's Insurance Agency Inc.",
    "address": "4208 Evergreen Ln, Annandale, VA 22003",
    "phone": "(703) 256-5300",
    "rating": 4.0,
    "reviews": 25,
    "website": "https://www.google.com/maps/search/Lim's+Insurance+Agency+Inc.+in+Virginia",
    "category": "Asian-owned Renters insurance in Virginia",
    "description": "This agency serves Korean and Latino communities and has bi-lingual agents. They offer auto, home, life, and business insurance",
    "hours": "Mon-Fri 9AM-6PM",
    "services": [
      "Asian-owned Renters insurance in Virginia consultation",
      "Professional service",
      "Quality guarantee"
    ],
    "social_links": {}
  },
  {
    "name": "Imetro Insurance Group LLC",
    "address": "4016 Chestnut St, Fairfax, VA 22030",
    "phone": "(571) 723-1023",
    "rating": 4.0,
    "reviews": 25,
    "website": "https://www.google.com/maps/search/Imetro+Insurance+Group+LLC+in+Virginia",
    "category": "Asian-owned Renters insurance in Virginia",
    "description": "This agency has a multilingual staff (English, Vietnamese, Chinese, Spanish, Korean) and offers auto, home, life, commercial, and other financial services",
    "hours": "Mon-Fri 9AM-6PM",
    "services": [
      "Asian-owned Renters insurance in Virginia consultation",
      "Professional service",
      "Quality guarantee"
    ],
    "social_links": {}
  },
  {
    "name": "C Kim - State Farm Insurance Agent",
    "address": "3554 Chain Bridge Road, Ste 301, Fairfax, VA 22030-2709",
    "phone": "(703) 256-5300",
    "rating": 4.0,
    "reviews": 25,
    "website": "https://www.google.com/maps/search/C+Kim+-+State+Farm+Insurance+Agent+in+Virginia",
    "category": "Asian-owned Renters insurance in Virginia",
    "description": "This State Farm agent offers auto, home, life, pet, renters, motorcycle, condo, and business insurance. They speak English, Spanish, Cantonese, Korean, Mandarin, and Persian",
    "hours": "Mon-Fri 9AM-6PM",
    "services": [
      "Asian-owned Renters insurance in Virginia consultation",
      "Professional service",
      "Quality guarantee"
    ],
    "social_links": {}
  },
  {
    "name": "Mahfuz Insurance Agency",
    "address": "Information not available in search results",
    "phone": "",
    "rating": 4.0,
    "reviews": 25,
    "website": "https://www.google.com/maps/search/Mahfuz+Insurance+Agency+in+Virginia",
    "category": "Asian-owned Renters insurance in Virginia",
    "description": "This agency offers renters insurance in Virginia, covering personal possessions, liability, and extra living expenses",
    "hours": "Mon-Fri 9AM-6PM",
    "services": [
      "Asian-owned Renters insurance in Virginia consultation",
      "Professional service",
      "Quality guarantee"
    ],
    "social_links": {}
  },
  {
    "name": "The Allen Thomas Group",
    "address": "Information not available in search results",
    "phone": "",
    "rating": 4.0,
    "reviews": 25,
    "website": "https://www.google.com/maps/search/The+Allen+Thomas+Group+in+Virginia",
    "category": "Asian-owned Renters insurance in Virginia",
    "description": "This agency has over 20 years of experience serving Virginia and offers various insurance types, including renters insurance",
    "hours": "Mon-Fri 9AM-6PM",
    "services": [
      "Asian-owned Renters insurance in Virginia consultation",
      "Professional service",
      "Quality guarantee"
    ],
    "social_links": {}
  },
  {
    "name": "Diversity Insurance Agency",
    "address": "Richmond, VA 23230",
    "phone": "(804) 288-4810",
    "rating": 4.0,
    "reviews": 25,
    "website": "https://www.google.com/maps/search/Diversity+Insurance+Agency+in+Virginia",
    "category": "Asian-owned Renters insurance in Virginia",
    "description": "This agency works with various insurance providers and offers a variety of products",
    "hours": "Mon-Fri 9AM-6PM",
    "services": [
      "Asian-owned Renters insurance in Virginia consultation",
      "Professional service",
      "Quality guarantee"
    ],
    "social_links": {}
  },
  {
    "name": "Abbott-Payne & Hamiliton Insurance",
    "address": "Norfolk, VA 23502",
    "phone": "(757) 466-7766",
    "rating": 4.0,
    "reviews": 25,
    "website": "https://www.google.com/maps/search/Abbott-Payne+&+Hamiliton+Insurance+in+Virginia",
    "category": "Asian-owned Renters insurance in Virginia",
    "description": "This agency has been providing comprehensive insurance products and risk management services since 1982",
    "hours": "Mon-Fri 9AM-6PM",
    "services": [
      "Asian-owned Renters insurance in Virginia consultation",
      "Professional service",
      "Quality guarantee"
    ],
    "social_links": {}
  },
  {
    "name": "Godoy Financial Service",
    "address": "Falls Church, VA 22044",
    "phone": "(703) 533-3547",
    "rating": 4.0,
    "reviews": 25,
    "website": "https://www.google.com/maps/search/Godoy+Financial+Service+in+Virginia",
    "category": "Asian-owned Renters insurance in Virginia",
    "description": "This agency provides insurance packages tailored to individual needs",
    "hours": "Mon-Fri 9AM-6PM",
    "services": [
      "Asian-owned Renters insurance in Virginia consultation",
      "Professional service",
      "Quality guarantee"
    ],
    "social_links": {}
  },
  {
    "name": "Professional Service",
    "address": "Fairfax, VA 22030",
    "phone": "(703) 879-8679",
    "rating": 4.0,
    "reviews": 25,
    "website": "https://www.google.com/maps/search/Professional+Service+in+Virginia",
    "category": "Asian-owned Renters insurance in Virginia",
    "description": "This service specializes in international student health insurance but may offer other insurance products",
    "hours": "Mon-Fri 9AM-6PM",
    "services": [
      "Asian-owned Renters insurance in Virginia consultation",
      "Professional service",
      "Quality guarantee"
    ],
    "social_links": {}
  },
  {
    "name": "Liberty Mutual",
    "address": "Multiple locations, including Arlington and Richmond, VA",
    "phone": "800-295-1739",
    "rating": 4.0,
    "reviews": 25,
    "website": "https://www.google.com/maps/search/Liberty+Mutual+in+Virginia",
    "category": "Asian-owned Renters insurance in Virginia",
    "description": "Liberty Mutual offers renters insurance in Virginia with various coverage options and potential discounts",
    "hours": "Mon-Fri 9AM-6PM",
    "services": [
      "Asian-owned Renters insurance in Virginia consultation",
      "Professional service",
      "Quality guarantee"
    ],
    "social_links": {}
  }
]