[
  {
    "name": "Roberson Law",
    "address": "Dayton, OH (Specific address not provided in search results)",
    "phone": "937.643.2000",
    "rating": 4.0,
    "reviews": 25,
    "website": "https://www.google.com/maps/search/Roberson+Law+in+Ohio",
    "category": "Atheist-owned Document preparation in Ohio",
    "description": "Offers estate and asset protection planning, preparing custom-tailored documents for unique family situations",
    "hours": "Mon-Fri 9AM-6PM",
    "services": [
      "Atheist-owned Document preparation in Ohio consultation",
      "Professional service",
      "Quality guarantee"
    ],
    "social_links": {}
  },
  {
    "name": "Law Offices Of Susheela Verma",
    "address": "Columbus, OH (Serving Columbus, OH)",
    "phone": "",
    "rating": 4.0,
    "reviews": 25,
    "website": "https://www.google.com/maps/search/Law+Offices+Of+Susheela+Verma+in+Ohio",
    "category": "Atheist-owned Document preparation in Ohio",
    "description": "Listed as a legal document preparation service in Columbus, OH",
    "hours": "Mon-Fri 9AM-6PM",
    "services": [
      "Atheist-owned Document preparation in Ohio consultation",
      "Professional service",
      "Quality guarantee"
    ],
    "social_links": {}
  },
  {
    "name": "The Khan Law Firm",
    "address": "Serving in Columbus, OH",
    "phone": "617-299-8445",
    "rating": 4.0,
    "reviews": 25,
    "website": "https://www.google.com/maps/search/The+Khan+Law+Firm+in+Ohio",
    "category": "Atheist-owned Document preparation in Ohio",
    "description": "Listed as a legal document preparation service in Columbus, OH",
    "hours": "Mon-Fri 9AM-6PM",
    "services": [
      "Atheist-owned Document preparation in Ohio consultation",
      "Professional service",
      "Quality guarantee"
    ],
    "social_links": {}
  },
  {
    "name": "Sharma Law",
    "address": "Serving in Columbus, OH and Cleveland, OH",
    "phone": "301-686-5058",
    "rating": 4.0,
    "reviews": 25,
    "website": "https://www.google.com/maps/search/Sharma+Law+in+Ohio",
    "category": "Atheist-owned Document preparation in Ohio",
    "description": "Listed as a legal document preparation service in Columbus and Cleveland, OH",
    "hours": "Mon-Fri 9AM-6PM",
    "services": [
      "Atheist-owned Document preparation in Ohio consultation",
      "Professional service",
      "Quality guarantee"
    ],
    "social_links": {}
  },
  {
    "name": "Reliance Immigration Services",
    "address": "Cleveland, OH",
    "phone": "",
    "rating": 4.0,
    "reviews": 25,
    "website": "https://www.google.com/maps/search/Reliance+Immigration+Services+in+Ohio",
    "category": "Atheist-owned Document preparation in Ohio",
    "description": "Offers immigration form preparation services and business consulting services",
    "hours": "Mon-Fri 9AM-6PM",
    "services": [
      "Atheist-owned Document preparation in Ohio consultation",
      "Professional service",
      "Quality guarantee"
    ],
    "social_links": {}
  },
  {
    "name": "Law Offices Of SRIS, P.C.",
    "address": "Serving in Cleveland, OH",
    "phone": "504-272-2167",
    "rating": 4.0,
    "reviews": 25,
    "website": "https://www.google.com/maps/search/Law+Offices+Of+SRIS,+P.C.+in+Ohio",
    "category": "Atheist-owned Document preparation in Ohio",
    "description": "Listed as a legal document preparation service in Cleveland, OH",
    "hours": "Mon-Fri 9AM-6PM",
    "services": [
      "Atheist-owned Document preparation in Ohio consultation",
      "Professional service",
      "Quality guarantee"
    ],
    "social_links": {}
  },
  {
    "name": "Law Offices Of Keshab Raj Seadie, P.C.",
    "address": "Serving in Cleveland, OH",
    "phone": "504-272-2167",
    "rating": 4.0,
    "reviews": 25,
    "website": "https://www.google.com/maps/search/Law+Offices+Of+Keshab+Raj+Seadie,+P.C.+in+Ohio",
    "category": "Atheist-owned Document preparation in Ohio",
    "description": "Listed as a legal document preparation service in Cleveland, OH",
    "hours": "Mon-Fri 9AM-6PM",
    "services": [
      "Atheist-owned Document preparation in Ohio consultation",
      "Professional service",
      "Quality guarantee"
    ],
    "social_links": {}
  },
  {
    "name": "The Village Post",
    "address": "Cincinnati, OH (Specific address not provided in search results)",
    "phone": "513-873-3330",
    "rating": 4.0,
    "reviews": 25,
    "website": "https://www.google.com/maps/search/The+Village+Post+in+Ohio",
    "category": "Atheist-owned Document preparation in Ohio",
    "description": "Offers printing, copying, and document finishing services, including document design and editing",
    "hours": "Mon-Fri 9AM-6PM",
    "services": [
      "Atheist-owned Document preparation in Ohio consultation",
      "Professional service",
      "Quality guarantee"
    ],
    "social_links": {}
  },
  {
    "name": "Document Express",
    "address": "Not provided in search results",
    "phone": "",
    "rating": 4.0,
    "reviews": 25,
    "website": "https://www.google.com/maps/search/Document+Express+in+Ohio",
    "category": "Atheist-owned Document preparation in Ohio",
    "description": "Offers paralegal services, deed preparation, and notary services",
    "hours": "Mon-Fri 9AM-6PM",
    "services": [
      "Atheist-owned Document preparation in Ohio consultation",
      "Professional service",
      "Quality guarantee"
    ],
    "social_links": {}
  },
  {
    "name": "Standard Legal",
    "address": "Not provided in search results",
    "phone": "",
    "rating": 4.0,
    "reviews": 25,
    "website": "https://www.google.com/maps/search/Standard+Legal+in+Ohio",
    "category": "Atheist-owned Document preparation in Ohio",
    "description": "Offers legal document preparation services and self-help law resources for common legal issues",
    "hours": "Mon-Fri 9AM-6PM",
    "services": [
      "Atheist-owned Document preparation in Ohio consultation",
      "Professional service",
      "Quality guarantee"
    ],
    "social_links": {}
  }
]