[
  {
    "name": "Panda Express Catering",
    "address": "Multiple locations in Michigan, including Grandville and Lansing",
    "phone": "Varies by location (e.g., Grandville: (616) 530-9000, Lansing: (517) 327-4000)",
    "rating": 4.0,
    "reviews": 25,
    "website": "https://www.google.com/maps/search/Panda+Express+Catering+in+Michigan",
    "category": "Chinese-speaking Buffet catering in Michigan",
    "description": "Offers party trays of popular American-Chinese dishes like Orange Chicken and Beijing Beef, suitable for various events",
    "hours": "Mon-Fri 9AM-6PM",
    "services": [
      "Chinese-speaking Buffet catering in Michigan consultation",
      "Professional service",
      "Quality guarantee"
    ],
    "social_links": {}
  },
  {
    "name": "China Town Express - Southfield",
    "address": "28877 Telegraph Rd, Southfield, MI 48076",
    "phone": "(248) 356-5555",
    "rating": 4.0,
    "reviews": 25,
    "website": "https://www.google.com/maps/search/China+Town+Express+-+Southfield+in+Michigan",
    "category": "Chinese-speaking Buffet catering in Michigan",
    "description": "Provides party trays for various Chinese dishes, which can be arranged for a buffet-style event",
    "hours": "Mon-Fri 9AM-6PM",
    "services": [
      "Chinese-speaking Buffet catering in Michigan consultation",
      "Professional service",
      "Quality guarantee"
    ],
    "social_links": {}
  },
  {
    "name": "New China One - Detroit",
    "address": "Multiple locations, including Detroit",
    "phone": "Varies by location (e.g., Detroit: (313) 834-8888)",
    "rating": 4.0,
    "reviews": 25,
    "website": "https://www.google.com/maps/search/New+China+One+-+Detroit+in+Michigan",
    "category": "Chinese-speaking Buffet catering in Michigan",
    "description": "Offers party catering with a variety of Chinese food options",
    "hours": "Mon-Fri 9AM-6PM",
    "services": [
      "Chinese-speaking Buffet catering in Michigan consultation",
      "Professional service",
      "Quality guarantee"
    ],
    "social_links": {}
  },
  {
    "name": "Hunan Gardens - Kalamazoo",
    "address": "5059 W. Main St, Kalamazoo, MI 49009 and 7157 West Q Avenue, Kalamazoo, MI 49009",
    "phone": "(269) 373-1188 (West Main) / (269) 353-5900 (Texas Corners)",
    "rating": 4.0,
    "reviews": 25,
    "website": "https://www.google.com/maps/search/Hunan+Gardens+-+Kalamazoo+in+Michigan",
    "category": "Chinese-speaking Buffet catering in Michigan",
    "description": "Provides full catering and banquet services with a wide variety of menu items, including gluten-free options",
    "hours": "Mon-Fri 9AM-6PM",
    "services": [
      "Chinese-speaking Buffet catering in Michigan consultation",
      "Professional service",
      "Quality guarantee"
    ],
    "social_links": {}
  },
  {
    "name": "China Star Palace - Westland",
    "address": "35300 Ford Rd, Westland, MI 48185",
    "phone": "(734) 525-8888",
    "rating": 4.0,
    "reviews": 25,
    "website": "https://www.google.com/maps/search/China+Star+Palace+-+Westland+in+Michigan",
    "category": "Chinese-speaking Buffet catering in Michigan",
    "description": "Offers bespoke catering services for events, focusing on high-quality ingredients",
    "hours": "Mon-Fri 9AM-6PM",
    "services": [
      "Chinese-speaking Buffet catering in Michigan consultation",
      "Professional service",
      "Quality guarantee"
    ],
    "social_links": {}
  },
  {
    "name": "LC's Asian Kitchen - Madison Heights",
    "address": "29070 Campbell Road, Madison Heights, MI 48071",
    "phone": "(586) 808-8269",
    "rating": 4.0,
    "reviews": 25,
    "website": "https://www.google.com/maps/search/LC's+Asian+Kitchen+-+Madison+Heights+in+Michigan",
    "category": "Chinese-speaking Buffet catering in Michigan",
    "description": "Offers pre-set buffet-style menus and customizable options for events, capable of handling up to 100 people",
    "hours": "Mon-Fri 9AM-6PM",
    "services": [
      "Chinese-speaking Buffet catering in Michigan consultation",
      "Professional service",
      "Quality guarantee"
    ],
    "social_links": {}
  },
  {
    "name": "Lucky Kitchen - Ann Arbor",
    "address": "2425 W Stadium Blvd, Ann Arbor, MI 48103",
    "phone": "(734) 665-8888",
    "rating": 4.0,
    "reviews": 25,
    "website": "https://www.google.com/maps/search/Lucky+Kitchen+-+Ann+Arbor+in+Michigan",
    "category": "Chinese-speaking Buffet catering in Michigan",
    "description": "Caters for special events with various menu options, including a Chinese New Year catering menu",
    "hours": "Mon-Fri 9AM-6PM",
    "services": [
      "Chinese-speaking Buffet catering in Michigan consultation",
      "Professional service",
      "Quality guarantee"
    ],
    "social_links": {}
  },
  {
    "name": "Fuji Japanese Buffet - Madison Heights",
    "address": "32153 John R Rd, Madison Heights, MI 48071",
    "phone": "(248) 616-8868",
    "rating": 4.0,
    "reviews": 25,
    "website": "https://www.google.com/maps/search/Fuji+Japanese+Buffet+-+Madison+Heights+in+Michigan",
    "category": "Chinese-speaking Buffet catering in Michigan",
    "description": "While primarily a buffet, they offer a wide array of Japanese and Chinese dishes, which could potentially be arranged for catering",
    "hours": "Mon-Fri 9AM-6PM",
    "services": [
      "Chinese-speaking Buffet catering in Michigan consultation",
      "Professional service",
      "Quality guarantee"
    ],
    "social_links": {}
  },
  {
    "name": "Golden Buffet - Waterford Twp",
    "address": "5010 Dixie Hwy, Waterford Twp, MI 48329",
    "phone": "(248) 623-8585",
    "rating": 3.5,
    "reviews": 25,
    "website": "https://www.google.com/maps/search/Golden+Buffet+-+Waterford+Twp+in+Michigan",
    "category": "Chinese-speaking Buffet catering in Michigan",
    "description": "An all-you-can-eat buffet with a variety of Chinese and other Asian dishes. They may offer catering services",
    "hours": "Mon-Fri 9AM-6PM",
    "services": [
      "Chinese-speaking Buffet catering in Michigan consultation",
      "Professional service",
      "Quality guarantee"
    ],
    "social_links": {}
  },
  {
    "name": "New Country China Buffet - Jackson",
    "address": "1305 N Wisner St, Jackson, MI 49202",
    "phone": "(517) 782-0088",
    "rating": 4.0,
    "reviews": 25,
    "website": "https://www.google.com/maps/search/New+Country+China+Buffet+-+Jackson+in+Michigan",
    "category": "Chinese-speaking Buffet catering in Michigan",
    "description": "Offers Chinese food for pickup or delivery, and likely has catering options for buffet-style events",
    "hours": "Mon-Fri 9AM-6PM",
    "services": [
      "Chinese-speaking Buffet catering in Michigan consultation",
      "Professional service",
      "Quality guarantee"
    ],
    "social_links": {}
  }
]