[
  {
    "name": "Catholic Charities Medical Clinic",
    "address": "2415 N. Tyler St., Little Rock, AR 72207",
    "phone": "(501) 664-0340",
    "rating": 4.0,
    "reviews": 25,
    "website": "https://dolr.org/catholic-charities/medical-clinic/",
    "category": "Catholic-owned Health clubs in Arkansas",
    "description": "Provides free primary healthcare services to individuals 18 years and older who cannot afford routine healthcare, operating as a healing ministry in the Catholic tradition",
    "hours": "Mon-Fri 9AM-6PM",
    "services": [
      "Catholic-owned Health clubs in Arkansas consultation",
      "Professional service",
      "Quality guarantee"
    ],
    "social_links": {}
  },
  {
    "name": "St. Bernards Health & Wellness",
    "address": "1115 E. Matthews Ave., Jonesboro, AR 72401",
    "phone": "(870) 972-4100",
    "rating": 4.0,
    "reviews": 25,
    "website": "https://www.stbernards.info/services/health-wellness",
    "category": "Catholic-owned Health clubs in Arkansas",
    "description": "Offers a variety of fitness classes, including water aerobics, yoga, boot camp, boxing, and more, as part of a Catholic healthcare system",
    "hours": "Mon-Fri 9AM-6PM",
    "services": [
      "Catholic-owned Health clubs in Arkansas consultation",
      "Professional service",
      "Quality guarantee"
    ],
    "social_links": {}
  },
  {
    "name": "DePaul Community Health Center",
    "address": "145 W. Waterman St., Dumas, AR 71639 (also locations in Gould)",
    "phone": "(870) 382-3080",
    "rating": 4.0,
    "reviews": 25,
    "website": "https://depaularkansas.org/",
    "category": "Catholic-owned Health clubs in Arkansas",
    "description": "A Catholic-sponsored health center providing medical and dental services in underserved areas. While not a traditional health club, they focus on community health and well-being",
    "hours": "Mon-Fri 9AM-6PM",
    "services": [
      "Catholic-owned Health clubs in Arkansas consultation",
      "Professional service",
      "Quality guarantee"
    ],
    "social_links": {}
  },
  {
    "name": "Mercy Hospital Berryville",
    "address": "214 Carter St., Berryville, AR 72616",
    "phone": "(870) 423-3355",
    "rating": 4.0,
    "reviews": 25,
    "website": "https://www.mercy.net/practice/mercy-hospital-berryville/",
    "category": "Catholic-owned Health clubs in Arkansas",
    "description": "A Catholic hospital that is part of Mercy Health, offering a range of health services. While primarily a hospital, they are part of a Catholic health system",
    "hours": "Mon-Fri 9AM-6PM",
    "services": [
      "Catholic-owned Health clubs in Arkansas consultation",
      "Professional service",
      "Quality guarantee"
    ],
    "social_links": {}
  },
  {
    "name": "Mercy Hospital Booneville",
    "address": "880 W. Main St., Booneville, AR 72927",
    "phone": "(479) 675-2800",
    "rating": 4.0,
    "reviews": 25,
    "website": "https://www.mercy.net/practice/mercy-hospital-booneville/",
    "category": "Catholic-owned Health clubs in Arkansas",
    "description": "Another Catholic hospital within the Mercy Health system, providing community health services",
    "hours": "Mon-Fri 9AM-6PM",
    "services": [
      "Catholic-owned Health clubs in Arkansas consultation",
      "Professional service",
      "Quality guarantee"
    ],
    "social_links": {}
  },
  {
    "name": "Mercy Hospital Fort Smith",
    "address": "7301 Rogers Ave., Fort Smith, AR 72903",
    "phone": "(479) 314-6000",
    "rating": 4.0,
    "reviews": 25,
    "website": "https://www.mercy.net/practice/mercy-hospital-fort-smith/",
    "category": "Catholic-owned Health clubs in Arkansas",
    "description": "A large Catholic hospital in Fort Smith, part of the Mercy Health system, offering comprehensive healthcare",
    "hours": "Mon-Fri 9AM-6PM",
    "services": [
      "Catholic-owned Health clubs in Arkansas consultation",
      "Professional service",
      "Quality guarantee"
    ],
    "social_links": {}
  },
  {
    "name": "CHI St. Vincent Hot Springs",
    "address": "300 Werner St., Hot Springs, AR 71913",
    "phone": "(501) 622-1000",
    "rating": 4.0,
    "reviews": 25,
    "website": "https://www.chistvincent.com/hospitals-locations/chi-st-vincent-hot-springs",
    "category": "Catholic-owned Health clubs in Arkansas",
    "description": "A Catholic healthcare facility providing a wide array of medical services",
    "hours": "Mon-Fri 9AM-6PM",
    "services": [
      "Catholic-owned Health clubs in Arkansas consultation",
      "Professional service",
      "Quality guarantee"
    ],
    "social_links": {}
  },
  {
    "name": "CHRISTUS Health System",
    "address": "Multiple locations across Texas, Louisiana, and New Mexico (Arkansas is not listed as a primary service area, but they are a large Catholic health system)",
    "phone": "",
    "rating": 4.0,
    "reviews": 25,
    "website": "https://www.christushealth.org/",
    "category": "Catholic-owned Health clubs in Arkansas",
    "description": "A Catholic not-for-profit health system focused on providing holistic care, body, mind, and spirit. While not directly in Arkansas, it represents a significant Catholic health organization",
    "hours": "Mon-Fri 9AM-6PM",
    "services": [
      "Catholic-owned Health clubs in Arkansas consultation",
      "Professional service",
      "Quality guarantee"
    ],
    "social_links": {}
  },
  {
    "name": "The Daniel Plan",
    "address": "Online program, no physical address in Arkansas",
    "phone": "",
    "rating": 4.0,
    "reviews": 25,
    "website": "https://www.danielplan.com/",
    "category": "Catholic-owned Health clubs in Arkansas",
    "description": "A faith-based wellness program focused on healthy lifestyle through faith, food, fitness, focus, and friends. It is rooted in Christian principles and can be adopted by individuals or groups",
    "hours": "Mon-Fri 9AM-6PM",
    "services": [
      "Catholic-owned Health clubs in Arkansas consultation",
      "Professional service",
      "Quality guarantee"
    ],
    "social_links": {}
  },
  {
    "name": "Light Weigh",
    "address": "Online program, no physical address in Arkansas",
    "phone": "",
    "rating": 4.0,
    "reviews": 25,
    "website": "https://lightweigh.com/",
    "category": "Catholic-owned Health clubs in Arkansas",
    "description": "A Catholic weight-loss program that uses Bible study, prayer, and fellowship to support individuals in their health journey",
    "hours": "Mon-Fri 9AM-6PM",
    "services": [
      "Catholic-owned Health clubs in Arkansas consultation",
      "Professional service",
      "Quality guarantee"
    ],
    "social_links": {}
  }
]