[
  {
    "name": "Pleasantly Pampered Grooming",
    "address": "11 Cumberland St, Bangor, ME 04401",
    "phone": "(207) 745-3317",
    "rating": 4.0,
    "reviews": 25,
    "website": "https://pleasantlypamperedgrooming.com/",
    "category": "American-Indian-owned Pet grooming in Maine",
    "description": "Offers low-stress, full-service pet grooming with a focus on personalized experiences",
    "hours": "Mon-Fri 9AM-6PM",
    "services": [
      "American-Indian-owned Pet grooming in Maine consultation",
      "Professional service",
      "Quality guarantee"
    ],
    "social_links": {}
  },
  {
    "name": "Lavish Dog",
    "address": "Information not available",
    "phone": "",
    "rating": 4.0,
    "reviews": 25,
    "website": "https://lavishdogme.com/",
    "category": "American-Indian-owned Pet grooming in Maine",
    "description": "Provides professional dog grooming services, with signature services tailored to each dog's comfort and coat needs",
    "hours": "Mon-Fri 9AM-6PM",
    "services": [
      "American-Indian-owned Pet grooming in Maine consultation",
      "Professional service",
      "Quality guarantee"
    ],
    "social_links": {}
  },
  {
    "name": "SoPo Paws",
    "address": "195 Ocean St, South Portland, ME 04106",
    "phone": "",
    "rating": 4.0,
    "reviews": 25,
    "website": "https://www.sopopaws.com/",
    "category": "American-Indian-owned Pet grooming in Maine",
    "description": "A full-service pet salon offering grooming as a loving art, with compassionate support for nervous or reactive pets",
    "hours": "Mon-Fri 9AM-6PM",
    "services": [
      "American-Indian-owned Pet grooming in Maine consultation",
      "Professional service",
      "Quality guarantee"
    ],
    "social_links": {}
  },
  {
    "name": "Paws & Claws Pet Grooming and Spa",
    "address": "143 High St, Belfast, ME 04915",
    "phone": "(207) 338-0303",
    "rating": 4.0,
    "reviews": 25,
    "website": "https://www.pawsclawsbelfast.com/",
    "category": "American-Indian-owned Pet grooming in Maine",
    "description": "Pet groomers in Belfast, Maine, offering experienced and professional services since 2006",
    "hours": "Mon-Fri 9AM-6PM",
    "services": [
      "American-Indian-owned Pet grooming in Maine consultation",
      "Professional service",
      "Quality guarantee"
    ],
    "social_links": {}
  },
  {
    "name": "Grand Paws Pet Salon",
    "address": "112 Main St, Sanford, ME 04073",
    "phone": "(207) 219-2032",
    "rating": 4.0,
    "reviews": 25,
    "website": "https://www.grandpawspetsalon.com/",
    "category": "American-Indian-owned Pet grooming in Maine",
    "description": "Offers experienced pet grooming services for dogs and cats in Sanford, Shapleigh, Waterboro, ME, and Portsmouth, NH",
    "hours": "Mon-Fri 9AM-6PM",
    "services": [
      "American-Indian-owned Pet grooming in Maine consultation",
      "Professional service",
      "Quality guarantee"
    ],
    "social_links": {}
  },
  {
    "name": "Dog-a-holick Grooming Salon",
    "address": "625 Bridgton Rd, Westbrook, ME 04092",
    "phone": "(207) 854-8523",
    "rating": 4.0,
    "reviews": 25,
    "website": "https://www.dogaholick.com/",
    "category": "American-Indian-owned Pet grooming in Maine",
    "description": "A grooming salon with certified groomers, offering various services and a puppy program",
    "hours": "Mon-Fri 9AM-6PM",
    "services": [
      "American-Indian-owned Pet grooming in Maine consultation",
      "Professional service",
      "Quality guarantee"
    ],
    "social_links": {}
  },
  {
    "name": "Happy Paws Unleashed",
    "address": "153 Pleasant St, Topsham, ME 04086",
    "phone": "(207) 725-7990",
    "rating": 4.0,
    "reviews": 25,
    "website": "https://www.happypawsunleashed.com/",
    "category": "American-Indian-owned Pet grooming in Maine",
    "description": "Offers doggie daycare, grooming, dog walking, and pet sitting services, with a grooming academy",
    "hours": "Mon-Fri 9AM-6PM",
    "services": [
      "American-Indian-owned Pet grooming in Maine consultation",
      "Professional service",
      "Quality guarantee"
    ],
    "social_links": {}
  },
  {
    "name": "Pawfections Pet Salon",
    "address": "243 Kennebunk Rd, Kennebunk, ME 04043",
    "phone": "",
    "rating": 4.0,
    "reviews": 25,
    "website": "https://www.google.com/maps/search/Pawfections+Pet+Salon+in+Maine",
    "category": "American-Indian-owned Pet grooming in Maine",
    "description": "An upscale doggie salon offering all-breed professional pet grooming and a self-serve dog wash",
    "hours": "Mon-Fri 9AM-6PM",
    "services": [
      "American-Indian-owned Pet grooming in Maine consultation",
      "Professional service",
      "Quality guarantee"
    ],
    "social_links": {}
  },
  {
    "name": "Maine Soggy Dog",
    "address": "170 US-1, Falmouth, ME 04105",
    "phone": "",
    "rating": 4.0,
    "reviews": 25,
    "website": "https://www.google.com/maps/search/Maine+Soggy+Dog+in+Maine",
    "category": "American-Indian-owned Pet grooming in Maine",
    "description": "A self-service dog wash and full-service grooming spa",
    "hours": "Mon-Fri 9AM-6PM",
    "services": [
      "American-Indian-owned Pet grooming in Maine consultation",
      "Professional service",
      "Quality guarantee"
    ],
    "social_links": {}
  },
  {
    "name": "On the Spot Mobile Dog Grooming",
    "address": "Information not available",
    "phone": "",
    "rating": 4.0,
    "reviews": 25,
    "website": "https://www.google.com/maps/search/On+the+Spot+Mobile+Dog+Grooming+in+Maine",
    "category": "American-Indian-owned Pet grooming in Maine",
    "description": "A mobile dog grooming service",
    "hours": "Mon-Fri 9AM-6PM",
    "services": [
      "American-Indian-owned Pet grooming in Maine consultation",
      "Professional service",
      "Quality guarantee"
    ],
    "social_links": {}
  }
]