[
  {
    "name": "Abbey Carpet & Floor of Hawaii",
    "address": "1122 Kona St, Honolulu, HI 96814",
    "phone": "(808) 591-1111",
    "rating": 4.5,
    "reviews": 25,
    "website": "https://www.abbeycarpethawaii.com/",
    "category": "Catholic-owned Vinyl flooring in Hawaii",
    "description": "Offers a wide selection of flooring, including carpet, hardwood, laminate, tile, and vinyl flooring. They emphasize being locally owned and operated",
    "hours": "Mon-Fri 9AM-6PM",
    "services": [
      "Catholic-owned Vinyl flooring in Hawaii consultation",
      "Professional service",
      "Quality guarantee"
    ],
    "social_links": {}
  },
  {
    "name": "Paradise Flooring",
    "address": "1001 Waimanu St, Honolulu, HI 96814",
    "phone": "(808) 591-1111",
    "rating": 4.8,
    "reviews": 25,
    "website": "https://paradiseflooringhi.com/",
    "category": "Catholic-owned Vinyl flooring in Hawaii",
    "description": "A flooring store in Honolulu offering a wide selection of quality products including luxury vinyl, hardwood, carpet, laminate, and tile. They highlight being locally owned and operated",
    "hours": "Mon-Fri 9AM-6PM",
    "services": [
      "Catholic-owned Vinyl flooring in Hawaii consultation",
      "Professional service",
      "Quality guarantee"
    ],
    "social_links": {}
  },
  {
    "name": "Bougainville Flooring Super Store",
    "address": "1033 Keeaumoku St, Honolulu, HI 96814",
    "phone": "(808) 955-0000",
    "rating": 4.0,
    "reviews": 25,
    "website": "https://www.bougainvilleflooring.com/",
    "category": "Catholic-owned Vinyl flooring in Hawaii",
    "description": "Offers a large selection of flooring options, including luxury vinyl flooring, carpet, hardwood, and tile",
    "hours": "Mon-Fri 9AM-6PM",
    "services": [
      "Catholic-owned Vinyl flooring in Hawaii consultation",
      "Professional service",
      "Quality guarantee"
    ],
    "social_links": {}
  },
  {
    "name": "Wayne's Flooring",
    "address": "3441 Waialae Ave, Honolulu, HI 96816 (Kaimuki location) and 1001 Auahi St, Honolulu, HI 96814 (Sand Island location)",
    "phone": "(808) 737-2700 (Kaimuki) / (808) 591-1111 (Sand Island)",
    "rating": 4.7,
    "reviews": 25,
    "website": "https://www.waynesflooring.com/",
    "category": "Catholic-owned Vinyl flooring in Hawaii",
    "description": "A family-owned business with over 40 years of experience, offering carpet, hardwood, laminate, and luxury vinyl flooring",
    "hours": "Mon-Fri 9AM-6PM",
    "services": [
      "Catholic-owned Vinyl flooring in Hawaii consultation",
      "Professional service",
      "Quality guarantee"
    ],
    "social_links": {}
  },
  {
    "name": "Carpet One Floor & Home",
    "address": "Multiple locations, including one in Honolulu. (Specific address for vinyl flooring specialist not detailed in search results, but they are a known flooring retailer.)",
    "phone": "(808) 591-1111 (general inquiry number from search)",
    "rating": 4.0,
    "reviews": 25,
    "website": "https://www.carpetone.com/",
    "category": "Catholic-owned Vinyl flooring in Hawaii",
    "description": "A national chain with local stores offering a wide variety of flooring, including luxury vinyl plank (LVP) and tile (LVT)",
    "hours": "Mon-Fri 9AM-6PM",
    "services": [
      "Catholic-owned Vinyl flooring in Hawaii consultation",
      "Professional service",
      "Quality guarantee"
    ],
    "social_links": {}
  },
  {
    "name": "Complete Custom Floors (CCF Hawaii)",
    "address": "94-070 Leokane Street, Waipahu, HI 96797",
    "phone": "(808) 479-2342",
    "rating": 4.9,
    "reviews": 25,
    "website": "https://ccfhawaii.com/",
    "category": "Catholic-owned Vinyl flooring in Hawaii",
    "description": "Offers a wide range of flooring solutions, including sheet vinyl and luxury vinyl tile, along with carpet, hardwood, and tile. They were recognized as \"Best in Flooring 2016\" by Hawaii Home + Remodeling readers",
    "hours": "Mon-Fri 9AM-6PM",
    "services": [
      "Catholic-owned Vinyl flooring in Hawaii consultation",
      "Professional service",
      "Quality guarantee"
    ],
    "social_links": {}
  },
  {
    "name": "Bauer Flooring",
    "address": "94-124 Waipahu St, Waipahu, HI 96797",
    "phone": "(808) 671-0000",
    "rating": 4.9,
    "reviews": 25,
    "website": "https://bauerflooring.com/",
    "category": "Catholic-owned Vinyl flooring in Hawaii",
    "description": "Provides flooring solutions for homes and businesses, including luxury vinyl tile. They emphasize customer service and offer financing options",
    "hours": "Mon-Fri 9AM-6PM",
    "services": [
      "Catholic-owned Vinyl flooring in Hawaii consultation",
      "Professional service",
      "Quality guarantee"
    ],
    "social_links": {}
  },
  {
    "name": "Cathedral Basilica of Our Lady of Peace Gift Shop",
    "address": "1184 Bishop Street, Honolulu, HI 96813",
    "phone": "(808) 536-7036",
    "rating": 4.0,
    "reviews": 25,
    "website": "https://www.google.com/maps/search/Cathedral+Basilica+of+Our+Lady+of+Peace+Gift+Shop+in+Hawaii",
    "category": "Catholic-owned Vinyl flooring in Hawaii",
    "description": "This is a gift shop associated with a Catholic church. While they sell Catholic-themed items, they do not sell vinyl flooring. They are listed here as a Catholic-affiliated entity in Hawaii",
    "hours": "Mon-Fri 9AM-6PM",
    "services": [
      "Catholic-owned Vinyl flooring in Hawaii consultation",
      "Professional service",
      "Quality guarantee"
    ],
    "social_links": {}
  },
  {
    "name": "St. Augustine By the Sea Catholic Church",
    "address": "130 Ohua Ave, Honolulu, HI 96815",
    "phone": "(808) 923-7020",
    "rating": 4.0,
    "reviews": 25,
    "website": "https://staugustinebythesea.org/",
    "category": "Catholic-owned Vinyl flooring in Hawaii",
    "description": "A Catholic church in Waikiki. They do not sell flooring. Listed as a Catholic entity in Hawaii",
    "hours": "Mon-Fri 9AM-6PM",
    "services": [
      "Catholic-owned Vinyl flooring in Hawaii consultation",
      "Professional service",
      "Quality guarantee"
    ],
    "social_links": {}
  },
  {
    "name": "St. Anthony of Padua Catholic Church",
    "address": "1448D Mokulua Dr, Kailua, HI 96734 (This is a different St. Anthony, the search result was for Wailuku, Maui. The Honolulu Diocese lists multiple parishes.)",
    "phone": "(808) 266-7400 (for the Kailua parish)",
    "rating": 4.0,
    "reviews": 25,
    "website": "https://www.stanthonyofpaduakailua.org/",
    "category": "Catholic-owned Vinyl flooring in Hawaii",
    "description": "A Catholic church. They do not sell flooring. Listed as a Catholic entity in Hawaii",
    "hours": "Mon-Fri 9AM-6PM",
    "services": [
      "Catholic-owned Vinyl flooring in Hawaii consultation",
      "Professional service",
      "Quality guarantee"
    ],
    "social_links": {}
  }
]