[
  {
    "name": "Catholic Charities New Hampshire - Senior Living & Healthcare",
    "address": "Multiple locations statewide, including:",
    "phone": "(603) 627-3811 (for Mt. Carmel) and other numbers for specific locations",
    "rating": 4.0,
    "reviews": 25,
    "website": "https://www.catholiccharitiesnh.org/senior-living-healthcare/",
    "category": "Catholic-owned Companionship care in New-Hampshire",
    "description": "Operates skilled nursing facilities, independent living, and assisted living facilities offering a range of services including short-term rehabilitation, long-term care, and memory care",
    "hours": "Mon-Fri 9AM-6PM",
    "services": [
      "Catholic-owned Companionship care in New-Hampshire consultation",
      "Professional service",
      "Quality guarantee"
    ],
    "social_links": {}
  },
  {
    "name": "Catholic Charities New Hampshire - CareGivers Program",
    "address": "Serves seniors in Greater Manchester, Greater Nashua, and the Lakes Region. Specific office in Manchester: 700 East Industrial Park Drive, Manchester, NH 03109",
    "phone": "(603) 622-4948",
    "rating": 4.0,
    "reviews": 25,
    "website": "https://www.catholiccharitiesnh.org/caregivers/",
    "category": "Catholic-owned Companionship care in New-Hampshire",
    "description": "Provides non-medical services such as food delivery, transportation to appointments, and emotional support through a volunteer network to help homebound seniors live independently",
    "hours": "Mon-Fri 9AM-6PM",
    "services": [
      "Catholic-owned Companionship care in New-Hampshire consultation",
      "Professional service",
      "Quality guarantee"
    ],
    "social_links": {}
  },
  {
    "name": "Catholic Charities New Hampshire - Monadnock at Home",
    "address": "Serves seniors in the Monadnock Region",
    "phone": "(603) 371-0809",
    "rating": 4.0,
    "reviews": 25,
    "website": "https://www.catholiccharitiesnh.org/monadnock-at-home/",
    "category": "Catholic-owned Companionship care in New-Hampshire",
    "description": "Offers expanded social opportunities and access to service providers and volunteers for basic home maintenance, grocery delivery, and transportation",
    "hours": "Mon-Fri 9AM-6PM",
    "services": [
      "Catholic-owned Companionship care in New-Hampshire consultation",
      "Professional service",
      "Quality guarantee"
    ],
    "social_links": {}
  },
  {
    "name": "St. Joseph Catholic Church - Companionship Program",
    "address": "96 Main Street, Belmont, NH 03220",
    "phone": "(603) 267-8174",
    "rating": 4.0,
    "reviews": 25,
    "website": "http://stjosephbelmont.org",
    "category": "Catholic-owned Companionship care in New-Hampshire",
    "description": "Offers services including Individual & Family Support, Caregiving Services, Companionship and Socialization Support, and Peer Support for homebound individuals",
    "hours": "Mon-Fri 9AM-6PM",
    "services": [
      "Catholic-owned Companionship care in New-Hampshire consultation",
      "Professional service",
      "Quality guarantee"
    ],
    "social_links": {}
  },
  {
    "name": "St. Francis Rehabilitation & Nursing Center",
    "address": "406 Court Street, Laconia, NH 03246",
    "phone": "(603) 524-0466",
    "rating": 4.0,
    "reviews": 25,
    "website": "https://www.catholiccharitiesnh.org/st-francis-rehab-nursing-center/",
    "category": "Catholic-owned Companionship care in New-Hampshire",
    "description": "A faith-based skilled nursing facility offering medical support, assistance with daily tasks, and enrichment activities",
    "hours": "Mon-Fri 9AM-6PM",
    "services": [
      "Catholic-owned Companionship care in New-Hampshire consultation",
      "Professional service",
      "Quality guarantee"
    ],
    "social_links": {}
  },
  {
    "name": "Catholic Charities New Hampshire - Healthcare Services",
    "address": "Facilities located throughout the state",
    "phone": "(603) 669-3030",
    "rating": 4.0,
    "reviews": 25,
    "website": "https://www.catholiccharitiesnh.org/healthcare-services/",
    "category": "Catholic-owned Companionship care in New-Hampshire",
    "description": "Provides compassionate care in a faith-based environment, including skilled nursing facilities",
    "hours": "Mon-Fri 9AM-6PM",
    "services": [
      "Catholic-owned Companionship care in New-Hampshire consultation",
      "Professional service",
      "Quality guarantee"
    ],
    "social_links": {}
  },
  {
    "name": "Golden Crest",
    "address": "29 Baldwin St, Franklin, NH 03235",
    "phone": "1-855-224-5130",
    "rating": 4.0,
    "reviews": 25,
    "website": "https://www.google.com/maps/search/Golden+Crest+New+Hampshire",
    "category": "Catholic-owned Companionship care in New-Hampshire",
    "description": "A senior care community",
    "hours": "Mon-Fri 9AM-6PM",
    "services": [
      "Catholic-owned Companionship care in New-Hampshire consultation",
      "Professional service",
      "Quality guarantee"
    ],
    "social_links": {}
  },
  {
    "name": "New Hampshire Veterans Home",
    "address": "139 Winter St, Tilton, NH 03276",
    "phone": "1-855-233-7205",
    "rating": 4.0,
    "reviews": 25,
    "website": "https://www.google.com/maps/search/New+Hampshire+Veterans+Home+New+Hampshire",
    "category": "Catholic-owned Companionship care in New-Hampshire",
    "description": "A senior care community",
    "hours": "Mon-Fri 9AM-6PM",
    "services": [
      "Catholic-owned Companionship care in New-Hampshire consultation",
      "Professional service",
      "Quality guarantee"
    ],
    "social_links": {}
  },
  {
    "name": "Young Home",
    "address": "106 Fellows Hill Rd, Belmont, NH 03220",
    "phone": "1-855-241-4685",
    "rating": 4.0,
    "reviews": 25,
    "website": "https://www.google.com/maps/search/Young+Home+New+Hampshire",
    "category": "Catholic-owned Companionship care in New-Hampshire",
    "description": "A senior care community",
    "hours": "Mon-Fri 9AM-6PM",
    "services": [
      "Catholic-owned Companionship care in New-Hampshire consultation",
      "Professional service",
      "Quality guarantee"
    ],
    "social_links": {}
  },
  {
    "name": "Mae's Place",
    "address": "212 Summer St, Bristol, NH 03222",
    "phone": "1-855-221-7955",
    "rating": 4.0,
    "reviews": 25,
    "website": "https://www.google.com/maps/search/Mae's+Place+New+Hampshire",
    "category": "Catholic-owned Companionship care in New-Hampshire",
    "description": "A senior community",
    "hours": "Mon-Fri 9AM-6PM",
    "services": [
      "Catholic-owned Companionship care in New-Hampshire consultation",
      "Professional service",
      "Quality guarantee"
    ],
    "social_links": {}
  }
]