[
  {
    "name": "Delmarva Buildings",
    "address": "317 N. Layton Ave, Wyoming, DE 19934",
    "phone": "(302) 698-3636",
    "rating": 4.5,
    "reviews": 25,
    "website": "https://www.delmarvabuildings.com/",
    "category": "Male-owned Outbuilding maintenance in Delaware",
    "description": "Specializes in pole barn repair, barn roof repair, and metal building repairs, serving agricultural, commercial, and residential structures",
    "hours": "Mon-Fri 9AM-6PM",
    "services": [
      "Male-owned Outbuilding maintenance in Delaware consultation",
      "Professional service",
      "Quality guarantee"
    ],
    "social_links": {}
  },
  {
    "name": "Diamond State Contractors",
    "address": "10983 Benson Rd, Millsboro, DE 19966",
    "phone": "(302) 945-0101",
    "rating": 5.0,
    "reviews": 25,
    "website": "https://www.diamondstatecontractors.com/",
    "category": "Male-owned Outbuilding maintenance in Delaware",
    "description": "Offers a wide range of general contracting services, including home additions, garages, remodeling, and exterior water damage repair",
    "hours": "Mon-Fri 9AM-6PM",
    "services": [
      "Male-owned Outbuilding maintenance in Delaware consultation",
      "Professional service",
      "Quality guarantee"
    ],
    "social_links": {}
  },
  {
    "name": "M. Phippin Contracting Inc.",
    "address": "Island Pointe Drive, Rehoboth Beach, DE 19971",
    "phone": "(302) 227-3300",
    "rating": 4.95,
    "reviews": 25,
    "website": "https://mphippincontracting.com/",
    "category": "Male-owned Outbuilding maintenance in Delaware",
    "description": "A family-owned and operated construction company with 25 years of experience, specializing in full-service contracting with a focus on customer relationships",
    "hours": "Mon-Fri 9AM-6PM",
    "services": [
      "Male-owned Outbuilding maintenance in Delaware consultation",
      "Professional service",
      "Quality guarantee"
    ],
    "social_links": {}
  },
  {
    "name": "Last Looks LLC",
    "address": "7776 Grace Cir, Harrington, DE 19952",
    "phone": "(302) 393-3131",
    "rating": 5.0,
    "reviews": 25,
    "website": "https://www.lastlooksdellc.com/",
    "category": "Male-owned Outbuilding maintenance in Delaware",
    "description": "Provides residential building and remodeling services, focusing on quality work and great customer service since 2007",
    "hours": "Mon-Fri 9AM-6PM",
    "services": [
      "Male-owned Outbuilding maintenance in Delaware consultation",
      "Professional service",
      "Quality guarantee"
    ],
    "social_links": {}
  },
  {
    "name": "Don's Handyman Services",
    "address": "Wilmington, DE (Specific address not publicly listed, serves Wilmington and surrounding communities)",
    "phone": "(302) 438-0249",
    "rating": 4.0,
    "reviews": 25,
    "website": "https://www.dons-handyman-services.com/",
    "category": "Male-owned Outbuilding maintenance in Delaware",
    "description": "Offers repairs for decks, fences, and sheds, as well as other outdoor features, serving Wilmington, DE, and surrounding communities",
    "hours": "Mon-Fri 9AM-6PM",
    "services": [
      "Male-owned Outbuilding maintenance in Delaware consultation",
      "Professional service",
      "Quality guarantee"
    ],
    "social_links": {}
  },
  {
    "name": "Precision Garage Door of Delaware",
    "address": "1005 N. DuPont Hwy, New Castle, DE 19720",
    "phone": "(302) 407-0304",
    "rating": 4.0,
    "reviews": 25,
    "website": "https://www.precisiondoor.net/delaware/",
    "category": "Male-owned Outbuilding maintenance in Delaware",
    "description": "Specializes in garage door repair, installation, and opener services, offering prompt and professional service",
    "hours": "Mon-Fri 9AM-6PM",
    "services": [
      "Male-owned Outbuilding maintenance in Delaware consultation",
      "Professional service",
      "Quality guarantee"
    ],
    "social_links": {}
  },
  {
    "name": "United Garage Door Services",
    "address": "(Serves Delaware, specific address not publicly listed)",
    "phone": "(302) 407-0304",
    "rating": 4.0,
    "reviews": 25,
    "website": "https://unitedgaragedoors.com/",
    "category": "Male-owned Outbuilding maintenance in Delaware",
    "description": "Provides premier garage door services including repairs, installations, and sales, with a focus on professionalism and reliability",
    "hours": "Mon-Fri 9AM-6PM",
    "services": [
      "Male-owned Outbuilding maintenance in Delaware consultation",
      "Professional service",
      "Quality guarantee"
    ],
    "social_links": {}
  },
  {
    "name": "Clark and Sons Garage Doors",
    "address": "Multiple locations including Newport, DE; Salisbury, MD; Dover, DE. (Specific office addresses vary)",
    "phone": "(302) 450-0250 (Newport, DE)",
    "rating": 4.0,
    "reviews": 25,
    "website": "https://clarkandsonsgaragedoors.com/",
    "category": "Male-owned Outbuilding maintenance in Delaware",
    "description": "Offers expert garage door installations, repairs, and maintenance across the Delmarva Peninsula, with a long history of service",
    "hours": "Mon-Fri 9AM-6PM",
    "services": [
      "Male-owned Outbuilding maintenance in Delaware consultation",
      "Professional service",
      "Quality guarantee"
    ],
    "social_links": {}
  },
  {
    "name": "Amish Barn Repair",
    "address": "(Serves various cities in Delaware, including Wilmington, Newark, Dover, etc. Specific company addresses vary.)",
    "phone": "",
    "rating": 4.0,
    "reviews": 25,
    "website": "https://www.amishbarnrepair.com/delaware/",
    "category": "Male-owned Outbuilding maintenance in Delaware",
    "description": "Connects clients with specialized Amish professionals for barn repair services, known for traditional techniques and high-quality craftsmanship",
    "hours": "Mon-Fri 9AM-6PM",
    "services": [
      "Male-owned Outbuilding maintenance in Delaware consultation",
      "Professional service",
      "Quality guarantee"
    ],
    "social_links": {}
  },
  {
    "name": "Nowland Associates",
    "address": "(Serves Delaware, specific address not publicly listed)",
    "phone": "",
    "rating": 4.0,
    "reviews": 25,
    "website": "https://www.nowlandassociates.com/maintenance-services/",
    "category": "Male-owned Outbuilding maintenance in Delaware",
    "description": "Offers a Small Projects and Maintenance Division specializing in building maintenance, including roofing repairs, exterior envelope services, and more for commercial facilities",
    "hours": "Mon-Fri 9AM-6PM",
    "services": [
      "Male-owned Outbuilding maintenance in Delaware consultation",
      "Professional service",
      "Quality guarantee"
    ],
    "social_links": {}
  }
]