[
  {
    "name": "106 St Tire & Wheel",
    "address": "106-01 Northern Blvd, Corona, NY 11368",
    "phone": "(718) 446-6769",
    "rating": 4.3,
    "reviews": 25,
    "website": "https://www.106sttire.com/",
    "category": "American-Indian-owned Wheel alignment in New-York",
    "description": "Offers wheel alignment services, tire sales, and other auto repairs. They provide same-day service and do not require appointments for alignments",
    "hours": "Mon-Fri 9AM-6PM",
    "services": [
      "American-Indian-owned Wheel alignment in New-York consultation",
      "Professional service",
      "Quality guarantee"
    ],
    "social_links": {}
  },
  {
    "name": "Auto Alignment World",
    "address": "86 Dolson Ave, Middletown, NY 10940",
    "phone": "(845) 342-2076",
    "rating": 4.7,
    "reviews": 25,
    "website": "https://www.autoalignmentworld.com/",
    "category": "American-Indian-owned Wheel alignment in New-York",
    "description": "A family-owned business specializing in wheel alignment, auto part repair, and full-service vehicle maintenance, including New York state inspections",
    "hours": "Mon-Fri 9AM-6PM",
    "services": [
      "American-Indian-owned Wheel alignment in New-York consultation",
      "Professional service",
      "Quality guarantee"
    ],
    "social_links": {}
  },
  {
    "name": "Key Auto Center",
    "address": "1413 Myrtle Ave, Brooklyn, NY 11237",
    "phone": "(718) 389-6009",
    "rating": 4.5,
    "reviews": 25,
    "website": "https://keyautocenter.com/",
    "category": "American-Indian-owned Wheel alignment in New-York",
    "description": "A full-service auto repair shop offering brakes, tires, oil changes, transmission services, and more in Brooklyn, NY",
    "hours": "Mon-Fri 9AM-6PM",
    "services": [
      "American-Indian-owned Wheel alignment in New-York consultation",
      "Professional service",
      "Quality guarantee"
    ],
    "social_links": {}
  },
  {
    "name": "Urban Classics",
    "address": "1417 3rd Ave, Brooklyn, NY 11232",
    "phone": "(718) 758-2000",
    "rating": 4.7,
    "reviews": 25,
    "website": "https://www.urbanclassicsauto.com/",
    "category": "American-Indian-owned Wheel alignment in New-York",
    "description": "A full-service general auto, truck, and heavy-duty semi-truck repair shop in Brooklyn, NY, with towing and recovery available 24/7",
    "hours": "Mon-Fri 9AM-6PM",
    "services": [
      "American-Indian-owned Wheel alignment in New-York consultation",
      "Professional service",
      "Quality guarantee"
    ],
    "social_links": {}
  },
  {
    "name": "2 in 1 Auto Center Tire Pros",
    "address": "1800 Coney Island Ave, Brooklyn, NY 11230",
    "phone": "(718) 633-1980",
    "rating": 4.5,
    "reviews": 25,
    "website": "https://www.2in1autotirepros.com/",
    "category": "American-Indian-owned Wheel alignment in New-York",
    "description": "Provides accurate wheel alignment services, along with other auto repair services, to improve vehicle handling and tire longevity",
    "hours": "Mon-Fri 9AM-6PM",
    "services": [
      "American-Indian-owned Wheel alignment in New-York consultation",
      "Professional service",
      "Quality guarantee"
    ],
    "social_links": {}
  },
  {
    "name": "Cybert Tire & Car Care",
    "address": "217 W 81st St, New York, NY 10024",
    "phone": "(212) 724-7000",
    "rating": 4.5,
    "reviews": 25,
    "website": "https://cybertcarcare.com/",
    "category": "American-Indian-owned Wheel alignment in New-York",
    "description": "Offers a wide range of auto repair services, including routine maintenance and necessary car repairs, serving Manhattan and surrounding areas",
    "hours": "Mon-Fri 9AM-6PM",
    "services": [
      "American-Indian-owned Wheel alignment in New-York consultation",
      "Professional service",
      "Quality guarantee"
    ],
    "social_links": {}
  },
  {
    "name": "Warren Tire Service Center",
    "address": "Multiple locations, including 92 Warren Street, Glens Falls, NY 12801",
    "phone": "(518) 793-6601 (Glens Falls location)",
    "rating": 4.5,
    "reviews": 25,
    "website": "https://www.warrentireservice.com/",
    "category": "American-Indian-owned Wheel alignment in New-York",
    "description": "Provides comprehensive alignment checks and adjustments, along with other tire and automotive services, to ensure safe and efficient driving",
    "hours": "Mon-Fri 9AM-6PM",
    "services": [
      "American-Indian-owned Wheel alignment in New-York consultation",
      "Professional service",
      "Quality guarantee"
    ],
    "social_links": {}
  },
  {
    "name": "Monro Auto Service and Tire Centers",
    "address": "Multiple locations throughout New York",
    "phone": "Varies by location (e.g., (518) 459-2700 for Albany)",
    "rating": 4.3,
    "reviews": 25,
    "website": "https://www.monro.com/",
    "category": "American-Indian-owned Wheel alignment in New-York",
    "description": "Offers a wide range of reliable auto services, including oil changes, brake repair, and tire installations, at competitive prices",
    "hours": "Mon-Fri 9AM-6PM",
    "services": [
      "American-Indian-owned Wheel alignment in New-York consultation",
      "Professional service",
      "Quality guarantee"
    ],
    "social_links": {}
  },
  {
    "name": "Co-Op City Tire & Auto",
    "address": "177A Dreiser Loop, Bronx, NY 10475",
    "phone": "(718) 320-0077",
    "rating": 4.5,
    "reviews": 25,
    "website": "https://cooptireandauto.com/",
    "category": "American-Indian-owned Wheel alignment in New-York",
    "description": "Provides precise and affordable wheel alignment services, along with other auto repair services, to ensure optimal vehicle performance and safety",
    "hours": "Mon-Fri 9AM-6PM",
    "services": [
      "American-Indian-owned Wheel alignment in New-York consultation",
      "Professional service",
      "Quality guarantee"
    ],
    "social_links": {}
  },
  {
    "name": "Little Bear Wheel Alignment",
    "address": "3160 Albany Post Rd, Buchanan, NY 10511",
    "phone": "(914) 737-1282",
    "rating": 4.8,
    "reviews": 25,
    "website": "https://www.littlebearauto.com/",
    "category": "American-Indian-owned Wheel alignment in New-York",
    "description": "A family-owned business specializing in frame straightening and wheel alignments for almost any vehicle, serving the Lower Hudson Valley since 1958",
    "hours": "Mon-Fri 9AM-6PM",
    "services": [
      "American-Indian-owned Wheel alignment in New-York consultation",
      "Professional service",
      "Quality guarantee"
    ],
    "social_links": {}
  }
]