[
  {
    "name": "Arkansas Eye Care Group",
    "address": "3005 Fountain Dr, Conway, AR 72034",
    "phone": "(501) 386-9851",
    "rating": 4.7,
    "reviews": 25,
    "website": "https://arkansaseyecaregroup.com/",
    "category": "Baby-Boomer-owned Optometry in Arkansas",
    "description": "Offers comprehensive eye exams, contact lenses, prescription glasses, glaucoma testing, and pre- and post-operative care",
    "hours": "Mon-Fri 9AM-6PM",
    "services": [
      "Baby-Boomer-owned Optometry in Arkansas consultation",
      "Professional service",
      "Quality guarantee"
    ],
    "social_links": {}
  },
  {
    "name": "Arkansas Family Eyecare - Berryville Clinic",
    "address": "404 West College Avenue, Berryville, AR 72616",
    "phone": "(870) 423-2576",
    "rating": 4.0,
    "reviews": 25,
    "website": "https://arkansasfamilyeyecare.com/",
    "category": "Baby-Boomer-owned Optometry in Arkansas",
    "description": "Provides comprehensive eye exams, eyewear, and contact lenses, with a focus on detecting and managing eye diseases",
    "hours": "Mon-Fri 9AM-6PM",
    "services": [
      "Baby-Boomer-owned Optometry in Arkansas consultation",
      "Professional service",
      "Quality guarantee"
    ],
    "social_links": {}
  },
  {
    "name": "Arkansas Family Eyecare - Bryant Clinic",
    "address": "2900 Horizon Drive, Suite 15, Bryant, AR 72022",
    "phone": "(501) 653-2020",
    "rating": 4.0,
    "reviews": 25,
    "website": "https://arkansaseyecaregroup.com/",
    "category": "Baby-Boomer-owned Optometry in Arkansas",
    "description": "Offers comprehensive eye exams, eyewear, and contact lenses, with a focus on detecting and managing eye diseases",
    "hours": "Mon-Fri 9AM-6PM",
    "services": [
      "Baby-Boomer-owned Optometry in Arkansas consultation",
      "Professional service",
      "Quality guarantee"
    ],
    "social_links": {}
  },
  {
    "name": "Arkansas Family Eyecare - Fayetteville Clinic",
    "address": "1915 N. Green Acre Rd, Fayetteville, AR 72701",
    "phone": "(479) 442-8961",
    "rating": 4.0,
    "reviews": 25,
    "website": "https://arkansaseyecaregroup.com/",
    "category": "Baby-Boomer-owned Optometry in Arkansas",
    "description": "Provides comprehensive eye exams, eyewear, and contact lenses, with a focus on detecting and managing eye diseases",
    "hours": "Mon-Fri 9AM-6PM",
    "services": [
      "Baby-Boomer-owned Optometry in Arkansas consultation",
      "Professional service",
      "Quality guarantee"
    ],
    "social_links": {}
  },
  {
    "name": "Arkansas Family Eyecare - Little Rock Clinic",
    "address": "424 N. University Suite 5, Little Rock, AR 72205",
    "phone": "(501) 663-1131",
    "rating": 4.0,
    "reviews": 25,
    "website": "https://arkansaseyecaregroup.com/",
    "category": "Baby-Boomer-owned Optometry in Arkansas",
    "description": "Offers comprehensive eye exams, eyewear, and contact lenses, with a focus on detecting and managing eye diseases",
    "hours": "Mon-Fri 9AM-6PM",
    "services": [
      "Baby-Boomer-owned Optometry in Arkansas consultation",
      "Professional service",
      "Quality guarantee"
    ],
    "social_links": {}
  },
  {
    "name": "Arkansas Eye Site - Jonesboro",
    "address": "1920 East Nettleton Avenue, Jonesboro, AR 72401",
    "phone": "(870) 932-3937",
    "rating": 4.7,
    "reviews": 25,
    "website": "https://arkansaseyesite.com/",
    "category": "Baby-Boomer-owned Optometry in Arkansas",
    "description": "Provides optometry services including eye exams, glasses, and contact lenses",
    "hours": "Mon-Fri 9AM-6PM",
    "services": [
      "Baby-Boomer-owned Optometry in Arkansas consultation",
      "Professional service",
      "Quality guarantee"
    ],
    "social_links": {}
  },
  {
    "name": "Myers Eye Care",
    "address": "830-A E. Robinson Avenue, Springdale, AR 72764",
    "phone": "(479) 756-6500",
    "rating": 4.8,
    "reviews": 25,
    "website": "https://myers-eye-care.com/",
    "category": "Baby-Boomer-owned Optometry in Arkansas",
    "description": "Offers personalized optical and medical eye care services for all ages, including eye exams, vision therapy, and management of age-related eye disease",
    "hours": "Mon-Fri 9AM-6PM",
    "services": [
      "Baby-Boomer-owned Optometry in Arkansas consultation",
      "Professional service",
      "Quality guarantee"
    ],
    "social_links": {}
  },
  {
    "name": "Arkansas Eye Care Associates",
    "address": "2711 S 48th St Ste 102, Springdale, AR 72764",
    "phone": "(479) 750-1248",
    "rating": 4.6,
    "reviews": 25,
    "website": "https://www.arkansaseyecareassociates.com/",
    "category": "Baby-Boomer-owned Optometry in Arkansas",
    "description": "Provides eye exams, optometrist care, contact lens fitting, and supplier services for healthy vision and routine checkups",
    "hours": "Mon-Fri 9AM-6PM",
    "services": [
      "Baby-Boomer-owned Optometry in Arkansas consultation",
      "Professional service",
      "Quality guarantee"
    ],
    "social_links": {}
  },
  {
    "name": "Visioncare Arkansas",
    "address": "1400 Old Morrilton Hwy, Conway, AR 72032",
    "phone": "(501) 450-9191",
    "rating": 4.7,
    "reviews": 25,
    "website": "https://visioncarear.com/",
    "category": "Baby-Boomer-owned Optometry in Arkansas",
    "description": "Offers comprehensive eye exams, eyeglasses fittings, and treatment for eye diseases, serving Central Arkansas for over 20 years",
    "hours": "Mon-Fri 9AM-6PM",
    "services": [
      "Baby-Boomer-owned Optometry in Arkansas consultation",
      "Professional service",
      "Quality guarantee"
    ],
    "social_links": {}
  },
  {
    "name": "Natural State Eyecare",
    "address": "11225 Huron Lane, Little Rock, AR 72205 (located outside Costco Wholesale)",
    "phone": "(501) 225-9944",
    "rating": 4.9,
    "reviews": 25,
    "website": "https://naturalstateeyecare.com/",
    "category": "Baby-Boomer-owned Optometry in Arkansas",
    "description": "Provides routine and medical eye care for all ages, with a mission to exceed patient expectations and help them understand their eye health",
    "hours": "Mon-Fri 9AM-6PM",
    "services": [
      "Baby-Boomer-owned Optometry in Arkansas consultation",
      "Professional service",
      "Quality guarantee"
    ],
    "social_links": {}
  }
]