[
  {
    "name": "Kings Aire",
    "address": "10555 Socorro Rd, El Paso, TX 79927",
    "phone": "(915) 852-0000",
    "rating": 4.7,
    "reviews": 25,
    "website": "https://kingsaire.com/",
    "category": "Arabic-speaking Air conditioning in Texas",
    "description": "Kings Aire has been providing quality residential and commercial AC and heating services in El Paso since 1980. They are a woman, minority-owned, and family-operated business",
    "hours": "Mon-Fri 9AM-6PM",
    "services": [
      "Arabic-speaking Air conditioning in Texas consultation",
      "Professional service",
      "Quality guarantee"
    ],
    "social_links": {}
  },
  {
    "name": "Collin Air",
    "address": "1301 N Central Expy, Plano, TX 75075",
    "phone": "(972) 548-1555",
    "rating": 4.8,
    "reviews": 25,
    "website": "https://www.collinair.com/",
    "category": "Arabic-speaking Air conditioning in Texas",
    "description": "Collin Air is a family-owned and operated HVAC company serving Plano and surrounding communities since 1980, known for quality service and professionalism",
    "hours": "Mon-Fri 9AM-6PM",
    "services": [
      "Arabic-speaking Air conditioning in Texas consultation",
      "Professional service",
      "Quality guarantee"
    ],
    "social_links": {}
  },
  {
    "name": "Total Air",
    "address": "10555 Socorro Rd, El Paso, TX 79927",
    "phone": "(915) 701-0000",
    "rating": 4.8,
    "reviews": 25,
    "website": "https://www.totalair.com/",
    "category": "Arabic-speaking Air conditioning in Texas",
    "description": "Total Air is a locally owned and family-operated cooling and heating contractor in El Paso with over 15 years of experience, prioritizing customer satisfaction",
    "hours": "Mon-Fri 9AM-6PM",
    "services": [
      "Arabic-speaking Air conditioning in Texas consultation",
      "Professional service",
      "Quality guarantee"
    ],
    "social_links": {}
  },
  {
    "name": "On the Spot HVAC",
    "address": "1701 K Ave, Plano, TX 75074",
    "phone": "(214) 831-8318",
    "rating": 4.9,
    "reviews": 25,
    "website": "https://onthespothvac.com/",
    "category": "Arabic-speaking Air conditioning in Texas",
    "description": "On the Spot HVAC is a family-owned and operated company in Plano, specializing in heating and cooling system services, repairs, and installations with a commitment to customer satisfaction",
    "hours": "Mon-Fri 9AM-6PM",
    "services": [
      "Arabic-speaking Air conditioning in Texas consultation",
      "Professional service",
      "Quality guarantee"
    ],
    "social_links": {}
  },
  {
    "name": "The Air Conditioning Company",
    "address": "10555 Socorro Rd, El Paso, TX 79927",
    "phone": "(915) 842-8615",
    "rating": 4.7,
    "reviews": 25,
    "website": "https://www.theaccompany.com/",
    "category": "Arabic-speaking Air conditioning in Texas",
    "description": "The Air Conditioning Company has over 30 years of experience providing comprehensive HVAC installation, repair, replacement, and maintenance services in El Paso",
    "hours": "Mon-Fri 9AM-6PM",
    "services": [
      "Arabic-speaking Air conditioning in Texas consultation",
      "Professional service",
      "Quality guarantee"
    ],
    "social_links": {}
  },
  {
    "name": "Abacus Air Conditioning & Electrical",
    "address": "10555 Socorro Rd, El Paso, TX 79927",
    "phone": "(915) 852-0000",
    "rating": 4.6,
    "reviews": 25,
    "website": "https://www.abacusplumbing.com/",
    "category": "Arabic-speaking Air conditioning in Texas",
    "description": "Abacus Plumbing, Air Conditioning & Electrical offers a wide range of HVAC services, including air conditioning installation and heating repair, in the Houston area",
    "hours": "Mon-Fri 9AM-6PM",
    "services": [
      "Arabic-speaking Air conditioning in Texas consultation",
      "Professional service",
      "Quality guarantee"
    ],
    "social_links": {}
  },
  {
    "name": "Air Worth Heating & Cooling",
    "address": "5000 Airport Rd, Haltom City, TX 76117",
    "phone": "(817) 749-0049",
    "rating": 4.7,
    "reviews": 25,
    "website": "https://airworthhvac.com/",
    "category": "Arabic-speaking Air conditioning in Texas",
    "description": "Air Worth Heating & Cooling serves the Fort Worth, Texas community with over 25 years of experience in residential and commercial HVAC system repair and installation",
    "hours": "Mon-Fri 9AM-6PM",
    "services": [
      "Arabic-speaking Air conditioning in Texas consultation",
      "Professional service",
      "Quality guarantee"
    ],
    "social_links": {}
  },
  {
    "name": "Baker Brothers Plumbing & Air Conditioning",
    "address": "2615 Big Town Blvd, Dallas, TX 75150",
    "phone": "(214) 892-2225",
    "rating": 4.7,
    "reviews": 25,
    "website": "https://bakerbrothers.com/",
    "category": "Arabic-speaking Air conditioning in Texas",
    "description": "Baker Brothers Plumbing & Air Conditioning provides licensed and trained HVAC technicians for all heating and air conditioning needs in Plano, TX, offering 24/7 emergency services",
    "hours": "Mon-Fri 9AM-6PM",
    "services": [
      "Arabic-speaking Air conditioning in Texas consultation",
      "Professional service",
      "Quality guarantee"
    ],
    "social_links": {}
  },
  {
    "name": "68 Degrees HVAC",
    "address": "10555 Socorro Rd, El Paso, TX 79927",
    "phone": "(832) 478-7777",
    "rating": 4.8,
    "reviews": 25,
    "website": "https://68degreeshvac.com/",
    "category": "Arabic-speaking Air conditioning in Texas",
    "description": "68 Degrees HVAC is a family-owned business in Houston offering personalized service and is recognized as a top choice for HVAC repair, maintenance, and installation",
    "hours": "Mon-Fri 9AM-6PM",
    "services": [
      "Arabic-speaking Air conditioning in Texas consultation",
      "Professional service",
      "Quality guarantee"
    ],
    "social_links": {}
  },
  {
    "name": "Berkeys Air Conditioning, Plumbing & Electrical",
    "address": "1200 W. Trinity Mills Rd., Suite 100, Carrollton, TX 75007",
    "phone": "(972) 464-2460",
    "rating": 4.7,
    "reviews": 25,
    "website": "https://www.berkeys.com/",
    "category": "Arabic-speaking Air conditioning in Texas",
    "description": "Berkeys offers comprehensive HVAC repair, replacement, and installation services in the Dallas, TX area, with licensed and experienced technicians",
    "hours": "Mon-Fri 9AM-6PM",
    "services": [
      "Arabic-speaking Air conditioning in Texas consultation",
      "Professional service",
      "Quality guarantee"
    ],
    "social_links": {}
  }
]