[
  {
    "name": "Delaware Acupuncture & Wellness",
    "address": "201 Possum Park Rd, Newark, DE 19711",
    "phone": "(302) 725-0783",
    "rating": 4.0,
    "reviews": 25,
    "website": "https://www.delawareacupuncture.com/",
    "category": "Chinese-speaking Spa services in Delaware",
    "description": "Offers acupuncture, Chinese herbal medicine, Tuina (Chinese Medical Massage), and nutrition. They also provide Qigong and meditation workshops",
    "hours": "Mon-Fri 9AM-6PM",
    "services": [
      "Chinese-speaking Spa services in Delaware consultation",
      "Professional service",
      "Quality guarantee"
    ],
    "social_links": {}
  },
  {
    "name": "Synergy Integrated Health Center",
    "address": "104 Sleepy Hollow Dr, Wilmington, DE 19803",
    "phone": "(302) 777-0778",
    "rating": 4.0,
    "reviews": 25,
    "website": "https://synergyintegratedhealth.com/",
    "category": "Chinese-speaking Spa services in Delaware",
    "description": "Provides acupuncture services based on traditional Chinese medicine principles, aiming to balance the body for health and well-being",
    "hours": "Mon-Fri 9AM-6PM",
    "services": [
      "Chinese-speaking Spa services in Delaware consultation",
      "Professional service",
      "Quality guarantee"
    ],
    "social_links": {}
  },
  {
    "name": "JJ Massage Therapy",
    "address": "4 Garden of Eden Rd, Wilmington, DE 19803",
    "phone": "(302) 477-1122",
    "rating": 4.0,
    "reviews": 25,
    "website": "https://www.jjmassagetherapy.com/",
    "category": "Chinese-speaking Spa services in Delaware",
    "description": "Offers various massage services, including Swedish, Deep Tissue, and Hot Stone. They also mention \"Asian Massage\" and incorporate elements of traditional wisdom",
    "hours": "Mon-Fri 9AM-6PM",
    "services": [
      "Chinese-speaking Spa services in Delaware consultation",
      "Professional service",
      "Quality guarantee"
    ],
    "social_links": {}
  },
  {
    "name": "First State Health & Wellness",
    "address": "Multiple locations including Lewes, Rehoboth Beach, and Wilmington. (Specific address for Wilmington not detailed in search results)",
    "phone": "(302) 454-1200",
    "rating": 4.0,
    "reviews": 25,
    "website": "https://www.firststatehealth.com/",
    "category": "Chinese-speaking Spa services in Delaware",
    "description": "Offers acupuncture and Oriental Medicine, emphasizing a holistic approach to health",
    "hours": "Mon-Fri 9AM-6PM",
    "services": [
      "Chinese-speaking Spa services in Delaware consultation",
      "Professional service",
      "Quality guarantee"
    ],
    "social_links": {}
  },
  {
    "name": "Delaware Family Acupuncture",
    "address": "1215 Savannah Rd, Lewes, DE 19958",
    "phone": "(302) 645-8888",
    "rating": 4.0,
    "reviews": 25,
    "website": "https://www.delawarefamilyacupuncture.com/",
    "category": "Chinese-speaking Spa services in Delaware",
    "description": "Provides traditional acupuncture, moxibustion, massage, Gua Sha, and nutritional counseling, drawing from Eastern medicine",
    "hours": "Mon-Fri 9AM-6PM",
    "services": [
      "Chinese-speaking Spa services in Delaware consultation",
      "Professional service",
      "Quality guarantee"
    ],
    "social_links": {}
  },
  {
    "name": "Sichuan Health Spa",
    "address": "1200 N Dupont Hwy, New Castle, DE 19720",
    "phone": "(302) 322-8888",
    "rating": 4.0,
    "reviews": 25,
    "website": "https://sichuanhealthspa.com/",
    "category": "Chinese-speaking Spa services in Delaware",
    "description": "Offers professional massage services including body massage, foot reflexology, cupping therapy, and scraping therapy, performed by certified therapists. They specifically mention \"Chinese Massage.\"",
    "hours": "Mon-Fri 9AM-6PM",
    "services": [
      "Chinese-speaking Spa services in Delaware consultation",
      "Professional service",
      "Quality guarantee"
    ],
    "social_links": {}
  },
  {
    "name": "DE Wellness Massage",
    "address": "1701 Concord Pike, Wilmington, DE 19803",
    "phone": "(302) 766-1971",
    "rating": 4.0,
    "reviews": 25,
    "website": "https://www.dewellnessmassage.com/",
    "category": "Chinese-speaking Spa services in Delaware",
    "description": "Offers a variety of massage services and traditional Chinese medicine-based add-ons like gua sha and cupping",
    "hours": "Mon-Fri 9AM-6PM",
    "services": [
      "Chinese-speaking Spa services in Delaware consultation",
      "Professional service",
      "Quality guarantee"
    ],
    "social_links": {}
  },
  {
    "name": "Zhang Oriental Medicine",
    "address": "14614 Coastal Hwy, Milton, DE 19968",
    "phone": "(302) 393-1431",
    "rating": 4.0,
    "reviews": 25,
    "website": "https://zhangorientalmedicine.com/",
    "category": "Chinese-speaking Spa services in Delaware",
    "description": "Focuses on Traditional Chinese Medicine (TCM), including acupuncture, Chinese herbs, massage, and cupping",
    "hours": "Mon-Fri 9AM-6PM",
    "services": [
      "Chinese-speaking Spa services in Delaware consultation",
      "Professional service",
      "Quality guarantee"
    ],
    "social_links": {}
  },
  {
    "name": "Asian Spa",
    "address": "1601 Delaware Ave, Ste 5b, Wilmington, DE 19806",
    "phone": "(302) 333-8826",
    "rating": 4.0,
    "reviews": 25,
    "website": "https://www.google.com/maps/search/Asian+Spa+in+Delaware",
    "category": "Chinese-speaking Spa services in Delaware",
    "description": "Offers massage and reflexology services",
    "hours": "Mon-Fri 9AM-6PM",
    "services": [
      "Chinese-speaking Spa services in Delaware consultation",
      "Professional service",
      "Quality guarantee"
    ],
    "social_links": {}
  },
  {
    "name": "Pure Wellness",
    "address": "104 Sleepy Hollow Dr, Wilmington, DE 19803",
    "phone": "(302) 777-0778",
    "rating": 4.0,
    "reviews": 25,
    "website": "https://purewellnessde.com/",
    "category": "Chinese-speaking Spa services in Delaware",
    "description": "Provides chiropractic care, acupuncture (including trigger point acupuncture/dry needling), and hydrotherapy massages, with a holistic approach",
    "hours": "Mon-Fri 9AM-6PM",
    "services": [
      "Chinese-speaking Spa services in Delaware consultation",
      "Professional service",
      "Quality guarantee"
    ],
    "social_links": {}
  }
]