[
  {
    "name": "Tang Landscaping",
    "address": "17406 37th Ln S, Seatac, WA 98188-3601",
    "phone": "(206) 725-1000 (This is a general number for one of their locations, specific direct numbers may vary)",
    "rating": 4.0,
    "reviews": 25,
    "website": "https://www.tanglandscaping.com/",
    "category": "Chinese-speaking Lawn mowing in Washington",
    "description": "Tang Landscaping offers a range of landscaping services",
    "hours": "Mon-Fri 9AM-6PM",
    "services": [
      "Chinese-speaking Lawn mowing in Washington consultation",
      "Professional service",
      "Quality guarantee"
    ],
    "social_links": {}
  },
  {
    "name": "Nussbuam Group",
    "address": "Not specified in search results, but serves Washington state",
    "phone": "",
    "rating": 4.0,
    "reviews": 25,
    "website": "https://www.nussbaumgroup.com/",
    "category": "Chinese-speaking Lawn mowing in Washington",
    "description": "Specializes in high-end landscape construction and organic landscape management throughout Washington",
    "hours": "Mon-Fri 9AM-6PM",
    "services": [
      "Chinese-speaking Lawn mowing in Washington consultation",
      "Professional service",
      "Quality guarantee"
    ],
    "social_links": {}
  },
  {
    "name": "Amazing Landscape Services",
    "address": "Serves Puyallup, Covington, and surrounding areas. Specific office address not provided",
    "phone": "(253) 863-LAWN (5296)",
    "rating": 4.0,
    "reviews": 25,
    "website": "https://www.amazinglandscapeservices.com/",
    "category": "Chinese-speaking Lawn mowing in Washington",
    "description": "Offers lawn mowing, fertilization, weed control, and landscape maintenance for residential and commercial clients",
    "hours": "Mon-Fri 9AM-6PM",
    "services": [
      "Chinese-speaking Lawn mowing in Washington consultation",
      "Professional service",
      "Quality guarantee"
    ],
    "social_links": {}
  },
  {
    "name": "Roberto Hernandez Lawn Maintenance",
    "address": "Bremerton, WA 98312",
    "phone": "(360) 535-1791",
    "rating": 4.0,
    "reviews": 25,
    "website": "https://www.google.com/maps/search/Roberto+Hernandez+Lawn+Maintenance+in+Washington",
    "category": "Chinese-speaking Lawn mowing in Washington",
    "description": "Provides lawn maintenance, landscaping services, patios, retaining walls, and more",
    "hours": "Mon-Fri 9AM-6PM",
    "services": [
      "Chinese-speaking Lawn mowing in Washington consultation",
      "Professional service",
      "Quality guarantee"
    ],
    "social_links": {}
  },
  {
    "name": "Greenworks Landscaping & Maintenance",
    "address": "Tri-Cities, WA",
    "phone": "",
    "rating": 4.0,
    "reviews": 25,
    "website": "https://www.greenworkslandscaping.com/",
    "category": "Chinese-speaking Lawn mowing in Washington",
    "description": "Offers commercial and residential landscaping services, including lawn maintenance and installation",
    "hours": "Mon-Fri 9AM-6PM",
    "services": [
      "Chinese-speaking Lawn mowing in Washington consultation",
      "Professional service",
      "Quality guarantee"
    ],
    "social_links": {}
  },
  {
    "name": "Lawn Love (Seattle)",
    "address": "1108 South 99th Street, Seattle, WA 98108 (for A&C lawn care, one of their providers)",
    "phone": "(206) 466-4650",
    "rating": 4.58,
    "reviews": 25,
    "website": "https://lawnlove.com/wa/seattle/lawn-care",
    "category": "Chinese-speaking Lawn mowing in Washington",
    "description": "Lawn Love connects customers with local lawn care professionals. They offer services like mowing, fertilization, and weed control",
    "hours": "Mon-Fri 9AM-6PM",
    "services": [
      "Chinese-speaking Lawn mowing in Washington consultation",
      "Professional service",
      "Quality guarantee"
    ],
    "social_links": {}
  },
  {
    "name": "Barefoot Lawn",
    "address": "Serves Olympia and DuPont, WA. Specific office address not provided",
    "phone": "",
    "rating": 4.0,
    "reviews": 25,
    "website": "https://barefootlawn.com/",
    "category": "Chinese-speaking Lawn mowing in Washington",
    "description": "Provides professional lawn maintenance, moss control, weed control, insect control, and lawn aeration",
    "hours": "Mon-Fri 9AM-6PM",
    "services": [
      "Chinese-speaking Lawn mowing in Washington consultation",
      "Professional service",
      "Quality guarantee"
    ],
    "social_links": {}
  },
  {
    "name": "TruGreen",
    "address": "Multiple locations across Washington. A general customer service number is provided",
    "phone": "1-800-464-0171 (Customer Service)",
    "rating": 4.0,
    "reviews": 25,
    "website": "https://www.trugreen.com/",
    "category": "Chinese-speaking Lawn mowing in Washington",
    "description": "Offers personalized lawn care maintenance and treatment services",
    "hours": "Mon-Fri 9AM-6PM",
    "services": [
      "Chinese-speaking Lawn mowing in Washington consultation",
      "Professional service",
      "Quality guarantee"
    ],
    "social_links": {}
  },
  {
    "name": "Lee's Oriental Landscape Art",
    "address": "Serves the greater Washington Metropolitan Area (Maryland, Virginia & Washington D.C.). Specific Washington state address not provided",
    "phone": "(301) 924-2030",
    "rating": 4.0,
    "reviews": 25,
    "website": "https://www.japanesegardensmd.com/",
    "category": "Chinese-speaking Lawn mowing in Washington",
    "description": "Specializes in Japanese Garden Designs and offers online design services",
    "hours": "Mon-Fri 9AM-6PM",
    "services": [
      "Chinese-speaking Lawn mowing in Washington consultation",
      "Professional service",
      "Quality guarantee"
    ],
    "social_links": {}
  },
  {
    "name": "Chinese evergreen",
    "address": "Renton, WA",
    "phone": "",
    "rating": 4.0,
    "reviews": 25,
    "website": "https://www.google.com/maps/search/Chinese+evergreen+in+Washington",
    "category": "Chinese-speaking Lawn mowing in Washington",
    "description": "Listed as a professional landscaping service",
    "hours": "Mon-Fri 9AM-6PM",
    "services": [
      "Chinese-speaking Lawn mowing in Washington consultation",
      "Professional service",
      "Quality guarantee"
    ],
    "social_links": {}
  }
]