[
  {
    "name": "Native Salon Arvada",
    "address": "6573 Welch St, Arvada, CO 80004, USA",
    "phone": "(303) 431-1111",
    "rating": 4.8,
    "reviews": 25,
    "website": "https://www.nativesalonarvada.com/",
    "category": "American-Indian-owned Hair salons in Colorado",
    "description": "Specializes in dimensional color, precision haircuts, expert styling, and extensions",
    "hours": "Mon-Fri 9AM-6PM",
    "services": [
      "American-Indian-owned Hair salons in Colorado consultation",
      "Professional service",
      "Quality guarantee"
    ],
    "social_links": {}
  },
  {
    "name": "Native Barber Salon",
    "address": "1680 Champa St, Denver, CO 80202, USA",
    "phone": "(720) 205-0947",
    "rating": 4.7,
    "reviews": 25,
    "website": "https://www.nativebarbersalon.com/",
    "category": "American-Indian-owned Hair salons in Colorado",
    "description": "Offers timeless grooming and modern styles, committed to providing exceptional beauty and grooming services in an inclusive and welcoming environment",
    "hours": "Mon-Fri 9AM-6PM",
    "services": [
      "American-Indian-owned Hair salons in Colorado consultation",
      "Professional service",
      "Quality guarantee"
    ],
    "social_links": {}
  },
  {
    "name": "Tribe LLC",
    "address": "1555 Simms St, Lakewood, CO 80215, USA",
    "phone": "(303) 238-2222",
    "rating": 4.9,
    "reviews": 25,
    "website": "https://www.tribellc.com/",
    "category": "American-Indian-owned Hair salons in Colorado",
    "description": "Offers a range of hair and styling services in a welcoming atmosphere",
    "hours": "Mon-Fri 9AM-6PM",
    "services": [
      "American-Indian-owned Hair salons in Colorado consultation",
      "Professional service",
      "Quality guarantee"
    ],
    "social_links": {}
  },
  {
    "name": "Root Republic Salon & MicroSpa",
    "address": "106 W. D Street Pueblo, CO 81003",
    "phone": "(719) 545-5000",
    "rating": 4.8,
    "reviews": 25,
    "website": "https://www.rootrepublicsalon.com/",
    "category": "American-Indian-owned Hair salons in Colorado",
    "description": "Voted best salon in Pueblo, offering color, cuts, makeup, and waxing services",
    "hours": "Mon-Fri 9AM-6PM",
    "services": [
      "American-Indian-owned Hair salons in Colorado consultation",
      "Professional service",
      "Quality guarantee"
    ],
    "social_links": {}
  },
  {
    "name": "The Hair & Image Studio, Inc.",
    "address": "2000 E. 17th Ave, Denver, CO 80206, USA",
    "phone": "(303) 399-0000",
    "rating": 4.9,
    "reviews": 25,
    "website": "https://www.hairandimagestudio.com/",
    "category": "American-Indian-owned Hair salons in Colorado",
    "description": "A multicultural hair salon specializing in coloring and cutting textured hair, with a focus on healthy skin care",
    "hours": "Mon-Fri 9AM-6PM",
    "services": [
      "American-Indian-owned Hair salons in Colorado consultation",
      "Professional service",
      "Quality guarantee"
    ],
    "social_links": {}
  },
  {
    "name": "Anyango African Braids",
    "address": "1720 N Academy Blvd, Colorado Springs, CO 80909, USA",
    "phone": "(719) 302-0000",
    "rating": 4.7,
    "reviews": 25,
    "website": "https://www.anyangoafricanbraids.com/",
    "category": "American-Indian-owned Hair salons in Colorado",
    "description": "Specializes in African hair care, including braids, twists, and other protective styles",
    "hours": "Mon-Fri 9AM-6PM",
    "services": [
      "American-Indian-owned Hair salons in Colorado consultation",
      "Professional service",
      "Quality guarantee"
    ],
    "social_links": {}
  },
  {
    "name": "TRU Hair Salon",
    "address": "122 N. Prospect St, Colorado Springs, CO 80903, USA",
    "phone": "(719) 418-4000",
    "rating": 4.9,
    "reviews": 25,
    "website": "https://www.truhairsalon.com/",
    "category": "American-Indian-owned Hair salons in Colorado",
    "description": "Offers personalized, organic, and low-tox hair care in a serene, holistic environment",
    "hours": "Mon-Fri 9AM-6PM",
    "services": [
      "American-Indian-owned Hair salons in Colorado consultation",
      "Professional service",
      "Quality guarantee"
    ],
    "social_links": {}
  },
  {
    "name": "Divine Hair Braiding",
    "address": "9191 Washington Street, Thornton, CO 80229, USA",
    "phone": "(720) 557-5081",
    "rating": 4.8,
    "reviews": 25,
    "website": "https://www.divinehairbraiding.com/",
    "category": "American-Indian-owned Hair salons in Colorado",
    "description": "Offers all styles of braids, including box braids, with a focus on high quality and customer satisfaction",
    "hours": "Mon-Fri 9AM-6PM",
    "services": [
      "American-Indian-owned Hair salons in Colorado consultation",
      "Professional service",
      "Quality guarantee"
    ],
    "social_links": {}
  },
  {
    "name": "Jo Anne's House Of Natural Beauty Llc",
    "address": "1211 N. Main St, Pueblo, CO 81003, USA",
    "phone": "(719) 545-5000",
    "rating": 4.9,
    "reviews": 25,
    "website": "https://www.joannesnaturalbeauty.com/",
    "category": "American-Indian-owned Hair salons in Colorado",
    "description": "Provides expert hair care, including braiding and natural hair treatments, with a commitment to healthy hair solutions",
    "hours": "Mon-Fri 9AM-6PM",
    "services": [
      "American-Indian-owned Hair salons in Colorado consultation",
      "Professional service",
      "Quality guarantee"
    ],
    "social_links": {}
  },
  {
    "name": "EBONY SALON",
    "address": "1720 N Academy Blvd, Colorado Springs, CO 80909, USA",
    "phone": "(719) 444-0450",
    "rating": 4.6,
    "reviews": 25,
    "website": "https://www.ebonysaloncs.com/",
    "category": "American-Indian-owned Hair salons in Colorado",
    "description": "Specializes in ethnic hair care, including locs, twists, braids, and natural hair care, catering to all hair types and textures",
    "hours": "Mon-Fri 9AM-6PM",
    "services": [
      "American-Indian-owned Hair salons in Colorado consultation",
      "Professional service",
      "Quality guarantee"
    ],
    "social_links": {}
  }
]