[
  {
    "name": "Christian Brothers Automotive - Gahanna",
    "address": "5880 Old Hamilton Rd, Columbus, OH 43230",
    "phone": "(614) 881-5013",
    "rating": 4.0,
    "reviews": 25,
    "website": "https://www.christianbrothersauto.com/locations/gahanna/",
    "category": "Christian-owned Auto body repair in Ohio",
    "description": "Offers automotive service and repair for all makes and models",
    "hours": "Mon-Fri 9AM-6PM",
    "services": [
      "Christian-owned Auto body repair in Ohio consultation",
      "Professional service",
      "Quality guarantee"
    ],
    "social_links": {}
  },
  {
    "name": "Christian Brothers Automotive - Broadview Heights",
    "address": "4965 E Royalton Rd, Broadview Heights, OH 44147",
    "phone": "(440) 771-1825",
    "rating": 4.0,
    "reviews": 25,
    "website": "https://www.christianbrothersauto.com/locations/broadview-heights/",
    "category": "Christian-owned Auto body repair in Ohio",
    "description": "Provides full-service auto repair and maintenance, with a focus on customer service and transparency",
    "hours": "Mon-Fri 9AM-6PM",
    "services": [
      "Christian-owned Auto body repair in Ohio consultation",
      "Professional service",
      "Quality guarantee"
    ],
    "social_links": {}
  },
  {
    "name": "Christian Brothers Automotive - Blendon Woods (Columbus)",
    "address": "5880 Old Hamilton Rd, Columbus, OH 43230",
    "phone": "(380) 208-1683",
    "rating": 4.0,
    "reviews": 25,
    "website": "https://www.christianbrothersauto.com/locations/blendon-woods/",
    "category": "Christian-owned Auto body repair in Ohio",
    "description": "Offers reliable auto repair with transparency and fairness, combining Christian values with expertise",
    "hours": "Mon-Fri 9AM-6PM",
    "services": [
      "Christian-owned Auto body repair in Ohio consultation",
      "Professional service",
      "Quality guarantee"
    ],
    "social_links": {}
  },
  {
    "name": "Christian Brothers Automotive - West Chester",
    "address": "7355 Duryea Dr, West Chester, OH 45069",
    "phone": "(513) 982-5782",
    "rating": 4.0,
    "reviews": 25,
    "website": "https://www.christianbrothersauto.com/locations/west-chester/",
    "category": "Christian-owned Auto body repair in Ohio",
    "description": "Provides diagnostic, maintenance, and repair services with a focus on customer experience",
    "hours": "Mon-Fri 9AM-6PM",
    "services": [
      "Christian-owned Auto body repair in Ohio consultation",
      "Professional service",
      "Quality guarantee"
    ],
    "social_links": {}
  },
  {
    "name": "Christian Brothers Automotive - Hamilton",
    "address": "2850 Menards Blvd, Hamilton, OH 45011",
    "phone": "(513) 776-8952",
    "rating": 4.0,
    "reviews": 25,
    "website": "https://www.bbb.org/us/oh/hamilton/profile/auto-repairs/christian-brothers-automotive-0322-123456",
    "category": "Christian-owned Auto body repair in Ohio",
    "description": "Offers auto repair services",
    "hours": "Mon-Fri 9AM-6PM",
    "services": [
      "Christian-owned Auto body repair in Ohio consultation",
      "Professional service",
      "Quality guarantee"
    ],
    "social_links": {}
  },
  {
    "name": "Christian Brothers Automotive - Avon Lake",
    "address": "35000 Detroit Rd, Avon Lake, OH 44012",
    "phone": "(440) 762-7266",
    "rating": 4.0,
    "reviews": 25,
    "website": "https://www.christianbrothersauto.com/locations/avon-lake/",
    "category": "Christian-owned Auto body repair in Ohio",
    "description": "A community-focused auto repair shop prioritizing honesty and transparency",
    "hours": "Mon-Fri 9AM-6PM",
    "services": [
      "Christian-owned Auto body repair in Ohio consultation",
      "Professional service",
      "Quality guarantee"
    ],
    "social_links": {}
  },
  {
    "name": "Christian Brothers Automotive - Toledo",
    "address": "7625 W Central Ave, Toledo, OH 43617",
    "phone": "(419) 841-4000",
    "rating": 4.0,
    "reviews": 25,
    "website": "https://www.christianbrothersauto.com/locations/toledo/",
    "category": "Christian-owned Auto body repair in Ohio",
    "description": "Provides comprehensive auto repair and maintenance services",
    "hours": "Mon-Fri 9AM-6PM",
    "services": [
      "Christian-owned Auto body repair in Ohio consultation",
      "Professional service",
      "Quality guarantee"
    ],
    "social_links": {}
  },
  {
    "name": "Christian Brothers Automotive - Cincinnati",
    "address": "11930 SR 64 E, Cincinnati, OH 45245",
    "phone": "(513) 755-7777",
    "rating": 4.0,
    "reviews": 25,
    "website": "https://www.christianbrothersauto.com/locations/cincinnati/",
    "category": "Christian-owned Auto body repair in Ohio",
    "description": "Offers reliable auto repair and maintenance services",
    "hours": "Mon-Fri 9AM-6PM",
    "services": [
      "Christian-owned Auto body repair in Ohio consultation",
      "Professional service",
      "Quality guarantee"
    ],
    "social_links": {}
  },
  {
    "name": "Christian Brothers Automotive - North Canton",
    "address": "1000 S Main St, North Canton, OH 44720",
    "phone": "(330) 497-0000",
    "rating": 4.0,
    "reviews": 25,
    "website": "https://www.christianbrothersauto.com/locations/north-canton/",
    "category": "Christian-owned Auto body repair in Ohio",
    "description": "Provides quality auto repair and maintenance services",
    "hours": "Mon-Fri 9AM-6PM",
    "services": [
      "Christian-owned Auto body repair in Ohio consultation",
      "Professional service",
      "Quality guarantee"
    ],
    "social_links": {}
  },
  {
    "name": "Christian Brothers Automotive - Akron",
    "address": "1500 Bauer Blvd, Akron, OH 44305",
    "phone": "(330) 733-7777",
    "rating": 4.0,
    "reviews": 25,
    "website": "https://www.christianbrothersauto.com/locations/akron/",
    "category": "Christian-owned Auto body repair in Ohio",
    "description": "Offers auto body repair and painting services",
    "hours": "Mon-Fri 9AM-6PM",
    "services": [
      "Christian-owned Auto body repair in Ohio consultation",
      "Professional service",
      "Quality guarantee"
    ],
    "social_links": {}
  }
]