[
  {
    "name": "LittleStinkers",
    "address": "Indianapolis, IN (Specific address not publicly listed, service area includes Indianapolis, Greenwood, Whiteland)",
    "phone": "(317) 750-0550",
    "rating": 4.5,
    "reviews": 25,
    "website": "https://www.littlestinkers.com/",
    "category": "Arabic-speaking Pet waste removal in Indiana",
    "description": "Offers weekly, bi-weekly, monthly, or one-time pet waste removal services with a focus on thoroughness and customer satisfaction",
    "hours": "Mon-Fri 9AM-6PM",
    "services": [
      "Arabic-speaking Pet waste removal in Indiana consultation",
      "Professional service",
      "Quality guarantee"
    ],
    "social_links": {}
  },
  {
    "name": "Scoop Force",
    "address": "Lafayette, IN (Service area includes Lafayette and West Lafayette, with broader Indiana coverage)",
    "phone": "(765) 409-0170",
    "rating": 4.8,
    "reviews": 25,
    "website": "https://scoopforce.com/",
    "category": "Arabic-speaking Pet waste removal in Indiana",
    "description": "Provides reliable dog waste cleanup services with flexible pricing options, including disposal services",
    "hours": "Mon-Fri 9AM-6PM",
    "services": [
      "Arabic-speaking Pet waste removal in Indiana consultation",
      "Professional service",
      "Quality guarantee"
    ],
    "social_links": {}
  },
  {
    "name": "Midwest Elite Services (Call of Doodee)",
    "address": "Southern Indiana (Service area includes Louisville, Southern Indiana, and the Indianapolis area)",
    "phone": "(812) 595-7412",
    "rating": 4.7,
    "reviews": 25,
    "website": "https://www.callofdoodee.com/",
    "category": "Arabic-speaking Pet waste removal in Indiana",
    "description": "A locally owned business offering commercial and residential pet waste removal services with the goal of keeping yards clean and fresh",
    "hours": "Mon-Fri 9AM-6PM",
    "services": [
      "Arabic-speaking Pet waste removal in Indiana consultation",
      "Professional service",
      "Quality guarantee"
    ],
    "social_links": {}
  },
  {
    "name": "Pet Butler",
    "address": "Indianapolis, IN (Service area includes Indianapolis, Fishers, Noblesville, Carmel, Zionsville, and Westfield)",
    "phone": "(317) 572-0000",
    "rating": 4.6,
    "reviews": 25,
    "website": "https://www.petbutler.com/indianapolis",
    "category": "Arabic-speaking Pet waste removal in Indiana",
    "description": "Offers reliable dog poop cleanup services with flexible scheduling, including weekly, bi-weekly, and custom plans, as well as an optional yard odor eliminator service",
    "hours": "Mon-Fri 9AM-6PM",
    "services": [
      "Arabic-speaking Pet waste removal in Indiana consultation",
      "Professional service",
      "Quality guarantee"
    ],
    "social_links": {}
  },
  {
    "name": "POOP 911 (Fishers)",
    "address": "Fishers, IN (Service area includes Fishers and surrounding areas)",
    "phone": "(317) 406-0077",
    "rating": 4.7,
    "reviews": 25,
    "website": "https://www.poop911.com/fishers",
    "category": "Arabic-speaking Pet waste removal in Indiana",
    "description": "A locally owned and operated pet waste removal service founded by pet parents, offering weekly, bi-weekly, or multiple times per week services with a satisfaction guarantee",
    "hours": "Mon-Fri 9AM-6PM",
    "services": [
      "Arabic-speaking Pet waste removal in Indiana consultation",
      "Professional service",
      "Quality guarantee"
    ],
    "social_links": {}
  },
  {
    "name": "Region Scoopers Dog Waste Removal",
    "address": "Crown Point, IN (Service area includes Northwest Indiana)",
    "phone": "(219) 213-3227",
    "rating": 4.9,
    "reviews": 25,
    "website": "https://regionscoopers.com/",
    "category": "Arabic-speaking Pet waste removal in Indiana",
    "description": "Provides expert dog waste removal services in Northwest Indiana, focusing on convenience, reliability, and safety, with a 100% satisfaction guarantee",
    "hours": "Mon-Fri 9AM-6PM",
    "services": [
      "Arabic-speaking Pet waste removal in Indiana consultation",
      "Professional service",
      "Quality guarantee"
    ],
    "social_links": {}
  },
  {
    "name": "Turd Burglars",
    "address": "Carmel, IN (Service area includes Carmel and Indianapolis)",
    "phone": "(317) 453-5351",
    "rating": 4.8,
    "reviews": 25,
    "website": "https://www.turd-burglars.com/",
    "category": "Arabic-speaking Pet waste removal in Indiana",
    "description": "Offers top-rated pet waste removal services with a thorough scooping technique, available for one-time, twice weekly, and weekly services",
    "hours": "Mon-Fri 9AM-6PM",
    "services": [
      "Arabic-speaking Pet waste removal in Indiana consultation",
      "Professional service",
      "Quality guarantee"
    ],
    "social_links": {}
  },
  {
    "name": "Rake and Take Pet Waste Removal",
    "address": "Fort Wayne, IN (Service area includes Fort Wayne and beyond)",
    "phone": "(260) 503-2288",
    "rating": 4.7,
    "reviews": 25,
    "website": "https://rakeandtakepwr.com/",
    "category": "Arabic-speaking Pet waste removal in Indiana",
    "description": "Provides reliable residential and commercial pet waste removal services with friendly communication and a satisfaction guarantee",
    "hours": "Mon-Fri 9AM-6PM",
    "services": [
      "Arabic-speaking Pet waste removal in Indiana consultation",
      "Professional service",
      "Quality guarantee"
    ],
    "social_links": {}
  },
  {
    "name": "Turd Burglars (Indianapolis)",
    "address": "Indianapolis, IN (Service area includes Indianapolis)",
    "phone": "(317) 453-5351",
    "rating": 4.9,
    "reviews": 25,
    "website": "https://www.turd-burglars.com/indianapolis",
    "category": "Arabic-speaking Pet waste removal in Indiana",
    "description": "Offers professional, effective, and affordable poop scoop services in Indianapolis, aiming to provide a reliable and satisfactory experience",
    "hours": "Mon-Fri 9AM-6PM",
    "services": [
      "Arabic-speaking Pet waste removal in Indiana consultation",
      "Professional service",
      "Quality guarantee"
    ],
    "social_links": {}
  },
  {
    "name": "Spotlight Scoopers",
    "address": "Central Indiana (Service area includes Indianapolis and surrounding areas)",
    "phone": "(317) 750-0550",
    "rating": 4.8,
    "reviews": 25,
    "website": "https://www.spotlightscoopers.com/",
    "category": "Arabic-speaking Pet waste removal in Indiana",
    "description": "A veteran and firefighter-led pet waste removal service offering reliable, hygienic service with no start-up fees and a free first month",
    "hours": "Mon-Fri 9AM-6PM",
    "services": [
      "Arabic-speaking Pet waste removal in Indiana consultation",
      "Professional service",
      "Quality guarantee"
    ],
    "social_links": {}
  }
]