[
  {
    "name": "Eli's Garage",
    "address": "12 Beach St, Malden, MA 02148",
    "phone": "(781) 321-0880",
    "rating": 4.0,
    "reviews": 25,
    "website": "https://www.elissgarage.com/",
    "category": "Arabic-speaking Auto electrical in Massachusetts",
    "description": "Specializes in auto electric repair, including starters, alternators, wiring, power windows, and more. They are open six days a week",
    "hours": "Mon-Fri 9AM-6PM",
    "services": [
      "Arabic-speaking Auto electrical in Massachusetts consultation",
      "Professional service",
      "Quality guarantee"
    ],
    "social_links": {}
  },
  {
    "name": "Teele Square Auto",
    "address": "1284 Broadway, Somerville, MA 02144",
    "phone": "(617) 623-9067",
    "rating": 4.0,
    "reviews": 25,
    "website": "https://www.teelesquareauto.com/",
    "category": "Arabic-speaking Auto electrical in Massachusetts",
    "description": "Offers diagnostic and repair services for automobile electrical systems, including temperature gauges, door locks, headlights, power locks, power mirrors, power windows, powered seats, and heated seats",
    "hours": "Mon-Fri 9AM-6PM",
    "services": [
      "Arabic-speaking Auto electrical in Massachusetts consultation",
      "Professional service",
      "Quality guarantee"
    ],
    "social_links": {}
  },
  {
    "name": "Lynn Street Auto Service",
    "address": "101 Lynn St, Peabody, MA 01960",
    "phone": "(978) 531-9652",
    "rating": 4.0,
    "reviews": 25,
    "website": "https://www.lynnstreetautoservice.com/",
    "category": "Arabic-speaking Auto electrical in Massachusetts",
    "description": "Provides automobile electrical repair services, including starter replacements, alternator replacements, electrical wiring fixes, and fuse box repair",
    "hours": "Mon-Fri 9AM-6PM",
    "services": [
      "Arabic-speaking Auto electrical in Massachusetts consultation",
      "Professional service",
      "Quality guarantee"
    ],
    "social_links": {}
  },
  {
    "name": "World Tech Auto Center",
    "address": "1070 Iyannough Rd, Hyannis, MA 02601",
    "phone": "(508) 778-0377",
    "rating": 4.7,
    "reviews": 25,
    "website": "https://www.worldtechautocenter.com/",
    "category": "Arabic-speaking Auto electrical in Massachusetts",
    "description": "Specializes in auto electrical services for cars, trucks, and SUVs, including window motors, alternators, and starters",
    "hours": "Mon-Fri 9AM-6PM",
    "services": [
      "Arabic-speaking Auto electrical in Massachusetts consultation",
      "Professional service",
      "Quality guarantee"
    ],
    "social_links": {}
  },
  {
    "name": "Euro Car Center",
    "address": "115 Wilmington Rd, Wilmington, MA 01887",
    "phone": "(978) 447-1590",
    "rating": 4.9,
    "reviews": 25,
    "website": "https://www.eurocarcenter.com/",
    "category": "Arabic-speaking Auto electrical in Massachusetts",
    "description": "Offers auto electrical repair and maintenance services, specializing in window motors, alternators, and starters for various car makes",
    "hours": "Mon-Fri 9AM-6PM",
    "services": [
      "Arabic-speaking Auto electrical in Massachusetts consultation",
      "Professional service",
      "Quality guarantee"
    ],
    "social_links": {}
  },
  {
    "name": "South Broadway Auto Service",
    "address": "133 Broadway, Lawrence, MA 01841",
    "phone": "(978) 552-8088",
    "rating": 4.0,
    "reviews": 25,
    "website": "https://www.southbroadwayautoservice.com/",
    "category": "Arabic-speaking Auto electrical in Massachusetts",
    "description": "Provides comprehensive diagnostic and repair services for all electrical components in a car, including starters, alternators, battery cables, and fuses",
    "hours": "Mon-Fri 9AM-6PM",
    "services": [
      "Arabic-speaking Auto electrical in Massachusetts consultation",
      "Professional service",
      "Quality guarantee"
    ],
    "social_links": {}
  },
  {
    "name": "Morrissey Auto Service",
    "address": "61 Tenean St, Dorchester, MA 02122",
    "phone": "(617) 436-9811",
    "rating": 4.0,
    "reviews": 25,
    "website": "https://www.morrisseyautoservice.com/",
    "category": "Arabic-speaking Auto electrical in Massachusetts",
    "description": "Specializes in auto electrical repair and maintenance, including alternators, batteries, and starters",
    "hours": "Mon-Fri 9AM-6PM",
    "services": [
      "Arabic-speaking Auto electrical in Massachusetts consultation",
      "Professional service",
      "Quality guarantee"
    ],
    "social_links": {}
  },
  {
    "name": "AXP Auto (Multiple Locations)",
    "address": "",
    "phone": "",
    "rating": 4.0,
    "reviews": 25,
    "website": "https://www.google.com/maps/search/AXP+Auto+(Multiple+Locations)+in+Massachusetts",
    "category": "Arabic-speaking Auto electrical in Massachusetts",
    "description": "",
    "hours": "Mon-Fri 9AM-6PM",
    "services": [
      "Arabic-speaking Auto electrical in Massachusetts consultation",
      "Professional service",
      "Quality guarantee"
    ],
    "social_links": {}
  },
  {
    "name": "Addresses:",
    "address": "",
    "phone": "(781) 961-7000 (AXP North), (781) 849-1050 (AXP Braintree)",
    "rating": 4.0,
    "reviews": 25,
    "website": "https://www.axpauto.com/",
    "category": "Arabic-speaking Auto electrical in Massachusetts",
    "description": "Offers auto electrical repair services, including car battery replacement and alternator repair, with multiple locations in Randolph and Braintree",
    "hours": "Mon-Fri 9AM-6PM",
    "services": [
      "Arabic-speaking Auto electrical in Massachusetts consultation",
      "Professional service",
      "Quality guarantee"
    ],
    "social_links": {}
  },
  {
    "name": "Weston Automotive",
    "address": "1424 Worcester St, Natick, MA 01760",
    "phone": "(508) 653-7300",
    "rating": 4.0,
    "reviews": 25,
    "website": "https://www.westonautomotive.com/",
    "category": "Arabic-speaking Auto electrical in Massachusetts",
    "description": "Provides electrical work on various car brands, specializing in diagnosing and repairing electrical failures, shorts, grounds, and wiring harness issues",
    "hours": "Mon-Fri 9AM-6PM",
    "services": [
      "Arabic-speaking Auto electrical in Massachusetts consultation",
      "Professional service",
      "Quality guarantee"
    ],
    "social_links": {}
  }
]