[
  {
    "name": "Total Care Dental",
    "address": "1030 N. Mayfair Road, Wauwatosa, WI 53226",
    "phone": "(414) 475-7777",
    "rating": 4.8,
    "reviews": 25,
    "website": "https://www.totalcaredental.com/",
    "category": "Black-owned Cosmetic dentistry in Wisconsin",
    "description": "Offers a comprehensive range of cosmetic dental services, including porcelain veneers, teeth whitening, and smile makeovers",
    "hours": "Mon-Fri 9AM-6PM",
    "services": [
      "Black-owned Cosmetic dentistry in Wisconsin consultation",
      "Professional service",
      "Quality guarantee"
    ],
    "social_links": {}
  },
  {
    "name": "Thomas Tang DDS",
    "address": "17585 W. Bluemound Rd., Brookfield, WI 53045",
    "phone": "(262) 200-8000",
    "rating": 4.9,
    "reviews": 25,
    "website": "https://www.thomastangdds.com/",
    "category": "Black-owned Cosmetic dentistry in Wisconsin",
    "description": "Provides cosmetic dental services with a focus on high-quality patient care and natural-looking results",
    "hours": "Mon-Fri 9AM-6PM",
    "services": [
      "Black-owned Cosmetic dentistry in Wisconsin consultation",
      "Professional service",
      "Quality guarantee"
    ],
    "social_links": {}
  },
  {
    "name": "Elmbrook Family Dental",
    "address": "1215 N. 117th St., Wauwatosa, WI 53226",
    "phone": "(414) 774-6500",
    "rating": 4.8,
    "reviews": 25,
    "website": "https://www.elmbrookfamilydental.com/",
    "category": "Black-owned Cosmetic dentistry in Wisconsin",
    "description": "Offers personalized cosmetic dentistry treatment plans, including teeth whitening and smile makeovers, with an empathetic approach",
    "hours": "Mon-Fri 9AM-6PM",
    "services": [
      "Black-owned Cosmetic dentistry in Wisconsin consultation",
      "Professional service",
      "Quality guarantee"
    ],
    "social_links": {}
  },
  {
    "name": "Revive Dentistry",
    "address": "W234 N3500 N. Pewaukee Rd., Suite 100, Pewaukee, WI 53073",
    "phone": "(262) 226-8733",
    "rating": 4.9,
    "reviews": 25,
    "website": "https://www.revivedentistry.com/",
    "category": "Black-owned Cosmetic dentistry in Wisconsin",
    "description": "Specializes in personalized smile makeovers using advanced technology and expert artistry, with a focus on enhancing natural beauty",
    "hours": "Mon-Fri 9AM-6PM",
    "services": [
      "Black-owned Cosmetic dentistry in Wisconsin consultation",
      "Professional service",
      "Quality guarantee"
    ],
    "social_links": {}
  },
  {
    "name": "Tosa Dental Professionals",
    "address": "6803 W. Wells St., Milwaukee, WI 53213",
    "phone": "(414) 258-2270",
    "rating": 4.9,
    "reviews": 25,
    "website": "https://www.tosadentalprofessionals.com/",
    "category": "Black-owned Cosmetic dentistry in Wisconsin",
    "description": "Offers gentle, individualized dental care, including cosmetic services like teeth whitening and porcelain veneers, with up-to-date technology",
    "hours": "Mon-Fri 9AM-6PM",
    "services": [
      "Black-owned Cosmetic dentistry in Wisconsin consultation",
      "Professional service",
      "Quality guarantee"
    ],
    "social_links": {}
  },
  {
    "name": "Cream City Dental",
    "address": "11040 W. Bluemound Rd., Suite 201, Milwaukee, WI 53226",
    "phone": "(414) 771-7000",
    "rating": 5.0,
    "reviews": 25,
    "website": "https://www.creamcitydental.com/",
    "category": "Black-owned Cosmetic dentistry in Wisconsin",
    "description": "Provides customized preventive, restorative, and cosmetic dentistry, prioritizing patient comfort with state-of-the-art techniques",
    "hours": "Mon-Fri 9AM-6PM",
    "services": [
      "Black-owned Cosmetic dentistry in Wisconsin consultation",
      "Professional service",
      "Quality guarantee"
    ],
    "social_links": {}
  },
  {
    "name": "Eastside Dental",
    "address": "2620 N. Downer Ave., Milwaukee, WI 53211",
    "phone": "(414) 962-0220",
    "rating": 4.9,
    "reviews": 25,
    "website": "https://www.eastsidedentalmilwaukee.com/",
    "category": "Black-owned Cosmetic dentistry in Wisconsin",
    "description": "Offers pain-free family and cosmetic dentistry, including dental veneers and smile makeovers, in a relaxing and welcoming environment",
    "hours": "Mon-Fri 9AM-6PM",
    "services": [
      "Black-owned Cosmetic dentistry in Wisconsin consultation",
      "Professional service",
      "Quality guarantee"
    ],
    "social_links": {}
  },
  {
    "name": "Firefly Family Dentistry",
    "address": "7777 W. Bluemound Rd., Wauwatosa, WI 53213",
    "phone": "(414) 453-3000",
    "rating": 5.0,
    "reviews": 25,
    "website": "https://www.fireflyfamilydentistry.com/",
    "category": "Black-owned Cosmetic dentistry in Wisconsin",
    "description": "Provides preventive, restorative, and cosmetic dental treatments in a comfortable office with the latest equipment, recognized as a \"Best of Milwaukee\" finalist",
    "hours": "Mon-Fri 9AM-6PM",
    "services": [
      "Black-owned Cosmetic dentistry in Wisconsin consultation",
      "Professional service",
      "Quality guarantee"
    ],
    "social_links": {}
  },
  {
    "name": "Highland Park Family Dentistry",
    "address": "10900 W. North Ave., Wauwatosa, WI 53226",
    "phone": "(414) 771-7777",
    "rating": 4.9,
    "reviews": 25,
    "website": "https://www.highlandparkfamilydentistry.com/",
    "category": "Black-owned Cosmetic dentistry in Wisconsin",
    "description": "Offers preventative, restorative, and cosmetic dental care, including porcelain veneers and advanced technology, with a focus on patient education",
    "hours": "Mon-Fri 9AM-6PM",
    "services": [
      "Black-owned Cosmetic dentistry in Wisconsin consultation",
      "Professional service",
      "Quality guarantee"
    ],
    "social_links": {}
  },
  {
    "name": "Lake Park Dental",
    "address": "2247 N. Lake Park Dr., Milwaukee, WI 53211",
    "phone": "(414) 964-9440",
    "rating": 4.9,
    "reviews": 25,
    "website": "https://www.lakeparkdental.com/",
    "category": "Black-owned Cosmetic dentistry in Wisconsin",
    "description": "Provides general and cosmetic dentistry, including full mouth rehabilitation and teeth whitening, utilizing modern and effective technologies",
    "hours": "Mon-Fri 9AM-6PM",
    "services": [
      "Black-owned Cosmetic dentistry in Wisconsin consultation",
      "Professional service",
      "Quality guarantee"
    ],
    "social_links": {}
  }
]