[
  {
    "name": "Basso Marketing Agency",
    "address": "31000 Northwestern Hwy, Farmington Hills, MI 48334",
    "phone": "(248) 539-1100",
    "rating": 4.8,
    "reviews": 25,
    "website": "https://bassomarketing.com/",
    "category": "Baby-Boomer-owned Content strategy in Michigan",
    "description": "A branding and digital marketing agency focused on creating effective strategies, including website design, SEO, social media marketing, and content marketing",
    "hours": "Mon-Fri 9AM-6PM",
    "services": [
      "Baby-Boomer-owned Content strategy in Michigan consultation",
      "Professional service",
      "Quality guarantee"
    ],
    "social_links": {}
  },
  {
    "name": "Motorcity Digital Marketing",
    "address": "24500 Northwestern Hwy, Suite 300, Southfield, MI 48075",
    "phone": "(248) 247-1000",
    "rating": 4.9,
    "reviews": 25,
    "website": "https://motorcitydigital.com/",
    "category": "Baby-Boomer-owned Content strategy in Michigan",
    "description": "A tech-enabled digital marketing solutions provider offering custom strategies in web design, SEO, paid advertising, social media, and content creation",
    "hours": "Mon-Fri 9AM-6PM",
    "services": [
      "Baby-Boomer-owned Content strategy in Michigan consultation",
      "Professional service",
      "Quality guarantee"
    ],
    "social_links": {}
  },
  {
    "name": "3.7 Designs",
    "address": "201 S. Liberty St., Suite 200, Ann Arbor, MI 48104",
    "phone": "(734) 213-1400",
    "rating": 4.9,
    "reviews": 25,
    "website": "https://www.37designs.com/",
    "category": "Baby-Boomer-owned Content strategy in Michigan",
    "description": "A digital marketing agency specializing in strategy-led custom websites, digital marketing to drive traffic and leads, and HubSpot consulting",
    "hours": "Mon-Fri 9AM-6PM",
    "services": [
      "Baby-Boomer-owned Content strategy in Michigan consultation",
      "Professional service",
      "Quality guarantee"
    ],
    "social_links": {}
  },
  {
    "name": "SmallBiz Marketing",
    "address": "1420 Lake Lansing Rd, Lansing, MI 48912",
    "phone": "(517) 200-4000",
    "rating": 5.0,
    "reviews": 25,
    "website": "https://smallbizmarketing.com/",
    "category": "Baby-Boomer-owned Content strategy in Michigan",
    "description": "Specializes in creating high-quality content, website building, and social media marketing tailored for small businesses",
    "hours": "Mon-Fri 9AM-6PM",
    "services": [
      "Baby-Boomer-owned Content strategy in Michigan consultation",
      "Professional service",
      "Quality guarantee"
    ],
    "social_links": {}
  },
  {
    "name": "Click Control Marketing",
    "address": "29000 Hoover Rd, Warren, MI 48093",
    "phone": "(586) 439-5000",
    "rating": 4.9,
    "reviews": 25,
    "website": "https://www.clickcontrolmarketing.com/",
    "category": "Baby-Boomer-owned Content strategy in Michigan",
    "description": "An ROI-focused digital marketing agency offering services such as SEO, social media management, web analytics, and web design",
    "hours": "Mon-Fri 9AM-6PM",
    "services": [
      "Baby-Boomer-owned Content strategy in Michigan consultation",
      "Professional service",
      "Quality guarantee"
    ],
    "social_links": {}
  },
  {
    "name": "AMPM, Inc.",
    "address": "301 E. Main St., Midland, MI 48640",
    "phone": "(989) 837-1111",
    "rating": 4.8,
    "reviews": 25,
    "website": "https://ampm.inc/",
    "category": "Baby-Boomer-owned Content strategy in Michigan",
    "description": "Provides advertising, marketing, public relations, and multimedia services with a focus on creative strategy and digital marketing",
    "hours": "Mon-Fri 9AM-6PM",
    "services": [
      "Baby-Boomer-owned Content strategy in Michigan consultation",
      "Professional service",
      "Quality guarantee"
    ],
    "social_links": {}
  },
  {
    "name": "Media Place Partners",
    "address": "123 Commerce Ave SW, Suite 300, Grand Rapids, MI 49503",
    "phone": "(616) 451-0000",
    "rating": 4.9,
    "reviews": 25,
    "website": "https://www.mediaplacepartners.com/",
    "category": "Baby-Boomer-owned Content strategy in Michigan",
    "description": "A full-service marketing agency offering marketing strategy, design services, media planning, and advanced analytics",
    "hours": "Mon-Fri 9AM-6PM",
    "services": [
      "Baby-Boomer-owned Content strategy in Michigan consultation",
      "Professional service",
      "Quality guarantee"
    ],
    "social_links": {}
  },
  {
    "name": "Oneupweb",
    "address": "3100 W. South Airport Rd, Traverse City, MI 49684",
    "phone": "(231) 922-9977",
    "rating": 4.9,
    "reviews": 25,
    "website": "https://www.oneupweb.com/",
    "category": "Baby-Boomer-owned Content strategy in Michigan",
    "description": "A digital marketing agency with nearly thirty years of experience, offering a full spectrum of capabilities including content marketing and enterprise website design",
    "hours": "Mon-Fri 9AM-6PM",
    "services": [
      "Baby-Boomer-owned Content strategy in Michigan consultation",
      "Professional service",
      "Quality guarantee"
    ],
    "social_links": {}
  },
  {
    "name": "Verde Media",
    "address": "223 W. 9 Mile Rd, Ferndale, MI 48220",
    "phone": "(248) 551-5540",
    "rating": 4.9,
    "reviews": 25,
    "website": "https://verdemedia.co/",
    "category": "Baby-Boomer-owned Content strategy in Michigan",
    "description": "A digital marketing agency specializing in SEO, paid media, and digital marketing for businesses and non-profits",
    "hours": "Mon-Fri 9AM-6PM",
    "services": [
      "Baby-Boomer-owned Content strategy in Michigan consultation",
      "Professional service",
      "Quality guarantee"
    ],
    "social_links": {}
  },
  {
    "name": "Techtonic Marketing",
    "address": "130 S. Kalamazoo Mall, Suite 300, Kalamazoo, MI 49007",
    "phone": "(269) 215-0000",
    "rating": 4.8,
    "reviews": 25,
    "website": "https://www.techtonic.marketing/",
    "category": "Baby-Boomer-owned Content strategy in Michigan",
    "description": "Creative problem-solvers helping businesses grow through SEO, web design, Google Ads, and content marketing",
    "hours": "Mon-Fri 9AM-6PM",
    "services": [
      "Baby-Boomer-owned Content strategy in Michigan consultation",
      "Professional service",
      "Quality guarantee"
    ],
    "social_links": {}
  }
]