[
  {
    "name": "Hilbers, Inc.",
    "address": "770 N Walton Ave, Suite 100, Yuba City, CA 95993",
    "phone": "530-673-2947",
    "rating": 4.0,
    "reviews": 25,
    "website": "http://www.hilbersinc.com",
    "category": "Catholic-owned Remodeling in California",
    "description": "A family-owned and operated commercial contractor with over 50 years of experience, specializing in faith-based and non-profit projects. They have a portfolio of over 500 completed projects nationwide",
    "hours": "Mon-Fri 9AM-6PM",
    "services": [
      "Catholic-owned Remodeling in California consultation",
      "Professional service",
      "Quality guarantee"
    ],
    "social_links": {}
  },
  {
    "name": "Rob Clark Construction & Design Inc.",
    "address": "Fontana, CA (Specific street address not provided in search results)",
    "phone": "",
    "rating": 4.0,
    "reviews": 25,
    "website": "https://www.google.com/maps/search/Rob+Clark+Construction+&+Design+Inc.+in+California",
    "category": "Catholic-owned Remodeling in California",
    "description": "Completed new construction for St. Mary's Catholic Church in Fontana, CA",
    "hours": "Mon-Fri 9AM-6PM",
    "services": [
      "Catholic-owned Remodeling in California consultation",
      "Professional service",
      "Quality guarantee"
    ],
    "social_links": {}
  },
  {
    "name": "W.E. O'Neil Construction Co.",
    "address": "Carlsbad, CA (Specific street address not provided in search results)",
    "phone": "",
    "rating": 4.0,
    "reviews": 25,
    "website": "https://www.google.com/maps/search/W.E.+O'Neil+Construction+Co.+in+California",
    "category": "Catholic-owned Remodeling in California",
    "description": "Completed a renovation for St. Patrick's Catholic Church in Carlsbad, CA, including upgrades to A/V, lighting, and acoustical panels",
    "hours": "Mon-Fri 9AM-6PM",
    "services": [
      "Catholic-owned Remodeling in California consultation",
      "Professional service",
      "Quality guarantee"
    ],
    "social_links": {}
  },
  {
    "name": "BCM Construction",
    "address": "Not provided in search results",
    "phone": "",
    "rating": 4.0,
    "reviews": 25,
    "website": "https://www.google.com/maps/search/BCM+Construction+in+California",
    "category": "Catholic-owned Remodeling in California",
    "description": "Completed a remodel of St. John's Catholic Church, updating its interior, electrical, and HVAC systems",
    "hours": "Mon-Fri 9AM-6PM",
    "services": [
      "Catholic-owned Remodeling in California consultation",
      "Professional service",
      "Quality guarantee"
    ],
    "social_links": {}
  },
  {
    "name": "Lanzini and Sons",
    "address": "Not provided in search results",
    "phone": "",
    "rating": 4.0,
    "reviews": 25,
    "website": "https://www.google.com/maps/search/Lanzini+and+Sons+in+California",
    "category": "Catholic-owned Remodeling in California",
    "description": "Has a long history of working on church restorations and renovations, including projects for St. Matthews Catholic Church and Our Lady of Refuge Catholic Church",
    "hours": "Mon-Fri 9AM-6PM",
    "services": [
      "Catholic-owned Remodeling in California consultation",
      "Professional service",
      "Quality guarantee"
    ],
    "social_links": {}
  },
  {
    "name": "Slater Builders",
    "address": "Not provided in search results",
    "phone": "(714) 434-4887",
    "rating": 4.0,
    "reviews": 25,
    "website": "https://www.google.com/maps/search/Slater+Builders+in+California",
    "category": "Catholic-owned Remodeling in California",
    "description": "A commercial general contractor specializing in faith-based and non-profit projects in California",
    "hours": "Mon-Fri 9AM-6PM",
    "services": [
      "Catholic-owned Remodeling in California consultation",
      "Professional service",
      "Quality guarantee"
    ],
    "social_links": {}
  },
  {
    "name": "Remodeling California, Inc.",
    "address": "Not provided in search results, but they serve Los Angeles, CA",
    "phone": "818-266-8533",
    "rating": 4.8,
    "reviews": 25,
    "website": "https://www.google.com/maps/search/Remodeling+California,+Inc.+in+California",
    "category": "Catholic-owned Remodeling in California",
    "description": "A locally owned and operated business specializing in all types of remodels, additions, decks, patios, and landscaping. They have 19 years of experience",
    "hours": "Mon-Fri 9AM-6PM",
    "services": [
      "Catholic-owned Remodeling in California consultation",
      "Professional service",
      "Quality guarantee"
    ],
    "social_links": {}
  },
  {
    "name": "Apex Contracting and Restoration",
    "address": "5183 Mercury Point, San Diego, CA 92111",
    "phone": "858-987-1800",
    "rating": 4.0,
    "reviews": 25,
    "website": "http://www.apex411.com",
    "category": "Catholic-owned Remodeling in California",
    "description": "Listed as a general contractor for San Diego Catholic Services",
    "hours": "Mon-Fri 9AM-6PM",
    "services": [
      "Catholic-owned Remodeling in California consultation",
      "Professional service",
      "Quality guarantee"
    ],
    "social_links": {}
  },
  {
    "name": "Castillo Contracting Company Inc.",
    "address": "3746 40th Street, San Diego, CA",
    "phone": "619-283-2587",
    "rating": 4.0,
    "reviews": 25,
    "website": "https://www.castillocontracting.com/",
    "category": "Catholic-owned Remodeling in California",
    "description": "Listed as a general contractor for San Diego Catholic Services",
    "hours": "Mon-Fri 9AM-6PM",
    "services": [
      "Catholic-owned Remodeling in California consultation",
      "Professional service",
      "Quality guarantee"
    ],
    "social_links": {}
  },
  {
    "name": "Desert Building & Design, Inc.",
    "address": "2320 M. L. King Ave, Calexico, CA",
    "phone": "760-483-6645",
    "rating": 4.0,
    "reviews": 25,
    "website": "https://www.desertbuilding.net",
    "category": "Catholic-owned Remodeling in California",
    "description": "Listed as a general contractor for San Diego Catholic Services, and has worked with Our Lady of Guadalupe in Calexico",
    "hours": "Mon-Fri 9AM-6PM",
    "services": [
      "Catholic-owned Remodeling in California consultation",
      "Professional service",
      "Quality guarantee"
    ],
    "social_links": {}
  }
]