[
  {
    "name": "Christian Auto Works, LLC",
    "address": "41 Church Rd, West Unity, NH",
    "phone": "(603) 542-8503",
    "rating": 4.0,
    "reviews": 25,
    "website": "http://www.christianautoworks.com/",
    "category": "Christian-owned Alternator repair in New-Hampshire",
    "description": "This business specializes in custom car restoration, hot rods, complete paint jobs, and auto body work. While they don't explicitly list alternator repair, their expertise in auto mechanics suggests they might offer this service",
    "hours": "Mon-Fri 9AM-6PM",
    "services": [
      "Christian-owned Alternator repair in New-Hampshire consultation",
      "Professional service",
      "Quality guarantee"
    ],
    "social_links": {}
  },
  {
    "name": "Accomplished Auto",
    "address": "134 Hall St. Ste A, Concord, NH 03301",
    "phone": "(603) 226-6630",
    "rating": 4.0,
    "reviews": 25,
    "website": "https://www.accomplishedauto.com/",
    "category": "Christian-owned Alternator repair in New-Hampshire",
    "description": "This shop offers services including alternators and starters, check engine light diagnosis, and general electrical repair",
    "hours": "Mon-Fri 9AM-6PM",
    "services": [
      "Christian-owned Alternator repair in New-Hampshire consultation",
      "Professional service",
      "Quality guarantee"
    ],
    "social_links": {}
  },
  {
    "name": "Bob & Sons Automotive Inc.",
    "address": "321 Kelley St, Manchester, NH 03102",
    "phone": "(603) 782-0849",
    "rating": 4.0,
    "reviews": 25,
    "website": "https://www.bobsonsauto.com/",
    "category": "Christian-owned Alternator repair in New-Hampshire",
    "description": "They offer alternator services, including repair and replacement, and are known for their expertise in domestic, foreign, hybrid, and electric vehicles",
    "hours": "Mon-Fri 9AM-6PM",
    "services": [
      "Christian-owned Alternator repair in New-Hampshire consultation",
      "Professional service",
      "Quality guarantee"
    ],
    "social_links": {}
  },
  {
    "name": "Central Park Garage",
    "address": "500 US-1, Somersworth, NH 03878",
    "phone": "(855) 916-4059",
    "rating": 4.8,
    "reviews": 25,
    "website": "https://centralparkgarage.com/",
    "category": "Christian-owned Alternator repair in New-Hampshire",
    "description": "This shop specializes in alternator repair and full-system diagnostics, with extensive experience in repairing and replacing alternators and other electrical components",
    "hours": "Mon-Fri 9AM-6PM",
    "services": [
      "Christian-owned Alternator repair in New-Hampshire consultation",
      "Professional service",
      "Quality guarantee"
    ],
    "social_links": {}
  },
  {
    "name": "Walker Automotive",
    "address": "3 Deerwood Drive, Wilmot, NH 03287",
    "phone": "(603) 735-5400",
    "rating": 4.0,
    "reviews": 25,
    "website": "https://www.walkerautomotive.com/",
    "category": "Christian-owned Alternator repair in New-Hampshire",
    "description": "They offer alternator replacement services and are known for their accuracy and expertise",
    "hours": "Mon-Fri 9AM-6PM",
    "services": [
      "Christian-owned Alternator repair in New-Hampshire consultation",
      "Professional service",
      "Quality guarantee"
    ],
    "social_links": {}
  },
  {
    "name": "Derry Rotary Auto Service",
    "address": "15 Tschanz Dr, Derry, NH 03038",
    "phone": "(603) 432-3200",
    "rating": 4.8,
    "reviews": 25,
    "website": "https://derryrotaryauto.com/",
    "category": "Christian-owned Alternator repair in New-Hampshire",
    "description": "This shop is listed as a top repair shop for alternator replacement in the Londonderry area",
    "hours": "Mon-Fri 9AM-6PM",
    "services": [
      "Christian-owned Alternator repair in New-Hampshire consultation",
      "Professional service",
      "Quality guarantee"
    ],
    "social_links": {}
  },
  {
    "name": "Meineke Car Care Center",
    "address": "134 Daniel Webster Hwy, Merrimack, NH 03054",
    "phone": "(603) 429-2400",
    "rating": 4.5,
    "reviews": 25,
    "website": "https://www.meineke.com/locations/nh/merrimack/134-daniel-webster-hwy-03054/",
    "category": "Christian-owned Alternator repair in New-Hampshire",
    "description": "Offers a wide range of automotive services, likely including alternator repair",
    "hours": "Mon-Fri 9AM-6PM",
    "services": [
      "Christian-owned Alternator repair in New-Hampshire consultation",
      "Professional service",
      "Quality guarantee"
    ],
    "social_links": {}
  },
  {
    "name": "Midas of Manchester",
    "address": "1270 Elm St, Manchester, NH 03101",
    "phone": "(603) 624-4000",
    "rating": 4.5,
    "reviews": 25,
    "website": "https://www.midas.com/locations/nh/manchester/1270-elm-st-03101/",
    "category": "Christian-owned Alternator repair in New-Hampshire",
    "description": "A well-known auto service center that likely handles alternator repairs",
    "hours": "Mon-Fri 9AM-6PM",
    "services": [
      "Christian-owned Alternator repair in New-Hampshire consultation",
      "Professional service",
      "Quality guarantee"
    ],
    "social_links": {}
  },
  {
    "name": "First Choice Tires",
    "address": "145 Daniel Webster Hwy, Nashua, NH 03060",
    "phone": "(603) 882-6000",
    "rating": 4.6,
    "reviews": 25,
    "website": "https://www.firstchoicetires.com/",
    "category": "Christian-owned Alternator repair in New-Hampshire",
    "description": "While primarily a tire shop, they offer a range of automotive services and are a highly-rated option in the area",
    "hours": "Mon-Fri 9AM-6PM",
    "services": [
      "Christian-owned Alternator repair in New-Hampshire consultation",
      "Professional service",
      "Quality guarantee"
    ],
    "social_links": {}
  },
  {
    "name": "Reliable Auto",
    "address": "125 S Main St, Concord, NH 03301",
    "phone": "(603) 224-2300",
    "rating": 4.8,
    "reviews": 25,
    "website": "https://www.reliableauto.com/",
    "category": "Christian-owned Alternator repair in New-Hampshire",
    "description": "This shop is known for reliable auto service and is a strong contender for alternator repair",
    "hours": "Mon-Fri 9AM-6PM",
    "services": [
      "Christian-owned Alternator repair in New-Hampshire consultation",
      "Professional service",
      "Quality guarantee"
    ],
    "social_links": {}
  }
]