[
  {
    "name": "Kabab and Curry",
    "address": "Pike Creek, DE (Specific address not provided in search results)",
    "phone": "",
    "rating": 4.0,
    "reviews": 25,
    "website": "https://www.google.com/maps/search/Kabab+and+Curry+in+Delaware",
    "category": "Bengali-speaking Vendor sourcing in Delaware",
    "description": "Offers authentic Northern Indian food",
    "hours": "Mon-Fri 9AM-6PM",
    "services": [
      "Bengali-speaking Vendor sourcing in Delaware consultation",
      "Professional service",
      "Quality guarantee"
    ],
    "social_links": {}
  },
  {
    "name": "India Grille",
    "address": "3456 Naamans Road, Wilmington DE 19810",
    "phone": "302-478-2428 / 302-743-9913",
    "rating": 4.0,
    "reviews": 25,
    "website": "https://www.google.com/maps/search/India+Grille+in+Delaware",
    "category": "Bengali-speaking Vendor sourcing in Delaware",
    "description": "Authentic Indian cuisine with daily buffet, halal meat, and customizable spice levels",
    "hours": "Mon-Fri 9AM-6PM",
    "services": [
      "Bengali-speaking Vendor sourcing in Delaware consultation",
      "Professional service",
      "Quality guarantee"
    ],
    "social_links": {}
  },
  {
    "name": "Desi Tadka North Indian Cuisine",
    "address": "44 S Sandusky St, Delaware Ohio 43015",
    "phone": "(740)-417-4412",
    "rating": 4.0,
    "reviews": 25,
    "website": "https://www.google.com/maps/search/Desi+Tadka+North+Indian+Cuisine+in+Delaware",
    "category": "Bengali-speaking Vendor sourcing in Delaware",
    "description": "Serves traditional Indian dishes like mattar paneer, chicken makhani, tandoor dishes, naan varieties, biryani, and more",
    "hours": "Mon-Fri 9AM-6PM",
    "services": [
      "Bengali-speaking Vendor sourcing in Delaware consultation",
      "Professional service",
      "Quality guarantee"
    ],
    "social_links": {}
  },
  {
    "name": "Little Spice Indian Cuisine",
    "address": "Newark Location: 4621 Ogletown Stanton Rd, Newark, DE 19713; Middletown Location: 600 N Broad St Suite 9, Middletown, DE 19709",
    "phone": "",
    "rating": 4.0,
    "reviews": 25,
    "website": "https://www.google.com/maps/search/Little+Spice+Indian+Cuisine+in+Delaware",
    "category": "Bengali-speaking Vendor sourcing in Delaware",
    "description": "Offers authentic Indian food with fresh ingredients and aromatic spices, including curries, biryanis, and kebabs",
    "hours": "Mon-Fri 9AM-6PM",
    "services": [
      "Bengali-speaking Vendor sourcing in Delaware consultation",
      "Professional service",
      "Quality guarantee"
    ],
    "social_links": {}
  },
  {
    "name": "Indigo Indian Cuisine",
    "address": "44 Rehoboth Avenue, Rehoboth Beach, Delaware",
    "phone": "302.212.5220",
    "rating": 4.0,
    "reviews": 25,
    "website": "https://www.google.com/maps/search/Indigo+Indian+Cuisine+in+Delaware",
    "category": "Bengali-speaking Vendor sourcing in Delaware",
    "description": "Indian cuisine with a friendly staff and exceptional food",
    "hours": "Mon-Fri 9AM-6PM",
    "services": [
      "Bengali-speaking Vendor sourcing in Delaware consultation",
      "Professional service",
      "Quality guarantee"
    ],
    "social_links": {}
  },
  {
    "name": "Apna Bazar Farmers Market",
    "address": "1307 Churchmans Rd, Newark, Delaware - 19713",
    "phone": "(302) 892 2762",
    "rating": 4.0,
    "reviews": 25,
    "website": "https://www.google.com/maps/search/Apna+Bazar+Farmers+Market+in+Delaware",
    "category": "Bengali-speaking Vendor sourcing in Delaware",
    "description": "Indian grocery store offering organic produce, fresh dairy, and other grocery items",
    "hours": "Mon-Fri 9AM-6PM",
    "services": [
      "Bengali-speaking Vendor sourcing in Delaware consultation",
      "Professional service",
      "Quality guarantee"
    ],
    "social_links": {}
  },
  {
    "name": "HumLog Grocery",
    "address": "208 Astro Shopping Centre, Newark, Delaware - 19711",
    "phone": "(302) 366 - 8717",
    "rating": 4.0,
    "reviews": 25,
    "website": "https://www.google.com/maps/search/HumLog+Grocery+in+Delaware",
    "category": "Bengali-speaking Vendor sourcing in Delaware",
    "description": "An Indian grocery store",
    "hours": "Mon-Fri 9AM-6PM",
    "services": [
      "Bengali-speaking Vendor sourcing in Delaware consultation",
      "Professional service",
      "Quality guarantee"
    ],
    "social_links": {}
  },
  {
    "name": "Everest Groceries",
    "address": "208 New Churchman's Rd, New Castle, Delaware - 19720",
    "phone": "(302) 323 1080",
    "rating": 4.0,
    "reviews": 25,
    "website": "https://www.google.com/maps/search/Everest+Groceries+in+Delaware",
    "category": "Bengali-speaking Vendor sourcing in Delaware",
    "description": "An Indian grocery store",
    "hours": "Mon-Fri 9AM-6PM",
    "services": [
      "Bengali-speaking Vendor sourcing in Delaware consultation",
      "Professional service",
      "Quality guarantee"
    ],
    "social_links": {}
  },
  {
    "name": "Everest Indian Grocery Store",
    "address": "2601 Carpenter Station Rd, Wilmington, Delaware - 19810",
    "phone": "(302) 475 4475",
    "rating": 4.0,
    "reviews": 25,
    "website": "https://www.google.com/maps/search/Everest+Indian+Grocery+Store+in+Delaware",
    "category": "Bengali-speaking Vendor sourcing in Delaware",
    "description": "An Indian grocery store",
    "hours": "Mon-Fri 9AM-6PM",
    "services": [
      "Bengali-speaking Vendor sourcing in Delaware consultation",
      "Professional service",
      "Quality guarantee"
    ],
    "social_links": {}
  },
  {
    "name": "Jai Bhavani Supermarket",
    "address": "801 Philadelphia Pike, Wilmington, Delaware - 19809",
    "phone": "(302) 660-2820",
    "rating": 4.0,
    "reviews": 25,
    "website": "https://www.google.com/maps/search/Jai+Bhavani+Supermarket+in+Delaware",
    "category": "Bengali-speaking Vendor sourcing in Delaware",
    "description": "An Indian grocery store",
    "hours": "Mon-Fri 9AM-6PM",
    "services": [
      "Bengali-speaking Vendor sourcing in Delaware consultation",
      "Professional service",
      "Quality guarantee"
    ],
    "social_links": {}
  }
]