[
  {
    "name": "Dahan Electric",
    "address": "1302 Contee Rd, Ste 101, Odenton, MD 21113",
    "phone": "(410) 904-3000",
    "rating": 4.9,
    "reviews": 25,
    "website": "https://www.dahanelectric.com/",
    "category": "Bengali-speaking Outlet installation in Maryland",
    "description": "Dahan Electric offers a wide range of electrical services for residential and commercial clients, including repairs, installations, panel upgrades, and EV charger installations. They have been serving the Maryland, DC, and VA areas since 1989",
    "hours": "Mon-Fri 9AM-6PM",
    "services": [
      "Bengali-speaking Outlet installation in Maryland consultation",
      "Professional service",
      "Quality guarantee"
    ],
    "social_links": {}
  },
  {
    "name": "Kolb Electric",
    "address": "10000 Old Columbia Rd, Columbia, MD 21044",
    "phone": "(877) 287-1179",
    "rating": 4.7,
    "reviews": 25,
    "website": "https://www.kolbelectric.com/",
    "category": "Bengali-speaking Outlet installation in Maryland",
    "description": "Kolb Electric provides comprehensive electrical services for homes and businesses, including emergency repairs, lighting, wiring, and generator installations. They offer same-day service and 24-hour emergency support",
    "hours": "Mon-Fri 9AM-6PM",
    "services": [
      "Bengali-speaking Outlet installation in Maryland consultation",
      "Professional service",
      "Quality guarantee"
    ],
    "social_links": {}
  },
  {
    "name": "JPS Electrical Services",
    "address": "1607 Singer Rd, Joppa, MD 21085",
    "phone": "(443) 617-4538",
    "rating": 4.9,
    "reviews": 25,
    "website": "https://www.jps-electrical.com/",
    "category": "Bengali-speaking Outlet installation in Maryland",
    "description": "JPS Electrical Services offers trusted residential and commercial electrical solutions in Harford County, MD, specializing in repairs, installations, and maintenance. They provide 24/7 professional services",
    "hours": "Mon-Fri 9AM-6PM",
    "services": [
      "Bengali-speaking Outlet installation in Maryland consultation",
      "Professional service",
      "Quality guarantee"
    ],
    "social_links": {}
  },
  {
    "name": "Maryland Electrical Services",
    "address": "100 Prestige Pl, Annapolis, MD 21401",
    "phone": "(410) 970-0058",
    "rating": 4.7,
    "reviews": 25,
    "website": "https://www.marylandelectricalservices.com/",
    "category": "Bengali-speaking Outlet installation in Maryland",
    "description": "This family-owned business has over 20 years of experience providing electrical design, repairs, and installations for residential and commercial properties in the Annapolis area and surrounding counties",
    "hours": "Mon-Fri 9AM-6PM",
    "services": [
      "Bengali-speaking Outlet installation in Maryland consultation",
      "Professional service",
      "Quality guarantee"
    ],
    "social_links": {}
  },
  {
    "name": "Sparks Electrical Services, LLC",
    "address": "100 Prestige Pl, Annapolis, MD 21401",
    "phone": "(410) 970-0058",
    "rating": 4.9,
    "reviews": 25,
    "website": "https://www.sparkselectric.net/",
    "category": "Bengali-speaking Outlet installation in Maryland",
    "description": "Sparks Electrical Services offers licensed electricians with over 25 years of experience in Annapolis, MD, providing a wide range of services including inspections, repairs, and installations with guaranteed quality workmanship",
    "hours": "Mon-Fri 9AM-6PM",
    "services": [
      "Bengali-speaking Outlet installation in Maryland consultation",
      "Professional service",
      "Quality guarantee"
    ],
    "social_links": {}
  },
  {
    "name": "WireWorx Electric Inc.",
    "address": "1302 Contee Rd, Ste 101, Odenton, MD 21113",
    "phone": "(410) 904-3000",
    "rating": 4.9,
    "reviews": 25,
    "website": "https://www.wireworx-electric.com/",
    "category": "Bengali-speaking Outlet installation in Maryland",
    "description": "Serving Maryland since 2005, WireWorx Electric Inc. specializes in electrical design and installation for residential and commercial projects, offering value-driven, low-cost service and a satisfaction guarantee",
    "hours": "Mon-Fri 9AM-6PM",
    "services": [
      "Bengali-speaking Outlet installation in Maryland consultation",
      "Professional service",
      "Quality guarantee"
    ],
    "social_links": {}
  },
  {
    "name": "Shaw Electric",
    "address": "10000 Old Columbia Rd, Columbia, MD 21044",
    "phone": "(410) 904-3000",
    "rating": 4.7,
    "reviews": 25,
    "website": "https://www.shaw-electric.com/",
    "category": "Bengali-speaking Outlet installation in Maryland",
    "description": "Shaw Electric specializes in electrical work for commercial and industrial construction, offering services from new construction and renovations to fire alarm systems and troubleshooting. They have been providing quality work since 2011",
    "hours": "Mon-Fri 9AM-6PM",
    "services": [
      "Bengali-speaking Outlet installation in Maryland consultation",
      "Professional service",
      "Quality guarantee"
    ],
    "social_links": {}
  },
  {
    "name": "John Goudie Electrical Contractor, INC",
    "address": "10000 Old Columbia Rd, Columbia, MD 21044",
    "phone": "(301) 945-7688",
    "rating": 4.9,
    "reviews": 25,
    "website": "https://www.johngoudieelectric.com/",
    "category": "Bengali-speaking Outlet installation in Maryland",
    "description": "With 25 years of experience, John Goudie Electrical Contractor offers a full range of electrical services for residential, commercial, and industrial clients in Indian Head, MD, including installations, repairs, and backup generator services",
    "hours": "Mon-Fri 9AM-6PM",
    "services": [
      "Bengali-speaking Outlet installation in Maryland consultation",
      "Professional service",
      "Quality guarantee"
    ],
    "social_links": {}
  },
  {
    "name": "Apex Electrical Services",
    "address": "10000 Old Columbia Rd, Columbia, MD 21044",
    "phone": "(410) 904-3000",
    "rating": 4.8,
    "reviews": 25,
    "website": "https://www.apexelectricalservices.com/",
    "category": "Bengali-speaking Outlet installation in Maryland",
    "description": "Apex Electrical Services provides expert electrical solutions for residential and commercial customers, focusing on safety, reliability, and customer satisfaction. They offer a comprehensive range of services including installations, repairs, and upgrades",
    "hours": "Mon-Fri 9AM-6PM",
    "services": [
      "Bengali-speaking Outlet installation in Maryland consultation",
      "Professional service",
      "Quality guarantee"
    ],
    "social_links": {}
  },
  {
    "name": "JR Electric",
    "address": "10000 Old Columbia Rd, Columbia, MD 21044",
    "phone": "(410) 904-3000",
    "rating": 4.8,
    "reviews": 25,
    "website": "https://www.jrelectric.net/",
    "category": "Bengali-speaking Outlet installation in Maryland",
    "description": "JR Electric offers professional electrical services for homes and businesses, specializing in installations, repairs, and maintenance. They are committed to providing high-quality work and excellent customer service",
    "hours": "Mon-Fri 9AM-6PM",
    "services": [
      "Bengali-speaking Outlet installation in Maryland consultation",
      "Professional service",
      "Quality guarantee"
    ],
    "social_links": {}
  }
]