[
  {
    "name": "Plant World Inc.",
    "address": "7401 4th St NW, Albuquerque, NM 87107",
    "phone": "(505) 344-7001",
    "rating": 4.5,
    "reviews": 25,
    "website": "https://www.plantworldnursery.com/",
    "category": "Catholic-owned Plant selection assistance in New-Mexico",
    "description": "New Mexico's largest wholesale nursery, offering a vast selection of plants, shrubs, and trees for landscapers and homeowners. They specialize in sourcing large and hard-to-find specimen material",
    "hours": "Mon-Fri 9AM-6PM",
    "services": [
      "Catholic-owned Plant selection assistance in New-Mexico consultation",
      "Professional service",
      "Quality guarantee"
    ],
    "social_links": {}
  },
  {
    "name": "Rehm's Nursery and Garden Center",
    "address": "6001 San Mateo Blvd NE, Albuquerque, NM 87109",
    "phone": "(505) 344-0070",
    "rating": 4.6,
    "reviews": 25,
    "website": "https://rehmsnursery.com/",
    "category": "Catholic-owned Plant selection assistance in New-Mexico",
    "description": "Provides a wide array of plants, blooms, and equipment for gardens, landscapes, and homes. They offer perennials, annuals, fruit trees, ornamental trees, shrubs, roses, vegetables, and houseplants",
    "hours": "Mon-Fri 9AM-6PM",
    "services": [
      "Catholic-owned Plant selection assistance in New-Mexico consultation",
      "Professional service",
      "Quality guarantee"
    ],
    "social_links": {}
  },
  {
    "name": "Trees of Corrales",
    "address": "1400 Des Georges Rd, Corrales, NM 87048",
    "phone": "(505) 898-0011",
    "rating": 4.7,
    "reviews": 25,
    "website": "https://treesofcorrales.com/",
    "category": "Catholic-owned Plant selection assistance in New-Mexico",
    "description": "A wholesale nursery specializing in cold-hardy, high-desert appropriate plant material, including grasses, perennials, xeric shrubs, and trees. They sell exclusively to the nursery and landscape industry",
    "hours": "Mon-Fri 9AM-6PM",
    "services": [
      "Catholic-owned Plant selection assistance in New-Mexico consultation",
      "Professional service",
      "Quality guarantee"
    ],
    "social_links": {}
  },
  {
    "name": "Cassidy Farms",
    "address": "1000 County Road B-16, Cleveland, NM 87715",
    "phone": "(575) 387-2500",
    "rating": 4.8,
    "reviews": 25,
    "website": "https://cassidyfarms.com/",
    "category": "Catholic-owned Plant selection assistance in New-Mexico",
    "description": "A wholesale tree grower in northern New Mexico, offering deciduous trees, multi-stemmed shrubs, and conifers. They also provide a wholesale plant brokerage and locator service",
    "hours": "Mon-Fri 9AM-6PM",
    "services": [
      "Catholic-owned Plant selection assistance in New-Mexico consultation",
      "Professional service",
      "Quality guarantee"
    ],
    "social_links": {}
  },
  {
    "name": "Plants of the Southwest",
    "address": "3010 Cerrillos Rd, Santa Fe, NM 87507 (also has a location in Albuquerque)",
    "phone": "(505) 438-5400",
    "rating": 4.5,
    "reviews": 25,
    "website": "https://www.plantsofthesouthwest.com/",
    "category": "Catholic-owned Plant selection assistance in New-Mexico",
    "description": "A local nursery and seed store specializing in native and desert-adapted plants, seeds, trees, shrubs, grasses, and cacti. They focus on low-work gardening and reclamation",
    "hours": "Mon-Fri 9AM-6PM",
    "services": [
      "Catholic-owned Plant selection assistance in New-Mexico consultation",
      "Professional service",
      "Quality guarantee"
    ],
    "social_links": {}
  },
  {
    "name": "Petree Garden Center & Florist",
    "address": "400 Trinity Dr, Los Alamos, NM 87544",
    "phone": "(505) 662-5111",
    "rating": 4.4,
    "reviews": 25,
    "website": "https://petreegardencenter.com/",
    "category": "Catholic-owned Plant selection assistance in New-Mexico",
    "description": "Offers a variety of gifts, plants, flowers, and decor. They provide everything needed for a beautiful garden and have a selection of plants and floral arrangements",
    "hours": "Mon-Fri 9AM-6PM",
    "services": [
      "Catholic-owned Plant selection assistance in New-Mexico consultation",
      "Professional service",
      "Quality guarantee"
    ],
    "social_links": {}
  },
  {
    "name": "Trees That Please",
    "address": "7001 4th St NW, Albuquerque, NM 87107",
    "phone": "(505) 344-1615",
    "rating": 4.7,
    "reviews": 25,
    "website": "https://treesthatplease.com/",
    "category": "Catholic-owned Plant selection assistance in New-Mexico",
    "description": "A nursery offering a wide selection of trees, shrubs, and garden supplies. They provide expert advice and a variety of plants suitable for the region",
    "hours": "Mon-Fri 9AM-6PM",
    "services": [
      "Catholic-owned Plant selection assistance in New-Mexico consultation",
      "Professional service",
      "Quality guarantee"
    ],
    "social_links": {}
  },
  {
    "name": "Guzman's Greenhouse",
    "address": "1400 Telshor Blvd, Las Cruces, NM 88001 (also has an Avenida de Mesilla location)",
    "phone": "(575) 521-0496",
    "rating": 4.6,
    "reviews": 25,
    "website": "https://guzmansgreenhouse.com/",
    "category": "Catholic-owned Plant selection assistance in New-Mexico",
    "description": "Offers drought-tolerant trees, shrubs, and flowers, with a focus on native plants. They provide expert advice for successful gardening in the Southwest",
    "hours": "Mon-Fri 9AM-6PM",
    "services": [
      "Catholic-owned Plant selection assistance in New-Mexico consultation",
      "Professional service",
      "Quality guarantee"
    ],
    "social_links": {}
  },
  {
    "name": "Sierra Vista Growers",
    "address": "2800 NM Highway 28, La Union, NM 88021 (Retail Store)",
    "phone": "(575) 201-5064",
    "rating": 4.5,
    "reviews": 25,
    "website": "https://sierravistagrowersnm.com/",
    "category": "Catholic-owned Plant selection assistance in New-Mexico",
    "description": "A wholesale and retail nursery growing plant materials appropriate for the Chihuahuan desert. They offer native trees and plants that thrive in dry climates",
    "hours": "Mon-Fri 9AM-6PM",
    "services": [
      "Catholic-owned Plant selection assistance in New-Mexico consultation",
      "Professional service",
      "Quality guarantee"
    ],
    "social_links": {}
  },
  {
    "name": "The Grant Plant, Inc.",
    "address": "1000 S. Second St., Raton, NM 87740",
    "phone": "(575) 445-2000",
    "rating": 4.0,
    "reviews": 25,
    "website": "https://www.grantplant.com/",
    "category": "Catholic-owned Plant selection assistance in New-Mexico",
    "description": "While not a direct plant nursery, this organization provides a catalog of local assistance programs in New Mexico, which may include resources or grants related to agriculture or community development that could indirectly support plant-related initiatives",
    "hours": "Mon-Fri 9AM-6PM",
    "services": [
      "Catholic-owned Plant selection assistance in New-Mexico consultation",
      "Professional service",
      "Quality guarantee"
    ],
    "social_links": {}
  }
]