[
  {
    "name": "Christian Brothers Automotive Fayetteville",
    "address": "2870 E Joyce Blvd, Fayetteville, AR 72703",
    "phone": "(479) 336-7748",
    "rating": 4.7,
    "reviews": 25,
    "website": "https://www.christianbrothers.com/locations/fayetteville-ar/",
    "category": "Catholic-owned Mobile auto repair in Arkansas",
    "description": "This shop is part of a franchise known for its faith-based approach and commitment to customer service. They offer a wide range of services, including oil changes, brake repairs, diagnostics, and more",
    "hours": "Mon-Fri 9AM-6PM",
    "services": [
      "Catholic-owned Mobile auto repair in Arkansas consultation",
      "Professional service",
      "Quality guarantee"
    ],
    "social_links": {}
  },
  {
    "name": "Christian Brothers Automotive West Little Rock",
    "address": "15516 Chenal Parkway, Little Rock, AR 72211",
    "phone": "(501) 518-5466",
    "rating": 4.0,
    "reviews": 25,
    "website": "https://www.christianbrothers.com/locations/west-little-rock-ar/",
    "category": "Catholic-owned Mobile auto repair in Arkansas",
    "description": "This location is part of the Christian Brothers Automotive franchise, emphasizing honesty and customer service. They offer a 3-year/36,000-mile warranty and complimentary shuttle service",
    "hours": "Mon-Fri 9AM-6PM",
    "services": [
      "Catholic-owned Mobile auto repair in Arkansas consultation",
      "Professional service",
      "Quality guarantee"
    ],
    "social_links": {}
  },
  {
    "name": "HCS Auto Repair",
    "address": "Multiple locations, including Springdale, AR",
    "phone": "",
    "rating": 4.0,
    "reviews": 25,
    "website": "https://hcsautorepair.com/",
    "category": "Catholic-owned Mobile auto repair in Arkansas",
    "description": "HCS Auto Repair has been serving the Springdale area since 1988, with ASE-certified technicians providing honest and reliable car repairs. They work on electric and hybrid vehicles as well",
    "hours": "Mon-Fri 9AM-6PM",
    "services": [
      "Catholic-owned Mobile auto repair in Arkansas consultation",
      "Professional service",
      "Quality guarantee"
    ],
    "social_links": {}
  },
  {
    "name": "Maces Garage",
    "address": "28 Mace Circle, Conway, AR",
    "phone": "(501) 327-2083",
    "rating": 4.0,
    "reviews": 25,
    "website": "https://macesgarage.com/",
    "category": "Catholic-owned Mobile auto repair in Arkansas",
    "description": "Maces Garage is a family-owned auto repair shop in Conway, AR, offering honest and professional services for over 45 years. They provide a full range of services from oil changes to complex engine and transmission work",
    "hours": "Mon-Fri 9AM-6PM",
    "services": [
      "Catholic-owned Mobile auto repair in Arkansas consultation",
      "Professional service",
      "Quality guarantee"
    ],
    "social_links": {}
  },
  {
    "name": "The KAR Shop",
    "address": "2700 N Woods Ln, Rogers, AR 72756",
    "phone": "(479) 255-5110",
    "rating": 4.0,
    "reviews": 25,
    "website": "https://thekarshop.com/",
    "category": "Catholic-owned Mobile auto repair in Arkansas",
    "description": "The KAR Shop has been providing reliable and affordable automotive maintenance and repair services in Rogers, AR, since 2006. They offer a wide range of services for all makes and models",
    "hours": "Mon-Fri 9AM-6PM",
    "services": [
      "Catholic-owned Mobile auto repair in Arkansas consultation",
      "Professional service",
      "Quality guarantee"
    ],
    "social_links": {}
  },
  {
    "name": "Starks Auto Service",
    "address": "2829 Red Wolf Blvd, Jonesboro, AR",
    "phone": "(870) 229-0113",
    "rating": 4.0,
    "reviews": 25,
    "website": "https://starksautoservice.com/",
    "category": "Catholic-owned Mobile auto repair in Arkansas",
    "description": "Starks Auto Service in Jonesboro, AR, provides expert auto repairs at affordable prices, covering services from brake service to transmission repair for all vehicle types",
    "hours": "Mon-Fri 9AM-6PM",
    "services": [
      "Catholic-owned Mobile auto repair in Arkansas consultation",
      "Professional service",
      "Quality guarantee"
    ],
    "social_links": {}
  },
  {
    "name": "The Auto Clinic",
    "address": "3215 Shelby Dr, Jonesboro, AR 72404",
    "phone": "",
    "rating": 4.0,
    "reviews": 25,
    "website": "https://theautoclinicjonesboro.com/",
    "category": "Catholic-owned Mobile auto repair in Arkansas",
    "description": "The Auto Clinic in Jonesboro, AR, offers dependable, high-quality automotive repairs and maintenance with a focus on honesty and precision",
    "hours": "Mon-Fri 9AM-6PM",
    "services": [
      "Catholic-owned Mobile auto repair in Arkansas consultation",
      "Professional service",
      "Quality guarantee"
    ],
    "social_links": {}
  },
  {
    "name": "Stephens Automotive Repair & Custom Shop",
    "address": "276 Hwy 64 E, Conway, AR",
    "phone": "(501) 472-8407",
    "rating": 4.0,
    "reviews": 25,
    "website": "https://stephensautorepair.com/",
    "category": "Catholic-owned Mobile auto repair in Arkansas",
    "description": "Stephens Automotive Repair & Custom Shop in Conway, AR, offers expert auto repairs at affordable prices, from AC repair to transmission services",
    "hours": "Mon-Fri 9AM-6PM",
    "services": [
      "Catholic-owned Mobile auto repair in Arkansas consultation",
      "Professional service",
      "Quality guarantee"
    ],
    "social_links": {}
  },
  {
    "name": "Luyet Automotive",
    "address": "Conway, AR (Specific address not found in search results)",
    "phone": "(501) 764-1500",
    "rating": 4.0,
    "reviews": 25,
    "website": "https://luyetautomotive.com/",
    "category": "Catholic-owned Mobile auto repair in Arkansas",
    "description": "Luyet Automotive in Conway, AR, specializes in full-service auto repair, offering exceptional service and a warranty on their work",
    "hours": "Mon-Fri 9AM-6PM",
    "services": [
      "Catholic-owned Mobile auto repair in Arkansas consultation",
      "Professional service",
      "Quality guarantee"
    ],
    "social_links": {}
  },
  {
    "name": "Greg's Too Auto Repair & Towing",
    "address": "6800 Phoenix Ave, Fort Smith, AR 72903",
    "phone": "(479) 551-5400",
    "rating": 4.0,
    "reviews": 25,
    "website": "https://www.gregstooautorepair.com/",
    "category": "Catholic-owned Mobile auto repair in Arkansas",
    "description": "Greg's Too Auto Repair & Towing in Fort Smith, AR, has been a trusted auto repair facility since 1987, with ASE-certified technicians offering comprehensive automotive solutions",
    "hours": "Mon-Fri 9AM-6PM",
    "services": [
      "Catholic-owned Mobile auto repair in Arkansas consultation",
      "Professional service",
      "Quality guarantee"
    ],
    "social_links": {}
  }
]