[
  {
    "name": "Caf\u00e9 Dear Leon",
    "address": "822 N Charles St, Baltimore, MD 21201",
    "phone": "(410) 814-0000",
    "rating": 4.6,
    "reviews": 25,
    "website": "https://www.cafedearleon.com/",
    "category": "Asian-owned Caf\u00e9s in Maryland",
    "description": "Known for its fresh baked goods, including pastries, croissants, and lunch items, with specific release times throughout the morning",
    "hours": "Mon-Fri 9AM-6PM",
    "services": [
      "Asian-owned Caf\u00e9s in Maryland consultation",
      "Professional service",
      "Quality guarantee"
    ],
    "social_links": {}
  },
  {
    "name": "Dooby's",
    "address": "885 N Howard St, Baltimore, MD 21201",
    "phone": "(410) 244-5000",
    "rating": 4.4,
    "reviews": 25,
    "website": "https://www.doobys.com/",
    "category": "Asian-owned Caf\u00e9s in Maryland",
    "description": "A popular spot offering Korean cuisine, rice bowls, noodle dishes, and unique sandwiches in a casual eatery setting",
    "hours": "Mon-Fri 9AM-6PM",
    "services": [
      "Asian-owned Caf\u00e9s in Maryland consultation",
      "Professional service",
      "Quality guarantee"
    ],
    "social_links": {}
  },
  {
    "name": "Ekiben",
    "address": "1118 S Charles St, Baltimore, MD 21230",
    "phone": "(443) 872-4000",
    "rating": 4.5,
    "reviews": 25,
    "website": "https://www.ekiben.com/",
    "category": "Asian-owned Caf\u00e9s in Maryland",
    "description": "Serves Asian fusion cuisine with signature steamed buns and rice bowls, offering dine-in, takeout, catering, and food truck services",
    "hours": "Mon-Fri 9AM-6PM",
    "services": [
      "Asian-owned Caf\u00e9s in Maryland consultation",
      "Professional service",
      "Quality guarantee"
    ],
    "social_links": {}
  },
  {
    "name": "Asia Cafe",
    "address": "12937 Wisteria Dr, Germantown, MD 20874",
    "phone": "(301) 528-6610",
    "rating": 4.2,
    "reviews": 25,
    "website": "https://www.asiacafegermantown.com/",
    "category": "Asian-owned Caf\u00e9s in Maryland",
    "description": "A cornerstone in the Germantown community, recognized for its outstanding Chinese cuisine, excellent service, and modern interpretation of classic dishes",
    "hours": "Mon-Fri 9AM-6PM",
    "services": [
      "Asian-owned Caf\u00e9s in Maryland consultation",
      "Professional service",
      "Quality guarantee"
    ],
    "social_links": {}
  },
  {
    "name": "Asian Cafe",
    "address": "1303 N E St, Frederick, MD 21701",
    "phone": "(301) 662-0888",
    "rating": 4.3,
    "reviews": 25,
    "website": "https://www.asiancafefrederick.com/",
    "category": "Asian-owned Caf\u00e9s in Maryland",
    "description": "Offers authentic Thai, Chinese, and seafood dishes in a cozy setting, suitable for casual dining, takeout, and delivery",
    "hours": "Mon-Fri 9AM-6PM",
    "services": [
      "Asian-owned Caf\u00e9s in Maryland consultation",
      "Professional service",
      "Quality guarantee"
    ],
    "social_links": {}
  },
  {
    "name": "Asian Cafe",
    "address": "2316 Belair Rd Ste D, Fallston, MD 21047",
    "phone": "(410) 877-4888",
    "rating": 4.2,
    "reviews": 25,
    "website": "https://www.asiancafefallston.com/",
    "category": "Asian-owned Caf\u00e9s in Maryland",
    "description": "Provides a variety of Asian cuisines including Chinese, Japanese, and Thai, with classic favorites and a full vegetarian menu",
    "hours": "Mon-Fri 9AM-6PM",
    "services": [
      "Asian-owned Caf\u00e9s in Maryland consultation",
      "Professional service",
      "Quality guarantee"
    ],
    "social_links": {}
  },
  {
    "name": "Teamania",
    "address": "1510-B Research Blvd, Rockville, MD 20850",
    "phone": "(240) 669-9198",
    "rating": 4.7,
    "reviews": 25,
    "website": "https://www.teamaniacafe.com/",
    "category": "Asian-owned Caf\u00e9s in Maryland",
    "description": "Described as the best bakery in Rockville, Maryland, offering a wide range of Asian-inspired pastries, cakes, and treats, including souffl\u00e9 pancakes and cheese tarts",
    "hours": "Mon-Fri 9AM-6PM",
    "services": [
      "Asian-owned Caf\u00e9s in Maryland consultation",
      "Professional service",
      "Quality guarantee"
    ],
    "social_links": {}
  },
  {
    "name": "Yu Noodles",
    "address": "6300 York Rd Unit B, Baltimore, MD 21212",
    "phone": "(667) 260-2141",
    "rating": 4.4,
    "reviews": 25,
    "website": "https://yunoodles.com/",
    "category": "Asian-owned Caf\u00e9s in Maryland",
    "description": "Serves authentic Chongqing noodles and other staple Chinese dishes, with a focus on handmade noodles and a variety of flavorful options",
    "hours": "Mon-Fri 9AM-6PM",
    "services": [
      "Asian-owned Caf\u00e9s in Maryland consultation",
      "Professional service",
      "Quality guarantee"
    ],
    "social_links": {}
  },
  {
    "name": "Seoul Blues Cafe",
    "address": "2002 Annapolis Mall, Annapolis, MD 21401",
    "phone": "(410) 266-5432",
    "rating": 4.5,
    "reviews": 25,
    "website": "https://seoulbluescafe.com/",
    "category": "Asian-owned Caf\u00e9s in Maryland",
    "description": "A cafe offering coffee, good vibes, and a selection of desserts, aiming to provide a comfortable spot for connection and sweet treats",
    "hours": "Mon-Fri 9AM-6PM",
    "services": [
      "Asian-owned Caf\u00e9s in Maryland consultation",
      "Professional service",
      "Quality guarantee"
    ],
    "social_links": {}
  },
  {
    "name": "Taichi Bubble Tea",
    "address": "2568 Solomons Island Rd, Annapolis, MD 21401",
    "phone": "(443) 458-5267",
    "rating": 4.3,
    "reviews": 25,
    "website": "https://taichibubbletea.com/",
    "category": "Asian-owned Caf\u00e9s in Maryland",
    "description": "Blends authentic Asian flavors with modern twists, serving handcrafted bubble tea, poke bowls, ramen, and more, with a focus on fresh, customizable options",
    "hours": "Mon-Fri 9AM-6PM",
    "services": [
      "Asian-owned Caf\u00e9s in Maryland consultation",
      "Professional service",
      "Quality guarantee"
    ],
    "social_links": {}
  }
]