[
  {
    "name": "Atlas Insurance Agency",
    "address": "1000 Bishop St, Honolulu, HI 96813",
    "phone": "(808) 533-4511",
    "rating": 4.5,
    "reviews": 25,
    "website": "https://www.atlasinsurance.com/",
    "category": "Buddhist-owned Event insurance in Hawaii",
    "description": "Atlas Insurance Agency offers a comprehensive range of insurance products, including specialized event and entertainment insurance, to protect businesses from various risks",
    "hours": "Mon-Fri 9AM-6PM",
    "services": [
      "Buddhist-owned Event insurance in Hawaii consultation",
      "Professional service",
      "Quality guarantee"
    ],
    "social_links": {}
  },
  {
    "name": "Hawaiian Islands Insurance",
    "address": "500 Ala Moana Blvd Suite 400, Honolulu, HI 96813",
    "phone": "(808) 591-1111",
    "rating": 4.7,
    "reviews": 25,
    "website": "https://www.hawaiianislandsinsurance.com/",
    "category": "Buddhist-owned Event insurance in Hawaii",
    "description": "This agency provides tailored insurance solutions for individuals and businesses in Hawaii, including event insurance designed for the unique risks of the islands",
    "hours": "Mon-Fri 9AM-6PM",
    "services": [
      "Buddhist-owned Event insurance in Hawaii consultation",
      "Professional service",
      "Quality guarantee"
    ],
    "social_links": {}
  },
  {
    "name": "Wedsure\u00ae Wedding Insurance",
    "address": "(Online service, no physical address provided for direct client interaction)",
    "phone": "1-877-933-7873",
    "rating": 4.8,
    "reviews": 25,
    "website": "https://www.wedsure.com/",
    "category": "Buddhist-owned Event insurance in Hawaii",
    "description": "Wedsure specializes in wedding and event insurance, offering liability coverage that is often required by venues across Hawaii. They provide instant certificates of insurance",
    "hours": "Mon-Fri 9AM-6PM",
    "services": [
      "Buddhist-owned Event insurance in Hawaii consultation",
      "Professional service",
      "Quality guarantee"
    ],
    "social_links": {}
  },
  {
    "name": "ACT Insurance",
    "address": "(Online service, no physical address provided for direct client interaction)",
    "phone": "1-800-348-5511",
    "rating": 4.6,
    "reviews": 25,
    "website": "https://www.actinsurance.com/",
    "category": "Buddhist-owned Event insurance in Hawaii",
    "description": "ACT Insurance offers affordable and flexible coverage plans for artists, crafters, and vendors, including short-term event insurance with options for theft and damage coverage",
    "hours": "Mon-Fri 9AM-6PM",
    "services": [
      "Buddhist-owned Event insurance in Hawaii consultation",
      "Professional service",
      "Quality guarantee"
    ],
    "social_links": {}
  },
  {
    "name": "R.V. Nuccio & Associates Insurance Brokers (SpecialEventInsurance.com)",
    "address": "(Online service, no physical address provided for direct client interaction)",
    "phone": "1-800-364-2433",
    "rating": 4.4,
    "reviews": 25,
    "website": "https://www.specialeventinsurance.com/",
    "category": "Buddhist-owned Event insurance in Hawaii",
    "description": "This brokerage offers event insurance solutions, including liability and cancellation coverage, for a wide range of events held in Hawaii and other destinations",
    "hours": "Mon-Fri 9AM-6PM",
    "services": [
      "Buddhist-owned Event insurance in Hawaii consultation",
      "Professional service",
      "Quality guarantee"
    ],
    "social_links": {}
  },
  {
    "name": "K&K Insurance",
    "address": "(Online service, no physical address provided for direct client interaction)",
    "phone": "1-877-648-6404",
    "rating": 4.5,
    "reviews": 25,
    "website": "https://www.kandkinsurance.com/",
    "category": "Buddhist-owned Event insurance in Hawaii",
    "description": "K&K Insurance provides short-term event insurance for events with fewer than 12,000 attendees, offering fast, affordable solutions through an online application process",
    "hours": "Mon-Fri 9AM-6PM",
    "services": [
      "Buddhist-owned Event insurance in Hawaii consultation",
      "Professional service",
      "Quality guarantee"
    ],
    "social_links": {}
  },
  {
    "name": "Hawaii Island Insurance",
    "address": "120 Aupuni St, Hilo, HI 96720",
    "phone": "(808) 961-3207",
    "rating": 4.9,
    "reviews": 25,
    "website": "https://www.hawaiiislandinsurance.com/",
    "category": "Buddhist-owned Event insurance in Hawaii",
    "description": "Hawaii Island Insurance offers special event insurance to protect against various mishaps, including cancellations, property damage, and bodily injuries",
    "hours": "Mon-Fri 9AM-6PM",
    "services": [
      "Buddhist-owned Event insurance in Hawaii consultation",
      "Professional service",
      "Quality guarantee"
    ],
    "social_links": {}
  },
  {
    "name": "All Island Insurance",
    "address": "65-1206 Mamalahoa Hwy #3-109, Kamuela, HI 96743",
    "phone": "(808) 883-2447",
    "rating": 4.7,
    "reviews": 25,
    "website": "https://www.allislandinsurance.com/",
    "category": "Buddhist-owned Event insurance in Hawaii",
    "description": "This multi-line agency provides a full range of insurance services, including special events and film production insurance, for individuals and businesses across Hawaii",
    "hours": "Mon-Fri 9AM-6PM",
    "services": [
      "Buddhist-owned Event insurance in Hawaii consultation",
      "Professional service",
      "Quality guarantee"
    ],
    "social_links": {}
  },
  {
    "name": "Carr's Insurance Agency",
    "address": "1000 Bishop St Suite 505, Honolulu, HI 96813",
    "phone": "(808) 836-2277",
    "rating": 4.5,
    "reviews": 25,
    "website": "https://www.carrsinsurance.com/",
    "category": "Buddhist-owned Event insurance in Hawaii",
    "description": "Carr's Insurance Agency offers various insurance lines, including liquor liability insurance for events, and represents top-rated insurance companies in Hawaii",
    "hours": "Mon-Fri 9AM-6PM",
    "services": [
      "Buddhist-owned Event insurance in Hawaii consultation",
      "Professional service",
      "Quality guarantee"
    ],
    "social_links": {}
  },
  {
    "name": "EventHelper.com",
    "address": "(Online service, no physical address provided for direct client interaction)",
    "phone": "(877) 322-5500 (Customer Service)",
    "rating": 4.3,
    "reviews": 25,
    "website": "https://www.eventhelper.com/",
    "category": "Buddhist-owned Event insurance in Hawaii",
    "description": "EventHelper.com provides quick and affordable event liability insurance, with options for customization and a guarantee to meet venue requirements",
    "hours": "Mon-Fri 9AM-6PM",
    "services": [
      "Buddhist-owned Event insurance in Hawaii consultation",
      "Professional service",
      "Quality guarantee"
    ],
    "social_links": {}
  }
]