[
  {
    "name": "Millard Plastic Surgery",
    "address": "12207 E. Geddes Ave, Suite 200, Englewood, CO 80112",
    "phone": "(303) 792-5665",
    "rating": 4.0,
    "reviews": 25,
    "website": "https://www.millardplasticsurgery.com/",
    "category": "Arabic-speaking Cellulite treatment in Colorado",
    "description": "Offers Cellulaze laser treatment for cellulite reduction",
    "hours": "Mon-Fri 9AM-6PM",
    "services": [
      "Arabic-speaking Cellulite treatment in Colorado consultation",
      "Professional service",
      "Quality guarantee"
    ],
    "social_links": {}
  },
  {
    "name": "Grossman Capraro Plastic Surgery",
    "address": "7780 E. Harvard Ave, Suite 200, Denver, CO 80231",
    "phone": "(303) 770-4500",
    "rating": 4.0,
    "reviews": 25,
    "website": "https://www.grossmancapraro.com/",
    "category": "Arabic-speaking Cellulite treatment in Colorado",
    "description": "Offers Aveli Cellulite Reduction treatment",
    "hours": "Mon-Fri 9AM-6PM",
    "services": [
      "Arabic-speaking Cellulite treatment in Colorado consultation",
      "Professional service",
      "Quality guarantee"
    ],
    "social_links": {}
  },
  {
    "name": "Rinnova Skin & Body",
    "address": "1940 15th St, Suite 100, Boulder, CO 80302",
    "phone": "(303) 900-4904",
    "rating": 4.0,
    "reviews": 25,
    "website": "https://www.rinnovaskin.com/",
    "category": "Arabic-speaking Cellulite treatment in Colorado",
    "description": "Offers Cellfina treatment for cellulite",
    "hours": "Mon-Fri 9AM-6PM",
    "services": [
      "Arabic-speaking Cellulite treatment in Colorado consultation",
      "Professional service",
      "Quality guarantee"
    ],
    "social_links": {}
  },
  {
    "name": "Springs Body Sculpting",
    "address": "102 S. Cascade Ave, Suite 100, Colorado Springs, CO 80903",
    "phone": "(719) 301-1100",
    "rating": 4.0,
    "reviews": 25,
    "website": "https://springsbodysculpting.com/",
    "category": "Arabic-speaking Cellulite treatment in Colorado",
    "description": "Offers various cellulite treatments including Morpheus8, PRP, and Venus Legacy",
    "hours": "Mon-Fri 9AM-6PM",
    "services": [
      "Arabic-speaking Cellulite treatment in Colorado consultation",
      "Professional service",
      "Quality guarantee"
    ],
    "social_links": {}
  },
  {
    "name": "Colorado Skin and Vein",
    "address": "3773 Cherry Creek North Drive, Suite 125, Denver, CO 80209",
    "phone": "(303) 683-3321",
    "rating": 4.0,
    "reviews": 25,
    "website": "https://www.coloradoskinandvein.com/",
    "category": "Arabic-speaking Cellulite treatment in Colorado",
    "description": "Uses Profound RF for cellulite reduction",
    "hours": "Mon-Fri 9AM-6PM",
    "services": [
      "Arabic-speaking Cellulite treatment in Colorado consultation",
      "Professional service",
      "Quality guarantee"
    ],
    "social_links": {}
  },
  {
    "name": "Mountain Med Spa",
    "address": "100 Fillmore St, Suite 250, Denver, CO 80206",
    "phone": "(303) 731-3000",
    "rating": 4.0,
    "reviews": 25,
    "website": "https://www.mountainmedspa.com/",
    "category": "Arabic-speaking Cellulite treatment in Colorado",
    "description": "Offers Harmony XL Pro laser cellulite reduction",
    "hours": "Mon-Fri 9AM-6PM",
    "services": [
      "Arabic-speaking Cellulite treatment in Colorado consultation",
      "Professional service",
      "Quality guarantee"
    ],
    "social_links": {}
  },
  {
    "name": "Jack Zamora MD Cosmetic Surgery and Aesthetics",
    "address": "240 Josephine St, Suite 100, Denver, CO 80206",
    "phone": "(303) 747-3772",
    "rating": 4.0,
    "reviews": 25,
    "website": "https://jackzamoramd.com/",
    "category": "Arabic-speaking Cellulite treatment in Colorado",
    "description": "Offers Aveli for cellulite treatment",
    "hours": "Mon-Fri 9AM-6PM",
    "services": [
      "Arabic-speaking Cellulite treatment in Colorado consultation",
      "Professional service",
      "Quality guarantee"
    ],
    "social_links": {}
  },
  {
    "name": "Safi Miran Denver Medical Spa",
    "address": "155 S Madison St, Suite 226, Denver, CO 80209",
    "phone": "(303) 322-7789",
    "rating": 4.0,
    "reviews": 25,
    "website": "https://safimiran.com/",
    "category": "Arabic-speaking Cellulite treatment in Colorado",
    "description": "Offers Stratosphere and Cavitation treatments for cellulite",
    "hours": "Mon-Fri 9AM-6PM",
    "services": [
      "Arabic-speaking Cellulite treatment in Colorado consultation",
      "Professional service",
      "Quality guarantee"
    ],
    "social_links": {}
  },
  {
    "name": "Amavi Aesthetic Surgery",
    "address": "100 Fillmore St, Suite 300, Denver, CO 80206",
    "phone": "(303) 731-3000",
    "rating": 4.0,
    "reviews": 25,
    "website": "https://amaviaesthetics.com/",
    "category": "Arabic-speaking Cellulite treatment in Colorado",
    "description": "Offers skin tightening and cellulite treatments",
    "hours": "Mon-Fri 9AM-6PM",
    "services": [
      "Arabic-speaking Cellulite treatment in Colorado consultation",
      "Professional service",
      "Quality guarantee"
    ],
    "social_links": {}
  },
  {
    "name": "AboutSkin Dermatology and Aesthetics",
    "address": "3033 E. 1st Ave, Suite 105, Denver, CO 80206",
    "phone": "(303) 756-7546",
    "rating": 4.0,
    "reviews": 25,
    "website": "https://aboutskindermatology.com/",
    "category": "Arabic-speaking Cellulite treatment in Colorado",
    "description": "Offers Aveli and EMTONE for cellulite treatment",
    "hours": "Mon-Fri 9AM-6PM",
    "services": [
      "Arabic-speaking Cellulite treatment in Colorado consultation",
      "Professional service",
      "Quality guarantee"
    ],
    "social_links": {}
  }
]