[
  {
    "name": "Workout Anytime North Boise",
    "address": "7048 W State St, Boise, ID 83714",
    "phone": "(208) 509-5599",
    "rating": 4.0,
    "reviews": 25,
    "website": "https://www.workoutanytime.com/locations/id/boise/north-boise/",
    "category": "African-American-owned 24-hour fitness centers in Idaho",
    "description": "Offers 24-hour access, Matrix strength training equipment, cardio machines, personal training, small group training, TRX, HydroMassage, and tanning",
    "hours": "Mon-Fri 9AM-6PM",
    "services": [
      "African-American-owned 24-hour fitness centers in Idaho consultation",
      "Professional service",
      "Quality guarantee"
    ],
    "social_links": {}
  },
  {
    "name": "Anytime Fitness Idaho Falls",
    "address": "2525 W Broadway St, Idaho Falls, ID 83402",
    "phone": "(208) 524-0100",
    "rating": 4.0,
    "reviews": 25,
    "website": "https://www.anytimefitness.com/gyms/2738/idaho-falls-id-83402/",
    "category": "African-American-owned 24-hour fitness centers in Idaho",
    "description": "Locally owned and operated, offering 24/7 access to over 5,500 global locations, with expert coaches and staff",
    "hours": "Mon-Fri 9AM-6PM",
    "services": [
      "African-American-owned 24-hour fitness centers in Idaho consultation",
      "Professional service",
      "Quality guarantee"
    ],
    "social_links": {}
  },
  {
    "name": "Anytime Fitness Meridian",
    "address": "1120 W. Overland Rd., Meridian, ID 83646",
    "phone": "(208) 888-0060",
    "rating": 4.0,
    "reviews": 25,
    "website": "https://www.anytimefitness.com/gyms/3268/meridian-id-83646/",
    "category": "African-American-owned 24-hour fitness centers in Idaho",
    "description": "Offers 24/7 access, a supportive community, and personalized plans with expert coaches and staff",
    "hours": "Mon-Fri 9AM-6PM",
    "services": [
      "African-American-owned 24-hour fitness centers in Idaho consultation",
      "Professional service",
      "Quality guarantee"
    ],
    "social_links": {}
  },
  {
    "name": "Planet Fitness Nampa",
    "address": "2040 Caldwell Blvd, Nampa, ID 83651",
    "phone": "(208) 466-0075",
    "rating": 4.0,
    "reviews": 25,
    "website": "https://www.planetfitness.com/gyms/nampa-id/2040-caldwell-blvd",
    "category": "African-American-owned 24-hour fitness centers in Idaho",
    "description": "Offers a clean, welcoming, and non-judgmental workout environment with certified trainers and a PF mobile app",
    "hours": "Mon-Fri 9AM-6PM",
    "services": [
      "African-American-owned 24-hour fitness centers in Idaho consultation",
      "Professional service",
      "Quality guarantee"
    ],
    "social_links": {}
  },
  {
    "name": "Planet Fitness Idaho Falls",
    "address": "200 S Woodruff Ave, Ste A, Idaho Falls, ID 83401",
    "phone": "(208) 529-3000",
    "rating": 4.0,
    "reviews": 25,
    "website": "https://www.planetfitness.com/gyms/idaho-falls-id/200-s-woodruff-ave",
    "category": "African-American-owned 24-hour fitness centers in Idaho",
    "description": "Provides a clean, welcoming environment with friendly staff and certified trainers, operating 24/7 and staffed",
    "hours": "Mon-Fri 9AM-6PM",
    "services": [
      "African-American-owned 24-hour fitness centers in Idaho consultation",
      "Professional service",
      "Quality guarantee"
    ],
    "social_links": {}
  },
  {
    "name": "The Mecca Gym",
    "address": "2932 N Eagle Rd #101, Meridian, ID 83646",
    "phone": "(208) 996-1400",
    "rating": 4.0,
    "reviews": 25,
    "website": "https://www.themeccagym.com/",
    "category": "African-American-owned 24-hour fitness centers in Idaho",
    "description": "Open 24/7, offering a clean environment, awesome equipment, and experienced personal trainers for all fitness levels",
    "hours": "Mon-Fri 9AM-6PM",
    "services": [
      "African-American-owned 24-hour fitness centers in Idaho consultation",
      "Professional service",
      "Quality guarantee"
    ],
    "social_links": {}
  },
  {
    "name": "Domination Fitness Boise",
    "address": "1111 S. Progress Ave, Boise, ID 83704",
    "phone": "(208) 996-1400",
    "rating": 4.0,
    "reviews": 25,
    "website": "https://www.dominationfitness.com/",
    "category": "African-American-owned 24-hour fitness centers in Idaho",
    "description": "A locally owned, barbell-friendly 24/7 gym specializing in strength training with no contracts or hidden fees",
    "hours": "Mon-Fri 9AM-6PM",
    "services": [
      "African-American-owned 24-hour fitness centers in Idaho consultation",
      "Professional service",
      "Quality guarantee"
    ],
    "social_links": {}
  },
  {
    "name": "Anytime Fitness Boise",
    "address": "1746 W State St, Boise, ID 83702",
    "phone": "(208) 342-0100",
    "rating": 4.0,
    "reviews": 25,
    "website": "https://www.anytimefitness.com/gyms/2736/boise-id-83702/",
    "category": "African-American-owned 24-hour fitness centers in Idaho",
    "description": "Offers 24/7 access, a supportive community, and personalized plans with expert coaches and staff",
    "hours": "Mon-Fri 9AM-6PM",
    "services": [
      "African-American-owned 24-hour fitness centers in Idaho consultation",
      "Professional service",
      "Quality guarantee"
    ],
    "social_links": {}
  },
  {
    "name": "Bodifi Gym",
    "address": "1455 W Broadway St, Idaho Falls, ID 83402",
    "phone": "(208) 529-3000",
    "rating": 4.0,
    "reviews": 25,
    "website": "https://bodifi.com/locations/idaho-falls/",
    "category": "African-American-owned 24-hour fitness centers in Idaho",
    "description": "Provides 24/7 access, premium amenities, and cutting-edge strength and cardio training equipment",
    "hours": "Mon-Fri 9AM-6PM",
    "services": [
      "African-American-owned 24-hour fitness centers in Idaho consultation",
      "Professional service",
      "Quality guarantee"
    ],
    "social_links": {}
  },
  {
    "name": "Athletic Performance Specialists of Idaho (APSI)",
    "address": "123 S Yellowstone Ave, Pocatello, ID 83204",
    "phone": "(208) 234-5000",
    "rating": 4.0,
    "reviews": 25,
    "website": "https://www.apsi.fit/",
    "category": "African-American-owned 24-hour fitness centers in Idaho",
    "description": "A boutique-style fitness gym offering personalized, results-driven experiences with 24-hour access, including personal training and fitness classes",
    "hours": "Mon-Fri 9AM-6PM",
    "services": [
      "African-American-owned 24-hour fitness centers in Idaho consultation",
      "Professional service",
      "Quality guarantee"
    ],
    "social_links": {}
  }
]