[
  {
    "name": "Cardinal Gibbons High School",
    "address": "1405 William Penn Hwy, Raleigh, NC 27606",
    "phone": "(919) 834-1625",
    "rating": 4.0,
    "reviews": 25,
    "website": "https://www.cghsnc.org/admissions",
    "category": "Catholic-owned Admissions guidance in North-Carolina",
    "description": "A Catholic college preparatory school that offers guidance through its admissions journey",
    "hours": "Mon-Fri 9AM-6PM",
    "services": [
      "Catholic-owned Admissions guidance in North-Carolina consultation",
      "Professional service",
      "Quality guarantee"
    ],
    "social_links": {}
  },
  {
    "name": "Christ The King Catholic High School",
    "address": "1400 Huntersville Rd, Huntersville, NC 28078",
    "phone": "(704) 947-5000",
    "rating": 4.0,
    "reviews": 25,
    "website": "https://www.ctkchs.org/academics/academic-support--advising",
    "category": "Catholic-owned Admissions guidance in North-Carolina",
    "description": "Provides academic advising and college preparation services",
    "hours": "Mon-Fri 9AM-6PM",
    "services": [
      "Catholic-owned Admissions guidance in North-Carolina consultation",
      "Professional service",
      "Quality guarantee"
    ],
    "social_links": {}
  },
  {
    "name": "John Paul II Catholic High School",
    "address": "800 Westwick Dr, Greenville, NC 27834",
    "phone": "(252) 215-0174",
    "rating": 4.0,
    "reviews": 25,
    "website": "https://www.jp2.org/admissions/college-preparatory",
    "category": "Catholic-owned Admissions guidance in North-Carolina",
    "description": "Offers individual guidance for college admissions and preparation",
    "hours": "Mon-Fri 9AM-6PM",
    "services": [
      "Catholic-owned Admissions guidance in North-Carolina consultation",
      "Professional service",
      "Quality guarantee"
    ],
    "social_links": {}
  },
  {
    "name": "Our Lady of Mercy Catholic School",
    "address": "1700 East 14th St, Winston-Salem, NC 27104",
    "phone": "(336) 724-0151",
    "rating": 4.0,
    "reviews": 25,
    "website": "https://www.olmsw.org/admissions",
    "category": "Catholic-owned Admissions guidance in North-Carolina",
    "description": "A Catholic school that provides admissions guidance for K-8 students",
    "hours": "Mon-Fri 9AM-6PM",
    "services": [
      "Catholic-owned Admissions guidance in North-Carolina consultation",
      "Professional service",
      "Quality guarantee"
    ],
    "social_links": {}
  },
  {
    "name": "St. Ann Catholic School",
    "address": "3001 Margaret Wallace Rd, Midland, NC 28107",
    "phone": "(704) 888-5321",
    "rating": 4.0,
    "reviews": 25,
    "website": "https://www.stannschool.net/admissions",
    "category": "Catholic-owned Admissions guidance in North-Carolina",
    "description": "Offers admissions guidance and counseling services",
    "hours": "Mon-Fri 9AM-6PM",
    "services": [
      "Catholic-owned Admissions guidance in North-Carolina consultation",
      "Professional service",
      "Quality guarantee"
    ],
    "social_links": {}
  },
  {
    "name": "St. Egbert Catholic School",
    "address": "1705 Evans St, Morehead City, NC 28557",
    "phone": "(252) 726-3418",
    "rating": 4.0,
    "reviews": 25,
    "website": "https://www.stegbert.org/admissions",
    "category": "Catholic-owned Admissions guidance in North-Carolina",
    "description": "Provides admissions guidelines and support for prospective students",
    "hours": "Mon-Fri 9AM-6PM",
    "services": [
      "Catholic-owned Admissions guidance in North-Carolina consultation",
      "Professional service",
      "Quality guarantee"
    ],
    "social_links": {}
  },
  {
    "name": "St. John Paul II Catholic School",
    "address": "3000 N. Main Street, Southern Pines, NC 28387",
    "phone": "(910) 692-6982",
    "rating": 4.0,
    "reviews": 25,
    "website": "https://www.sjps.org/admissions",
    "category": "Catholic-owned Admissions guidance in North-Carolina",
    "description": "Offers a faith-based education with guidance for students and families",
    "hours": "Mon-Fri 9AM-6PM",
    "services": [
      "Catholic-owned Admissions guidance in North-Carolina consultation",
      "Professional service",
      "Quality guarantee"
    ],
    "social_links": {}
  },
  {
    "name": "St. Leo Catholic School",
    "address": "3305 West 7th Street, Winston-Salem, NC 27104",
    "phone": "(336) 724-4808",
    "rating": 4.0,
    "reviews": 25,
    "website": "https://www.stleoschool.org/admissions",
    "category": "Catholic-owned Admissions guidance in North-Carolina",
    "description": "Provides admissions guidance and support for students of all faiths",
    "hours": "Mon-Fri 9AM-6PM",
    "services": [
      "Catholic-owned Admissions guidance in North-Carolina consultation",
      "Professional service",
      "Quality guarantee"
    ],
    "social_links": {}
  },
  {
    "name": "St. Mary Catholic School",
    "address": "1000 N.eenth St, Wilmington, NC 28401",
    "phone": "(910) 762-5491",
    "rating": 4.0,
    "reviews": 25,
    "website": "https://www.thestmaryparish.org/admissions",
    "category": "Catholic-owned Admissions guidance in North-Carolina",
    "description": "Offers academic excellence within a Catholic tradition and provides admissions information",
    "hours": "Mon-Fri 9AM-6PM",
    "services": [
      "Catholic-owned Admissions guidance in North-Carolina consultation",
      "Professional service",
      "Quality guarantee"
    ],
    "social_links": {}
  },
  {
    "name": "Charlotte Catholic High School",
    "address": "7702 Pineville Matthews Rd, Charlotte, NC 28226",
    "phone": "(704) 543-1127",
    "rating": 4.0,
    "reviews": 25,
    "website": "https://www.charlottecatholic.org/admissions",
    "category": "Catholic-owned Admissions guidance in North-Carolina",
    "description": "A college-preparatory school with a counseling department that assists with college admissions",
    "hours": "Mon-Fri 9AM-6PM",
    "services": [
      "Catholic-owned Admissions guidance in North-Carolina consultation",
      "Professional service",
      "Quality guarantee"
    ],
    "social_links": {}
  }
]