[
  {
    "name": "Liquid Media",
    "address": "1100 NW 14th St, Oklahoma City, OK 73106",
    "phone": "(405) 601-5500",
    "rating": 4.8,
    "reviews": 25,
    "website": "https://www.liquidmedia.com/",
    "category": "Atheist-owned Social media advertising in Oklahoma",
    "description": "A full-service creative advertising agency specializing in digital marketing, social media management, and design services",
    "hours": "Mon-Fri 9AM-6PM",
    "services": [
      "Atheist-owned Social media advertising in Oklahoma consultation",
      "Professional service",
      "Quality guarantee"
    ],
    "social_links": {}
  },
  {
    "name": "D2 Branding",
    "address": "1010 S Denver Ave, Tulsa, OK 74119",
    "phone": "(918) 900-5177",
    "rating": 4.9,
    "reviews": 25,
    "website": "https://www.d2branding.com/",
    "category": "Atheist-owned Social media advertising in Oklahoma",
    "description": "A digital marketing agency specializing in social media content creation and advertising across various platforms",
    "hours": "Mon-Fri 9AM-6PM",
    "services": [
      "Atheist-owned Social media advertising in Oklahoma consultation",
      "Professional service",
      "Quality guarantee"
    ],
    "social_links": {}
  },
  {
    "name": "Chatter Marketing, Inc.",
    "address": "1111 S Boston Ave Suite 200, Tulsa, OK 74119",
    "phone": "(918) 398-2777",
    "rating": 4.8,
    "reviews": 25,
    "website": "https://chattermarketing.com/",
    "category": "Atheist-owned Social media advertising in Oklahoma",
    "description": "A full-service marketing agency offering advertising, branding, social media marketing, and web design",
    "hours": "Mon-Fri 9AM-6PM",
    "services": [
      "Atheist-owned Social media advertising in Oklahoma consultation",
      "Professional service",
      "Quality guarantee"
    ],
    "social_links": {}
  },
  {
    "name": "High Five Media",
    "address": "1100 NW 14th St, Oklahoma City, OK 73106",
    "phone": "(405) 601-5500",
    "rating": 4.7,
    "reviews": 25,
    "website": "https://highfivemedia.com/",
    "category": "Atheist-owned Social media advertising in Oklahoma",
    "description": "An award-winning marketing and advertising agency providing social media management, online marketing, and videography",
    "hours": "Mon-Fri 9AM-6PM",
    "services": [
      "Atheist-owned Social media advertising in Oklahoma consultation",
      "Professional service",
      "Quality guarantee"
    ],
    "social_links": {}
  },
  {
    "name": "Sooner Marketing",
    "address": "1200 N. Meridian Ave, Oklahoma City, OK 73107 (Multiple locations available)",
    "phone": "(405) 601-5500",
    "rating": 4.6,
    "reviews": 25,
    "website": "https://soonermarketing.com/",
    "category": "Atheist-owned Social media advertising in Oklahoma",
    "description": "A full-service marketing and advertising agency offering online presence building and customer engagement through traditional and digital channels",
    "hours": "Mon-Fri 9AM-6PM",
    "services": [
      "Atheist-owned Social media advertising in Oklahoma consultation",
      "Professional service",
      "Quality guarantee"
    ],
    "social_links": {}
  },
  {
    "name": "Jab Media",
    "address": "101 E Main St, Norman, OK 73069",
    "phone": "(405) 414-0299",
    "rating": 4.9,
    "reviews": 25,
    "website": "https://jabmedia.com/",
    "category": "Atheist-owned Social media advertising in Oklahoma",
    "description": "A full-service digital marketing agency offering SEO, PPC, social media marketing, and website development",
    "hours": "Mon-Fri 9AM-6PM",
    "services": [
      "Atheist-owned Social media advertising in Oklahoma consultation",
      "Professional service",
      "Quality guarantee"
    ],
    "social_links": {}
  },
  {
    "name": "Utopiads",
    "address": "1313 N Elm Pl, Broken Arrow, OK 74012",
    "phone": "(918) 212-5000",
    "rating": 4.8,
    "reviews": 25,
    "website": "https://utopiads.com/",
    "category": "Atheist-owned Social media advertising in Oklahoma",
    "description": "A digital advertising agency specializing in PPC, social media ads, and paid search strategies",
    "hours": "Mon-Fri 9AM-6PM",
    "services": [
      "Atheist-owned Social media advertising in Oklahoma consultation",
      "Professional service",
      "Quality guarantee"
    ],
    "social_links": {}
  },
  {
    "name": "U-Thrive Marketing",
    "address": "1621 S Eucalyptus Ave Ste 207, Broken Arrow, OK 74012",
    "phone": "(918) 812-9374",
    "rating": 4.7,
    "reviews": 25,
    "website": "https://uthrivemarketing.net/",
    "category": "Atheist-owned Social media advertising in Oklahoma",
    "description": "A full-service digital marketing agency offering web design, SEO, PPC, and social media marketing services",
    "hours": "Mon-Fri 9AM-6PM",
    "services": [
      "Atheist-owned Social media advertising in Oklahoma consultation",
      "Professional service",
      "Quality guarantee"
    ],
    "social_links": {}
  },
  {
    "name": "Back40 Design",
    "address": "1100 NW 14th St, Oklahoma City, OK 73106",
    "phone": "(405) 421-4500",
    "rating": 4.7,
    "reviews": 25,
    "website": "https://www.back40design.com/",
    "category": "Atheist-owned Social media advertising in Oklahoma",
    "description": "A digital marketing agency providing social media management, SEO, web design, and content marketing",
    "hours": "Mon-Fri 9AM-6PM",
    "services": [
      "Atheist-owned Social media advertising in Oklahoma consultation",
      "Professional service",
      "Quality guarantee"
    ],
    "social_links": {}
  },
  {
    "name": "Siren Media LLC",
    "address": "1100 NW 14th St, Oklahoma City, OK 73106",
    "phone": "(405) 888-6000",
    "rating": 4.9,
    "reviews": 25,
    "website": "https://www.sirenmedia.co/",
    "category": "Atheist-owned Social media advertising in Oklahoma",
    "description": "A branding and advertising agency specializing in website design, social media marketing, and advertising solutions",
    "hours": "Mon-Fri 9AM-6PM",
    "services": [
      "Atheist-owned Social media advertising in Oklahoma consultation",
      "Professional service",
      "Quality guarantee"
    ],
    "social_links": {}
  }
]