[
  {
    "name": "Best Choice Roofing of East Detroit",
    "address": "Multiple locations, including East Detroit, MI",
    "phone": "(855) 973-2577",
    "rating": 4.8,
    "reviews": 25,
    "website": "https://www.bestchoiceroofing.com/",
    "category": "Asian-owned Roofing repair in Michigan",
    "description": "An award-winning company with over 60,000 completed projects, recognized as a top 1% performer by Owens Corning. They focus on a customer-first approach and high-quality products",
    "hours": "Mon-Fri 9AM-6PM",
    "services": [
      "Asian-owned Roofing repair in Michigan consultation",
      "Professional service",
      "Quality guarantee"
    ],
    "social_links": {}
  },
  {
    "name": "AmeriPro Roofing",
    "address": "Multiple locations across 14 states, including Michigan",
    "phone": "(877) 870-7663",
    "rating": 4.9,
    "reviews": 25,
    "website": "https://ameripro-roofing.com/",
    "category": "Asian-owned Roofing repair in Michigan",
    "description": "A family-owned company established in 2000, known for quality repairs, excellent customer support, and assistance with insurance claims. They are an Owens Corning Certified Platinum Preferred contractor",
    "hours": "Mon-Fri 9AM-6PM",
    "services": [
      "Asian-owned Roofing repair in Michigan consultation",
      "Professional service",
      "Quality guarantee"
    ],
    "social_links": {}
  },
  {
    "name": "Rapid Roofing",
    "address": "Multiple locations, including Ypsilanti, MI and Canton, MI",
    "phone": "(734) 895-9553",
    "rating": 4.8,
    "reviews": 25,
    "website": "https://www.rapidroofing.com/",
    "category": "Asian-owned Roofing repair in Michigan",
    "description": "Specializes in roof repairs, replacements, storm damage restoration, and new installations for residential and commercial properties. They offer free estimates and inspections",
    "hours": "Mon-Fri 9AM-6PM",
    "services": [
      "Asian-owned Roofing repair in Michigan consultation",
      "Professional service",
      "Quality guarantee"
    ],
    "social_links": {}
  },
  {
    "name": "Equity Roofing",
    "address": "Not explicitly listed for Michigan, but serves Southern Michigan",
    "phone": "(574) 207-4655",
    "rating": 5.0,
    "reviews": 25,
    "website": "https://www.equityroofing.com/",
    "category": "Asian-owned Roofing repair in Michigan",
    "description": "A Platinum Preferred Contractor with Owens Corning, known for high-quality work and a customer-centric approach. They offer free consultations",
    "hours": "Mon-Fri 9AM-6PM",
    "services": [
      "Asian-owned Roofing repair in Michigan consultation",
      "Professional service",
      "Quality guarantee"
    ],
    "social_links": {}
  },
  {
    "name": "Sherriff Goslin",
    "address": "Multiple locations, including Lansing, MI",
    "phone": "(517) 321-1770",
    "rating": 4.7,
    "reviews": 25,
    "website": "https://www.sheriffgoslin.com/",
    "category": "Asian-owned Roofing repair in Michigan",
    "description": "Offers services for shingles, metal, and flat roofs, including replacement, repair, and inspections. They serve both residential and commercial clients",
    "hours": "Mon-Fri 9AM-6PM",
    "services": [
      "Asian-owned Roofing repair in Michigan consultation",
      "Professional service",
      "Quality guarantee"
    ],
    "social_links": {}
  },
  {
    "name": "CS Roofing Company",
    "address": "Multiple locations, including Battle Creek, MI",
    "phone": "(269) 963-0000",
    "rating": 4.9,
    "reviews": 25,
    "website": "https://csroofing.com/",
    "category": "Asian-owned Roofing repair in Michigan",
    "description": "Provides a comprehensive range of roofing services, including installation, maintenance, repair, and emergency services for residential and commercial clients",
    "hours": "Mon-Fri 9AM-6PM",
    "services": [
      "Asian-owned Roofing repair in Michigan consultation",
      "Professional service",
      "Quality guarantee"
    ],
    "social_links": {}
  },
  {
    "name": "Lake Michigan Construction & Roofing",
    "address": "Not explicitly listed for Michigan, but serves the region",
    "phone": "(269) 755-0411",
    "rating": 4.9,
    "reviews": 25,
    "website": "https://lakemichiganconstruction.com/",
    "category": "Asian-owned Roofing repair in Michigan",
    "description": "Offers services for shingles and metal roofs, including replacement, installation, and repair, as well as seamless gutters and siding",
    "hours": "Mon-Fri 9AM-6PM",
    "services": [
      "Asian-owned Roofing repair in Michigan consultation",
      "Professional service",
      "Quality guarantee"
    ],
    "social_links": {}
  },
  {
    "name": "Crown Pro Construction",
    "address": "Detroit, MI",
    "phone": "(313) 728-3200",
    "rating": 4.7,
    "reviews": 25,
    "website": "https://crownproconstruction.com/",
    "category": "Asian-owned Roofing repair in Michigan",
    "description": "Combines experience in home improvement and roofing, offering residential and commercial roofing, vinyl window installation, and siding services",
    "hours": "Mon-Fri 9AM-6PM",
    "services": [
      "Asian-owned Roofing repair in Michigan consultation",
      "Professional service",
      "Quality guarantee"
    ],
    "social_links": {}
  },
  {
    "name": "Maciel Construction, LLC",
    "address": "Michigan",
    "phone": "(734) 744-9494",
    "rating": 4.9,
    "reviews": 25,
    "website": "https://macielconstruction.com/",
    "category": "Asian-owned Roofing repair in Michigan",
    "description": "Focuses on reliability, communication, integrity, and quality work in all their roofing projects, ensuring clients are educated on their tasks",
    "hours": "Mon-Fri 9AM-6PM",
    "services": [
      "Asian-owned Roofing repair in Michigan consultation",
      "Professional service",
      "Quality guarantee"
    ],
    "social_links": {}
  },
  {
    "name": "A-N-L Construction LLC",
    "address": "Michigan",
    "phone": "(586) 757-7070",
    "rating": 4.8,
    "reviews": 25,
    "website": "https://anlconstruction.com/",
    "category": "Asian-owned Roofing repair in Michigan",
    "description": "Emphasizes excellent workmanship and complete customer satisfaction, taking great care to communicate professionally with every client",
    "hours": "Mon-Fri 9AM-6PM",
    "services": [
      "Asian-owned Roofing repair in Michigan consultation",
      "Professional service",
      "Quality guarantee"
    ],
    "social_links": {}
  }
]