[
  {
    "name": "The Window Source of Raleigh",
    "address": "10009-105B Glenwood Ave, Raleigh, NC 27617",
    "phone": "(919) 870-1111",
    "rating": 4.8,
    "reviews": 25,
    "website": "https://www.windowsourceraleigh.com/",
    "category": "Baby-Boomer-owned Window adjustments in North-Carolina",
    "description": "Offers high-quality replacement windows and doors with factory-direct pricing and a customer satisfaction guarantee",
    "hours": "Mon-Fri 9AM-6PM",
    "services": [
      "Baby-Boomer-owned Window adjustments in North-Carolina consultation",
      "Professional service",
      "Quality guarantee"
    ],
    "social_links": {}
  },
  {
    "name": "Windows, Doors and More, Inc.",
    "address": "3009-101 Wake Forest Rd, Raleigh, NC 27609",
    "phone": "(919) 931-5400",
    "rating": 4.7,
    "reviews": 25,
    "website": "https://windowsdoorsandmore.com/",
    "category": "Baby-Boomer-owned Window adjustments in North-Carolina",
    "description": "Specializes in Pella, Eagle, Andersen, Marvin, and other brands of replacement windows and doors, with over 35 years of experience",
    "hours": "Mon-Fri 9AM-6PM",
    "services": [
      "Baby-Boomer-owned Window adjustments in North-Carolina consultation",
      "Professional service",
      "Quality guarantee"
    ],
    "social_links": {}
  },
  {
    "name": "HomeCraft Windows",
    "address": "3048 Barrow Dr, Raleigh, NC 27616",
    "phone": "(919) 231-7181",
    "rating": 4.6,
    "reviews": 25,
    "website": "https://homecraftwindows.com/",
    "category": "Baby-Boomer-owned Window adjustments in North-Carolina",
    "description": "Provides energy-efficient replacement windows, doors, and siding installation, serving the Raleigh-Durham area for over 25 years",
    "hours": "Mon-Fri 9AM-6PM",
    "services": [
      "Baby-Boomer-owned Window adjustments in North-Carolina consultation",
      "Professional service",
      "Quality guarantee"
    ],
    "social_links": {}
  },
  {
    "name": "The Window Source of Eastern NC",
    "address": "105 Commerce St, Greenville, NC 27834",
    "phone": "(252) 756-7500",
    "rating": 4.9,
    "reviews": 25,
    "website": "https://www.windowsourceeasternnc.com/",
    "category": "Baby-Boomer-owned Window adjustments in North-Carolina",
    "description": "A locally owned and family-operated company offering replacement windows, patio doors, and siding at affordable prices",
    "hours": "Mon-Fri 9AM-6PM",
    "services": [
      "Baby-Boomer-owned Window adjustments in North-Carolina consultation",
      "Professional service",
      "Quality guarantee"
    ],
    "social_links": {}
  },
  {
    "name": "Renewal by Andersen of Central North Carolina",
    "address": "105 Sigma Dr, Garner, NC 27529",
    "phone": "(919) 701-4082",
    "rating": 4.9,
    "reviews": 25,
    "website": "https://www.renewalbyandersen.com/",
    "category": "Baby-Boomer-owned Window adjustments in North-Carolina",
    "description": "The window replacement division of Andersen Windows, offering custom-manufactured windows and professional installation with strong warranties",
    "hours": "Mon-Fri 9AM-6PM",
    "services": [
      "Baby-Boomer-owned Window adjustments in North-Carolina consultation",
      "Professional service",
      "Quality guarantee"
    ],
    "social_links": {}
  },
  {
    "name": "Window Works Co.",
    "address": "1015 Parkside Dr, Cary, NC 27513",
    "phone": "(919) 439-0040",
    "rating": 4.8,
    "reviews": 25,
    "website": "https://windowworksco.com/",
    "category": "Baby-Boomer-owned Window adjustments in North-Carolina",
    "description": "Offers expert window and door installation in Cary, NC, focusing on superior craftsmanship, no-pressure service, and quality products",
    "hours": "Mon-Fri 9AM-6PM",
    "services": [
      "Baby-Boomer-owned Window adjustments in North-Carolina consultation",
      "Professional service",
      "Quality guarantee"
    ],
    "social_links": {}
  },
  {
    "name": "Kelly Window & Door",
    "address": "1015 Parkside Dr, Cary, NC 27513",
    "phone": "(919) 439-0040",
    "rating": 4.7,
    "reviews": 25,
    "website": "https://kellywindowanddoor.com/",
    "category": "Baby-Boomer-owned Window adjustments in North-Carolina",
    "description": "Provides high-quality window and door installation with exceptional service and energy-efficient products, serving Cary and Raleigh",
    "hours": "Mon-Fri 9AM-6PM",
    "services": [
      "Baby-Boomer-owned Window adjustments in North-Carolina consultation",
      "Professional service",
      "Quality guarantee"
    ],
    "social_links": {}
  },
  {
    "name": "Kingsford Home Improvements",
    "address": "1505 S Miami Blvd, Durham, NC 27703",
    "phone": "(919) 688-5116",
    "rating": 4.7,
    "reviews": 25,
    "website": "https://kingsfordhomeimprovements.com/",
    "category": "Baby-Boomer-owned Window adjustments in North-Carolina",
    "description": "Offers expert window installation and replacement services in Durham, NC, with a wide variety of window types and a focus on customer service",
    "hours": "Mon-Fri 9AM-6PM",
    "services": [
      "Baby-Boomer-owned Window adjustments in North-Carolina consultation",
      "Professional service",
      "Quality guarantee"
    ],
    "social_links": {}
  },
  {
    "name": "EcoView Windows & Doors of Raleigh-Durham",
    "address": "10010 Merritt Blvd, Wake Forest, NC 27587",
    "phone": "(919) 809-5770",
    "rating": 5.0,
    "reviews": 25,
    "website": "https://ecoviewwindows.com/locations/raleigh-durham/",
    "category": "Baby-Boomer-owned Window adjustments in North-Carolina",
    "description": "Provides energy-efficient vinyl windows and fiberglass doors with a lifetime warranty on products and workmanship, sourcing directly from manufacturers",
    "hours": "Mon-Fri 9AM-6PM",
    "services": [
      "Baby-Boomer-owned Window adjustments in North-Carolina consultation",
      "Professional service",
      "Quality guarantee"
    ],
    "social_links": {}
  },
  {
    "name": "Raleigh Windows and Doors",
    "address": "10009-105B Glenwood Ave, Raleigh, NC 27617",
    "phone": "(919) 366-4984",
    "rating": 4.8,
    "reviews": 25,
    "website": "https://raleighwindowsanddoors.com/",
    "category": "Baby-Boomer-owned Window adjustments in North-Carolina",
    "description": "A family-owned company offering comprehensive installation, replacement, and repair services for windows and doors, with custom fits and competitive pricing",
    "hours": "Mon-Fri 9AM-6PM",
    "services": [
      "Baby-Boomer-owned Window adjustments in North-Carolina consultation",
      "Professional service",
      "Quality guarantee"
    ],
    "social_links": {}
  }
]