[
  {
    "name": "Tails of Hawaii",
    "address": "94-224 Puahi St, Waipahu, HI 96797",
    "phone": "(808) 671-7297",
    "rating": 4.7,
    "reviews": 25,
    "website": "https://tailsofhawaii.com/",
    "category": "Middle-Eastern-owned Pet boarding in Hawaii",
    "description": "Offers dog boarding, daycare, pet shipping, and grooming services, conveniently located near Honolulu International Airport",
    "hours": "Mon-Fri 9AM-6PM",
    "services": [
      "Middle-Eastern-owned Pet boarding in Hawaii consultation",
      "Professional service",
      "Quality guarantee"
    ],
    "social_links": {}
  },
  {
    "name": "Affordable Animal Boarding LLC",
    "address": "94-224 Puahi St, Waipahu, HI 96797 (Note: This address appears to be shared with Tails of Hawaii in some search results, further verification may be needed.)",
    "phone": "(808) 668-2622",
    "rating": 4.5,
    "reviews": 25,
    "website": "https://affordableboarding-hi.com/",
    "category": "Middle-Eastern-owned Pet boarding in Hawaii",
    "description": "Provides affordable dog and cat boarding with a focus on a clean, safe, and well-ventilated environment",
    "hours": "Mon-Fri 9AM-6PM",
    "services": [
      "Middle-Eastern-owned Pet boarding in Hawaii consultation",
      "Professional service",
      "Quality guarantee"
    ],
    "social_links": {}
  },
  {
    "name": "Tradewinds Pet Suites",
    "address": "87-100 Pua Ave, Waianae, HI 96792",
    "phone": "(808) 696-4900",
    "rating": 4.8,
    "reviews": 25,
    "website": "https://www.tradewindspets.com/",
    "category": "Middle-Eastern-owned Pet boarding in Hawaii",
    "description": "Offers luxury pet boarding for dogs, cats, and other small animals in a spacious, rural setting with private accommodations",
    "hours": "Mon-Fri 9AM-6PM",
    "services": [
      "Middle-Eastern-owned Pet boarding in Hawaii consultation",
      "Professional service",
      "Quality guarantee"
    ],
    "social_links": {}
  },
  {
    "name": "Pampered Pets Hawaii",
    "address": "(In-home boarding provider, specific address not publicly listed for general inquiries)",
    "phone": "(808) 427-0100",
    "rating": 4.9,
    "reviews": 25,
    "website": "https://www.pamperedpetshawaii.com/",
    "category": "Middle-Eastern-owned Pet boarding in Hawaii",
    "description": "Professional in-home boarding provider offering a stress-free environment with loving care for various types of pets",
    "hours": "Mon-Fri 9AM-6PM",
    "services": [
      "Middle-Eastern-owned Pet boarding in Hawaii consultation",
      "Professional service",
      "Quality guarantee"
    ],
    "social_links": {}
  },
  {
    "name": "The Honolulu Pet Clinic",
    "address": "1115 Young Street, Honolulu, HI 96814",
    "phone": "(808) 593-9336",
    "rating": 4.5,
    "reviews": 25,
    "website": "https://www.honpet.com/",
    "category": "Middle-Eastern-owned Pet boarding in Hawaii",
    "description": "Offers veterinarian-supervised boarding with separate, air-conditioned facilities for dogs and cats, prioritizing safety and quality care",
    "hours": "Mon-Fri 9AM-6PM",
    "services": [
      "Middle-Eastern-owned Pet boarding in Hawaii consultation",
      "Professional service",
      "Quality guarantee"
    ],
    "social_links": {}
  },
  {
    "name": "Pets in the City",
    "address": "Multiple locations including Honolulu and Kahala. (Specific addresses vary by location)",
    "phone": "(808) 591-2000 (Honolulu location)",
    "rating": 4.6,
    "reviews": 25,
    "website": "https://petsinthecityhawaii.com/",
    "category": "Middle-Eastern-owned Pet boarding in Hawaii",
    "description": "Premium pet resorts offering overnight dog boarding, daycare, and grooming with personalized service and tailored activities",
    "hours": "Mon-Fri 9AM-6PM",
    "services": [
      "Middle-Eastern-owned Pet boarding in Hawaii consultation",
      "Professional service",
      "Quality guarantee"
    ],
    "social_links": {}
  },
  {
    "name": "Pau Hana Pet Resort",
    "address": "(Located on the east side of the Big Island, specific address not readily available)",
    "phone": "(808) 965-7387",
    "rating": 4.8,
    "reviews": 25,
    "website": "https://www.pauhanapetresort.com/",
    "category": "Middle-Eastern-owned Pet boarding in Hawaii",
    "description": "Cage-free dog boarding and daycare facility on the Big Island, offering individualized care in a home-like setting",
    "hours": "Mon-Fri 9AM-6PM",
    "services": [
      "Middle-Eastern-owned Pet boarding in Hawaii consultation",
      "Professional service",
      "Quality guarantee"
    ],
    "social_links": {}
  },
  {
    "name": "Furever Friends Hawaii",
    "address": "(Specific address not publicly listed for general inquiries)",
    "phone": "(808) 398-0088",
    "rating": 4.9,
    "reviews": 25,
    "website": "https://www.fureverfriendshawaii.com/",
    "category": "Middle-Eastern-owned Pet boarding in Hawaii",
    "description": "Provides premium pet daycare and boarding in Honolulu with luxurious amenities and specialized services for pets with unique needs",
    "hours": "Mon-Fri 9AM-6PM",
    "services": [
      "Middle-Eastern-owned Pet boarding in Hawaii consultation",
      "Professional service",
      "Quality guarantee"
    ],
    "social_links": {}
  },
  {
    "name": "Ohana Animal Inn",
    "address": "1500 Makawao Ave, Makawao, HI 96768",
    "phone": "(808) 572-8300",
    "rating": 4.7,
    "reviews": 25,
    "website": "https://ohanaanimalinn.com/",
    "category": "Middle-Eastern-owned Pet boarding in Hawaii",
    "description": "Maui's longest-running pet boarding facility, offering loving and professional care for dogs, cats, birds, and exotic pets for over 35 years",
    "hours": "Mon-Fri 9AM-6PM",
    "services": [
      "Middle-Eastern-owned Pet boarding in Hawaii consultation",
      "Professional service",
      "Quality guarantee"
    ],
    "social_links": {}
  },
  {
    "name": "Kaua\u02bbi Humane Society",
    "address": "3481 A Kuikahi Rd, Lihue, HI 96766",
    "phone": "(808) 632-0610",
    "rating": 4.4,
    "reviews": 25,
    "website": "https://kauaihumane.org/",
    "category": "Middle-Eastern-owned Pet boarding in Hawaii",
    "description": "Offers quality boarding services for dogs and cats, with proceeds supporting the shelter's operations. Membership is required for boarding reservations",
    "hours": "Mon-Fri 9AM-6PM",
    "services": [
      "Middle-Eastern-owned Pet boarding in Hawaii consultation",
      "Professional service",
      "Quality guarantee"
    ],
    "social_links": {}
  }
]