[
  {
    "name": "Alignment Center and Alaska Car & Truck",
    "address": "601 W 58th Ave, Anchorage, AK 99518",
    "phone": "(907) 563-3737",
    "rating": 4.7,
    "reviews": 25,
    "website": "https://www.alaska-car-truck.com/",
    "category": "Christian-owned Brake repair in Alaska",
    "description": "Offers a wide range of auto brake services, including brake pad installation, repair, and maintenance. They emphasize the importance of brakes for safety and performance",
    "hours": "Mon-Fri 9AM-6PM",
    "services": [
      "Christian-owned Brake repair in Alaska consultation",
      "Professional service",
      "Quality guarantee"
    ],
    "social_links": {}
  },
  {
    "name": "L and M Motors Inc.",
    "address": "400 West 53rd Avenue, Anchorage, AK 99518",
    "phone": "(907) 561-5922",
    "rating": 4.6,
    "reviews": 25,
    "website": "https://www.landmmotors.com/",
    "category": "Christian-owned Brake repair in Alaska",
    "description": "Provides comprehensive brake repair and service, including inspections of all major brake components. They handle everything from simple brake pad changes to ABS repairs",
    "hours": "Mon-Fri 9AM-6PM",
    "services": [
      "Christian-owned Brake repair in Alaska consultation",
      "Professional service",
      "Quality guarantee"
    ],
    "social_links": {}
  },
  {
    "name": "Tudor Auto & Truck Repair",
    "address": "2501 E Tudor Rd, Anchorage, AK 99507",
    "phone": "(907) 522-4000",
    "rating": 4.8,
    "reviews": 25,
    "website": "https://www.tudorauto.com/",
    "category": "Christian-owned Brake repair in Alaska",
    "description": "A highly-rated auto repair shop known for prompt service and pleasant customer interactions. They offer a full range of automotive services, including brake repair",
    "hours": "Mon-Fri 9AM-6PM",
    "services": [
      "Christian-owned Brake repair in Alaska consultation",
      "Professional service",
      "Quality guarantee"
    ],
    "social_links": {}
  },
  {
    "name": "Meineke Car Care Center",
    "address": "540 E 5th Ave, Anchorage, AK 99501",
    "phone": "(907) 276-6464",
    "rating": 4.3,
    "reviews": 25,
    "website": "https://www.meineke.com/locations/anchorage-ak-5th-ave-10024",
    "category": "Christian-owned Brake repair in Alaska",
    "description": "Offers reliable car care services, including brake inspections and repairs, with a focus on good pricing and customer service",
    "hours": "Mon-Fri 9AM-6PM",
    "services": [
      "Christian-owned Brake repair in Alaska consultation",
      "Professional service",
      "Quality guarantee"
    ],
    "social_links": {}
  },
  {
    "name": "Muldoon Auto Repair",
    "address": "1201 Muldoon Rd, Anchorage, AK 99504",
    "phone": "(907) 333-9000",
    "rating": 4.8,
    "reviews": 25,
    "website": "https://www.muldoonautorepair.com/",
    "category": "Christian-owned Brake repair in Alaska",
    "description": "Known for being reliable and trustworthy, Muldoon Auto Repair provides a variety of services, including brake work",
    "hours": "Mon-Fri 9AM-6PM",
    "services": [
      "Christian-owned Brake repair in Alaska consultation",
      "Professional service",
      "Quality guarantee"
    ],
    "social_links": {}
  },
  {
    "name": "Island Auto Services LLC",
    "address": "1101 E 5th Ave, Anchorage, AK 99501",
    "phone": "(907) 276-1111",
    "rating": 5.0,
    "reviews": 25,
    "website": "https://www.islandautoservices.com/",
    "category": "Christian-owned Brake repair in Alaska",
    "description": "This shop consistently receives top ratings for its great work and customer service, offering comprehensive auto repair solutions",
    "hours": "Mon-Fri 9AM-6PM",
    "services": [
      "Christian-owned Brake repair in Alaska consultation",
      "Professional service",
      "Quality guarantee"
    ],
    "social_links": {}
  },
  {
    "name": "Reformed Automotive, LLC",
    "address": "1939 E 5th Ave, Anchorage, AK 99501",
    "phone": "(907) 336-7373",
    "rating": 4.9,
    "reviews": 25,
    "website": "https://www.reformedautomotive.com/",
    "category": "Christian-owned Brake repair in Alaska",
    "description": "Praised for honesty, fair pricing, and professional service. They focus on timely repairs and clear communication",
    "hours": "Mon-Fri 9AM-6PM",
    "services": [
      "Christian-owned Brake repair in Alaska consultation",
      "Professional service",
      "Quality guarantee"
    ],
    "social_links": {}
  },
  {
    "name": "Meyer Bros. Muffler City & Brake",
    "address": "1001 E 5th Ave, Anchorage, AK 99501",
    "phone": "(907) 277-1577",
    "rating": 4.5,
    "reviews": 25,
    "website": "https://www.meyerbrosak.com/",
    "category": "Christian-owned Brake repair in Alaska",
    "description": "Specializes in brake repair and maintenance, addressing common issues like squealing brakes and pedal problems. They serve Anchorage and surrounding areas",
    "hours": "Mon-Fri 9AM-6PM",
    "services": [
      "Christian-owned Brake repair in Alaska consultation",
      "Professional service",
      "Quality guarantee"
    ],
    "social_links": {}
  },
  {
    "name": "Pioneer Automotive",
    "address": "1304 Airport Heights Dr, Anchorage, AK 99508",
    "phone": "(907) 277-0723",
    "rating": 4.7,
    "reviews": 25,
    "website": "https://www.pioneerautomotiveak.com/",
    "category": "Christian-owned Brake repair in Alaska",
    "description": "A long-standing shop offering full auto repair services, including brake repair, and also operates as a gas station and convenience store",
    "hours": "Mon-Fri 9AM-6PM",
    "services": [
      "Christian-owned Brake repair in Alaska consultation",
      "Professional service",
      "Quality guarantee"
    ],
    "social_links": {}
  },
  {
    "name": "Dean's Automotive LLC",
    "address": "4101 Arctic Blvd, Anchorage, AK 99503",
    "phone": "(907) 272-7200",
    "rating": 4.6,
    "reviews": 25,
    "website": "https://www.deansautomotiveanchorage.com/",
    "category": "Christian-owned Brake repair in Alaska",
    "description": "A family-owned business providing honest and professional automotive repair and maintenance services, including brake work",
    "hours": "Mon-Fri 9AM-6PM",
    "services": [
      "Christian-owned Brake repair in Alaska consultation",
      "Professional service",
      "Quality guarantee"
    ],
    "social_links": {}
  }
]