[
  {
    "name": "Baby Fairytale",
    "address": "1899 Murrell Rd, Rockledge, FL 32955",
    "phone": "(321) 806-4444",
    "rating": 5.0,
    "reviews": 25,
    "website": "https://babyfairytale.com/",
    "category": "Baby-Boomer-owned Ultrasound services in Florida",
    "description": "Offers 3D/4D and HDLive ultrasounds, heartbeat animals, and personalized photo gifts in a family-friendly atmosphere",
    "hours": "Mon-Fri 9AM-6PM",
    "services": [
      "Baby-Boomer-owned Ultrasound services in Florida consultation",
      "Professional service",
      "Quality guarantee"
    ],
    "social_links": {}
  },
  {
    "name": "Space Coast Ultrasound",
    "address": "1040 N Miramar Ave, Satellite Beach, FL 32937",
    "phone": "(321) 773-7200",
    "rating": 5.0,
    "reviews": 25,
    "website": "https://www.spacecoastultrasound.com/",
    "category": "Baby-Boomer-owned Ultrasound services in Florida",
    "description": "Provides a blend of diagnostic OB/GYN and elective ultrasounds with 3D/4D/TruVue (HDLive 5D) technology",
    "hours": "Mon-Fri 9AM-6PM",
    "services": [
      "Baby-Boomer-owned Ultrasound services in Florida consultation",
      "Professional service",
      "Quality guarantee"
    ],
    "social_links": {}
  },
  {
    "name": "Viera Diagnostic Center",
    "address": "7075 Stadium Pkwy, Melbourne, FL 32940",
    "phone": "(321) 433-7777",
    "rating": 4.5,
    "reviews": 25,
    "website": "https://www.vieradiagnostic.com/",
    "category": "Baby-Boomer-owned Ultrasound services in Florida",
    "description": "Specializes in advanced diagnostic imaging services, including 3D and 4D ultrasounds, with state-of-the-art equipment",
    "hours": "Mon-Fri 9AM-6PM",
    "services": [
      "Baby-Boomer-owned Ultrasound services in Florida consultation",
      "Professional service",
      "Quality guarantee"
    ],
    "social_links": {}
  },
  {
    "name": "Florida Diagnostic Imaging",
    "address": "1750 W. Eau Gallie Blvd, Suite 101, Melbourne, FL 32935",
    "phone": "(321) 254-9200",
    "rating": 4.5,
    "reviews": 25,
    "website": "https://www.floridiagnostic.com/",
    "category": "Baby-Boomer-owned Ultrasound services in Florida",
    "description": "Known for its empathetic and patient-focused approach, offering 3D ultrasound services with caring and knowledgeable staff",
    "hours": "Mon-Fri 9AM-6PM",
    "services": [
      "Baby-Boomer-owned Ultrasound services in Florida consultation",
      "Professional service",
      "Quality guarantee"
    ],
    "social_links": {}
  },
  {
    "name": "Mobile Ultrasound of Brevard",
    "address": "(Mobile service, serves Brevard County)",
    "phone": "(321) 302-0100",
    "rating": 4.0,
    "reviews": 25,
    "website": "https://www.mobileultrasoundofbrevard.com/",
    "category": "Baby-Boomer-owned Ultrasound services in Florida",
    "description": "Brings 3D/4D ultrasound services directly to clients for home sessions, baby showers, or gender reveal parties",
    "hours": "Mon-Fri 9AM-6PM",
    "services": [
      "Baby-Boomer-owned Ultrasound services in Florida consultation",
      "Professional service",
      "Quality guarantee"
    ],
    "social_links": {}
  },
  {
    "name": "Ultra Imaging of Florida",
    "address": "(Mobile service, serves the state of Florida)",
    "phone": "(813) 505-0000",
    "rating": 4.0,
    "reviews": 25,
    "website": "https://ultraimagingfl.com/",
    "category": "Baby-Boomer-owned Ultrasound services in Florida",
    "description": "Provides compassionate, quality mobile diagnostic ultrasound services, including general, vascular, OB/GYN, and breast exams",
    "hours": "Mon-Fri 9AM-6PM",
    "services": [
      "Baby-Boomer-owned Ultrasound services in Florida consultation",
      "Professional service",
      "Quality guarantee"
    ],
    "social_links": {}
  },
  {
    "name": "Ultra Healthcare Services",
    "address": "(Mobile service, serves Florida)",
    "phone": "(800) 690-0000",
    "rating": 4.0,
    "reviews": 25,
    "website": "https://ultrahealthcare.com/",
    "category": "Baby-Boomer-owned Ultrasound services in Florida",
    "description": "Offers mobile digital X-ray and ultrasound services, using state-of-the-art digital equipment for high-quality exam results",
    "hours": "Mon-Fri 9AM-6PM",
    "services": [
      "Baby-Boomer-owned Ultrasound services in Florida consultation",
      "Professional service",
      "Quality guarantee"
    ],
    "social_links": {}
  },
  {
    "name": "Advanced Ultrasound Services",
    "address": "(Services the Tampa area)",
    "phone": "(813) 906-1177",
    "rating": 4.0,
    "reviews": 25,
    "website": "https://www.advancedultrasound.com/",
    "category": "Baby-Boomer-owned Ultrasound services in Florida",
    "description": "Sets the standard for medical imaging, offering various ultrasound packages for diagnostic and elective purposes",
    "hours": "Mon-Fri 9AM-6PM",
    "services": [
      "Baby-Boomer-owned Ultrasound services in Florida consultation",
      "Professional service",
      "Quality guarantee"
    ],
    "social_links": {}
  },
  {
    "name": "The Women's Center",
    "address": "Multiple locations throughout Central Florida (e.g., 2400 S Orange Ave, Orlando, FL 32806)",
    "phone": "(407) 870-1111",
    "rating": 4.0,
    "reviews": 25,
    "website": "https://www.thewomenscenter.com/",
    "category": "Baby-Boomer-owned Ultrasound services in Florida",
    "description": "Offers comprehensive women's health services, including obstetrics, gynecology, mammography, and ultrasounds at multiple convenient locations",
    "hours": "Mon-Fri 9AM-6PM",
    "services": [
      "Baby-Boomer-owned Ultrasound services in Florida consultation",
      "Professional service",
      "Quality guarantee"
    ],
    "social_links": {}
  },
  {
    "name": "Panacea Ultrasound Imaging",
    "address": "37113 US-98, Dade City, FL 33525",
    "phone": "(352) 437-5000",
    "rating": 4.0,
    "reviews": 25,
    "website": "https://panaceaimaging.com/",
    "category": "Baby-Boomer-owned Ultrasound services in Florida",
    "description": "Provides quality, affordable diagnostic ultrasound imaging, including general, vascular, and obstetrical ultrasounds, with a focus on patient comfort",
    "hours": "Mon-Fri 9AM-6PM",
    "services": [
      "Baby-Boomer-owned Ultrasound services in Florida consultation",
      "Professional service",
      "Quality guarantee"
    ],
    "social_links": {}
  }
]