[
  {
    "name": "Chicago Bei Dou Kung Fu",
    "address": "1511 W. Fullerton Ave., Chicago, IL",
    "phone": "(773) 327-4710",
    "rating": 4.0,
    "reviews": 25,
    "website": "https://www.google.com/maps/search/Chicago+Bei+Dou+Kung+Fu+in+Illinois",
    "category": "Chinese-speaking Gyms in Illinois",
    "description": "Offers classes in Kung Fu, Tai Chi, and Sanshou Self Defense for all ages",
    "hours": "Mon-Fri 9AM-6PM",
    "services": [
      "Chinese-speaking Gyms in Illinois consultation",
      "Professional service",
      "Quality guarantee"
    ],
    "social_links": {}
  },
  {
    "name": "Soaring Eagle Kung Fu",
    "address": "Palatine, Illinois",
    "phone": "(C) 773-556-3728, (O) 847-701-5588",
    "rating": 4.0,
    "reviews": 25,
    "website": "https://www.google.com/maps/search/Soaring+Eagle+Kung+Fu+in+Illinois",
    "category": "Chinese-speaking Gyms in Illinois",
    "description": "Provides traditional Chinese Shaolin Kung Fu, Tai Chi, and Chinese Kickboxing (San Da) classes for youth and adults",
    "hours": "Mon-Fri 9AM-6PM",
    "services": [
      "Chinese-speaking Gyms in Illinois consultation",
      "Professional service",
      "Quality guarantee"
    ],
    "social_links": {}
  },
  {
    "name": "Temple of Kung Fu",
    "address": "187 Skokie Valley Rd., Highland Park, IL 60035",
    "phone": "847-702-7581",
    "rating": 4.0,
    "reviews": 25,
    "website": "https://www.google.com/maps/search/Temple+of+Kung+Fu+in+Illinois",
    "category": "Chinese-speaking Gyms in Illinois",
    "description": "Offers classes in internal Kung Fu, Tai Chi, Qi Gong, and Chinese Healing Practices",
    "hours": "Mon-Fri 9AM-6PM",
    "services": [
      "Chinese-speaking Gyms in Illinois consultation",
      "Professional service",
      "Quality guarantee"
    ],
    "social_links": {}
  },
  {
    "name": "Kung Fu Academy of Chicago",
    "address": "Chicago, IL",
    "phone": "",
    "rating": 4.0,
    "reviews": 25,
    "website": "https://www.google.com/maps/search/Kung+Fu+Academy+of+Chicago+in+Illinois",
    "category": "Chinese-speaking Gyms in Illinois",
    "description": "Focuses on traditional Northern Shaolin Seven Star Praying Mantis Kung Fu",
    "hours": "Mon-Fri 9AM-6PM",
    "services": [
      "Chinese-speaking Gyms in Illinois consultation",
      "Professional service",
      "Quality guarantee"
    ],
    "social_links": {}
  },
  {
    "name": "Chinese Taoist Martial Arts Association",
    "address": "St John's UCC, 308 N Evergreen Ave., Arlington Heights, IL 60004",
    "phone": "847-702-9210",
    "rating": 4.0,
    "reviews": 25,
    "website": "https://www.google.com/maps/search/Chinese+Taoist+Martial+Arts+Association+in+Illinois",
    "category": "Chinese-speaking Gyms in Illinois",
    "description": "Offers classes in internal martial arts like Tai Chi, Ba Gua, and Xing Yi. (Note: This association is now closed, but contact information for a disciple is provided.)",
    "hours": "Mon-Fri 9AM-6PM",
    "services": [
      "Chinese-speaking Gyms in Illinois consultation",
      "Professional service",
      "Quality guarantee"
    ],
    "social_links": {}
  },
  {
    "name": "Chicago Mandarin Chinese Center",
    "address": "17 N State St Ste 1700, Chicago, IL 60602",
    "phone": "",
    "rating": 4.0,
    "reviews": 25,
    "website": "https://www.google.com/maps/search/Chicago+Mandarin+Chinese+Center+in+Illinois",
    "category": "Chinese-speaking Gyms in Illinois",
    "description": "A Chinese language education and business culture training organization",
    "hours": "Mon-Fri 9AM-6PM",
    "services": [
      "Chinese-speaking Gyms in Illinois consultation",
      "Professional service",
      "Quality guarantee"
    ],
    "social_links": {}
  },
  {
    "name": "ChinaFriends",
    "address": "Chicago, IL",
    "phone": "",
    "rating": 4.0,
    "reviews": 25,
    "website": "https://www.google.com/maps/search/ChinaFriends+in+Illinois",
    "category": "Chinese-speaking Gyms in Illinois",
    "description": "Offers Chinese language and cultural education",
    "hours": "Mon-Fri 9AM-6PM",
    "services": [
      "Chinese-speaking Gyms in Illinois consultation",
      "Professional service",
      "Quality guarantee"
    ],
    "social_links": {}
  },
  {
    "name": "TCML Chicago",
    "address": "Chicago, IL",
    "phone": "",
    "rating": 4.0,
    "reviews": 25,
    "website": "https://www.google.com/maps/search/TCML+Chicago+in+Illinois",
    "category": "Chinese-speaking Gyms in Illinois",
    "description": "A Chinese language learning school offering online and in-person classes",
    "hours": "Mon-Fri 9AM-6PM",
    "services": [
      "Chinese-speaking Gyms in Illinois consultation",
      "Professional service",
      "Quality guarantee"
    ],
    "social_links": {}
  },
  {
    "name": "Xilin Association",
    "address": "1163 E. Ogden Avenue, Suite 610, Naperville, IL 60563 (and other locations)",
    "phone": "",
    "rating": 4.0,
    "reviews": 25,
    "website": "https://www.google.com/maps/search/Xilin+Association+in+Illinois",
    "category": "Chinese-speaking Gyms in Illinois",
    "description": "A non-profit social services agency that offers various programs, including exercise classes for seniors. They also have multilingual staff",
    "hours": "Mon-Fri 9AM-6PM",
    "services": [
      "Chinese-speaking Gyms in Illinois consultation",
      "Professional service",
      "Quality guarantee"
    ],
    "social_links": {}
  },
  {
    "name": "Oak Brook Park District (Tai Chi Exercise)",
    "address": "1450 Forest Gate Rd., Oak Brook, IL",
    "phone": "630.907.5000",
    "rating": 4.0,
    "reviews": 25,
    "website": "https://www.google.com/maps/search/Oak+Brook+Park+District+(Tai+Chi+Exercise)+in+Illinois",
    "category": "Chinese-speaking Gyms in Illinois",
    "description": "Offers Tai Chi classes led by Dr. Xiaoping Xu, a master with extensive teaching experience in China",
    "hours": "Mon-Fri 9AM-6PM",
    "services": [
      "Chinese-speaking Gyms in Illinois consultation",
      "Professional service",
      "Quality guarantee"
    ],
    "social_links": {}
  }
]