[
  {
    "name": "Wii Auto Repair",
    "address": "1000 N Avondale Blvd, Avondale, AZ 85323",
    "phone": "(623) 907-6339",
    "rating": 4.0,
    "reviews": 25,
    "website": "https://wiiautorepair.com/",
    "category": "Alaska-Native-owned Brake pad replacement in Arizona",
    "description": "Offers expert brake pad replacement, rotor service, brake fluid flushes, and full brake system inspections for all makes and models",
    "hours": "Mon-Fri 9AM-6PM",
    "services": [
      "Alaska-Native-owned Brake pad replacement in Arizona consultation",
      "Professional service",
      "Quality guarantee"
    ],
    "social_links": {}
  },
  {
    "name": "Brake Masters (Phoenix Store #122)",
    "address": "3535 W Indian School Rd, Phoenix, AZ 85019",
    "phone": "(602) 274-4777",
    "rating": 4.0,
    "reviews": 25,
    "website": "https://www.brakemasters.com/locations/phoenix-store-122/",
    "category": "Alaska-Native-owned Brake pad replacement in Arizona",
    "description": "Provides a wide range of auto repair services including oil changes, brake repairs with a lifetime warranty on brake pads and shoes, and ABS system checks",
    "hours": "Mon-Fri 9AM-6PM",
    "services": [
      "Alaska-Native-owned Brake pad replacement in Arizona consultation",
      "Professional service",
      "Quality guarantee"
    ],
    "social_links": {}
  },
  {
    "name": "Two Brothers Restoration & Auto Repair",
    "address": "21616 N Central Ave, Phoenix, AZ 85024",
    "phone": "(602) 547-0000",
    "rating": 4.0,
    "reviews": 25,
    "website": "https://twobrothersrestoration.com/",
    "category": "Alaska-Native-owned Brake pad replacement in Arizona",
    "description": "Offers professional brake services, including inspection and maintenance, to ensure vehicle safety. They address issues like brake fade and unusual noises",
    "hours": "Mon-Fri 9AM-6PM",
    "services": [
      "Alaska-Native-owned Brake pad replacement in Arizona consultation",
      "Professional service",
      "Quality guarantee"
    ],
    "social_links": {}
  },
  {
    "name": "Nava Auto Repair & Tires",
    "address": "10650 W Indian School Rd, Phoenix, AZ 85037",
    "phone": "(623) 772-6282",
    "rating": 4.0,
    "reviews": 25,
    "website": "https://www.navaautorepair.com/",
    "category": "Alaska-Native-owned Brake pad replacement in Arizona",
    "description": "Provides complete automotive repair services, including diagnostics, brake services, and tire sales and installation",
    "hours": "Mon-Fri 9AM-6PM",
    "services": [
      "Alaska-Native-owned Brake pad replacement in Arizona consultation",
      "Professional service",
      "Quality guarantee"
    ],
    "social_links": {}
  },
  {
    "name": "Brake Masters (Oro Valley Store #204)",
    "address": "645 Vuelta Caminata Del Rio, Oro Valley, AZ 85737",
    "phone": "(520) 624-5100",
    "rating": 4.0,
    "reviews": 25,
    "website": "https://www.brakemasters.com/locations/oro-valley-store-204/",
    "category": "Alaska-Native-owned Brake pad replacement in Arizona",
    "description": "Offers reliable oil changes, full-service maintenance, and comprehensive brake services, including free brake inspections and a lifetime warranty on brake parts",
    "hours": "Mon-Fri 9AM-6PM",
    "services": [
      "Alaska-Native-owned Brake pad replacement in Arizona consultation",
      "Professional service",
      "Quality guarantee"
    ],
    "social_links": {}
  },
  {
    "name": "Brake Masters (Tucson Store #159)",
    "address": "3670 W Ina Rd, Tucson, AZ 85741",
    "phone": "(520) 572-1800",
    "rating": 4.0,
    "reviews": 25,
    "website": "https://www.brakemasters.com/locations/tucson-store-159/",
    "category": "Alaska-Native-owned Brake pad replacement in Arizona",
    "description": "Specializes in brake repairs and offers a wide array of automotive services, including oil changes and fluid exchanges, with a 12-month/12,000-mile warranty",
    "hours": "Mon-Fri 9AM-6PM",
    "services": [
      "Alaska-Native-owned Brake pad replacement in Arizona consultation",
      "Professional service",
      "Quality guarantee"
    ],
    "social_links": {}
  },
  {
    "name": "Good Works Auto Repair",
    "address": "2348 E Broadway Rd, Tempe, AZ 85282",
    "phone": "(480) 386-1276",
    "rating": 4.0,
    "reviews": 25,
    "website": "https://goodworksautorepair.com/",
    "category": "Alaska-Native-owned Brake pad replacement in Arizona",
    "description": "A highly-rated auto repair shop known for its quality, integrity, and customer satisfaction, offering comprehensive services including brake work",
    "hours": "Mon-Fri 9AM-6PM",
    "services": [
      "Alaska-Native-owned Brake pad replacement in Arizona consultation",
      "Professional service",
      "Quality guarantee"
    ],
    "social_links": {}
  },
  {
    "name": "Hi-Tech Car Care",
    "address": "2924 E Thomas Rd, Phoenix, AZ 85016",
    "phone": "(602) 497-4128",
    "rating": 4.0,
    "reviews": 25,
    "website": "https://www.hitechcarcare.com/",
    "category": "Alaska-Native-owned Brake pad replacement in Arizona",
    "description": "Offers a full range of automotive repair and maintenance services, including expert brake services, performed by certified technicians",
    "hours": "Mon-Fri 9AM-6PM",
    "services": [
      "Alaska-Native-owned Brake pad replacement in Arizona consultation",
      "Professional service",
      "Quality guarantee"
    ],
    "social_links": {}
  },
  {
    "name": "Martin's Auto Repair",
    "address": "3636 N 16th St, Phoenix, AZ 85016",
    "phone": "(602) 266-5755",
    "rating": 4.0,
    "reviews": 25,
    "website": "https://martinsautorepair.com/",
    "category": "Alaska-Native-owned Brake pad replacement in Arizona",
    "description": "A trusted auto repair shop providing reliable services for various vehicle needs, including brake system repairs and maintenance",
    "hours": "Mon-Fri 9AM-6PM",
    "services": [
      "Alaska-Native-owned Brake pad replacement in Arizona consultation",
      "Professional service",
      "Quality guarantee"
    ],
    "social_links": {}
  },
  {
    "name": "Wilhelm Automotive",
    "address": "5211 E Thomas Rd, Phoenix, AZ 85018",
    "phone": "(602) 275-0200",
    "rating": 4.0,
    "reviews": 25,
    "website": "https://www.wilhelmautomotive.com/locations/phoenix-wilhelm-automotive-location-1156/",
    "category": "Alaska-Native-owned Brake pad replacement in Arizona",
    "description": "Offers comprehensive auto repair services, including engine diagnostics, brake repairs, and transmission services, backed by a national warranty",
    "hours": "Mon-Fri 9AM-6PM",
    "services": [
      "Alaska-Native-owned Brake pad replacement in Arizona consultation",
      "Professional service",
      "Quality guarantee"
    ],
    "social_links": {}
  }
]