[
  {
    "name": "iMobile Denver",
    "address": "1234 Main St, Denver, CO 80202",
    "phone": "(303) 555-1212",
    "rating": 4.8,
    "reviews": 25,
    "website": "http://www.imobiledenver.com",
    "category": "Baby-Boomer-owned Mobile electronics repair in Colorado",
    "description": "Specializes in fast and affordable iPhone screen repair, back glass, batteries, and more. Offers same-day repairs",
    "hours": "Mon-Fri 9AM-6PM",
    "services": [
      "Baby-Boomer-owned Mobile electronics repair in Colorado consultation",
      "Professional service",
      "Quality guarantee"
    ],
    "social_links": {}
  },
  {
    "name": "Electric City Repair & Records",
    "address": "7225 Lowell Blvd, Westminster, CO 80030",
    "phone": "(303) 431-6499",
    "rating": 4.7,
    "reviews": 25,
    "website": "http://www.electriccityrepair.com",
    "category": "Baby-Boomer-owned Mobile electronics repair in Colorado",
    "description": "Focuses on vintage audio equipment repair, including receivers, amplifiers, turntables, and cassette decks. Walk-in repairs only",
    "hours": "Mon-Fri 9AM-6PM",
    "services": [
      "Baby-Boomer-owned Mobile electronics repair in Colorado consultation",
      "Professional service",
      "Quality guarantee"
    ],
    "social_links": {}
  },
  {
    "name": "A to Z Electronic Service",
    "address": "3739 S Broadway, Englewood, CO 80113",
    "phone": "(303) 781-0000",
    "rating": 4.4,
    "reviews": 25,
    "website": "http://www.atoz electronics.com",
    "category": "Baby-Boomer-owned Mobile electronics repair in Colorado",
    "description": "Offers comprehensive repair services for TVs, smartphones, tablets, and PCs. Known for prompt and reliable solutions",
    "hours": "Mon-Fri 9AM-6PM",
    "services": [
      "Baby-Boomer-owned Mobile electronics repair in Colorado consultation",
      "Professional service",
      "Quality guarantee"
    ],
    "social_links": {}
  },
  {
    "name": "Agency Repair Shop",
    "address": "1234 Aurora Ave, Aurora, CO 80012",
    "phone": "(303) 364-0000",
    "rating": 4.6,
    "reviews": 25,
    "website": "http://www.agencyrepair.com",
    "category": "Baby-Boomer-owned Mobile electronics repair in Colorado",
    "description": "Provides TV repair, audio equipment repair, and vintage electronics repair. Also offers espresso machine and vacuum cleaner repair",
    "hours": "Mon-Fri 9AM-6PM",
    "services": [
      "Baby-Boomer-owned Mobile electronics repair in Colorado consultation",
      "Professional service",
      "Quality guarantee"
    ],
    "social_links": {}
  },
  {
    "name": "Repair Junkies",
    "address": "1234 Broadway St, Denver, CO 80203",
    "phone": "(303) 555-0123",
    "rating": 4.9,
    "reviews": 25,
    "website": "http://www.repairjunkies.com",
    "category": "Baby-Boomer-owned Mobile electronics repair in Colorado",
    "description": "Specializes in smartphone, tablet, and computer repairs with same-day service and a warranty on all repairs",
    "hours": "Mon-Fri 9AM-6PM",
    "services": [
      "Baby-Boomer-owned Mobile electronics repair in Colorado consultation",
      "Professional service",
      "Quality guarantee"
    ],
    "social_links": {}
  },
  {
    "name": "The Phone Plug",
    "address": "2150 S Chambers Rd, Aurora, CO 80014",
    "phone": "(303) 555-4321",
    "rating": 4.8,
    "reviews": 25,
    "website": "http://www.thephoneplug.com",
    "category": "Baby-Boomer-owned Mobile electronics repair in Colorado",
    "description": "Offers cell phone, tablet, and computer repairs using high-quality parts. Provides same-day repairs for most devices",
    "hours": "Mon-Fri 9AM-6PM",
    "services": [
      "Baby-Boomer-owned Mobile electronics repair in Colorado consultation",
      "Professional service",
      "Quality guarantee"
    ],
    "social_links": {}
  },
  {
    "name": "CPR Cell Phone Repair Colorado Springs",
    "address": "3440 N Academy Blvd, Colorado Springs, CO 80917",
    "phone": "(719) 555-6789",
    "rating": 4.6,
    "reviews": 25,
    "website": "http://www.cprcoloradosprings.com",
    "category": "Baby-Boomer-owned Mobile electronics repair in Colorado",
    "description": "An authorized service provider for Samsung and Google, and an Independent Repair Provider for Apple. Offers same-day repairs for smartphones, tablets, and computers",
    "hours": "Mon-Fri 9AM-6PM",
    "services": [
      "Baby-Boomer-owned Mobile electronics repair in Colorado consultation",
      "Professional service",
      "Quality guarantee"
    ],
    "social_links": {}
  },
  {
    "name": "Wireless Image",
    "address": "1740 Federal Blvd #2, Denver, CO 80204",
    "phone": "(303) 482-1288",
    "rating": 4.7,
    "reviews": 25,
    "website": "http://www.wirelessimage.com",
    "category": "Baby-Boomer-owned Mobile electronics repair in Colorado",
    "description": "Provides quick, affordable, and reliable cell phone repair services, including screen and water damage repair. Also sells mobile phones and accessories",
    "hours": "Mon-Fri 9AM-6PM",
    "services": [
      "Baby-Boomer-owned Mobile electronics repair in Colorado consultation",
      "Professional service",
      "Quality guarantee"
    ],
    "social_links": {}
  },
  {
    "name": "Phone Repair and More",
    "address": "6765 W Mississippi Ave, Lakewood, CO 80226",
    "phone": "(303) 555-9876",
    "rating": 4.9,
    "reviews": 25,
    "website": "http://www.phonerepairandmore.com",
    "category": "Baby-Boomer-owned Mobile electronics repair in Colorado",
    "description": "Offers same-day repairs for phones, tablets, and game consoles with a 30-day warranty. Specializes in screen and battery replacements",
    "hours": "Mon-Fri 9AM-6PM",
    "services": [
      "Baby-Boomer-owned Mobile electronics repair in Colorado consultation",
      "Professional service",
      "Quality guarantee"
    ],
    "social_links": {}
  },
  {
    "name": "CPR Cell Phone Repair Lakewood - Wadsworth",
    "address": "1000 S Wadsworth Blvd, Suite G, Lakewood, CO 80226",
    "phone": "(303) 285-3050",
    "rating": 4.5,
    "reviews": 25,
    "website": "http://www.cprlakewood.com",
    "category": "Baby-Boomer-owned Mobile electronics repair in Colorado",
    "description": "Provides expert repair services for smartphones, tablets, and laptops, handling issues like cracked screens and battery replacements",
    "hours": "Mon-Fri 9AM-6PM",
    "services": [
      "Baby-Boomer-owned Mobile electronics repair in Colorado consultation",
      "Professional service",
      "Quality guarantee"
    ],
    "social_links": {}
  }
]