[
  {
    "name": "IBP of Nashville",
    "address": "506 Sage Road, White House, TN 37188",
    "phone": "(615) 672-0752",
    "rating": 4.8,
    "reviews": 25,
    "website": "https://www.ibpdenver.com/locations/ibp-of-nashville",
    "category": "Atheist-owned Insulation in Tennessee",
    "description": "Offers fiberglass and spray foam insulation for residential and commercial projects",
    "hours": "Mon-Fri 9AM-6PM",
    "services": [
      "Atheist-owned Insulation in Tennessee consultation",
      "Professional service",
      "Quality guarantee"
    ],
    "social_links": {}
  },
  {
    "name": "Insulation Supply Company",
    "address": "118 Flat Ridge Road, Goodlettsville, TN 37072",
    "phone": "(615) 859-8946",
    "rating": 4.7,
    "reviews": 25,
    "website": "https://insulationsupply.com/",
    "category": "Atheist-owned Insulation in Tennessee",
    "description": "A family-owned and operated distributor of commercial, industrial, HVAC, and sound insulation, stocking top brands for various applications",
    "hours": "Mon-Fri 9AM-6PM",
    "services": [
      "Atheist-owned Insulation in Tennessee consultation",
      "Professional service",
      "Quality guarantee"
    ],
    "social_links": {}
  },
  {
    "name": "31-W Insulation",
    "address": "Multiple locations, including 1112 Harpeth Industrial, Franklin, TN 37064",
    "phone": "(615) 791-0746 (Franklin location)",
    "rating": 4.6,
    "reviews": 25,
    "website": "https://www.31w.com/",
    "category": "Atheist-owned Insulation in Tennessee",
    "description": "Provides insulation, bath accessories, garage doors, and gutters for renovation and building projects",
    "hours": "Mon-Fri 9AM-6PM",
    "services": [
      "Atheist-owned Insulation in Tennessee consultation",
      "Professional service",
      "Quality guarantee"
    ],
    "social_links": {}
  },
  {
    "name": "Mid South Insulation",
    "address": "506 Sage Road, White House, TN 37188",
    "phone": "(615) 672-0752",
    "rating": 4.8,
    "reviews": 25,
    "website": "https://midsouthinsulation.com/",
    "category": "Atheist-owned Insulation in Tennessee",
    "description": "A family-owned contractor specializing in residential and commercial insulation projects, including fiberglass and spray foam",
    "hours": "Mon-Fri 9AM-6PM",
    "services": [
      "Atheist-owned Insulation in Tennessee consultation",
      "Professional service",
      "Quality guarantee"
    ],
    "social_links": {}
  },
  {
    "name": "Koala Insulation of Nashville",
    "address": "1000 12th Ave S, Nashville, TN 37203 (This is a general Nashville address, specific branch may vary)",
    "phone": "(615) 933-7244",
    "rating": 4.9,
    "reviews": 25,
    "website": "https://koalainsulation.com/locations/nashville/",
    "category": "Atheist-owned Insulation in Tennessee",
    "description": "Offers comprehensive insulation services for residential and commercial customers, focusing on energy efficiency and eco-friendly solutions",
    "hours": "Mon-Fri 9AM-6PM",
    "services": [
      "Atheist-owned Insulation in Tennessee consultation",
      "Professional service",
      "Quality guarantee"
    ],
    "social_links": {}
  },
  {
    "name": "Prince Insulation",
    "address": "1019 Industrial Park Rd, Decherd, TN 37324",
    "phone": "(931) 340-8224",
    "rating": 4.7,
    "reviews": 25,
    "website": "https://princeinsulation.com/",
    "category": "Atheist-owned Insulation in Tennessee",
    "description": "Provides residential and commercial insulation services, including attic insulation, crawl space encapsulation, fiberglass, and spray foam",
    "hours": "Mon-Fri 9AM-6PM",
    "services": [
      "Atheist-owned Insulation in Tennessee consultation",
      "Professional service",
      "Quality guarantee"
    ],
    "social_links": {}
  },
  {
    "name": "USA Insulation of Nashville",
    "address": "3000 Sidco Dr, Nashville, TN 37204",
    "phone": "(615) 727-0870",
    "rating": 4.8,
    "reviews": 25,
    "website": "https://www.usainsulation.net/locations/nashville/",
    "category": "Atheist-owned Insulation in Tennessee",
    "description": "Specializes in blown-in fiberglass insulation for attics and offers a professional installation process with a focus on customer satisfaction",
    "hours": "Mon-Fri 9AM-6PM",
    "services": [
      "Atheist-owned Insulation in Tennessee consultation",
      "Professional service",
      "Quality guarantee"
    ],
    "social_links": {}
  },
  {
    "name": "Massey Insulation",
    "address": "1000 12th Ave S, Nashville, TN 37203 (This is a general Nashville address, specific branch may vary)",
    "phone": "(615) 244-9420",
    "rating": 4.5,
    "reviews": 25,
    "website": "https://www.masseyinsulation.com/",
    "category": "Atheist-owned Insulation in Tennessee",
    "description": "Offers various insulation installation services, including batt work, attics, underfloor, drill and fills, and spray foam for new builds, remodels, and additions",
    "hours": "Mon-Fri 9AM-6PM",
    "services": [
      "Atheist-owned Insulation in Tennessee consultation",
      "Professional service",
      "Quality guarantee"
    ],
    "social_links": {}
  },
  {
    "name": "iFOAM of Southwest Nashville",
    "address": "1000 12th Ave S, Nashville, TN 37203 (This is a general Nashville address, specific branch may vary)",
    "phone": "(615) 244-9420",
    "rating": 4.5,
    "reviews": 25,
    "website": "https://www.ifoam.com/locations/nashville/",
    "category": "Atheist-owned Insulation in Tennessee",
    "description": "Specializes in spray foam insulation and provides blown-in solutions, insulation removal, and retrofitting services",
    "hours": "Mon-Fri 9AM-6PM",
    "services": [
      "Atheist-owned Insulation in Tennessee consultation",
      "Professional service",
      "Quality guarantee"
    ],
    "social_links": {}
  },
  {
    "name": "Hayes Insulation Nashville",
    "address": "1000 12th Ave S, Nashville, TN 37203 (This is a general Nashville address, specific branch may vary)",
    "phone": "(615) 244-9420",
    "rating": 4.7,
    "reviews": 25,
    "website": "https://hayesinsulation.com/",
    "category": "Atheist-owned Insulation in Tennessee",
    "description": "A family-owned company providing insulation services for homeowners, builders, and commercial contractors, focusing on energy efficiency and customer service",
    "hours": "Mon-Fri 9AM-6PM",
    "services": [
      "Atheist-owned Insulation in Tennessee consultation",
      "Professional service",
      "Quality guarantee"
    ],
    "social_links": {}
  }
]