[
  {
    "name": "Asia Pacific Accounting Group LLC",
    "address": "Honolulu, HI",
    "phone": "",
    "rating": 4.0,
    "reviews": 25,
    "website": "https://www.google.com/maps/search/Asia+Pacific+Accounting+Group+LLC+in+Hawaii",
    "category": "Asian-owned Tax strategy in Hawaii",
    "description": "Offers tax assistance to individuals and businesses",
    "hours": "Mon-Fri 9AM-6PM",
    "services": [
      "Asian-owned Tax strategy in Hawaii consultation",
      "Professional service",
      "Quality guarantee"
    ],
    "social_links": {}
  },
  {
    "name": "The Ehrman Lee Bennett Ching Group (Morgan Stanley)",
    "address": "Honolulu, HI",
    "phone": "",
    "rating": 4.0,
    "reviews": 25,
    "website": "https://www.google.com/maps/search/The+Ehrman+Lee+Bennett+Ching+Group+(Morgan+Stanley)+in+Hawaii",
    "category": "Asian-owned Tax strategy in Hawaii",
    "description": "Provides wealth management and financial advisory services",
    "hours": "Mon-Fri 9AM-6PM",
    "services": [
      "Asian-owned Tax strategy in Hawaii consultation",
      "Professional service",
      "Quality guarantee"
    ],
    "social_links": {}
  },
  {
    "name": "Tomishima & Fukuhara CPA, Inc.",
    "address": "Honolulu, HI",
    "phone": "",
    "rating": 4.0,
    "reviews": 25,
    "website": "https://www.google.com/maps/search/Tomishima+&+Fukuhara+CPA,+Inc.+in+Hawaii",
    "category": "Asian-owned Tax strategy in Hawaii",
    "description": "Offers accounting, tax, and consulting services",
    "hours": "Mon-Fri 9AM-6PM",
    "services": [
      "Asian-owned Tax strategy in Hawaii consultation",
      "Professional service",
      "Quality guarantee"
    ],
    "social_links": {}
  },
  {
    "name": "Jay Miyaki, CPA, LLC",
    "address": "Honolulu, HI",
    "phone": "(808) 522-1042",
    "rating": 4.0,
    "reviews": 25,
    "website": "https://www.google.com/maps/search/Jay+Miyaki,+CPA,+LLC+in+Hawaii",
    "category": "Asian-owned Tax strategy in Hawaii",
    "description": "A full-service tax, accounting, and business consulting firm",
    "hours": "Mon-Fri 9AM-6PM",
    "services": [
      "Asian-owned Tax strategy in Hawaii consultation",
      "Professional service",
      "Quality guarantee"
    ],
    "social_links": {}
  },
  {
    "name": "MC Group Hawaii, Inc.",
    "address": "Honolulu, HI",
    "phone": "",
    "rating": 4.0,
    "reviews": 25,
    "website": "https://www.google.com/maps/search/MC+Group+Hawaii,+Inc.+in+Hawaii",
    "category": "Asian-owned Tax strategy in Hawaii",
    "description": "Provides financial guidance, tax preparation, accounting, and consulting services",
    "hours": "Mon-Fri 9AM-6PM",
    "services": [
      "Asian-owned Tax strategy in Hawaii consultation",
      "Professional service",
      "Quality guarantee"
    ],
    "social_links": {}
  },
  {
    "name": "First Hawaiian Advisors",
    "address": "Honolulu, HI",
    "phone": "(808) 525-5159",
    "rating": 4.0,
    "reviews": 25,
    "website": "https://www.google.com/maps/search/First+Hawaiian+Advisors+in+Hawaii",
    "category": "Asian-owned Tax strategy in Hawaii",
    "description": "Offers investment advice, financial products, and services",
    "hours": "Mon-Fri 9AM-6PM",
    "services": [
      "Asian-owned Tax strategy in Hawaii consultation",
      "Professional service",
      "Quality guarantee"
    ],
    "social_links": {}
  },
  {
    "name": "American Savings Bank Hawaii (Financial Advisors)",
    "address": "Multiple locations across Hawaii",
    "phone": "(808) 952-7019 (Example contact for Jeffrey Bonk)",
    "rating": 4.0,
    "reviews": 25,
    "website": "https://www.google.com/maps/search/American+Savings+Bank+Hawaii+(Financial+Advisors)+in+Hawaii",
    "category": "Asian-owned Tax strategy in Hawaii",
    "description": "Offers wealth advisor services",
    "hours": "Mon-Fri 9AM-6PM",
    "services": [
      "Asian-owned Tax strategy in Hawaii consultation",
      "Professional service",
      "Quality guarantee"
    ],
    "social_links": {}
  },
  {
    "name": "Smart Tax & Business Solutions Inc",
    "address": "Honolulu, HI",
    "phone": "808-354-0208",
    "rating": 4.0,
    "reviews": 25,
    "website": "https://www.google.com/maps/search/Smart+Tax+&+Business+Solutions+Inc+in+Hawaii",
    "category": "Asian-owned Tax strategy in Hawaii",
    "description": "Provides tax planning and tax preparation services",
    "hours": "Mon-Fri 9AM-6PM",
    "services": [
      "Asian-owned Tax strategy in Hawaii consultation",
      "Professional service",
      "Quality guarantee"
    ],
    "social_links": {}
  },
  {
    "name": "HiAccounting",
    "address": "Honolulu, HI",
    "phone": "",
    "rating": 4.0,
    "reviews": 25,
    "website": "https://www.google.com/maps/search/HiAccounting+in+Hawaii",
    "category": "Asian-owned Tax strategy in Hawaii",
    "description": "Offers tax services, including preparation and advisory, as well as CFO and other advisory services",
    "hours": "Mon-Fri 9AM-6PM",
    "services": [
      "Asian-owned Tax strategy in Hawaii consultation",
      "Professional service",
      "Quality guarantee"
    ],
    "social_links": {}
  },
  {
    "name": "Koida Tax & Accounting LLC",
    "address": "Hawaii (also licensed in TX)",
    "phone": "",
    "rating": 4.0,
    "reviews": 25,
    "website": "https://www.google.com/maps/search/Koida+Tax+&+Accounting+LLC+in+Hawaii",
    "category": "Asian-owned Tax strategy in Hawaii",
    "description": "A full-service CPA firm offering tax and accounting services",
    "hours": "Mon-Fri 9AM-6PM",
    "services": [
      "Asian-owned Tax strategy in Hawaii consultation",
      "Professional service",
      "Quality guarantee"
    ],
    "social_links": {}
  }
]