[
  {
    "name": "Broadlawns Cardiology Clinic",
    "address": "1801 Hickman Road, Des Moines, IA 50314",
    "phone": "(515) 282-7907",
    "rating": 4.0,
    "reviews": 25,
    "website": "https://www.broadlawns.org/services/cardiology/",
    "category": "Asian-owned Cardiac testing in Iowa",
    "description": "Offers comprehensive cardiovascular care, including stress testing, echocardiograms, EKGs, and Holter monitors",
    "hours": "Mon-Fri 9AM-6PM",
    "services": [
      "Asian-owned Cardiac testing in Iowa consultation",
      "Professional service",
      "Quality guarantee"
    ],
    "social_links": {}
  },
  {
    "name": "Iowa Heart Center (MercyOne)",
    "address": "Multiple locations, including West Des Moines, Newton, and Ottumwa. A central contact number is (515) 633-3600",
    "phone": "(515) 633-3600 or (877) 914-3600",
    "rating": 4.0,
    "reviews": 25,
    "website": "https://www.mercyone.org/iowa/service/iowa-heart-center/",
    "category": "Asian-owned Cardiac testing in Iowa",
    "description": "Provides clinical cardiology services, including consultations, cardiac and vascular testing, and diagnostic imaging",
    "hours": "Mon-Fri 9AM-6PM",
    "services": [
      "Asian-owned Cardiac testing in Iowa consultation",
      "Professional service",
      "Quality guarantee"
    ],
    "social_links": {}
  },
  {
    "name": "University of Iowa Heart and Vascular Center",
    "address": "200 Hawkins Drive, Iowa City, IA 52242",
    "phone": "(319) 356-7102",
    "rating": 4.0,
    "reviews": 25,
    "website": "https://uihc.org/heart-and-vascular",
    "category": "Asian-owned Cardiac testing in Iowa",
    "description": "Offers a full spectrum of non-invasive cardiovascular imaging and diagnostic testing, including echocardiograms, cardiac CT scans, and cardiac MRIs. They are noted for having the largest and most experienced cardiac imaging teams in the state",
    "hours": "Mon-Fri 9AM-6PM",
    "services": [
      "Asian-owned Cardiac testing in Iowa consultation",
      "Professional service",
      "Quality guarantee"
    ],
    "social_links": {}
  },
  {
    "name": "The Iowa Clinic - Heart Testing",
    "address": "Multiple locations. A general scheduling number is (515) 875-9090",
    "phone": "(515) 875-9090",
    "rating": 4.0,
    "reviews": 25,
    "website": "https://www.iowaclinic.com/heart-testing/",
    "category": "Asian-owned Cardiac testing in Iowa",
    "description": "Provides various non-invasive heart tests to evaluate cardiovascular conditions and develop treatment plans",
    "hours": "Mon-Fri 9AM-6PM",
    "services": [
      "Asian-owned Cardiac testing in Iowa consultation",
      "Professional service",
      "Quality guarantee"
    ],
    "social_links": {}
  },
  {
    "name": "MercyOne Iowa Heart Center Des Moines",
    "address": "Located on the MercyOne Des Moines Medical Center campus",
    "phone": "(515) 235-5000",
    "rating": 4.0,
    "reviews": 25,
    "website": "https://www.mercyone.org/desmoines/service/iowa-heart-center/",
    "category": "Asian-owned Cardiac testing in Iowa",
    "description": "Offers advanced cardiovascular care, including diagnostic cardiac testing and imaging, with a team of experienced specialists",
    "hours": "Mon-Fri 9AM-6PM",
    "services": [
      "Asian-owned Cardiac testing in Iowa consultation",
      "Professional service",
      "Quality guarantee"
    ],
    "social_links": {}
  },
  {
    "name": "Dr. Kongkiat Chaikriangkrai, MD",
    "address": "200 Hawkins Dr, Iowa City, IA 52242 (affiliated with University of Iowa Health Care)",
    "phone": "(319) 356-7102",
    "rating": 4.0,
    "reviews": 25,
    "website": "https://www.healthgrades.com/physician/dr-kongkiat-chaikriangkrai-y4g3m",
    "category": "Asian-owned Cardiac testing in Iowa",
    "description": "A cardiologist with extensive experience in Adult Congenital Heart Conditions",
    "hours": "Mon-Fri 9AM-6PM",
    "services": [
      "Asian-owned Cardiac testing in Iowa consultation",
      "Professional service",
      "Quality guarantee"
    ],
    "social_links": {}
  },
  {
    "name": "Asian-Jobs.com - Non-Invasive Cardiology in Iowa",
    "address": "Western Iowa (specific address not provided, but indicates a growing practice)",
    "phone": "(818) 530-4852 (for Asian-Jobs.com inquiries)",
    "rating": 4.0,
    "reviews": 25,
    "website": "https://www.asian-jobs.com/job/non-invasive-cardiology-in-iowa-western-iowa-80-miles-to-sioux-falls-90-miles-to-omaha-104312",
    "category": "Asian-owned Cardiac testing in Iowa",
    "description": "This is a job posting for a non-invasive cardiology position in Western Iowa, mentioning a practice of 6 Cardiologists and 3 Advanced Practice Providers. It does not list a specific business name",
    "hours": "Mon-Fri 9AM-6PM",
    "services": [
      "Asian-owned Cardiac testing in Iowa consultation",
      "Professional service",
      "Quality guarantee"
    ],
    "social_links": {}
  },
  {
    "name": "American Heart Association - Iowa",
    "address": "Information not available for a specific cardiac testing facility",
    "phone": "",
    "rating": 4.0,
    "reviews": 25,
    "website": "https://www.heart.org/en/affiliates/iowa",
    "category": "Asian-owned Cardiac testing in Iowa",
    "description": "The Iowa division of the American Heart Association works to fight heart disease and stroke. They may have resources or information on local services",
    "hours": "Mon-Fri 9AM-6PM",
    "services": [
      "Asian-owned Cardiac testing in Iowa consultation",
      "Professional service",
      "Quality guarantee"
    ],
    "social_links": {}
  },
  {
    "name": "University of Iowa Health Care - Cardiac Imaging",
    "address": "Multiple locations, including Iowa City and various outreach clinics",
    "phone": "(319) 356-7102 (general inquiry for Heart and Vascular Center)",
    "rating": 4.0,
    "reviews": 25,
    "website": "https://uihc.org/cardiac-imaging",
    "category": "Asian-owned Cardiac testing in Iowa",
    "description": "Provides advanced cardiac imaging services with experienced teams and technology",
    "hours": "Mon-Fri 9AM-6PM",
    "services": [
      "Asian-owned Cardiac testing in Iowa consultation",
      "Professional service",
      "Quality guarantee"
    ],
    "social_links": {}
  },
  {
    "name": "University of Iowa Health Care - Echocardiogram Services",
    "address": "University of Iowa Heart and Vascular Center, 200 Hawkins Drive, Iowa City, IA 52242",
    "phone": "(319) 356-7102",
    "rating": 4.0,
    "reviews": 25,
    "website": "https://uihc.org/echocardiogram",
    "category": "Asian-owned Cardiac testing in Iowa",
    "description": "Offers echocardiogram services using advanced equipment and technology for high-quality imaging of the heart",
    "hours": "Mon-Fri 9AM-6PM",
    "services": [
      "Asian-owned Cardiac testing in Iowa consultation",
      "Professional service",
      "Quality guarantee"
    ],
    "social_links": {}
  }
]