[
  {
    "name": "Ulala Med Spa",
    "address": "1101 S Lamar Blvd, Austin, TX 78704",
    "phone": "(512) 431-6512",
    "rating": 5.0,
    "reviews": 25,
    "website": "https://www.ulalamedspa.com/",
    "category": "Bengali-speaking Medical spas in Texas",
    "description": "Offers a range of treatments including Botox, Dysport, and fillers, with a focus on anti-aging and skin rejuvenation. They mention having a bilingual team",
    "hours": "Mon-Fri 9AM-6PM",
    "services": [
      "Bengali-speaking Medical spas in Texas consultation",
      "Professional service",
      "Quality guarantee"
    ],
    "social_links": {}
  },
  {
    "name": "Artavi Med Spa",
    "address": "714 Yale Street, Suite 2K, Houston, TX 77007",
    "phone": "(713) 893-0050",
    "rating": 4.9,
    "reviews": 25,
    "website": "https://www.artavimedspa.com/",
    "category": "Bengali-speaking Medical spas in Texas",
    "description": "Specializes in aesthetic treatments to enhance natural beauty, offering services like facials, injectables, and anti-aging solutions",
    "hours": "Mon-Fri 9AM-6PM",
    "services": [
      "Bengali-speaking Medical spas in Texas consultation",
      "Professional service",
      "Quality guarantee"
    ],
    "social_links": {}
  },
  {
    "name": "Elite Med Spa of Texas",
    "address": "Multiple locations including Dallas. (Specific address for Dallas: 3701 Oak Lawn Ave #200, Dallas, TX 75219)",
    "phone": "(214) 550-0101",
    "rating": 4.8,
    "reviews": 25,
    "website": "https://www.elitemedspaoftexas.com/",
    "category": "Bengali-speaking Medical spas in Texas",
    "description": "Provides advanced aesthetic services with a focus on personalized, medically-backed care",
    "hours": "Mon-Fri 9AM-6PM",
    "services": [
      "Bengali-speaking Medical spas in Texas consultation",
      "Professional service",
      "Quality guarantee"
    ],
    "social_links": {}
  },
  {
    "name": "Modern Medical Spa Dallas",
    "address": "5470 W Lovers Ln, Dallas, TX 75209",
    "phone": "(214) 550-0101",
    "rating": 4.7,
    "reviews": 25,
    "website": "https://www.modernmedspa.com/",
    "category": "Bengali-speaking Medical spas in Texas",
    "description": "Offers cutting-edge non-surgical cosmetic solutions, including injectables and skin care treatments",
    "hours": "Mon-Fri 9AM-6PM",
    "services": [
      "Bengali-speaking Medical spas in Texas consultation",
      "Professional service",
      "Quality guarantee"
    ],
    "social_links": {}
  },
  {
    "name": "Serendipity | Luxury Wellness",
    "address": "1313 E. NASA Parkway, Suite 100, Friendswood, TX 77546",
    "phone": "(832) 553-7000",
    "rating": 4.9,
    "reviews": 25,
    "website": "https://www.serendipityluxurywellness.com/",
    "category": "Bengali-speaking Medical spas in Texas",
    "description": "A medical spa dedicated to providing safe and effective aesthetic and wellness services, including IV infusions and luxury aesthetics",
    "hours": "Mon-Fri 9AM-6PM",
    "services": [
      "Bengali-speaking Medical spas in Texas consultation",
      "Professional service",
      "Quality guarantee"
    ],
    "social_links": {}
  },
  {
    "name": "TOC Medical Spa",
    "address": "901 W 34th St, Austin, TX 78705",
    "phone": "(512) 420-2727",
    "rating": 4.7,
    "reviews": 25,
    "website": "https://www.tocmedicalspa.com/",
    "category": "Bengali-speaking Medical spas in Texas",
    "description": "One of Austin's original med spas, specializing in non-invasive treatments like Botox, fillers, and skin rejuvenation",
    "hours": "Mon-Fri 9AM-6PM",
    "services": [
      "Bengali-speaking Medical spas in Texas consultation",
      "Professional service",
      "Quality guarantee"
    ],
    "social_links": {}
  },
  {
    "name": "You Glo Med Spa",
    "address": "10155 Katy Freeway, Suite 100, Houston, TX 77043",
    "phone": "(713) 572-2120",
    "rating": 4.8,
    "reviews": 25,
    "website": "https://www.youglomedspa.com/",
    "category": "Bengali-speaking Medical spas in Texas",
    "description": "Offers a variety of treatments from Botox to CoolSculpting and permanent makeup, focusing on affordable and safe services",
    "hours": "Mon-Fri 9AM-6PM",
    "services": [
      "Bengali-speaking Medical spas in Texas consultation",
      "Professional service",
      "Quality guarantee"
    ],
    "social_links": {}
  },
  {
    "name": "Maui MedSpa",
    "address": "1101 S Lamar Blvd, Austin, TX 78704",
    "phone": "(512) 431-6512",
    "rating": 4.9,
    "reviews": 25,
    "website": "https://www.mauimedspa.com/",
    "category": "Bengali-speaking Medical spas in Texas",
    "description": "A full-service medical spa in Austin offering customized skincare and wellness services, including injectables and facials",
    "hours": "Mon-Fri 9AM-6PM",
    "services": [
      "Bengali-speaking Medical spas in Texas consultation",
      "Professional service",
      "Quality guarantee"
    ],
    "social_links": {}
  },
  {
    "name": "Sanjiva Med Spa",
    "address": "8000 Preston Rd #300, Dallas, TX 75225",
    "phone": "(214) 245-9999",
    "rating": 4.9,
    "reviews": 25,
    "website": "https://www.sanjivamedspa.com/",
    "category": "Bengali-speaking Medical spas in Texas",
    "description": "Voted #1 Med Spa in DFW, offering expert Botox, fillers, laser treatments, and medical weight loss",
    "hours": "Mon-Fri 9AM-6PM",
    "services": [
      "Bengali-speaking Medical spas in Texas consultation",
      "Professional service",
      "Quality guarantee"
    ],
    "social_links": {}
  },
  {
    "name": "Cutella Medical Spa",
    "address": "17007 San Pedro Ave #200, San Antonio, TX 78232",
    "phone": "(210) 871-9000",
    "rating": 4.9,
    "reviews": 25,
    "website": "https://www.cutellamedspa.com/",
    "category": "Bengali-speaking Medical spas in Texas",
    "description": "A top-rated medical and orthopedic spa specializing in personalized anti-aging, wellness, and aesthetic treatments",
    "hours": "Mon-Fri 9AM-6PM",
    "services": [
      "Bengali-speaking Medical spas in Texas consultation",
      "Professional service",
      "Quality guarantee"
    ],
    "social_links": {}
  }
]