[
  {
    "name": "Precious Previews Ultrasound",
    "address": "7939 Honeygo Boulevard, Suite 118, White Marsh, MD 21236",
    "phone": "(410) 513-7700",
    "rating": 5.0,
    "reviews": 25,
    "website": "https://www.preciouspreviewsultrasound.com/",
    "category": "Black-owned Ultrasound services in Maryland",
    "description": "Offers elective prenatal ultrasounds, including 2D, 3D/4D, and 5D (HD Live) imaging, with gender reveals starting at 13 weeks",
    "hours": "Mon-Fri 9AM-6PM",
    "services": [
      "Black-owned Ultrasound services in Maryland consultation",
      "Professional service",
      "Quality guarantee"
    ],
    "social_links": {}
  },
  {
    "name": "Little Bo Peep Ultrasound",
    "address": "Pikesville, MD (specific address not publicly listed, serves the Baltimore area)",
    "phone": "(410) 903-4433",
    "rating": 5.0,
    "reviews": 25,
    "website": "https://www.littlebopeepultrasound.com/",
    "category": "Black-owned Ultrasound services in Maryland",
    "description": "Provides 3D/4D HD Live ultrasound services in the Baltimore, Maryland area, with a focus on creating a relaxed and welcoming environment",
    "hours": "Mon-Fri 9AM-6PM",
    "services": [
      "Black-owned Ultrasound services in Maryland consultation",
      "Professional service",
      "Quality guarantee"
    ],
    "social_links": {}
  },
  {
    "name": "Ultra Stat Imaging",
    "address": "Columbia, MD (specific address not publicly listed, offers mobile and on-site services)",
    "phone": "(240) 909-1395",
    "rating": 4.0,
    "reviews": 25,
    "website": "https://ultrastatimaging.com/",
    "category": "Black-owned Ultrasound services in Maryland",
    "description": "An independently owned ultrasound company providing mobile and on-site services to physicians, clinics, corporations, midwives, and patients' residences. Offers elective OB ultrasound packages",
    "hours": "Mon-Fri 9AM-6PM",
    "services": [
      "Black-owned Ultrasound services in Maryland consultation",
      "Professional service",
      "Quality guarantee"
    ],
    "social_links": {}
  },
  {
    "name": "Baby to Be Boutique",
    "address": "Hagerstown, MD (also serves Greencastle, PA)",
    "phone": "(301) 790-0000",
    "rating": 5.0,
    "reviews": 25,
    "website": "https://www.baby2beultrasound.com/",
    "category": "Black-owned Ultrasound services in Maryland",
    "description": "Offers premiere ultrasound imaging, including 3D/4D ultrasounds, early gender ultrasounds, and diagnostic ultrasounds with a doctor's referral",
    "hours": "Mon-Fri 9AM-6PM",
    "services": [
      "Black-owned Ultrasound services in Maryland consultation",
      "Professional service",
      "Quality guarantee"
    ],
    "social_links": {}
  },
  {
    "name": "Motherhood Ultrasound",
    "address": "Maryland (specific locations not detailed, but serves the state)",
    "phone": "(410) 903-4433",
    "rating": 4.0,
    "reviews": 25,
    "website": "https://motherhoodultrasound.com/",
    "category": "Black-owned Ultrasound services in Maryland",
    "description": "Offers elective prenatal ultrasounds with the latest GE ultrasound machines, including 2D, 3D/4D, and 5D-HD technology",
    "hours": "Mon-Fri 9AM-6PM",
    "services": [
      "Black-owned Ultrasound services in Maryland consultation",
      "Professional service",
      "Quality guarantee"
    ],
    "social_links": {}
  },
  {
    "name": "Love at First Sight Ultrasound Center",
    "address": "Towson, MD",
    "phone": "(443) 871-4222",
    "rating": 5.0,
    "reviews": 25,
    "website": "https://www.loveatfirstsightultrasound.com/",
    "category": "Black-owned Ultrasound services in Maryland",
    "description": "A family-owned ultrasound center specializing in 3D, 4D, 5D-HD, and 6D ultrasounds using state-of-the-art technology for bonding experiences",
    "hours": "Mon-Fri 9AM-6PM",
    "services": [
      "Black-owned Ultrasound services in Maryland consultation",
      "Professional service",
      "Quality guarantee"
    ],
    "social_links": {}
  },
  {
    "name": "Sweet Peek Sonography",
    "address": "Baltimore, MD",
    "phone": "(410) 449-7177",
    "rating": 4.0,
    "reviews": 25,
    "website": "https://www.sweetpeeksonography.com/",
    "category": "Black-owned Ultrasound services in Maryland",
    "description": "Baltimore's premier ultrasound studio for early gender determination and 3D/4D/HD ultrasound imaging",
    "hours": "Mon-Fri 9AM-6PM",
    "services": [
      "Black-owned Ultrasound services in Maryland consultation",
      "Professional service",
      "Quality guarantee"
    ],
    "social_links": {}
  },
  {
    "name": "Capital Women's Care",
    "address": "Frederick, MD (61 Thomas Johnson Drive, Frederick, MD 21702 and 3430 Worthington Boulevard, Suite 202, Frederick, MD 21704) and Mount Airy, MD",
    "phone": "Frederick: (301) 662-1272, Mount Airy: (301) 829-1100",
    "rating": 4.0,
    "reviews": 25,
    "website": "https://www.capitalwomenscare.com/locations/frederick-md/",
    "category": "Black-owned Ultrasound services in Maryland",
    "description": "Provides ultrasound services for obstetrics and gynecology, including monitoring fetal development and diagnosing medical conditions",
    "hours": "Mon-Fri 9AM-6PM",
    "services": [
      "Black-owned Ultrasound services in Maryland consultation",
      "Professional service",
      "Quality guarantee"
    ],
    "social_links": {}
  },
  {
    "name": "Prenatal Sneak Peek",
    "address": "Mobile service within 30 miles of Bel Air, MD (serving Harford, Cecil & Baltimore Counties, and Southern Pennsylvania)",
    "phone": "(443) 226-8869",
    "rating": 4.0,
    "reviews": 25,
    "website": "https://prenatalsneakpeek.com/",
    "category": "Black-owned Ultrasound services in Maryland",
    "description": "Offers in-home mobile ultrasound services, including 2D, 3D, 4D, and HDlive (5D) ultrasounds, with a Registered OB Sonographer",
    "hours": "Mon-Fri 9AM-6PM",
    "services": [
      "Black-owned Ultrasound services in Maryland consultation",
      "Professional service",
      "Quality guarantee"
    ],
    "social_links": {}
  },
  {
    "name": "Capitol Radiology LLC",
    "address": "7350 Van Dusen Road, Unit B-10, Laurel, Maryland (This business has filed for bankruptcy protection as of July 2025 and may no longer be operational.)",
    "phone": "",
    "rating": 4.0,
    "reviews": 25,
    "website": "https://www.google.com/maps/search/Capitol+Radiology+LLC+in+Maryland",
    "category": "Black-owned Ultrasound services in Maryland",
    "description": "Previously described as one of the East Coast's only Black-owned radiology practices, offering diagnostic imaging services",
    "hours": "Mon-Fri 9AM-6PM",
    "services": [
      "Black-owned Ultrasound services in Maryland consultation",
      "Professional service",
      "Quality guarantee"
    ],
    "social_links": {}
  }
]