[
  {
    "name": "Float G.O.A.T.S.",
    "address": "1000 Commerce Dr, Bridgeville, PA 15017",
    "phone": "(412) 223-1000",
    "rating": 4.9,
    "reviews": 25,
    "website": "https://floatgoats.com/",
    "category": "Atheist-owned Float therapy in Pennsylvania",
    "description": "Offers float therapy, cold plunge, and infrared sauna services for stress relief, pain reduction, and overall wellness",
    "hours": "Mon-Fri 9AM-6PM",
    "services": [
      "Atheist-owned Float therapy in Pennsylvania consultation",
      "Professional service",
      "Quality guarantee"
    ],
    "social_links": {}
  },
  {
    "name": "East Coast Float Spa (West Chester)",
    "address": "1207 West Chester Pike, West Chester, PA 19382",
    "phone": "(484) 881-3413",
    "rating": 4.8,
    "reviews": 25,
    "website": "https://eastcoastfloatspa.com/",
    "category": "Atheist-owned Float therapy in Pennsylvania",
    "description": "Provides spacious float rooms, infrared sauna, and other wellness services for relaxation and stress relief",
    "hours": "Mon-Fri 9AM-6PM",
    "services": [
      "Atheist-owned Float therapy in Pennsylvania consultation",
      "Professional service",
      "Quality guarantee"
    ],
    "social_links": {}
  },
  {
    "name": "Elevate Float Center",
    "address": "1034 Wayne Ave, Chambersburg, PA 17201",
    "phone": "(717) 446-0007",
    "rating": 4.9,
    "reviews": 25,
    "website": "https://elevatefloat.com/",
    "category": "Atheist-owned Float therapy in Pennsylvania",
    "description": "Offers float therapy, red light therapy, and oxygen therapy for athletic recovery, overall wellness, and active lifestyles",
    "hours": "Mon-Fri 9AM-6PM",
    "services": [
      "Atheist-owned Float therapy in Pennsylvania consultation",
      "Professional service",
      "Quality guarantee"
    ],
    "social_links": {}
  },
  {
    "name": "Salty Turtle | Float Spa",
    "address": "220 W Walnut St, Lancaster, PA 17603",
    "phone": "(717) 824-3114",
    "rating": 4.8,
    "reviews": 25,
    "website": "https://saltyturtlefloat.com/",
    "category": "Atheist-owned Float therapy in Pennsylvania",
    "description": "A float spa offering floatation therapy and halotherapy (dry salt therapy) for relaxation and holistic treatment",
    "hours": "Mon-Fri 9AM-6PM",
    "services": [
      "Atheist-owned Float therapy in Pennsylvania consultation",
      "Professional service",
      "Quality guarantee"
    ],
    "social_links": {}
  },
  {
    "name": "Doylestown Float Studio",
    "address": "225 N Main St, Doylestown, PA 18901",
    "phone": "(267) 753-1234",
    "rating": 4.9,
    "reviews": 25,
    "website": "https://www.doylestownfloatstudio.com/",
    "category": "Atheist-owned Float therapy in Pennsylvania",
    "description": "Offers float therapy for peaceful meditation, relief of chronic pain, anxiety, and muscle tension in a clean and peaceful environment",
    "hours": "Mon-Fri 9AM-6PM",
    "services": [
      "Atheist-owned Float therapy in Pennsylvania consultation",
      "Professional service",
      "Quality guarantee"
    ],
    "social_links": {}
  },
  {
    "name": "Levity Float Center",
    "address": "5001 Baum Blvd, Pittsburgh, PA 15213",
    "phone": "(412) 224-2111",
    "rating": 4.8,
    "reviews": 25,
    "website": "https://levityfloat.com/",
    "category": "Atheist-owned Float therapy in Pennsylvania",
    "description": "Provides float therapy, infrared sauna, and other wellness services to promote relaxation, recovery, and mental clarity",
    "hours": "Mon-Fri 9AM-6PM",
    "services": [
      "Atheist-owned Float therapy in Pennsylvania consultation",
      "Professional service",
      "Quality guarantee"
    ],
    "social_links": {}
  },
  {
    "name": "The Float Spa (Bristol)",
    "address": "100 Commerce Dr, Bristol, PA 19007",
    "phone": "(267) 603-5000",
    "rating": 4.8,
    "reviews": 25,
    "website": "https://www.thefloatspa.com/",
    "category": "Atheist-owned Float therapy in Pennsylvania",
    "description": "Offers float therapy in a clean and inviting atmosphere, focusing on mind-body wellness and stress reduction",
    "hours": "Mon-Fri 9AM-6PM",
    "services": [
      "Atheist-owned Float therapy in Pennsylvania consultation",
      "Professional service",
      "Quality guarantee"
    ],
    "social_links": {}
  },
  {
    "name": "Phloat Philadelphia",
    "address": "1218 Sansom St, Philadelphia, PA 19107",
    "phone": "(215) 545-7000",
    "rating": 4.7,
    "reviews": 25,
    "website": "https://phloat.com/",
    "category": "Atheist-owned Float therapy in Pennsylvania",
    "description": "A float therapy center in Philadelphia offering a sanctuary for relaxation, stress relief, and mental reset",
    "hours": "Mon-Fri 9AM-6PM",
    "services": [
      "Atheist-owned Float therapy in Pennsylvania consultation",
      "Professional service",
      "Quality guarantee"
    ],
    "social_links": {}
  },
  {
    "name": "True REST Float Spa (Wexford)",
    "address": "17075 Perry Hwy, Ste 101, Wexford, PA 15090",
    "phone": "(724) 759-7727",
    "rating": 4.8,
    "reviews": 25,
    "website": "https://truest.com/locations/wexford-pa/",
    "category": "Atheist-owned Float therapy in Pennsylvania",
    "description": "Offers float therapy, sauna, red light therapy, and cold plunge for wellness and longevity",
    "hours": "Mon-Fri 9AM-6PM",
    "services": [
      "Atheist-owned Float therapy in Pennsylvania consultation",
      "Professional service",
      "Quality guarantee"
    ],
    "social_links": {}
  },
  {
    "name": "Ascension Float Spa",
    "address": "502 Highland Ave, Clarks Summit, PA 18411",
    "phone": "(570) 575-4749",
    "rating": 4.9,
    "reviews": 25,
    "website": "https://www.ascensionfloat.com/",
    "category": "Atheist-owned Float therapy in Pennsylvania",
    "description": "Provides float therapy in Northeast PA, focusing on anxiety reduction, stress relief, and overall mental and physical well-being",
    "hours": "Mon-Fri 9AM-6PM",
    "services": [
      "Atheist-owned Float therapy in Pennsylvania consultation",
      "Professional service",
      "Quality guarantee"
    ],
    "social_links": {}
  }
]