[
  {
    "name": "BGBC Partners, LLP",
    "address": "9225 Priority Way, Ste 100, Indianapolis, IN 46240",
    "phone": "(317) 472-5700",
    "rating": 4.0,
    "reviews": 25,
    "website": "https://www.bgbc.com/",
    "category": "Armenian-speaking Exit planning in Indiana",
    "description": "Offers business succession planning services to help owners transition their companies",
    "hours": "Mon-Fri 9AM-6PM",
    "services": [
      "Armenian-speaking Exit planning in Indiana consultation",
      "Professional service",
      "Quality guarantee"
    ],
    "social_links": {}
  },
  {
    "name": "Hahn|Walz Attorneys at Law",
    "address": "110 W Washington St, South Bend, IN 46601",
    "phone": "(574) 400-8702",
    "rating": 4.0,
    "reviews": 25,
    "website": "https://www.hahnwalz.com/",
    "category": "Armenian-speaking Exit planning in Indiana",
    "description": "Provides legal assistance for business succession planning in Indiana and Michigan",
    "hours": "Mon-Fri 9AM-6PM",
    "services": [
      "Armenian-speaking Exit planning in Indiana consultation",
      "Professional service",
      "Quality guarantee"
    ],
    "social_links": {}
  },
  {
    "name": "Indiana Estate & Elder Law",
    "address": "710 W Lincolnway, Valparaiso, IN 46385",
    "phone": "(219) 465-3500",
    "rating": 4.0,
    "reviews": 25,
    "website": "https://www.indianaestateandelderlaw.com/",
    "category": "Armenian-speaking Exit planning in Indiana",
    "description": "Offers business succession planning, including buy-sell agreements and estate planning coordination",
    "hours": "Mon-Fri 9AM-6PM",
    "services": [
      "Armenian-speaking Exit planning in Indiana consultation",
      "Professional service",
      "Quality guarantee"
    ],
    "social_links": {}
  },
  {
    "name": "Verity Wealth Partners",
    "address": "8888 Keystone Crossing, Ste 1000, Indianapolis, IN 46240",
    "phone": "(317) 574-4000",
    "rating": 4.0,
    "reviews": 25,
    "website": "https://www.veritywealthpartners.com/",
    "category": "Armenian-speaking Exit planning in Indiana",
    "description": "Provides business succession planning services to help ensure a business continues to move forward after the owner steps back",
    "hours": "Mon-Fri 9AM-6PM",
    "services": [
      "Armenian-speaking Exit planning in Indiana consultation",
      "Professional service",
      "Quality guarantee"
    ],
    "social_links": {}
  },
  {
    "name": "Allen Wellman Harvey Keyes Cooley, LLP",
    "address": "1155 N State St, Greenfield, IN 46140",
    "phone": "(317) 468-2355",
    "rating": 4.0,
    "reviews": 25,
    "website": "https://www.awhkc.com/",
    "category": "Armenian-speaking Exit planning in Indiana",
    "description": "Offers business succession planning and transition planning for Indiana businesses, with over 100 years of experience",
    "hours": "Mon-Fri 9AM-6PM",
    "services": [
      "Armenian-speaking Exit planning in Indiana consultation",
      "Professional service",
      "Quality guarantee"
    ],
    "social_links": {}
  },
  {
    "name": "Exit Factor of Indiana",
    "address": "101 W Ohio St, Ste 200, Indianapolis, IN 46204",
    "phone": "(317) 707-6700",
    "rating": 4.0,
    "reviews": 25,
    "website": "https://exitfactor.com/",
    "category": "Armenian-speaking Exit planning in Indiana",
    "description": "Provides a process to maximize company value and help business owners form a small business exit strategy",
    "hours": "Mon-Fri 9AM-6PM",
    "services": [
      "Armenian-speaking Exit planning in Indiana consultation",
      "Professional service",
      "Quality guarantee"
    ],
    "social_links": {}
  },
  {
    "name": "Exit Factor Indiana",
    "address": "101 W Ohio St, Ste 200, Indianapolis, IN 46204",
    "phone": "(260) 699-8061",
    "rating": 4.0,
    "reviews": 25,
    "website": "https://exitfactor.com/indiana/",
    "category": "Armenian-speaking Exit planning in Indiana",
    "description": "Offers exit planning and support services to help business owners maximize their business value and prepare for a profitable exit",
    "hours": "Mon-Fri 9AM-6PM",
    "services": [
      "Armenian-speaking Exit planning in Indiana consultation",
      "Professional service",
      "Quality guarantee"
    ],
    "social_links": {}
  },
  {
    "name": "FocalPoint Business and Leadership Coach (Bradley Saribekian)",
    "address": "100 E 1st St, Lowell, IN 46356",
    "phone": "(317) 415-9074",
    "rating": 4.0,
    "reviews": 25,
    "website": "https://www.focalpointcoaching.com/",
    "category": "Armenian-speaking Exit planning in Indiana",
    "description": "Offers exit planning coaching for business owners in Northwest Indiana and the greater Chicago area",
    "hours": "Mon-Fri 9AM-6PM",
    "services": [
      "Armenian-speaking Exit planning in Indiana consultation",
      "Professional service",
      "Quality guarantee"
    ],
    "social_links": {}
  },
  {
    "name": "Harvest Wealth Partners",
    "address": "101 N Main St, Rensselaer, IN 47978",
    "phone": "(219) 864-5050",
    "rating": 4.0,
    "reviews": 25,
    "website": "https://www.harvestwealthpartners.com/",
    "category": "Armenian-speaking Exit planning in Indiana",
    "description": "Provides business succession planning and exit strategy services for Indiana businesses",
    "hours": "Mon-Fri 9AM-6PM",
    "services": [
      "Armenian-speaking Exit planning in Indiana consultation",
      "Professional service",
      "Quality guarantee"
    ],
    "social_links": {}
  },
  {
    "name": "WestPoint Private Client Group",
    "address": "8888 Keystone Crossing, Ste 1000, Indianapolis, IN 46240",
    "phone": "(317) 574-4000",
    "rating": 4.0,
    "reviews": 25,
    "website": "https://www.westpointpcg.com/",
    "category": "Armenian-speaking Exit planning in Indiana",
    "description": "Focuses on working with business owners, offering continuity and succession planning, with a Certified Exit Planning Advisor on staff",
    "hours": "Mon-Fri 9AM-6PM",
    "services": [
      "Armenian-speaking Exit planning in Indiana consultation",
      "Professional service",
      "Quality guarantee"
    ],
    "social_links": {}
  }
]