[
  {
    "name": "PetVet Animal Hospital",
    "address": "9780 E 116th St, Fishers, IN 46037",
    "phone": "(317) 595-3400",
    "rating": 4.8,
    "reviews": 25,
    "website": "https://www.petvetfishers.com/",
    "category": "Bengali-speaking Veterinary services in Indiana",
    "description": "Offers a range of services including wellness exams, vaccinations, and dental care, with a focus on personalized attention",
    "hours": "Mon-Fri 9AM-6PM",
    "services": [
      "Bengali-speaking Veterinary services in Indiana consultation",
      "Professional service",
      "Quality guarantee"
    ],
    "social_links": {}
  },
  {
    "name": "Mobile Vet Care Indiana",
    "address": "Serving Westfield, Carmel, Noblesville, Fishers, Zionsville, and Castleton, IN (Mobile service)",
    "phone": "(317) 450-4242",
    "rating": 4.9,
    "reviews": 25,
    "website": "https://www.mobilevetcareindiana.com/",
    "category": "Bengali-speaking Veterinary services in Indiana",
    "description": "Provides in-home veterinary care, including routine exams and specialized treatments, to reduce stress for pets and owners",
    "hours": "Mon-Fri 9AM-6PM",
    "services": [
      "Bengali-speaking Veterinary services in Indiana consultation",
      "Professional service",
      "Quality guarantee"
    ],
    "social_links": {}
  },
  {
    "name": "Glasgo Memorial Veterinary Hospital",
    "address": "7010 W Washington St, Indianapolis, IN 46231",
    "phone": "(317) 241-7028",
    "rating": 4.7,
    "reviews": 25,
    "website": "https://glasgovet.com/",
    "category": "Bengali-speaking Veterinary services in Indiana",
    "description": "A family-owned animal clinic on the west side of Indianapolis offering care for cats, dogs, and pocket pets",
    "hours": "Mon-Fri 9AM-6PM",
    "services": [
      "Bengali-speaking Veterinary services in Indiana consultation",
      "Professional service",
      "Quality guarantee"
    ],
    "social_links": {}
  },
  {
    "name": "Heartland Veterinary Services, LLC",
    "address": "7001 US-52, Oxford, IN 47971",
    "phone": "(765) 376-6945",
    "rating": 4.9,
    "reviews": 25,
    "website": "https://www.heartlandvetservices.com/",
    "category": "Bengali-speaking Veterinary services in Indiana",
    "description": "An AAHA-accredited hospital offering preventative care, internal medicine, diagnostics, surgery, and dentistry for small animals and livestock",
    "hours": "Mon-Fri 9AM-6PM",
    "services": [
      "Bengali-speaking Veterinary services in Indiana consultation",
      "Professional service",
      "Quality guarantee"
    ],
    "social_links": {}
  },
  {
    "name": "Monon Animal Hospital",
    "address": "1525 E 86th St, Indianapolis, IN 46240",
    "phone": "(317) 844-0106",
    "rating": 4.8,
    "reviews": 25,
    "website": "https://www.mononah.com/",
    "category": "Bengali-speaking Veterinary services in Indiana",
    "description": "Provides expert veterinary care and compassionate service to pets and their families in the Nora, Broad Ripple, and Carmel areas",
    "hours": "Mon-Fri 9AM-6PM",
    "services": [
      "Bengali-speaking Veterinary services in Indiana consultation",
      "Professional service",
      "Quality guarantee"
    ],
    "social_links": {}
  },
  {
    "name": "Wildcat Valley Animal Clinic",
    "address": "1800 Sagamore Pkwy N, Lafayette, IN 47904",
    "phone": "(765) 589-7297",
    "rating": 4.7,
    "reviews": 25,
    "website": "https://www.wildcatvalleyanimalclinic.com/",
    "category": "Bengali-speaking Veterinary services in Indiana",
    "description": "Offers quality medical and surgical services for pets at affordable prices, with both a full-service hospital and a walk-in wellness center",
    "hours": "Mon-Fri 9AM-6PM",
    "services": [
      "Bengali-speaking Veterinary services in Indiana consultation",
      "Professional service",
      "Quality guarantee"
    ],
    "social_links": {}
  },
  {
    "name": "Care-Pets Animal Hospital",
    "address": "801 S Old Vincennes Rd, Sellersburg, IN 47172",
    "phone": "(812) 246-2449",
    "rating": 4.8,
    "reviews": 25,
    "website": "https://care-pets.com/",
    "category": "Bengali-speaking Veterinary services in Indiana",
    "description": "A full-service animal hospital offering routine medical, surgical, and dental care, as well as avian and exotic services",
    "hours": "Mon-Fri 9AM-6PM",
    "services": [
      "Bengali-speaking Veterinary services in Indiana consultation",
      "Professional service",
      "Quality guarantee"
    ],
    "social_links": {}
  },
  {
    "name": "Westchester Animal Clinic",
    "address": "55 E US Hwy 20, Porter, IN 46304",
    "phone": "(219) 926-1194",
    "rating": 4.7,
    "reviews": 25,
    "website": "https://www.westchesteranimalclinic.com/",
    "category": "Bengali-speaking Veterinary services in Indiana",
    "description": "Provides comprehensive veterinary care for all types of pets, including dogs, cats, exotics, and wildlife",
    "hours": "Mon-Fri 9AM-6PM",
    "services": [
      "Bengali-speaking Veterinary services in Indiana consultation",
      "Professional service",
      "Quality guarantee"
    ],
    "social_links": {}
  },
  {
    "name": "Northeast Indiana Veterinary Emergency & Specialty Hospital",
    "address": "2414 E. Wallen Road, Fort Wayne, IN 46805",
    "phone": "(260) 422-1200",
    "rating": 4.7,
    "reviews": 25,
    "website": "https://www.neivets.com/",
    "category": "Bengali-speaking Veterinary services in Indiana",
    "description": "Offers a wide range of routine and specialized veterinary services, including internal medicine and surgery, for pets in the tri-state region",
    "hours": "Mon-Fri 9AM-6PM",
    "services": [
      "Bengali-speaking Veterinary services in Indiana consultation",
      "Professional service",
      "Quality guarantee"
    ],
    "social_links": {}
  },
  {
    "name": "Arbor View Animal Hospital",
    "address": "1100 Vale Park Rd, Valparaiso, IN 46383",
    "phone": "(219) 762-7267",
    "rating": 4.9,
    "reviews": 25,
    "website": "https://arborviewah.com/",
    "category": "Bengali-speaking Veterinary services in Indiana",
    "description": "An AAHA-accredited hospital offering comprehensive veterinary care for cats, dogs, and exotic pets, along with boarding and grooming services",
    "hours": "Mon-Fri 9AM-6PM",
    "services": [
      "Bengali-speaking Veterinary services in Indiana consultation",
      "Professional service",
      "Quality guarantee"
    ],
    "social_links": {}
  }
]