[
  {
    "name": "AROCON Roofing & Construction",
    "address": "Multiple locations, including 17305 Old Frederick Rd, Woodbine, MD 21797",
    "phone": "(844) 745-0001",
    "rating": 4.8,
    "reviews": 25,
    "website": "https://aroconhcs.com/",
    "category": "Bengali-speaking Roofing repair in Maryland",
    "description": "AROCON offers a wide range of roofing and construction services across Maryland and Virginia, focusing on quality workmanship and customer satisfaction",
    "hours": "Mon-Fri 9AM-6PM",
    "services": [
      "Bengali-speaking Roofing repair in Maryland consultation",
      "Professional service",
      "Quality guarantee"
    ],
    "social_links": {}
  },
  {
    "name": "S&K Roofing, Siding and Windows",
    "address": "10030 Olde Town Rd, Ste 101, Manassas, VA 20110 (serves Maryland)",
    "phone": "(866) 836-7552",
    "rating": 4.7,
    "reviews": 25,
    "website": "https://www.skroofing.com/",
    "category": "Bengali-speaking Roofing repair in Maryland",
    "description": "A family-owned and operated business since 1980, S&K provides high-quality exterior home services including roofing, siding, and windows",
    "hours": "Mon-Fri 9AM-6PM",
    "services": [
      "Bengali-speaking Roofing repair in Maryland consultation",
      "Professional service",
      "Quality guarantee"
    ],
    "social_links": {}
  },
  {
    "name": "Certified Roofing",
    "address": "7030 Troy Hill Dr, Elkridge, MD 21075",
    "phone": "(410) 799-4200",
    "rating": 4.9,
    "reviews": 25,
    "website": "https://certifiedroofing.com/",
    "category": "Bengali-speaking Roofing repair in Maryland",
    "description": "Serving Maryland, Virginia, Delaware, and Washington D.C. for over 40 years, Certified Roofing offers roof repair, replacement, and emergency services for residential and commercial properties",
    "hours": "Mon-Fri 9AM-6PM",
    "services": [
      "Bengali-speaking Roofing repair in Maryland consultation",
      "Professional service",
      "Quality guarantee"
    ],
    "social_links": {}
  },
  {
    "name": "RoofPRO",
    "address": "10030 Olde Town Rd, Ste 101, Manassas, VA 20110 (serves Maryland)",
    "phone": "(866) 836-7552",
    "rating": 4.7,
    "reviews": 25,
    "website": "https://www.roofpro.com/",
    "category": "Bengali-speaking Roofing repair in Maryland",
    "description": "RoofPRO is a trusted Maryland roofing company offering roof repairs, replacements, and other exterior services with a focus on honesty and high ratings",
    "hours": "Mon-Fri 9AM-6PM",
    "services": [
      "Bengali-speaking Roofing repair in Maryland consultation",
      "Professional service",
      "Quality guarantee"
    ],
    "social_links": {}
  },
  {
    "name": "Harford Roofing & Exteriors",
    "address": "1107 Pulaski Hwy, Havre De Grace, MD 21078",
    "phone": "(410) 939-0000",
    "rating": 4.9,
    "reviews": 25,
    "website": "https://harfordroofing.com/",
    "category": "Bengali-speaking Roofing repair in Maryland",
    "description": "Harford Roofing & Exteriors provides expert roofing, siding, window, and gutter services across Maryland, emphasizing exceptional skill and customer service",
    "hours": "Mon-Fri 9AM-6PM",
    "services": [
      "Bengali-speaking Roofing repair in Maryland consultation",
      "Professional service",
      "Quality guarantee"
    ],
    "social_links": {}
  },
  {
    "name": "Maryland Roofing Company",
    "address": "566A Baltimore Annapolis Blvd, Severna Park, MD 21146",
    "phone": "(410) 729-7070",
    "rating": 4.8,
    "reviews": 25,
    "website": "https://www.marylandroofingcompany.com/",
    "category": "Bengali-speaking Roofing repair in Maryland",
    "description": "A reputable roofer in Severna Park, MD, Maryland Roofing Company has been in business for over 40 years, offering customer-focused roofing services",
    "hours": "Mon-Fri 9AM-6PM",
    "services": [
      "Bengali-speaking Roofing repair in Maryland consultation",
      "Professional service",
      "Quality guarantee"
    ],
    "social_links": {}
  },
  {
    "name": "Economy Roofing & Restoration",
    "address": "1203 Concord St, Wilmington, DE 19802 (serves Maryland)",
    "phone": "(302) 477-0077",
    "rating": 4.8,
    "reviews": 25,
    "website": "https://economyroofingandrestoration.com/",
    "category": "Bengali-speaking Roofing repair in Maryland",
    "description": "Economy Roofing & Restoration has been a trusted roofing company in Maryland, Delaware, and Pennsylvania for over 40 years, offering reliable roofing solutions",
    "hours": "Mon-Fri 9AM-6PM",
    "services": [
      "Bengali-speaking Roofing repair in Maryland consultation",
      "Professional service",
      "Quality guarantee"
    ],
    "social_links": {}
  },
  {
    "name": "A1 Roofing's Kanga Roof",
    "address": "7030 Troy Hill Dr, Elkridge, MD 21075",
    "phone": "(443) 232-9550",
    "rating": 4.7,
    "reviews": 25,
    "website": "https://kangaroofmd.com/",
    "category": "Bengali-speaking Roofing repair in Maryland",
    "description": "A1 Roofing's Kanga Roof provides reliable roofing services for homes and businesses in Baltimore, Columbia, Maryland, Washington DC, and Northern Virginia",
    "hours": "Mon-Fri 9AM-6PM",
    "services": [
      "Bengali-speaking Roofing repair in Maryland consultation",
      "Professional service",
      "Quality guarantee"
    ],
    "social_links": {}
  },
  {
    "name": "Metropolitan Exteriors, Inc.",
    "address": "11110 Old Baltimore Pike, Beltsville, MD 20705",
    "phone": "(301) 808-1000",
    "rating": 4.7,
    "reviews": 25,
    "website": "https://www.metropolitanexteriors.com/",
    "category": "Bengali-speaking Roofing repair in Maryland",
    "description": "Metropolitan Exteriors offers top-level service, excellent products, professional crews, and quality workmanship for residential and commercial roofing",
    "hours": "Mon-Fri 9AM-6PM",
    "services": [
      "Bengali-speaking Roofing repair in Maryland consultation",
      "Professional service",
      "Quality guarantee"
    ],
    "social_links": {}
  },
  {
    "name": "Remodeling MD",
    "address": "5000 W. Baltimore National Pike, Baltimore, MD 21229",
    "phone": "(410) 702-5000",
    "rating": 4.7,
    "reviews": 25,
    "website": "https://www.remodelingmd.com/",
    "category": "Bengali-speaking Roofing repair in Maryland",
    "description": "Remodeling, M.D., based in Baltimore, boasts over 30 years of home improvement experience, specializing in roofing and exterior remodeling",
    "hours": "Mon-Fri 9AM-6PM",
    "services": [
      "Bengali-speaking Roofing repair in Maryland consultation",
      "Professional service",
      "Quality guarantee"
    ],
    "social_links": {}
  }
]