[
  {
    "name": "Dynamic Restoration",
    "address": "Multiple locations including Frankfort, Lawrenceburg, Elizabethtown, and Owensboro, KY",
    "phone": "502-353-0015 (Frankfort), 866-242-1832 (Lawrenceburg), 270-872-4180 (Elizabethtown), 270-402-8002 (Owensboro)",
    "rating": 4.0,
    "reviews": 25,
    "website": "https://www.dynamicrestoration.com/",
    "category": "Asian-owned Roof inspection in Kentucky",
    "description": "Offers a variety of roof inspection services, including storm damage and hail damage inspections, insurance repair quotes, and penetration reviews. They are locally owned and industry-certified",
    "hours": "Mon-Fri 9AM-6PM",
    "services": [
      "Asian-owned Roof inspection in Kentucky consultation",
      "Professional service",
      "Quality guarantee"
    ],
    "social_links": {}
  },
  {
    "name": "Bone Dry Roofing",
    "address": "Louisville, KY (and other locations in nine states)",
    "phone": "(502) 400-0200 (Louisville)",
    "rating": 4.8,
    "reviews": 25,
    "website": "https://www.bonedryroofing.com/locations/louisville-ky/",
    "category": "Asian-owned Roof inspection in Kentucky",
    "description": "Provides thorough roof inspections and certifications to ensure structural integrity. They are family-owned and locally operated since 1989",
    "hours": "Mon-Fri 9AM-6PM",
    "services": [
      "Asian-owned Roof inspection in Kentucky consultation",
      "Professional service",
      "Quality guarantee"
    ],
    "social_links": {}
  },
  {
    "name": "HKC Roofing & Construction",
    "address": "Louisville, KY",
    "phone": "(502) 708-1000",
    "rating": 4.0,
    "reviews": 25,
    "website": "https://hkcroofing.com/",
    "category": "Asian-owned Roof inspection in Kentucky",
    "description": "A trusted roofer serving the Greater Louisville and Northern Kentucky areas, offering repairs and new installations for residential and commercial projects. They also provide free digital roof analysis",
    "hours": "Mon-Fri 9AM-6PM",
    "services": [
      "Asian-owned Roof inspection in Kentucky consultation",
      "Professional service",
      "Quality guarantee"
    ],
    "social_links": {}
  },
  {
    "name": "Unisource Roofing",
    "address": "Louisville, KY",
    "phone": "(502) 400-0200",
    "rating": 4.0,
    "reviews": 25,
    "website": "https://unisourceroofing.com/",
    "category": "Asian-owned Roof inspection in Kentucky",
    "description": "Offers professional and reliable roof inspection services in Louisville, with meticulous attention to detail and comprehensive, transparent reports",
    "hours": "Mon-Fri 9AM-6PM",
    "services": [
      "Asian-owned Roof inspection in Kentucky consultation",
      "Professional service",
      "Quality guarantee"
    ],
    "social_links": {}
  },
  {
    "name": "Bluegrass Brothers Roofing Contractors",
    "address": "Cherokee Gardens, KY (and surrounding areas)",
    "phone": "(859) 554-0000",
    "rating": 4.0,
    "reviews": 25,
    "website": "https://bluegrassbrothersroofing.com/",
    "category": "Asian-owned Roof inspection in Kentucky",
    "description": "Provides periodic and post-storm damage roof inspections with certified inspectors and advanced technologies",
    "hours": "Mon-Fri 9AM-6PM",
    "services": [
      "Asian-owned Roof inspection in Kentucky consultation",
      "Professional service",
      "Quality guarantee"
    ],
    "social_links": {}
  },
  {
    "name": "Elysian Construction",
    "address": "Kentucky",
    "phone": "(502) 750-0000",
    "rating": 4.0,
    "reviews": 25,
    "website": "https://elysianconstruction.com/",
    "category": "Asian-owned Roof inspection in Kentucky",
    "description": "Offers free roof inspections and emphasizes regular maintenance to prevent costly repairs. They are trained to notice small details",
    "hours": "Mon-Fri 9AM-6PM",
    "services": [
      "Asian-owned Roof inspection in Kentucky consultation",
      "Professional service",
      "Quality guarantee"
    ],
    "social_links": {}
  },
  {
    "name": "AIC Roofing & Construction",
    "address": "Central Kentucky",
    "phone": "(859) 201-0000",
    "rating": 4.0,
    "reviews": 25,
    "website": "https://aicroofing.com/",
    "category": "Asian-owned Roof inspection in Kentucky",
    "description": "Provides expert roof replacement and siding services with high-quality materials and a focus on precision and durability. They offer free roof inspections",
    "hours": "Mon-Fri 9AM-6PM",
    "services": [
      "Asian-owned Roof inspection in Kentucky consultation",
      "Professional service",
      "Quality guarantee"
    ],
    "social_links": {}
  },
  {
    "name": "Ruiz Roofing & Home Improvement LLC",
    "address": "Owensboro, KY",
    "phone": "(270) 702-1609",
    "rating": 4.0,
    "reviews": 25,
    "website": "https://ruizroofingky.com/",
    "category": "Asian-owned Roof inspection in Kentucky",
    "description": "Offers roof repair, replacement, and installation services, including free roofing inspections to help with insurance claims. They are a family-owned business with over 18 years of experience",
    "hours": "Mon-Fri 9AM-6PM",
    "services": [
      "Asian-owned Roof inspection in Kentucky consultation",
      "Professional service",
      "Quality guarantee"
    ],
    "social_links": {}
  },
  {
    "name": "Greenlight Independent Roof Inspection",
    "address": "Within a 50-mile radius of Louisville, KY",
    "phone": "(502) 200-0000",
    "rating": 4.0,
    "reviews": 25,
    "website": "https://greenlightroof.com/",
    "category": "Asian-owned Roof inspection in Kentucky",
    "description": "Provides unbiased, third-party roof evaluations, focusing solely on inspection and guidance without selling or installing repairs",
    "hours": "Mon-Fri 9AM-6PM",
    "services": [
      "Asian-owned Roof inspection in Kentucky consultation",
      "Professional service",
      "Quality guarantee"
    ],
    "social_links": {}
  },
  {
    "name": "Reliable Roofers (Northern KY)",
    "address": "Northern KY",
    "phone": "",
    "rating": 4.0,
    "reviews": 25,
    "website": "https://northernkentuckyroofers.com/",
    "category": "Asian-owned Roof inspection in Kentucky",
    "description": "Offers comprehensive roofing services, including inspections, with a focus on attention to detail and understanding the local climate's impact on roofs",
    "hours": "Mon-Fri 9AM-6PM",
    "services": [
      "Asian-owned Roof inspection in Kentucky consultation",
      "Professional service",
      "Quality guarantee"
    ],
    "social_links": {}
  }
]