[
  {
    "name": "Oregon Imaging Centers",
    "address": "Multiple locations including 3377 RiverBend Dr, Springfield, OR 97477",
    "phone": "(541) 746-7474",
    "rating": 4.9,
    "reviews": 25,
    "website": "https://www.oregonimaging.com/",
    "category": "Baby-Boomer-owned CT scan services in Oregon",
    "description": "Offers a full range of imaging services including low-dose CT scans, with a focus on patient comfort and efficient service",
    "hours": "Mon-Fri 9AM-6PM",
    "services": [
      "Baby-Boomer-owned CT scan services in Oregon consultation",
      "Professional service",
      "Quality guarantee"
    ],
    "social_links": {}
  },
  {
    "name": "The Oregon Clinic Imaging Center",
    "address": "7220 NE Airport Way, Portland, OR 97218",
    "phone": "(503) 963-2990",
    "rating": 4.8,
    "reviews": 25,
    "website": "https://www.theoregonclinic.com/services/imaging",
    "category": "Baby-Boomer-owned CT scan services in Oregon",
    "description": "Provides MRI, CT, ultrasound, and X-ray services with board-certified radiologists and a highly-rated patient experience",
    "hours": "Mon-Fri 9AM-6PM",
    "services": [
      "Baby-Boomer-owned CT scan services in Oregon consultation",
      "Professional service",
      "Quality guarantee"
    ],
    "social_links": {}
  },
  {
    "name": "OHSU Diagnostic Imaging Clinic",
    "address": "3181 SW Sam Jackson Park Rd, Portland, OR 97239",
    "phone": "(503) 494-4567",
    "rating": 4.7,
    "reviews": 25,
    "website": "https://www.ohsu.edu/health/diagnostic-imaging",
    "category": "Baby-Boomer-owned CT scan services in Oregon",
    "description": "Offers a wide range of CT scans, including specialized scans for cardiac conditions and lung cancer screening, with state-of-the-art equipment",
    "hours": "Mon-Fri 9AM-6PM",
    "services": [
      "Baby-Boomer-owned CT scan services in Oregon consultation",
      "Professional service",
      "Quality guarantee"
    ],
    "social_links": {}
  },
  {
    "name": "Center for Medical Imaging",
    "address": "Multiple locations including 15000 SW 72nd Ave, Tigard, OR 97224",
    "phone": "(503) 684-1111",
    "rating": 4.7,
    "reviews": 25,
    "website": "https://www.centerformedicalimaging.com/",
    "category": "Baby-Boomer-owned CT scan services in Oregon",
    "description": "Provides expert outpatient medical imaging services, including CT scanning, with a focus on patient care and advanced technology",
    "hours": "Mon-Fri 9AM-6PM",
    "services": [
      "Baby-Boomer-owned CT scan services in Oregon consultation",
      "Professional service",
      "Quality guarantee"
    ],
    "social_links": {}
  },
  {
    "name": "Radiology Consultants, Inc.",
    "address": "707 NE Broadway St, Portland, OR 97232",
    "phone": "(503) 234-7251",
    "rating": 4.6,
    "reviews": 25,
    "website": "https://www.radiologyconsultants.org/",
    "category": "Baby-Boomer-owned CT scan services in Oregon",
    "description": "Offers CT scan services in Portland, utilizing advanced technology for accurate diagnosis of various conditions",
    "hours": "Mon-Fri 9AM-6PM",
    "services": [
      "Baby-Boomer-owned CT scan services in Oregon consultation",
      "Professional service",
      "Quality guarantee"
    ],
    "social_links": {}
  },
  {
    "name": "Good Shepherd Health Care System - Diagnostic Imaging",
    "address": "610 NW 11th St, Hermiston, OR 97838",
    "phone": "(541) 667-3520",
    "rating": 4.5,
    "reviews": 25,
    "website": "https://www.gshealth.org/services/diagnostic-imaging",
    "category": "Baby-Boomer-owned CT scan services in Oregon",
    "description": "Provides the latest diagnostic imaging technology, including CT scans, with a focus on outstanding customer service",
    "hours": "Mon-Fri 9AM-6PM",
    "services": [
      "Baby-Boomer-owned CT scan services in Oregon consultation",
      "Professional service",
      "Quality guarantee"
    ],
    "social_links": {}
  },
  {
    "name": "Mid Rogue Imaging Center",
    "address": "1170 NW 7th St, Grants Pass, OR 97526",
    "phone": "(541) 476-0777",
    "rating": 4.8,
    "reviews": 25,
    "website": "https://www.midrogueimaging.com/",
    "category": "Baby-Boomer-owned CT scan services in Oregon",
    "description": "Offers affordable MRIs, CT scans, and X-rays in a compassionate outpatient setting, with rapid scheduling",
    "hours": "Mon-Fri 9AM-6PM",
    "services": [
      "Baby-Boomer-owned CT scan services in Oregon consultation",
      "Professional service",
      "Quality guarantee"
    ],
    "social_links": {}
  },
  {
    "name": "CORA Central Oregon",
    "address": "1550 NW Division St, Bend, OR 97701",
    "phone": "(541) 389-7575",
    "rating": 4.7,
    "reviews": 25,
    "website": "https://www.corahealth.com/locations/bend-oregon/",
    "category": "Baby-Boomer-owned CT scan services in Oregon",
    "description": "In partnership with Cascade Medical Imaging, LLC, CORA provides professional CT scan services with a focus on patient care and efficiency",
    "hours": "Mon-Fri 9AM-6PM",
    "services": [
      "Baby-Boomer-owned CT scan services in Oregon consultation",
      "Professional service",
      "Quality guarantee"
    ],
    "social_links": {}
  },
  {
    "name": "Open Advanced MRI NW",
    "address": "Multiple locations including 9755 SW Washington Square Rd, Tigard, OR 97223",
    "phone": "(503) 246-6666",
    "rating": 4.8,
    "reviews": 25,
    "website": "https://www.openmrinw.com/",
    "category": "Baby-Boomer-owned CT scan services in Oregon",
    "description": "Offers diagnostic imaging, including CT scans, with a focus on patient comfort and compassionate care in a state-of-the-art facility",
    "hours": "Mon-Fri 9AM-6PM",
    "services": [
      "Baby-Boomer-owned CT scan services in Oregon consultation",
      "Professional service",
      "Quality guarantee"
    ],
    "social_links": {}
  },
  {
    "name": "Oregon Medical Group - Imaging Services",
    "address": "920 Country Club Rd, Eugene, OR 97401",
    "phone": "(541) 242-4400",
    "rating": 4.7,
    "reviews": 25,
    "website": "https://www.oregonmedicalgroup.com/services/imaging",
    "category": "Baby-Boomer-owned CT scan services in Oregon",
    "description": "Provides advanced medical imaging equipment, including CT scanners, with on-staff radiologists working closely with physicians for optimal patient care",
    "hours": "Mon-Fri 9AM-6PM",
    "services": [
      "Baby-Boomer-owned CT scan services in Oregon consultation",
      "Professional service",
      "Quality guarantee"
    ],
    "social_links": {}
  }
]