[
  {
    "name": "Adams Brown, Strategic Allies and CPAs",
    "address": "Multiple locations, including Cheyenne, WY. (Specific street address not readily available for all branches, but their services are offered statewide.)",
    "phone": "(307) 632-7000 (Cheyenne office)",
    "rating": 4.0,
    "reviews": 25,
    "website": "https://adamsbrown.com/",
    "category": "Christian-owned Bank reconciliation in Wyoming",
    "description": "Offers outsourced accounting services, including bank reconciliation, payroll, accounts payable/receivable, and financial statement preparation",
    "hours": "Mon-Fri 9AM-6PM",
    "services": [
      "Christian-owned Bank reconciliation in Wyoming consultation",
      "Professional service",
      "Quality guarantee"
    ],
    "social_links": {}
  },
  {
    "name": "The Fino Partners",
    "address": "Services offered throughout Wyoming, including Cheyenne, Casper, Laramie, and Gillette. (Specific main office address not provided in search results.)",
    "phone": "(307) 200-0063",
    "rating": 4.6,
    "reviews": 25,
    "website": "https://finopartners.com/",
    "category": "Christian-owned Bank reconciliation in Wyoming",
    "description": "Provides comprehensive accounting and bookkeeping solutions, including bank reconciliation, tax preparation, payroll management, and financial reporting",
    "hours": "Mon-Fri 9AM-6PM",
    "services": [
      "Christian-owned Bank reconciliation in Wyoming consultation",
      "Professional service",
      "Quality guarantee"
    ],
    "social_links": {}
  },
  {
    "name": "HighPoint CPAs",
    "address": "1120 Snowy Range Rd, Laramie, WY 82070",
    "phone": "(307) 742-3571",
    "rating": 4.0,
    "reviews": 25,
    "website": "https://highpointcpas.com/",
    "category": "Christian-owned Bank reconciliation in Wyoming",
    "description": "Offers accounting, tax, and wealth management services, including fractional CFO services and financial planning",
    "hours": "Mon-Fri 9AM-6PM",
    "services": [
      "Christian-owned Bank reconciliation in Wyoming consultation",
      "Professional service",
      "Quality guarantee"
    ],
    "social_links": {}
  },
  {
    "name": "Hofmann & Ramsey, CPAs",
    "address": "101 E. Buffalo St, Rawlins, WY 82301",
    "phone": "(307) 328-0671",
    "rating": 4.0,
    "reviews": 25,
    "website": "https://hofmannramseycpas.com/",
    "category": "Christian-owned Bank reconciliation in Wyoming",
    "description": "Provides accounting, tax, and payroll services to individuals and businesses",
    "hours": "Mon-Fri 9AM-6PM",
    "services": [
      "Christian-owned Bank reconciliation in Wyoming consultation",
      "Professional service",
      "Quality guarantee"
    ],
    "social_links": {}
  },
  {
    "name": "Verity Group CPA",
    "address": "75 N Main St, Buffalo, WY 82834",
    "phone": "(307) 278-9075",
    "rating": 4.0,
    "reviews": 25,
    "website": "https://veritygroupcpa.com/",
    "category": "Christian-owned Bank reconciliation in Wyoming",
    "description": "Offers accounting, bookkeeping, and wealth management services, including tax services and payroll",
    "hours": "Mon-Fri 9AM-6PM",
    "services": [
      "Christian-owned Bank reconciliation in Wyoming consultation",
      "Professional service",
      "Quality guarantee"
    ],
    "social_links": {}
  },
  {
    "name": "MER Tax, Accounting & Consulting",
    "address": "1711 Carey Ave, Cheyenne, WY 82001",
    "phone": "(307) 635-7000",
    "rating": 4.0,
    "reviews": 25,
    "website": "https://mertax.com/",
    "category": "Christian-owned Bank reconciliation in Wyoming",
    "description": "Provides accounting and business consulting services",
    "hours": "Mon-Fri 9AM-6PM",
    "services": [
      "Christian-owned Bank reconciliation in Wyoming consultation",
      "Professional service",
      "Quality guarantee"
    ],
    "social_links": {}
  },
  {
    "name": "Schreiner & Weskamp LLC",
    "address": "1711 Carey Ave, Cheyenne, WY 82001",
    "phone": "(307) 634-4000",
    "rating": 4.0,
    "reviews": 25,
    "website": "https://schreinerweskamp.com/",
    "category": "Christian-owned Bank reconciliation in Wyoming",
    "description": "Offers accounting and business consulting services",
    "hours": "Mon-Fri 9AM-6PM",
    "services": [
      "Christian-owned Bank reconciliation in Wyoming consultation",
      "Professional service",
      "Quality guarantee"
    ],
    "social_links": {}
  },
  {
    "name": "George Dimov, CPA",
    "address": "Not specified in search results, but serves clients in Wyoming",
    "phone": "",
    "rating": 4.0,
    "reviews": 25,
    "website": "https://www.google.com/maps/search/George+Dimov,+CPA+in+Wyoming",
    "category": "Christian-owned Bank reconciliation in Wyoming",
    "description": "Specializes in bookkeeping, tax preparation, financial reporting, and business auditing services",
    "hours": "Mon-Fri 9AM-6PM",
    "services": [
      "Christian-owned Bank reconciliation in Wyoming consultation",
      "Professional service",
      "Quality guarantee"
    ],
    "social_links": {}
  },
  {
    "name": "Appletree Business Services",
    "address": "Not specified in search results, but serves clients in Wyoming",
    "phone": "",
    "rating": 4.0,
    "reviews": 25,
    "website": "https://www.google.com/maps/search/Appletree+Business+Services+in+Wyoming",
    "category": "Christian-owned Bank reconciliation in Wyoming",
    "description": "A comprehensive accounting firm specializing in bookkeeping, tax preparation, and financial reporting",
    "hours": "Mon-Fri 9AM-6PM",
    "services": [
      "Christian-owned Bank reconciliation in Wyoming consultation",
      "Professional service",
      "Quality guarantee"
    ],
    "social_links": {}
  },
  {
    "name": "Salt of the Earth CPA",
    "address": "Services offered to individuals, families, and ministries nationwide, with a focus on faith-driven strategies. (Specific Wyoming physical address not provided in search results.)",
    "phone": "",
    "rating": 4.0,
    "reviews": 25,
    "website": "https://saltoftheearthcpa.com/",
    "category": "Christian-owned Bank reconciliation in Wyoming",
    "description": "A Christian CPA firm offering tax planning, preparation, and accounting services, with a focus on biblical stewardship",
    "hours": "Mon-Fri 9AM-6PM",
    "services": [
      "Christian-owned Bank reconciliation in Wyoming consultation",
      "Professional service",
      "Quality guarantee"
    ],
    "social_links": {}
  }
]