[
  {
    "name": "Fade In Alaska",
    "address": "1051 E Bogard Road #5, Wasilla, AK 99654",
    "phone": "",
    "rating": 4.0,
    "reviews": 25,
    "website": "https://www.google.com/maps/search/Fade+In+Alaska+in+Alaska",
    "category": "Arabic-speaking Hot towel shaves in Alaska",
    "description": "Offers hot towel shaves as a premium service",
    "hours": "Mon-Fri 9AM-6PM",
    "services": [
      "Arabic-speaking Hot towel shaves in Alaska consultation",
      "Professional service",
      "Quality guarantee"
    ],
    "social_links": {}
  },
  {
    "name": "Man Spa",
    "address": "701 W 36th Ave, Unit A3, Anchorage, AK 99503",
    "phone": "907-342-9832",
    "rating": 4.0,
    "reviews": 25,
    "website": "https://www.google.com/maps/search/Man+Spa+in+Alaska",
    "category": "Arabic-speaking Hot towel shaves in Alaska",
    "description": "Specializes in men's grooming, including straight razor shaves",
    "hours": "Mon-Fri 9AM-6PM",
    "services": [
      "Arabic-speaking Hot towel shaves in Alaska consultation",
      "Professional service",
      "Quality guarantee"
    ],
    "social_links": {}
  },
  {
    "name": "MoGee Cuts (Terrance) JVS BARBERSHOP PROFESSIONAL LICENSED BARBER",
    "address": "101 College Road, J.V.S BARBERSHOP, Fairbanks, AK 99701",
    "phone": "(907) 750-2158",
    "rating": 4.9,
    "reviews": 25,
    "website": "https://www.google.com/maps/search/MoGee+Cuts+(Terrance)+JVS+BARBERSHOP+PROFESSIONAL+LICENSED+BARBER+in+Alaska",
    "category": "Arabic-speaking Hot towel shaves in Alaska",
    "description": "Offers a \"Haircut and hot towel for the face\" service",
    "hours": "Mon-Fri 9AM-6PM",
    "services": [
      "Arabic-speaking Hot towel shaves in Alaska consultation",
      "Professional service",
      "Quality guarantee"
    ],
    "social_links": {}
  },
  {
    "name": "AK Lady Barber",
    "address": "(Not readily available, but serves Alaska)",
    "phone": "(907) 982-5201",
    "rating": 4.0,
    "reviews": 25,
    "website": "https://www.google.com/maps/search/AK+Lady+Barber+in+Alaska",
    "category": "Arabic-speaking Hot towel shaves in Alaska",
    "description": "Offers hot towel razor shaves as part of their grooming services",
    "hours": "Mon-Fri 9AM-6PM",
    "services": [
      "Arabic-speaking Hot towel shaves in Alaska consultation",
      "Professional service",
      "Quality guarantee"
    ],
    "social_links": {}
  },
  {
    "name": "JVS BARBERSHOP",
    "address": "101 College Road, Unit 254, Fairbanks, AK 99701",
    "phone": "(907) 750-2158",
    "rating": 5.0,
    "reviews": 25,
    "website": "https://www.google.com/maps/search/JVS+BARBERSHOP+in+Alaska",
    "category": "Arabic-speaking Hot towel shaves in Alaska",
    "description": "Offers a \"Classic Gentlemen Shave\" which likely includes hot towel treatment",
    "hours": "Mon-Fri 9AM-6PM",
    "services": [
      "Arabic-speaking Hot towel shaves in Alaska consultation",
      "Professional service",
      "Quality guarantee"
    ],
    "social_links": {}
  },
  {
    "name": "Sport Clips Haircuts of Wasilla",
    "address": "1771 E Parks Highway Target Shopping Center, Wasilla, AK 99654",
    "phone": "907-373-2555",
    "rating": 4.0,
    "reviews": 25,
    "website": "https://www.google.com/maps/search/Sport+Clips+Haircuts+of+Wasilla+in+Alaska",
    "category": "Arabic-speaking Hot towel shaves in Alaska",
    "description": "Offers the \"MVP Experience\" which includes a hot steamed towel",
    "hours": "Mon-Fri 9AM-6PM",
    "services": [
      "Arabic-speaking Hot towel shaves in Alaska consultation",
      "Professional service",
      "Quality guarantee"
    ],
    "social_links": {}
  },
  {
    "name": "Raw Cuts Barbershop",
    "address": "44224 Sterling Hwy STE 8, Soldotna, AK 99669",
    "phone": "",
    "rating": 4.0,
    "reviews": 25,
    "website": "https://www.google.com/maps/search/Raw+Cuts+Barbershop+in+Alaska",
    "category": "Arabic-speaking Hot towel shaves in Alaska",
    "description": "Offers barber services, likely including hot towel shaves",
    "hours": "Mon-Fri 9AM-6PM",
    "services": [
      "Arabic-speaking Hot towel shaves in Alaska consultation",
      "Professional service",
      "Quality guarantee"
    ],
    "social_links": {}
  },
  {
    "name": "Whetstone Barbers",
    "address": "(Homer, Alaska - specific address not readily available)",
    "phone": "",
    "rating": 4.0,
    "reviews": 25,
    "website": "https://www.google.com/maps/search/Whetstone+Barbers+in+Alaska",
    "category": "Arabic-speaking Hot towel shaves in Alaska",
    "description": "A barbershop in Homer, Alaska that likely offers traditional barber services",
    "hours": "Mon-Fri 9AM-6PM",
    "services": [
      "Arabic-speaking Hot towel shaves in Alaska consultation",
      "Professional service",
      "Quality guarantee"
    ],
    "social_links": {}
  },
  {
    "name": "Genesis Barbershop",
    "address": "6311 Debarr Road C, Anchorage, AK 99504",
    "phone": "+1 907-277-6264",
    "rating": 4.0,
    "reviews": 25,
    "website": "https://www.google.com/maps/search/Genesis+Barbershop+in+Alaska",
    "category": "Arabic-speaking Hot towel shaves in Alaska",
    "description": "A barbershop in Anchorage",
    "hours": "Mon-Fri 9AM-6PM",
    "services": [
      "Arabic-speaking Hot towel shaves in Alaska consultation",
      "Professional service",
      "Quality guarantee"
    ],
    "social_links": {}
  },
  {
    "name": "Alaskan Barber Shop",
    "address": "326 4th St # B, Juneau, AK 99801",
    "phone": "(907) 586-9600",
    "rating": 4.0,
    "reviews": 25,
    "website": "https://www.google.com/maps/search/Alaskan+Barber+Shop+in+Alaska",
    "category": "Arabic-speaking Hot towel shaves in Alaska",
    "description": "Mentioned as a place for men's haircuts in Juneau",
    "hours": "Mon-Fri 9AM-6PM",
    "services": [
      "Arabic-speaking Hot towel shaves in Alaska consultation",
      "Professional service",
      "Quality guarantee"
    ],
    "social_links": {}
  }
]