[
  {
    "name": "Blue Rose Beauty & Brow Artistry",
    "address": "Temporarily located inside Fourteen Salon at 14104 Taylor Loop Rd, Little Rock, AR 72211",
    "phone": "",
    "rating": 4.0,
    "reviews": 25,
    "website": "https://www.bluerosebeauty.com/",
    "category": "Asian-owned Eyebrow tinting in Arkansas",
    "description": "Offers microblading, permanent cosmetics, brow threading, and tinting services",
    "hours": "Mon-Fri 9AM-6PM",
    "services": [
      "Asian-owned Eyebrow tinting in Arkansas consultation",
      "Professional service",
      "Quality guarantee"
    ],
    "social_links": {}
  },
  {
    "name": "Conway Med Spa",
    "address": "Not explicitly listed, but services are offered in Conway, AR",
    "phone": "",
    "rating": 4.0,
    "reviews": 25,
    "website": "https://conwaymedspa.com/",
    "category": "Asian-owned Eyebrow tinting in Arkansas",
    "description": "Specializes in permanent eyebrow cosmetics, including eyebrow tinting",
    "hours": "Mon-Fri 9AM-6PM",
    "services": [
      "Asian-owned Eyebrow tinting in Arkansas consultation",
      "Professional service",
      "Quality guarantee"
    ],
    "social_links": {}
  },
  {
    "name": "European Wax Center",
    "address": "",
    "phone": "Varies by location (e.g., Conway: (501) 426-8800, Rogers: (479) 202-7540, Fayetteville: (479) 445-0000, Little Rock: (501) 223-2222)",
    "rating": 4.0,
    "reviews": 25,
    "website": "https://www.waxcenter.com/",
    "category": "Asian-owned Eyebrow tinting in Arkansas",
    "description": "Offers professional eyebrow waxing and tinting services",
    "hours": "Mon-Fri 9AM-6PM",
    "services": [
      "Asian-owned Eyebrow tinting in Arkansas consultation",
      "Professional service",
      "Quality guarantee"
    ],
    "social_links": {}
  },
  {
    "name": "The Lash Lounge Rogers \u2013 Pinnacle",
    "address": "Not explicitly listed, but located in Rogers, AR",
    "phone": "",
    "rating": 4.0,
    "reviews": 25,
    "website": "https://www.thelashlounge.com/us/ar/rogers-pinnacle",
    "category": "Asian-owned Eyebrow tinting in Arkansas",
    "description": "Provides professional eyebrow and eyelash tinting services",
    "hours": "Mon-Fri 9AM-6PM",
    "services": [
      "Asian-owned Eyebrow tinting in Arkansas consultation",
      "Professional service",
      "Quality guarantee"
    ],
    "social_links": {}
  },
  {
    "name": "NuYu Rejuvenation Spa",
    "address": "Not explicitly listed, but located in Hot Springs, AR",
    "phone": "",
    "rating": 4.0,
    "reviews": 25,
    "website": "https://www.nuyurejuvenationspa.com/",
    "category": "Asian-owned Eyebrow tinting in Arkansas",
    "description": "Offers brow shaping and tinting services",
    "hours": "Mon-Fri 9AM-6PM",
    "services": [
      "Asian-owned Eyebrow tinting in Arkansas consultation",
      "Professional service",
      "Quality guarantee"
    ],
    "social_links": {}
  },
  {
    "name": "Renew Aesthetics Medical Spa",
    "address": "Not explicitly listed, but located in Rogers, AR",
    "phone": "",
    "rating": 4.0,
    "reviews": 25,
    "website": "https://www.renewaesthetics.com/",
    "category": "Asian-owned Eyebrow tinting in Arkansas",
    "description": "Provides brow tinting services with expert medical staff",
    "hours": "Mon-Fri 9AM-6PM",
    "services": [
      "Asian-owned Eyebrow tinting in Arkansas consultation",
      "Professional service",
      "Quality guarantee"
    ],
    "social_links": {}
  },
  {
    "name": "Belle & Blush",
    "address": "Not explicitly listed, but offers services in Little Rock, AR",
    "phone": "501-448-2290",
    "rating": 4.0,
    "reviews": 25,
    "website": "https://belleandblush.com/",
    "category": "Asian-owned Eyebrow tinting in Arkansas",
    "description": "Offers brow tinting as part of their lash and brow services",
    "hours": "Mon-Fri 9AM-6PM",
    "services": [
      "Asian-owned Eyebrow tinting in Arkansas consultation",
      "Professional service",
      "Quality guarantee"
    ],
    "social_links": {}
  },
  {
    "name": "Eden Medical Spa",
    "address": "Not explicitly listed, but located in Jonesboro, AR",
    "phone": "",
    "rating": 4.0,
    "reviews": 25,
    "website": "https://edenmedicalspa.com/",
    "category": "Asian-owned Eyebrow tinting in Arkansas",
    "description": "Offers eyebrow tinting services",
    "hours": "Mon-Fri 9AM-6PM",
    "services": [
      "Asian-owned Eyebrow tinting in Arkansas consultation",
      "Professional service",
      "Quality guarantee"
    ],
    "social_links": {}
  },
  {
    "name": "Chrysalis Day Spa",
    "address": "4332 Central Avenue, Hot Springs, AR 71901",
    "phone": "501-520-5400",
    "rating": 4.0,
    "reviews": 25,
    "website": "https://www.chrysalisdayspa.com/",
    "category": "Asian-owned Eyebrow tinting in Arkansas",
    "description": "Provides lash and brow services, including brow tinting",
    "hours": "Mon-Fri 9AM-6PM",
    "services": [
      "Asian-owned Eyebrow tinting in Arkansas consultation",
      "Professional service",
      "Quality guarantee"
    ],
    "social_links": {}
  },
  {
    "name": "The Mad House Beauty Lounge",
    "address": "708 Second Street, Conway, AR 72032",
    "phone": "(501) 932-4404",
    "rating": 4.0,
    "reviews": 25,
    "website": "https://www.themadhousebeautylounge.com/",
    "category": "Asian-owned Eyebrow tinting in Arkansas",
    "description": "Offers brow tinting as one of their lash and brow services",
    "hours": "Mon-Fri 9AM-6PM",
    "services": [
      "Asian-owned Eyebrow tinting in Arkansas consultation",
      "Professional service",
      "Quality guarantee"
    ],
    "social_links": {}
  }
]