[
  {
    "name": "Leonardo Delgado Jiu-Jitsu Academy",
    "address": "St. Martin, Mississippi (Specific street address not provided in search results)",
    "phone": "",
    "rating": 4.0,
    "reviews": 25,
    "website": "https://www.google.com/maps/search/Leonardo+Delgado+Jiu-Jitsu+Academy+in+Mississippi",
    "category": "Chinese-speaking Jiu-jitsu in Mississippi",
    "description": "Offers Brazilian Jiu-Jitsu for students as young as four, focusing on building confidence, discipline, and positive growth",
    "hours": "Mon-Fri 9AM-6PM",
    "services": [
      "Chinese-speaking Jiu-jitsu in Mississippi consultation",
      "Professional service",
      "Quality guarantee"
    ],
    "social_links": {}
  },
  {
    "name": "Rankin Jiu-Jitsu Academy",
    "address": "114 East Business Park Suite I, Brandon, MS 39042",
    "phone": "",
    "rating": 4.0,
    "reviews": 25,
    "website": "https://www.google.com/maps/search/Rankin+Jiu-Jitsu+Academy+in+Mississippi",
    "category": "Chinese-speaking Jiu-jitsu in Mississippi",
    "description": "Provides Brazilian Jiu-Jitsu classes focused on self-defense, confidence, resilience, and a healthier lifestyle",
    "hours": "Mon-Fri 9AM-6PM",
    "services": [
      "Chinese-speaking Jiu-jitsu in Mississippi consultation",
      "Professional service",
      "Quality guarantee"
    ],
    "social_links": {}
  },
  {
    "name": "Marshall Arts MMA Academy",
    "address": "6530 Old Canton Rd, Ridgeland, MS 39157",
    "phone": "+1 601-316-5697",
    "rating": 4.9,
    "reviews": 25,
    "website": "https://www.google.com/maps/search/Marshall+Arts+MMA+Academy+in+Mississippi",
    "category": "Chinese-speaking Jiu-jitsu in Mississippi",
    "description": "A martial arts school offering various disciplines",
    "hours": "Mon-Fri 9AM-6PM",
    "services": [
      "Chinese-speaking Jiu-jitsu in Mississippi consultation",
      "Professional service",
      "Quality guarantee"
    ],
    "social_links": {}
  },
  {
    "name": "Precision Martial Arts of Flowood",
    "address": "624 Grants Ferry Rd, Flowood, MS 39232",
    "phone": "+1 601-937-0935",
    "rating": 5.0,
    "reviews": 25,
    "website": "https://www.google.com/maps/search/Precision+Martial+Arts+of+Flowood+in+Mississippi",
    "category": "Chinese-speaking Jiu-jitsu in Mississippi",
    "description": "Offers martial arts and Jiu-Jitsu training",
    "hours": "Mon-Fri 9AM-6PM",
    "services": [
      "Chinese-speaking Jiu-jitsu in Mississippi consultation",
      "Professional service",
      "Quality guarantee"
    ],
    "social_links": {}
  },
  {
    "name": "American Top Team Gulfport",
    "address": "12100 US 49 #606, Gulfport, MS 39503",
    "phone": "+1 228-265-7273",
    "rating": 4.8,
    "reviews": 25,
    "website": "https://www.google.com/maps/search/American+Top+Team+Gulfport+in+Mississippi",
    "category": "Chinese-speaking Jiu-jitsu in Mississippi",
    "description": "A martial arts school",
    "hours": "Mon-Fri 9AM-6PM",
    "services": [
      "Chinese-speaking Jiu-jitsu in Mississippi consultation",
      "Professional service",
      "Quality guarantee"
    ],
    "social_links": {}
  },
  {
    "name": "Jason Griffin's Tiger Rock Martial Arts",
    "address": "125 Dyess Rd, Ridgeland, MS 39157",
    "phone": "+1 601-977-9000",
    "rating": 4.7,
    "reviews": 25,
    "website": "https://www.google.com/maps/search/Jason+Griffin's+Tiger+Rock+Martial+Arts+in+Mississippi",
    "category": "Chinese-speaking Jiu-jitsu in Mississippi",
    "description": "Offers martial arts training",
    "hours": "Mon-Fri 9AM-6PM",
    "services": [
      "Chinese-speaking Jiu-jitsu in Mississippi consultation",
      "Professional service",
      "Quality guarantee"
    ],
    "social_links": {}
  },
  {
    "name": "Precision Martial Arts of Gluckstadt",
    "address": "111 Dees Dr Suite A, Madison, MS 39110",
    "phone": "+1 601-606-9926",
    "rating": 5.0,
    "reviews": 25,
    "website": "https://www.google.com/maps/search/Precision+Martial+Arts+of+Gluckstadt+in+Mississippi",
    "category": "Chinese-speaking Jiu-jitsu in Mississippi",
    "description": "Offers Jiu-Jitsu training",
    "hours": "Mon-Fri 9AM-6PM",
    "services": [
      "Chinese-speaking Jiu-jitsu in Mississippi consultation",
      "Professional service",
      "Quality guarantee"
    ],
    "social_links": {}
  },
  {
    "name": "Gracie South Jiu Jitsu & Kickboxing",
    "address": "551 Ridgecrest Dr, Madison, MS 39110",
    "phone": "+1 601-715-8775",
    "rating": 5.0,
    "reviews": 25,
    "website": "https://www.google.com/maps/search/Gracie+South+Jiu+Jitsu+&+Kickboxing+in+Mississippi",
    "category": "Chinese-speaking Jiu-jitsu in Mississippi",
    "description": "Offers Jiu-Jitsu and kickboxing",
    "hours": "Mon-Fri 9AM-6PM",
    "services": [
      "Chinese-speaking Jiu-jitsu in Mississippi consultation",
      "Professional service",
      "Quality guarantee"
    ],
    "social_links": {}
  },
  {
    "name": "Tiger Rock Martial Arts of Gulfport",
    "address": "1842 E Pass Rd, Gulfport, MS 39507",
    "phone": "+1 228-896-8600",
    "rating": 5.0,
    "reviews": 25,
    "website": "https://www.google.com/maps/search/Tiger+Rock+Martial+Arts+of+Gulfport+in+Mississippi",
    "category": "Chinese-speaking Jiu-jitsu in Mississippi",
    "description": "Offers martial arts training",
    "hours": "Mon-Fri 9AM-6PM",
    "services": [
      "Chinese-speaking Jiu-jitsu in Mississippi consultation",
      "Professional service",
      "Quality guarantee"
    ],
    "social_links": {}
  },
  {
    "name": "True Warriors Nova Uniao Academy",
    "address": "145 Hardy Court, Gulfport, MS 39507",
    "phone": "+1 228-239-1436",
    "rating": 5.0,
    "reviews": 25,
    "website": "https://www.google.com/maps/search/True+Warriors+Nova+Uniao+Academy+in+Mississippi",
    "category": "Chinese-speaking Jiu-jitsu in Mississippi",
    "description": "Offers martial arts training",
    "hours": "Mon-Fri 9AM-6PM",
    "services": [
      "Chinese-speaking Jiu-jitsu in Mississippi consultation",
      "Professional service",
      "Quality guarantee"
    ],
    "social_links": {}
  }
]