[
  {
    "name": "Winning Solutions, Inc. (WSI)",
    "address": "836 N 2nd St, Ames, Iowa 50010",
    "phone": "(515) 233-1000",
    "rating": 4.0,
    "reviews": 25,
    "website": "https://winningsolutionsinc.com/",
    "category": "Bengali-speaking Node.js development in Iowa",
    "description": "Provides custom software development, web development, and IT solutions for various businesses",
    "hours": "Mon-Fri 9AM-6PM",
    "services": [
      "Bengali-speaking Node.js development in Iowa consultation",
      "Professional service",
      "Quality guarantee"
    ],
    "social_links": {}
  },
  {
    "name": "Ventech Solutions",
    "address": "12000 Ridgemont Dr, Urbandale, Iowa 50323",
    "phone": "(515) 270-7700",
    "rating": 4.0,
    "reviews": 25,
    "website": "https://ventechsolutions.com/",
    "category": "Bengali-speaking Node.js development in Iowa",
    "description": "Focuses on IT infrastructure modernization, cloud services, and cybersecurity for government agencies and businesses",
    "hours": "Mon-Fri 9AM-6PM",
    "services": [
      "Bengali-speaking Node.js development in Iowa consultation",
      "Professional service",
      "Quality guarantee"
    ],
    "social_links": {}
  },
  {
    "name": "PowerGate Software",
    "address": "3311 100th St #3703, Urbandale, Iowa 50323 (US office)",
    "phone": "",
    "rating": 4.0,
    "reviews": 25,
    "website": "https://powergatesoftware.com/",
    "category": "Bengali-speaking Node.js development in Iowa",
    "description": "Offers full-cycle development services, including web and mobile apps, SaaS platforms, and AI/ML solutions",
    "hours": "Mon-Fri 9AM-6PM",
    "services": [
      "Bengali-speaking Node.js development in Iowa consultation",
      "Professional service",
      "Quality guarantee"
    ],
    "social_links": {}
  },
  {
    "name": "Believe Software",
    "address": "Ames, Iowa 50010",
    "phone": "",
    "rating": 4.0,
    "reviews": 25,
    "website": "https://believe-software.com/",
    "category": "Bengali-speaking Node.js development in Iowa",
    "description": "Provides custom software development, web application design, and IT management services with a focus on user-friendly solutions",
    "hours": "Mon-Fri 9AM-6PM",
    "services": [
      "Bengali-speaking Node.js development in Iowa consultation",
      "Professional service",
      "Quality guarantee"
    ],
    "social_links": {}
  },
  {
    "name": "Softvoya",
    "address": "Des Moines, Iowa 50309",
    "phone": "+1 (704) 345-9299",
    "rating": 4.0,
    "reviews": 25,
    "website": "https://softvoya.com/",
    "category": "Bengali-speaking Node.js development in Iowa",
    "description": "Offers custom software development, web development, and dedicated team services",
    "hours": "Mon-Fri 9AM-6PM",
    "services": [
      "Bengali-speaking Node.js development in Iowa consultation",
      "Professional service",
      "Quality guarantee"
    ],
    "social_links": {}
  },
  {
    "name": "Source Allies",
    "address": "Not explicitly available in search results, but serves Iowa businesses",
    "phone": "",
    "rating": 4.0,
    "reviews": 25,
    "website": "https://www.sourceallies.com/",
    "category": "Bengali-speaking Node.js development in Iowa",
    "description": "Specializes in cloud engineering, DevOps, migration, and modernization services, with expertise in AWS, Azure, and Kubernetes",
    "hours": "Mon-Fri 9AM-6PM",
    "services": [
      "Bengali-speaking Node.js development in Iowa consultation",
      "Professional service",
      "Quality guarantee"
    ],
    "social_links": {}
  },
  {
    "name": "Webspec",
    "address": "Des Moines, Iowa",
    "phone": "(515) 868-0010",
    "rating": 4.0,
    "reviews": 25,
    "website": "https://webspec.com/",
    "category": "Bengali-speaking Node.js development in Iowa",
    "description": "A web design, development, and marketing agency offering custom web design, web application development, and digital marketing solutions",
    "hours": "Mon-Fri 9AM-6PM",
    "services": [
      "Bengali-speaking Node.js development in Iowa consultation",
      "Professional service",
      "Quality guarantee"
    ],
    "social_links": {}
  },
  {
    "name": "Square Infosoft",
    "address": "Des Moines, IA",
    "phone": "",
    "rating": 4.0,
    "reviews": 25,
    "website": "https://www.squareinfosoft.com/",
    "category": "Bengali-speaking Node.js development in Iowa",
    "description": "Offers full-stack development services, including Node.js, React.js, and mobile app development",
    "hours": "Mon-Fri 9AM-6PM",
    "services": [
      "Bengali-speaking Node.js development in Iowa consultation",
      "Professional service",
      "Quality guarantee"
    ],
    "social_links": {}
  },
  {
    "name": "Geneca",
    "address": "Not explicitly available in search results, but serves Iowa businesses",
    "phone": "",
    "rating": 4.0,
    "reviews": 25,
    "website": "https://www.geneca.com/",
    "category": "Bengali-speaking Node.js development in Iowa",
    "description": "Provides custom software development services, including web app development and software consulting",
    "hours": "Mon-Fri 9AM-6PM",
    "services": [
      "Bengali-speaking Node.js development in Iowa consultation",
      "Professional service",
      "Quality guarantee"
    ],
    "social_links": {}
  },
  {
    "name": "Spindustry",
    "address": "Des Moines, Iowa",
    "phone": "",
    "rating": 4.0,
    "reviews": 25,
    "website": "https://www.spindustry.com/",
    "category": "Bengali-speaking Node.js development in Iowa",
    "description": "Offers custom web development and design solutions for company websites, e-commerce platforms, and custom portals",
    "hours": "Mon-Fri 9AM-6PM",
    "services": [
      "Bengali-speaking Node.js development in Iowa consultation",
      "Professional service",
      "Quality guarantee"
    ],
    "social_links": {}
  }
]