[
  {
    "name": "Veggie Heaven",
    "address": "473 Cedar Ln, Teaneck, NJ 07666",
    "phone": "(201) 836-0887",
    "rating": 4.5,
    "reviews": 25,
    "website": "https://www.veggieheavennj.com/",
    "category": "Asian-owned Vegan catering in New-Jersey",
    "description": "A kosher-vegan Chinese restaurant that offers catering services",
    "hours": "Mon-Fri 9AM-6PM",
    "services": [
      "Asian-owned Vegan catering in New-Jersey consultation",
      "Professional service",
      "Quality guarantee"
    ],
    "social_links": {}
  },
  {
    "name": "Cinnamon Snail",
    "address": "While they don't have a physical storefront for catering pick-up, they serve the New Jersey area. Their previous location was in the Bronx, NY",
    "phone": "(718) 596-7849 (This is a general inquiry number, confirm for catering)",
    "rating": 4.7,
    "reviews": 25,
    "website": "https://www.cinnamonsnail.com/catering/",
    "category": "Asian-owned Vegan catering in New-Jersey",
    "description": "Offers custom vegan catering for events in New Jersey, New York, and Pennsylvania. They focus on high-quality, plant-based cuisine",
    "hours": "Mon-Fri 9AM-6PM",
    "services": [
      "Asian-owned Vegan catering in New-Jersey consultation",
      "Professional service",
      "Quality guarantee"
    ],
    "social_links": {}
  },
  {
    "name": "Green Cart Catering",
    "address": "Their kitchen is in Sussex County, NJ, but they serve all throughout New Jersey",
    "phone": "(973) 875-5600",
    "rating": 4.9,
    "reviews": 25,
    "website": "https://www.greencartcatering.com/",
    "category": "Asian-owned Vegan catering in New-Jersey",
    "description": "An exclusively plant-based catering company that focuses on healthy, sustainable, and compassionate eating",
    "hours": "Mon-Fri 9AM-6PM",
    "services": [
      "Asian-owned Vegan catering in New-Jersey consultation",
      "Professional service",
      "Quality guarantee"
    ],
    "social_links": {}
  },
  {
    "name": "Hello Asia Catering",
    "address": "Freehold, NJ (Specific address not readily available for catering inquiries, likely a commercial kitchen)",
    "phone": "(732) 780-7777",
    "rating": 4.4,
    "reviews": 25,
    "website": "https://helloasiacatering.com/",
    "category": "Asian-owned Vegan catering in New-Jersey",
    "description": "Offers bold Asian flavors with a menu that includes vegan options for catering",
    "hours": "Mon-Fri 9AM-6PM",
    "services": [
      "Asian-owned Vegan catering in New-Jersey consultation",
      "Professional service",
      "Quality guarantee"
    ],
    "social_links": {}
  },
  {
    "name": "Power Plant Kitchen",
    "address": "148 Newark St, Jersey City, NJ 07302",
    "phone": "(201) 876-8400",
    "rating": 4.6,
    "reviews": 25,
    "website": "https://www.powerplantkitchen.com/catering",
    "category": "Asian-owned Vegan catering in New-Jersey",
    "description": "A vegan restaurant in Jersey City that offers catering with a variety of vegan dishes",
    "hours": "Mon-Fri 9AM-6PM",
    "services": [
      "Asian-owned Vegan catering in New-Jersey consultation",
      "Professional service",
      "Quality guarantee"
    ],
    "social_links": {}
  },
  {
    "name": "Cultivate Plant-Based Eatery",
    "address": "140 W Milton Ave, Rahway, NJ 07065",
    "phone": "(732) 800-2000",
    "rating": 4.7,
    "reviews": 25,
    "website": "https://www.cultivate.cafe/",
    "category": "Asian-owned Vegan catering in New-Jersey",
    "description": "Offers a completely vegan menu with global inspirations and accommodates dietary needs, including catering services",
    "hours": "Mon-Fri 9AM-6PM",
    "services": [
      "Asian-owned Vegan catering in New-Jersey consultation",
      "Professional service",
      "Quality guarantee"
    ],
    "social_links": {}
  },
  {
    "name": "The Vegan Factory",
    "address": "1011 W Elizabeth Ave, Linden, NJ 07036",
    "phone": "(908) 474-0001",
    "rating": 4.7,
    "reviews": 25,
    "website": "https://www.theveganfactorynj.com/",
    "category": "Asian-owned Vegan catering in New-Jersey",
    "description": "A Dominican, woman-owned restaurant serving veganized traditional dishes and their own creations, offering catering",
    "hours": "Mon-Fri 9AM-6PM",
    "services": [
      "Asian-owned Vegan catering in New-Jersey consultation",
      "Professional service",
      "Quality guarantee"
    ],
    "social_links": {}
  },
  {
    "name": "Good Karma Cafe",
    "address": "17 E Front St, Red Bank, NJ 07701",
    "phone": "(732) 450-8323",
    "rating": 4.5,
    "reviews": 25,
    "website": "https://www.goodkarmacafe.com/",
    "category": "Asian-owned Vegan catering in New-Jersey",
    "description": "A vegan cafe in Red Bank that offers catering for events",
    "hours": "Mon-Fri 9AM-6PM",
    "services": [
      "Asian-owned Vegan catering in New-Jersey consultation",
      "Professional service",
      "Quality guarantee"
    ],
    "social_links": {}
  },
  {
    "name": "Brick City Vegan",
    "address": "915 Broad St, Retail 1, Newark, NJ 07102",
    "phone": "(973) 733-0011",
    "rating": 4.9,
    "reviews": 25,
    "website": "https://www.brickcityvegan.com/",
    "category": "Asian-owned Vegan catering in New-Jersey",
    "description": "Offers 100% plant-based menu with bold flavors and caters to events",
    "hours": "Mon-Fri 9AM-6PM",
    "services": [
      "Asian-owned Vegan catering in New-Jersey consultation",
      "Professional service",
      "Quality guarantee"
    ],
    "social_links": {}
  },
  {
    "name": "Vegan Tree",
    "address": "1077 NJ-35, Matawan, NJ 07747",
    "phone": "(732) 583-1111",
    "rating": 4.3,
    "reviews": 25,
    "website": "https://www.vegantreenj.com/",
    "category": "Asian-owned Vegan catering in New-Jersey",
    "description": "A Chinese restaurant with a fully vegan menu that offers catering",
    "hours": "Mon-Fri 9AM-6PM",
    "services": [
      "Asian-owned Vegan catering in New-Jersey consultation",
      "Professional service",
      "Quality guarantee"
    ],
    "social_links": {}
  }
]