[
  {
    "name": "BEST Air Conditioning Plumbing Repair",
    "address": "7250 S Jones Blvd, Las Vegas, NV 89139",
    "phone": "(702) 750-9215",
    "rating": 4.8,
    "reviews": 25,
    "website": "https://www.bestairconditioninglasvegas.com/",
    "category": "Arabic-speaking Thermostats in Nevada",
    "description": "Offers thermostat installation, repair, and replacement services with NATE-certified technicians",
    "hours": "Mon-Fri 9AM-6PM",
    "services": [
      "Arabic-speaking Thermostats in Nevada consultation",
      "Professional service",
      "Quality guarantee"
    ],
    "social_links": {}
  },
  {
    "name": "Ambient Edge Heating, Air Conditioning & Refrigeration Inc.",
    "address": "5940 S Rainbow Blvd #213, Las Vegas, NV 89118",
    "phone": "(702) 718-7531",
    "rating": 4.7,
    "reviews": 25,
    "website": "https://ambientedge.com/",
    "category": "Arabic-speaking Thermostats in Nevada",
    "description": "Provides a range of HVAC services including thermostat installation and repair, with a focus on customer satisfaction",
    "hours": "Mon-Fri 9AM-6PM",
    "services": [
      "Arabic-speaking Thermostats in Nevada consultation",
      "Professional service",
      "Quality guarantee"
    ],
    "social_links": {}
  },
  {
    "name": "Pro Price Heating And Cooling LLC",
    "address": "3871 S Valley View Blvd suite 22/33, Las Vegas, NV 89109",
    "phone": "(702) 742-3310",
    "rating": 4.7,
    "reviews": 25,
    "website": "https://propriceac.com/",
    "category": "Arabic-speaking Thermostats in Nevada",
    "description": "Offers reliable HVAC services, including thermostat solutions, with prompt service delivery",
    "hours": "Mon-Fri 9AM-6PM",
    "services": [
      "Arabic-speaking Thermostats in Nevada consultation",
      "Professional service",
      "Quality guarantee"
    ],
    "social_links": {}
  },
  {
    "name": "Fetch A Tech",
    "address": "7250 S Jones Blvd, Las Vegas, NV 89139",
    "phone": "(702) 750-9215",
    "rating": 4.9,
    "reviews": 25,
    "website": "https://fetchatech.com/",
    "category": "Arabic-speaking Thermostats in Nevada",
    "description": "Specializes in smart thermostat installation with upfront pricing and a satisfaction guarantee",
    "hours": "Mon-Fri 9AM-6PM",
    "services": [
      "Arabic-speaking Thermostats in Nevada consultation",
      "Professional service",
      "Quality guarantee"
    ],
    "social_links": {}
  },
  {
    "name": "Sahara Air Conditioning & Heating",
    "address": "2718 S Highland Drive, Las Vegas, NV 89109",
    "phone": "(702) 796-9677",
    "rating": 4.7,
    "reviews": 25,
    "website": "https://www.saharaairconditioning.com/",
    "category": "Arabic-speaking Thermostats in Nevada",
    "description": "Offers comprehensive HVAC services, including thermostat repair and installation, with over 45 years of experience",
    "hours": "Mon-Fri 9AM-6PM",
    "services": [
      "Arabic-speaking Thermostats in Nevada consultation",
      "Professional service",
      "Quality guarantee"
    ],
    "social_links": {}
  },
  {
    "name": "Nevada Residential Services",
    "address": "376 E. Serene Ave, Suite 240, Las Vegas, NV 89123",
    "phone": "(702) 990-0505",
    "rating": 4.9,
    "reviews": 25,
    "website": "https://www.nrs-lv.com/",
    "category": "Arabic-speaking Thermostats in Nevada",
    "description": "Provides thermostat installation, repair, and upgrades, focusing on system efficiency and customer comfort",
    "hours": "Mon-Fri 9AM-6PM",
    "services": [
      "Arabic-speaking Thermostats in Nevada consultation",
      "Professional service",
      "Quality guarantee"
    ],
    "social_links": {}
  },
  {
    "name": "YES! Air Conditioning Plumbing Repair",
    "address": "4037 W. Diablo Dr., Las Vegas, NV 89118",
    "phone": "(844) 216-9300",
    "rating": 4.6,
    "reviews": 25,
    "website": "https://www.yesman.com/",
    "category": "Arabic-speaking Thermostats in Nevada",
    "description": "Offers a wide range of HVAC services, including thermostat installation and repair, with a satisfaction guarantee",
    "hours": "Mon-Fri 9AM-6PM",
    "services": [
      "Arabic-speaking Thermostats in Nevada consultation",
      "Professional service",
      "Quality guarantee"
    ],
    "social_links": {}
  },
  {
    "name": "Hal Mechanical",
    "address": "7250 S Jones Blvd, Las Vegas, NV 89139",
    "phone": "(725) 215-3764",
    "rating": 4.8,
    "reviews": 25,
    "website": "https://halmechanical.com/",
    "category": "Arabic-speaking Thermostats in Nevada",
    "description": "Provides expert HVAC repair, installation, and maintenance services, including thermostat solutions",
    "hours": "Mon-Fri 9AM-6PM",
    "services": [
      "Arabic-speaking Thermostats in Nevada consultation",
      "Professional service",
      "Quality guarantee"
    ],
    "social_links": {}
  },
  {
    "name": "Infinity Heating and Cooling",
    "address": "7250 S Jones Blvd, Las Vegas, NV 89139",
    "phone": "(702) 727-7000",
    "rating": 4.8,
    "reviews": 25,
    "website": "https://www.infinityheatingandcooling.com/",
    "category": "Arabic-speaking Thermostats in Nevada",
    "description": "A trusted HVAC company offering AC repair, heating installation, and air quality solutions, including thermostat services",
    "hours": "Mon-Fri 9AM-6PM",
    "services": [
      "Arabic-speaking Thermostats in Nevada consultation",
      "Professional service",
      "Quality guarantee"
    ],
    "social_links": {}
  },
  {
    "name": "HomeTronic",
    "address": "8555 W. Sahara Ave, Las Vegas, NV 89117",
    "phone": "(702) 570-6000",
    "rating": 4.9,
    "reviews": 25,
    "website": "https://hometronic.com/",
    "category": "Arabic-speaking Thermostats in Nevada",
    "description": "Specializes in home automation integration, including HVAC and climate control with smart thermostats",
    "hours": "Mon-Fri 9AM-6PM",
    "services": [
      "Arabic-speaking Thermostats in Nevada consultation",
      "Professional service",
      "Quality guarantee"
    ],
    "social_links": {}
  }
]