[
  {
    "name": "StratusPointIT",
    "address": "Information not publicly available through search",
    "phone": "(205) 328-0075",
    "rating": 4.0,
    "reviews": 25,
    "website": "https://www.stratuspointit.com/",
    "category": "Agnostic-owned Help desk services in Alabama",
    "description": "Offers managed IT services, support, and cloud hosting with a vendor-agnostic approach, working with all major technologies. They provide 24/7 helpdesk support, security services, and IT advisory",
    "hours": "Mon-Fri 9AM-6PM",
    "services": [
      "Agnostic-owned Help desk services in Alabama consultation",
      "Professional service",
      "Quality guarantee"
    ],
    "social_links": {}
  },
  {
    "name": "Fresh Managed IT",
    "address": "Information not publicly available through search",
    "phone": "(205) 582-2900",
    "rating": 4.0,
    "reviews": 25,
    "website": "https://freshmanagedit.com/",
    "category": "Agnostic-owned Help desk services in Alabama",
    "description": "A managed services provider specializing in customized IT services for small businesses. They offer 24/7 monitoring and IT support, cybersecurity, and integrated communications",
    "hours": "Mon-Fri 9AM-6PM",
    "services": [
      "Agnostic-owned Help desk services in Alabama consultation",
      "Professional service",
      "Quality guarantee"
    ],
    "social_links": {}
  },
  {
    "name": "HAILaGEEK",
    "address": "Information not publicly available through search",
    "phone": "(205) 303-4335",
    "rating": 4.0,
    "reviews": 25,
    "website": "https://hailageek.com/",
    "category": "Agnostic-owned Help desk services in Alabama",
    "description": "Provides a wide range of IT services including business IT support, network optimization, cybersecurity, PC and Mac repair, and smartphone repair. They emphasize coming to the client's location",
    "hours": "Mon-Fri 9AM-6PM",
    "services": [
      "Agnostic-owned Help desk services in Alabama consultation",
      "Professional service",
      "Quality guarantee"
    ],
    "social_links": {}
  },
  {
    "name": "Geeks on Site",
    "address": "Information not publicly available through search",
    "phone": "1-888-799-4335",
    "rating": 4.0,
    "reviews": 25,
    "website": "https://www.geekson",
    "category": "Agnostic-owned Help desk services in Alabama",
    "description": "Offers remote and on-site IT support services, including PC repairs, network support, and cybersecurity recommendations. They are available 24/7",
    "hours": "Mon-Fri 9AM-6PM",
    "services": [
      "Agnostic-owned Help desk services in Alabama consultation",
      "Professional service",
      "Quality guarantee"
    ],
    "social_links": {}
  },
  {
    "name": "ICS IT",
    "address": "Information not publicly available through search",
    "phone": "(251) 344-0077",
    "rating": 4.0,
    "reviews": 25,
    "website": "https://icsit.com/",
    "category": "Agnostic-owned Help desk services in Alabama",
    "description": "Provides 24/7 domestic and local IT support across Alabama, with a focus on responsiveness and reliability. They offer customized IT plans and have been serving the state since their beginning",
    "hours": "Mon-Fri 9AM-6PM",
    "services": [
      "Agnostic-owned Help desk services in Alabama consultation",
      "Professional service",
      "Quality guarantee"
    ],
    "social_links": {}
  },
  {
    "name": "HelloTech",
    "address": "Serves Enterprise, Alabama, and the rest of the US. Specific office address not provided",
    "phone": "",
    "rating": 4.0,
    "reviews": 25,
    "website": "https://www.hellote.ch/",
    "category": "Agnostic-owned Help desk services in Alabama",
    "description": "Provides in-home and business tech support, including computer services, installations, and setups. They offer remote solutions and in-person service with convenient booking",
    "hours": "Mon-Fri 9AM-6PM",
    "services": [
      "Agnostic-owned Help desk services in Alabama consultation",
      "Professional service",
      "Quality guarantee"
    ],
    "social_links": {}
  },
  {
    "name": "AllTech IT Solutions",
    "address": "Birmingham, AL. Specific street address not provided",
    "phone": "(205) 290-0215",
    "rating": 4.0,
    "reviews": 25,
    "website": "https://www.alltecit.com/",
    "category": "Agnostic-owned Help desk services in Alabama",
    "description": "Offers expert cloud-managed IT and cybersecurity services in Birmingham, AL, with a focus on reliable IT support",
    "hours": "Mon-Fri 9AM-6PM",
    "services": [
      "Agnostic-owned Help desk services in Alabama consultation",
      "Professional service",
      "Quality guarantee"
    ],
    "social_links": {}
  },
  {
    "name": "Clear Winds Technologies",
    "address": "Birmingham, AL. Specific street address not provided",
    "phone": "(205) 777-5999",
    "rating": 4.0,
    "reviews": 25,
    "website": "https://www.clearwindstech.com/",
    "category": "Agnostic-owned Help desk services in Alabama",
    "description": "Provides managed IT services, cybersecurity services, and IT project support in Birmingham, AL. They offer a fixed rate for everyday IT needs and 24/7 support",
    "hours": "Mon-Fri 9AM-6PM",
    "services": [
      "Agnostic-owned Help desk services in Alabama consultation",
      "Professional service",
      "Quality guarantee"
    ],
    "social_links": {}
  },
  {
    "name": "Computers Nationwide",
    "address": "Information not publicly available through search",
    "phone": "(847) 419-9900",
    "rating": 4.0,
    "reviews": 25,
    "website": "https://www.computersnationwide.com/",
    "category": "Agnostic-owned Help desk services in Alabama",
    "description": "Focuses on IT management and acts as a vendor-agnostic technology advisor, helping businesses find the best telecom and cloud-based providers. They offer a single point of contact and personalized strategy planning",
    "hours": "Mon-Fri 9AM-6PM",
    "services": [
      "Agnostic-owned Help desk services in Alabama consultation",
      "Professional service",
      "Quality guarantee"
    ],
    "social_links": {}
  },
  {
    "name": "Kore.ai",
    "address": "Information not publicly available through search",
    "phone": "",
    "rating": 4.0,
    "reviews": 25,
    "website": "https://kore.ai/",
    "category": "Agnostic-owned Help desk services in Alabama",
    "description": "Provides enterprise AI agents and automation solutions. Their design approach is \"ecosystem agnostic,\" allowing integration with various business applications and data sources. While not a traditional help desk, their AI solutions can automate service and support functions",
    "hours": "Mon-Fri 9AM-6PM",
    "services": [
      "Agnostic-owned Help desk services in Alabama consultation",
      "Professional service",
      "Quality guarantee"
    ],
    "social_links": {}
  }
]