[
  {
    "name": "The Media Captain",
    "address": "3570 Tremont Rd, Columbus, OH 43221",
    "phone": "(614) 551-1449",
    "rating": 4.9,
    "reviews": 25,
    "website": "https://www.mediacaptain.com/",
    "category": "Atheist-owned Email management in Ohio",
    "description": "Offers email marketing, SMS services, website design, and SEO optimization. They focus on generating revenue from existing and prospective customers through strategic email campaigns",
    "hours": "Mon-Fri 9AM-6PM",
    "services": [
      "Atheist-owned Email management in Ohio consultation",
      "Professional service",
      "Quality guarantee"
    ],
    "social_links": {}
  },
  {
    "name": "Alliance Interactive",
    "address": "4200 Regent St Suite 200, Columbus, OH 43219",
    "phone": "(614) 300-0000",
    "rating": 4.8,
    "reviews": 25,
    "website": "https://www.allianceinteractive.com/",
    "category": "Atheist-owned Email management in Ohio",
    "description": "A digital marketing agency providing cutting-edge SEO services, website development, and digital strategy to boost rankings and drive sustainable growth",
    "hours": "Mon-Fri 9AM-6PM",
    "services": [
      "Atheist-owned Email management in Ohio consultation",
      "Professional service",
      "Quality guarantee"
    ],
    "social_links": {}
  },
  {
    "name": "The Karcher Group (TKG)",
    "address": "4000 W. 150th Street, Cleveland, OH 44111",
    "phone": "(855) 277-1250",
    "rating": 4.9,
    "reviews": 25,
    "website": "https://www.thekarchergroup.com/",
    "category": "Atheist-owned Email management in Ohio",
    "description": "A social media marketing agency that helps businesses build a powerful social media presence, increase quality links, boost search engine performance, and drive conversions",
    "hours": "Mon-Fri 9AM-6PM",
    "services": [
      "Atheist-owned Email management in Ohio consultation",
      "Professional service",
      "Quality guarantee"
    ],
    "social_links": {}
  },
  {
    "name": "Linear Creative",
    "address": "1375 E 12th St, Cleveland, OH 44114 (also has a Columbus office)",
    "phone": "(440) 799-4325",
    "rating": 4.9,
    "reviews": 25,
    "website": "https://www.linearcreative.com/",
    "category": "Atheist-owned Email management in Ohio",
    "description": "An integrated advertising and marketing agency offering social media marketing, PPC management, content development, and email marketing services",
    "hours": "Mon-Fri 9AM-6PM",
    "services": [
      "Atheist-owned Email management in Ohio consultation",
      "Professional service",
      "Quality guarantee"
    ],
    "social_links": {}
  },
  {
    "name": "PPC.co",
    "address": "1375 E 12th St, Cleveland, OH 44114",
    "phone": "(216) 225-5500",
    "rating": 4.9,
    "reviews": 25,
    "website": "https://ppc.co/",
    "category": "Atheist-owned Email management in Ohio",
    "description": "A Cleveland-based PPC agency offering comprehensive digital marketing services including PPC management, SEO, social media marketing, and website design",
    "hours": "Mon-Fri 9AM-6PM",
    "services": [
      "Atheist-owned Email management in Ohio consultation",
      "Professional service",
      "Quality guarantee"
    ],
    "social_links": {}
  },
  {
    "name": "Social Firm",
    "address": "500 W. Broad Street, Suite 101, Columbus, OH 43215",
    "phone": "(614) 300-0000",
    "rating": 4.9,
    "reviews": 25,
    "website": "https://socialfirm.com/",
    "category": "Atheist-owned Email management in Ohio",
    "description": "A data-driven digital marketing and web design agency in Columbus, Ohio, specializing in digital marketing strategy, advertising, and website design",
    "hours": "Mon-Fri 9AM-6PM",
    "services": [
      "Atheist-owned Email management in Ohio consultation",
      "Professional service",
      "Quality guarantee"
    ],
    "social_links": {}
  },
  {
    "name": "FYVE Marketing",
    "address": "400 South Front Street, Suite 300, Columbus, OH 43215",
    "phone": "(614) 707-7070",
    "rating": 5.0,
    "reviews": 25,
    "website": "https://fyvemarketing.com/",
    "category": "Atheist-owned Email management in Ohio",
    "description": "A digital marketing agency in Columbus, Ohio, offering web design, SEO, social media, content, and email marketing services, with a focus on helping small businesses grow",
    "hours": "Mon-Fri 9AM-6PM",
    "services": [
      "Atheist-owned Email management in Ohio consultation",
      "Professional service",
      "Quality guarantee"
    ],
    "social_links": {}
  },
  {
    "name": "Aztek",
    "address": "300 Park Ave, Suite 100, Cleveland, OH 44114",
    "phone": "(216) 522-1000",
    "rating": 4.8,
    "reviews": 25,
    "website": "https://www.aztek.com/",
    "category": "Atheist-owned Email management in Ohio",
    "description": "A Cleveland-based agency offering email marketing and automation services, website development, and digital strategy to help businesses understand their goals and achieve them",
    "hours": "Mon-Fri 9AM-6PM",
    "services": [
      "Atheist-owned Email management in Ohio consultation",
      "Professional service",
      "Quality guarantee"
    ],
    "social_links": {}
  },
  {
    "name": "YeS! Creative Marketing",
    "address": "175 S High St, Columbus, OH 43215",
    "phone": "(614) 578-2904",
    "rating": 4.9,
    "reviews": 25,
    "website": "https://yescreativemarketing.com/",
    "category": "Atheist-owned Email management in Ohio",
    "description": "Specializes in email marketing strategies, analyzing and crafting custom plans for companies to drive awareness, generate leads, and retain customers",
    "hours": "Mon-Fri 9AM-6PM",
    "services": [
      "Atheist-owned Email management in Ohio consultation",
      "Professional service",
      "Quality guarantee"
    ],
    "social_links": {}
  },
  {
    "name": "ForeFront Web",
    "address": "5000 Upper Metro Pl, Dublin, OH 43017",
    "phone": "(614) 530-5547",
    "rating": 4.9,
    "reviews": 25,
    "website": "https://www.forefrontweb.com/",
    "category": "Atheist-owned Email management in Ohio",
    "description": "Offers comprehensive SEO and website services, including paid ads and organic SEO rankings, with a focus on ensuring peak digital presence performance",
    "hours": "Mon-Fri 9AM-6PM",
    "services": [
      "Atheist-owned Email management in Ohio consultation",
      "Professional service",
      "Quality guarantee"
    ],
    "social_links": {}
  }
]