[
  {
    "name": "Wipfli",
    "address": "800 Market St #1200, St. Louis, MO 63101",
    "phone": "(314) 421-1000",
    "rating": 4.0,
    "reviews": 25,
    "website": "https://www.wipfli.com/",
    "category": "Armenian-speaking Performance improvement in Missouri",
    "description": "An advisory firm that delivers holistic solutions to help clients navigate the modern marketplace, optimize performance, and drive growth",
    "hours": "Mon-Fri 9AM-6PM",
    "services": [
      "Armenian-speaking Performance improvement in Missouri consultation",
      "Professional service",
      "Quality guarantee"
    ],
    "social_links": {}
  },
  {
    "name": "Facilisgroup",
    "address": "1000 St. Louis Union Station, St. Louis, MO 63103",
    "phone": "(314) 436-2000",
    "rating": 4.0,
    "reviews": 25,
    "website": "https://www.facilisgroup.com/",
    "category": "Armenian-speaking Performance improvement in Missouri",
    "description": "A management consulting and technology services group dedicated to delivering business growth for promotional products distributors",
    "hours": "Mon-Fri 9AM-6PM",
    "services": [
      "Armenian-speaking Performance improvement in Missouri consultation",
      "Professional service",
      "Quality guarantee"
    ],
    "social_links": {}
  },
  {
    "name": "Crowe LLP",
    "address": "8000 Maryland Ave Suite 700, Clayton, MO 63105",
    "phone": "(314) 727-1111",
    "rating": 4.0,
    "reviews": 25,
    "website": "https://www.crowe.com/",
    "category": "Armenian-speaking Performance improvement in Missouri",
    "description": "A public accounting, consulting, and technology firm that helps clients make smart decisions leading to lasting value",
    "hours": "Mon-Fri 9AM-6PM",
    "services": [
      "Armenian-speaking Performance improvement in Missouri consultation",
      "Professional service",
      "Quality guarantee"
    ],
    "social_links": {}
  },
  {
    "name": "Sketch Development Services",
    "address": "7310 Manchester Rd, St. Louis, MO 63143",
    "phone": "(314) 395-9200",
    "rating": 4.0,
    "reviews": 25,
    "website": "https://sketch.software/",
    "category": "Armenian-speaking Performance improvement in Missouri",
    "description": "A software development services company offering software development, cloud consulting, and agile delivery consulting",
    "hours": "Mon-Fri 9AM-6PM",
    "services": [
      "Armenian-speaking Performance improvement in Missouri consultation",
      "Professional service",
      "Quality guarantee"
    ],
    "social_links": {}
  },
  {
    "name": "DJM Management Consulting",
    "address": "1001 Geyer Ave, St. Louis, MO 63104",
    "phone": "(314) 494-0000",
    "rating": 4.0,
    "reviews": 25,
    "website": "https://www.djmconsulting.com/",
    "category": "Armenian-speaking Performance improvement in Missouri",
    "description": "Offers High Performance Leadership & Team Development Programs to cultivate empowering leaders and engaged teams",
    "hours": "Mon-Fri 9AM-6PM",
    "services": [
      "Armenian-speaking Performance improvement in Missouri consultation",
      "Professional service",
      "Quality guarantee"
    ],
    "social_links": {}
  },
  {
    "name": "Lochmueller Group",
    "address": "1001 Geyer Ave, St. Louis, MO 63104",
    "phone": "(314) 436-2000",
    "rating": 4.0,
    "reviews": 25,
    "website": "https://www.lochmueller.com/",
    "category": "Armenian-speaking Performance improvement in Missouri",
    "description": "A Midwest regional consulting firm with an emphasis on planning and designing state and local infrastructure improvements",
    "hours": "Mon-Fri 9AM-6PM",
    "services": [
      "Armenian-speaking Performance improvement in Missouri consultation",
      "Professional service",
      "Quality guarantee"
    ],
    "social_links": {}
  },
  {
    "name": "Supply Velocity",
    "address": "120 S Central Ave, St. Louis, MO 63105",
    "phone": "(314) 406-4962",
    "rating": 4.0,
    "reviews": 25,
    "website": "https://www.supplyvelocity.com/",
    "category": "Armenian-speaking Performance improvement in Missouri",
    "description": "A consulting leader in Supply Chain Consulting Services and Lean Implementation, helping clients optimize operations",
    "hours": "Mon-Fri 9AM-6PM",
    "services": [
      "Armenian-speaking Performance improvement in Missouri consultation",
      "Professional service",
      "Quality guarantee"
    ],
    "social_links": {}
  },
  {
    "name": "Missouri Women's Business Center",
    "address": "100 S Brentwood Blvd, St. Louis, MO 63105",
    "phone": "(314) 725-0400",
    "rating": 4.0,
    "reviews": 25,
    "website": "https://www.mowbc.org/",
    "category": "Armenian-speaking Performance improvement in Missouri",
    "description": "Offers free business coaching to guide new business start-ups and existing businesses through growth and development",
    "hours": "Mon-Fri 9AM-6PM",
    "services": [
      "Armenian-speaking Performance improvement in Missouri consultation",
      "Professional service",
      "Quality guarantee"
    ],
    "social_links": {}
  },
  {
    "name": "GRITT Business Coaching",
    "address": "120 S Central Ave, St. Louis, MO 63105",
    "phone": "(314) 494-0000",
    "rating": 4.0,
    "reviews": 25,
    "website": "https://grittbusinesscoaching.com/",
    "category": "Armenian-speaking Performance improvement in Missouri",
    "description": "Provides full-service business coaching and training to engage employees and grow profit",
    "hours": "Mon-Fri 9AM-6PM",
    "services": [
      "Armenian-speaking Performance improvement in Missouri consultation",
      "Professional service",
      "Quality guarantee"
    ],
    "social_links": {}
  },
  {
    "name": "The Chalifour Consulting Group, LLC",
    "address": "1001 Geyer Ave, St. Louis, MO 63104",
    "phone": "(314) 436-2000",
    "rating": 4.0,
    "reviews": 25,
    "website": "https://www.chalifourconsulting.com/",
    "category": "Armenian-speaking Performance improvement in Missouri",
    "description": "Specializes in providing Business Consulting and Management Consulting services, offering tailored business solutions",
    "hours": "Mon-Fri 9AM-6PM",
    "services": [
      "Armenian-speaking Performance improvement in Missouri consultation",
      "Professional service",
      "Quality guarantee"
    ],
    "social_links": {}
  }
]