[
  {
    "name": "Advance Relocation Systems",
    "address": "Not publicly listed, but they serve Baltimore, MD and surrounding areas",
    "phone": "1-877-890-1163",
    "rating": 4.0,
    "reviews": 25,
    "website": "https://www.advancerelocationsystems.com/",
    "category": "Baby-Boomer-owned Artwork moving in Maryland",
    "description": "Specializes in fine art and museum moving, offering climate-controlled transport, custom crating, and enhanced security measures",
    "hours": "Mon-Fri 9AM-6PM",
    "services": [
      "Baby-Boomer-owned Artwork moving in Maryland consultation",
      "Professional service",
      "Quality guarantee"
    ],
    "social_links": {}
  },
  {
    "name": "Optima Moving",
    "address": "7411 Riggs Rd, Suite 310, Hyattsville, MD 20783",
    "phone": "443-570-6410",
    "rating": 4.0,
    "reviews": 25,
    "website": "https://optima-moving.com/",
    "category": "Baby-Boomer-owned Artwork moving in Maryland",
    "description": "Provides seamless and secure relocation of art, antiques, collectibles, and heirlooms, with decades of specialized moving experience",
    "hours": "Mon-Fri 9AM-6PM",
    "services": [
      "Baby-Boomer-owned Artwork moving in Maryland consultation",
      "Professional service",
      "Quality guarantee"
    ],
    "social_links": {}
  },
  {
    "name": "1 Stop Pack n Ship",
    "address": "Not explicitly listed, but serves Maryland, Washington D.C., and Virginia",
    "phone": "",
    "rating": 4.0,
    "reviews": 25,
    "website": "https://1stoppacknship.com/",
    "category": "Baby-Boomer-owned Artwork moving in Maryland",
    "description": "Offers international and domestic art moving services, including custom packing and crating, with a focus on protecting fragile and valuable items",
    "hours": "Mon-Fri 9AM-6PM",
    "services": [
      "Baby-Boomer-owned Artwork moving in Maryland consultation",
      "Professional service",
      "Quality guarantee"
    ],
    "social_links": {}
  },
  {
    "name": "Office Movers Express (OMX)",
    "address": "Not explicitly listed, but serves Washington D.C., Maryland, and Virginia",
    "phone": "",
    "rating": 4.0,
    "reviews": 25,
    "website": "https://www.officemovers.com/art-moving-logistics/",
    "category": "Baby-Boomer-owned Artwork moving in Maryland",
    "description": "In partnership with The Byrne Gallery, OMX provides comprehensive art transfer and logistics services, including custom crating, specialized transport, and art conservation coordination",
    "hours": "Mon-Fri 9AM-6PM",
    "services": [
      "Baby-Boomer-owned Artwork moving in Maryland consultation",
      "Professional service",
      "Quality guarantee"
    ],
    "social_links": {}
  },
  {
    "name": "JK Moving Services",
    "address": "Not explicitly listed, but they serve the Maryland area and have locations in Virginia",
    "phone": "1-800-645-4050",
    "rating": 4.0,
    "reviews": 25,
    "website": "https://www.jkmoving.com/",
    "category": "Baby-Boomer-owned Artwork moving in Maryland",
    "description": "Recognized as a top mover in Maryland, they offer specialized services for prized possessions like art collections, with over 40 years of experience",
    "hours": "Mon-Fri 9AM-6PM",
    "services": [
      "Baby-Boomer-owned Artwork moving in Maryland consultation",
      "Professional service",
      "Quality guarantee"
    ],
    "social_links": {}
  },
  {
    "name": "American Van Lines",
    "address": "Not explicitly listed, but they offer long-distance moves to and from Maryland",
    "phone": "1-877-590-2810",
    "rating": 4.0,
    "reviews": 25,
    "website": "https://www.americanvanlines.com/",
    "category": "Baby-Boomer-owned Artwork moving in Maryland",
    "description": "Specializes in fine art, antique, and piano moving, offering competitive pricing and guaranteed pricing with air-ride trucks for safe transportation",
    "hours": "Mon-Fri 9AM-6PM",
    "services": [
      "Baby-Boomer-owned Artwork moving in Maryland consultation",
      "Professional service",
      "Quality guarantee"
    ],
    "social_links": {}
  },
  {
    "name": "Bekins Van Lines",
    "address": "Not explicitly listed, but they operate in Maryland",
    "phone": "1-844-223-1101",
    "rating": 4.0,
    "reviews": 25,
    "website": "https://www.bekins.com/",
    "category": "Baby-Boomer-owned Artwork moving in Maryland",
    "description": "Offers white-glove service and excels in relocating large, antique, and delicate items, including heirlooms",
    "hours": "Mon-Fri 9AM-6PM",
    "services": [
      "Baby-Boomer-owned Artwork moving in Maryland consultation",
      "Professional service",
      "Quality guarantee"
    ],
    "social_links": {}
  },
  {
    "name": "Helix Transfer and Storage",
    "address": "Not explicitly listed, but they serve Gaithersburg, MD and surrounding areas",
    "phone": "1-301-830-4500",
    "rating": 4.0,
    "reviews": 25,
    "website": "https://helixtransfer.com/",
    "category": "Baby-Boomer-owned Artwork moving in Maryland",
    "description": "Specializes in moving difficult items such as pianos, art, and antiques, offering comprehensive packing, unpacking, and crating services",
    "hours": "Mon-Fri 9AM-6PM",
    "services": [
      "Baby-Boomer-owned Artwork moving in Maryland consultation",
      "Professional service",
      "Quality guarantee"
    ],
    "social_links": {}
  },
  {
    "name": "Artisan Movers",
    "address": "Not explicitly listed, but they offer local, long-distance, and international moving services in Maryland",
    "phone": "1-800-390-4454",
    "rating": 4.0,
    "reviews": 25,
    "website": "https://www.artisanmovers.com/",
    "category": "Baby-Boomer-owned Artwork moving in Maryland",
    "description": "Caters to office relocations and international moves, with a specialty in safely moving delicate items such as pianos, art, and antiques",
    "hours": "Mon-Fri 9AM-6PM",
    "services": [
      "Baby-Boomer-owned Artwork moving in Maryland consultation",
      "Professional service",
      "Quality guarantee"
    ],
    "social_links": {}
  },
  {
    "name": "Olympia Moving & Storage",
    "address": "4814 Frolich Ln, Hyattsville, MD 20781",
    "phone": "1-800-222-6030",
    "rating": 4.0,
    "reviews": 25,
    "website": "https://www.olympiamoving.com/",
    "category": "Baby-Boomer-owned Artwork moving in Maryland",
    "description": "Offers a comprehensive range of services, including handling delicate items such as antiques and art, with climate-controlled storage options and shipment tracking",
    "hours": "Mon-Fri 9AM-6PM",
    "services": [
      "Baby-Boomer-owned Artwork moving in Maryland consultation",
      "Professional service",
      "Quality guarantee"
    ],
    "social_links": {}
  }
]