[
  {
    "name": "Advanced Dental Implant and TMJ Center",
    "address": "7050 Southcrest Parkway, Southaven, MS 38671",
    "phone": "(662) 544-7451",
    "rating": 4.9,
    "reviews": 25,
    "website": "https://www.advanceddentalimplant.com/",
    "category": "Asian-owned Dental implants in Mississippi",
    "description": "Offers dental implants and TMJ treatment with a focus on patient comfort and advanced techniques",
    "hours": "Mon-Fri 9AM-6PM",
    "services": [
      "Asian-owned Dental implants in Mississippi consultation",
      "Professional service",
      "Quality guarantee"
    ],
    "social_links": {}
  },
  {
    "name": "Maharrey & Bauer Oral Surgery",
    "address": "1043 South Madison Street, Tupelo, MS 38801",
    "phone": "(662) 844-1100",
    "rating": 5.0,
    "reviews": 25,
    "website": "https://www.maharreybaueroralsurgery.com/",
    "category": "Asian-owned Dental implants in Mississippi",
    "description": "Provides oral surgery, including dental implants, with a focus on patient care and detailed explanations of procedures",
    "hours": "Mon-Fri 9AM-6PM",
    "services": [
      "Asian-owned Dental implants in Mississippi consultation",
      "Professional service",
      "Quality guarantee"
    ],
    "social_links": {}
  },
  {
    "name": "John A. Smith, DDS - Mississippi Mini Dental Implants",
    "address": "1000 W. Main Street, Ste 100, Grenada, MS 38901",
    "phone": "(662) 455-9149",
    "rating": 4.0,
    "reviews": 25,
    "website": "https://www.minidentalimplantsms.com/",
    "category": "Asian-owned Dental implants in Mississippi",
    "description": "Specializes in mini dental implants, offering a less invasive option for tooth replacement",
    "hours": "Mon-Fri 9AM-6PM",
    "services": [
      "Asian-owned Dental implants in Mississippi consultation",
      "Professional service",
      "Quality guarantee"
    ],
    "social_links": {}
  },
  {
    "name": "South Mississippi Oral Surgery and Implant Center",
    "address": "11280 E Taylor Road, Suite B, Gulfport, MS 39503",
    "phone": "(228) 868-9615",
    "rating": 5.0,
    "reviews": 25,
    "website": "https://www.southmsoralsurgery.com/",
    "category": "Asian-owned Dental implants in Mississippi",
    "description": "Offers comprehensive oral surgery and implant dentistry with a focus on patient comfort and expert care",
    "hours": "Mon-Fri 9AM-6PM",
    "services": [
      "Asian-owned Dental implants in Mississippi consultation",
      "Professional service",
      "Quality guarantee"
    ],
    "social_links": {}
  },
  {
    "name": "Affordable Dentures & Implants (Flowood)",
    "address": "100 Stone Creek Crossing, Flowood, MS 39232",
    "phone": "(601) 488-4500",
    "rating": 4.5,
    "reviews": 25,
    "website": "https://www.affordabledentures.com/dentures-and-implants/ms/flowood/100-stone-creek-crossing",
    "category": "Asian-owned Dental implants in Mississippi",
    "description": "Provides affordable dentures and implant solutions with a focus on patient satisfaction and accessible pricing",
    "hours": "Mon-Fri 9AM-6PM",
    "services": [
      "Asian-owned Dental implants in Mississippi consultation",
      "Professional service",
      "Quality guarantee"
    ],
    "social_links": {}
  },
  {
    "name": "Advanced Dental Clinic",
    "address": "655 South Pear Orchard Road, Suite 100, Ridgeland, MS 39157",
    "phone": "(601) 206-1112",
    "rating": 4.0,
    "reviews": 25,
    "website": "https://www.advanceddentalclinic.com/",
    "category": "Asian-owned Dental implants in Mississippi",
    "description": "Offers a range of dental services, including implants, with a commitment to dental excellence and high treatment success rates. Dr. Lynn Nguyen is mentioned as a dentist here",
    "hours": "Mon-Fri 9AM-6PM",
    "services": [
      "Asian-owned Dental implants in Mississippi consultation",
      "Professional service",
      "Quality guarantee"
    ],
    "social_links": {}
  },
  {
    "name": "Dr. Sung Yoon, DDS",
    "address": "100 Stone Creek Crossing, Flowood, MS 39232",
    "phone": "(601) 488-4500",
    "rating": 2.0,
    "reviews": 25,
    "website": "https://www.healthgrades.com/physician/dr-sung-yoon-2229768",
    "category": "Asian-owned Dental implants in Mississippi",
    "description": "A dentistry practitioner in Flowood, MS, accepting new patients",
    "hours": "Mon-Fri 9AM-6PM",
    "services": [
      "Asian-owned Dental implants in Mississippi consultation",
      "Professional service",
      "Quality guarantee"
    ],
    "social_links": {}
  },
  {
    "name": "East Mississippi Oral & Facial Surgery, LLC",
    "address": "1212 24th Avenue, Meridian, MS 39301",
    "phone": "(601) 485-2494",
    "rating": 4.0,
    "reviews": 25,
    "website": "https://www.eastmsoralsurgery.com/",
    "category": "Asian-owned Dental implants in Mississippi",
    "description": "Offers a full scope of oral and maxillofacial surgery, including dental implants and bone grafting. Dr. Asif A. Lala is a key practitioner",
    "hours": "Mon-Fri 9AM-6PM",
    "services": [
      "Asian-owned Dental implants in Mississippi consultation",
      "Professional service",
      "Quality guarantee"
    ],
    "social_links": {}
  },
  {
    "name": "Affordable Dentures & Implants (Gulfport)",
    "address": "505 Cowan Road, Gulfport, MS 39507",
    "phone": "(228) 260-0100",
    "rating": 4.0,
    "reviews": 25,
    "website": "https://www.affordabledentures.com/dentures-and-implants/ms/gulfport/505-cowan-road",
    "category": "Asian-owned Dental implants in Mississippi",
    "description": "Provides comprehensive and affordable denture and implant solutions, including repairs and maintenance",
    "hours": "Mon-Fri 9AM-6PM",
    "services": [
      "Asian-owned Dental implants in Mississippi consultation",
      "Professional service",
      "Quality guarantee"
    ],
    "social_links": {}
  },
  {
    "name": "Gulf Coast Periodontics & Implants",
    "address": "11280 E Taylor Road, Suite B, Gulfport, MS 39503",
    "phone": "(228) 868-9615",
    "rating": 5.0,
    "reviews": 25,
    "website": "https://www.gulfcoastperioimplants.com/",
    "category": "Asian-owned Dental implants in Mississippi",
    "description": "Offers specialty periodontal care and implant dentistry, including bone grafting and wisdom teeth removal",
    "hours": "Mon-Fri 9AM-6PM",
    "services": [
      "Asian-owned Dental implants in Mississippi consultation",
      "Professional service",
      "Quality guarantee"
    ],
    "social_links": {}
  }
]