[
  {
    "name": "Vermont Phone Repair",
    "address": "383 College Street, Burlington, VT 05401",
    "phone": "(802) 448-0893",
    "rating": 4.0,
    "reviews": 25,
    "website": "https://www.vermontphonerepair.com/",
    "category": "Alaska-Native-owned Tablet repair in Vermont",
    "description": "Offers same-day repair services for iPhones, iPads, Samsung, Google Pixels, and other Android devices. They specialize in screen and battery replacements, charging port repairs, and more",
    "hours": "Mon-Fri 9AM-6PM",
    "services": [
      "Alaska-Native-owned Tablet repair in Vermont consultation",
      "Professional service",
      "Quality guarantee"
    ],
    "social_links": {}
  },
  {
    "name": "Tech Medic VT",
    "address": "141 Main St, Middlebury, VT 05753 (Note: Address may vary, check their website for current locations)",
    "phone": "(802) 388-8000",
    "rating": 4.0,
    "reviews": 25,
    "website": "https://www.techmedicvt.com/",
    "category": "Alaska-Native-owned Tablet repair in Vermont",
    "description": "Provides expert repair services for computers, tablets, and phones, emphasizing high-quality parts and same-day service. They offer a repair guarantee",
    "hours": "Mon-Fri 9AM-6PM",
    "services": [
      "Alaska-Native-owned Tablet repair in Vermont consultation",
      "Professional service",
      "Quality guarantee"
    ],
    "social_links": {}
  },
  {
    "name": "Wizard Tech",
    "address": "113 College St, Burlington, VT 05401",
    "phone": "(802) 448-2365",
    "rating": 4.0,
    "reviews": 25,
    "website": "https://wizardtechvt.com/",
    "category": "Alaska-Native-owned Tablet repair in Vermont",
    "description": "Specializes in smartphone, computer, and tablet repair, including iPads. They offer estimates and have a physical location in Burlington",
    "hours": "Mon-Fri 9AM-6PM",
    "services": [
      "Alaska-Native-owned Tablet repair in Vermont consultation",
      "Professional service",
      "Quality guarantee"
    ],
    "social_links": {}
  },
  {
    "name": "Wires Computing",
    "address": "383 College Street, Burlington, VT 05401",
    "phone": "(802) 448-0403",
    "rating": 4.0,
    "reviews": 25,
    "website": "https://wirescomputing.com/",
    "category": "Alaska-Native-owned Tablet repair in Vermont",
    "description": "Provides Apple iPad repair services, including cracked screen replacements, battery replacements, and charging port repairs. They also offer smartphone repair services",
    "hours": "Mon-Fri 9AM-6PM",
    "services": [
      "Alaska-Native-owned Tablet repair in Vermont consultation",
      "Professional service",
      "Quality guarantee"
    ],
    "social_links": {}
  },
  {
    "name": "The Phone Depot",
    "address": "5047 Williston Road, Williston, VT 05495",
    "phone": "(802) 777-7784",
    "rating": 4.0,
    "reviews": 25,
    "website": "https://www.thephonedepotvt.com/",
    "category": "Alaska-Native-owned Tablet repair in Vermont",
    "description": "Offers smartphone and tablet repair, as well as some laptop repairs. They emphasize skilled technicians and cost-effective solutions",
    "hours": "Mon-Fri 9AM-6PM",
    "services": [
      "Alaska-Native-owned Tablet repair in Vermont consultation",
      "Professional service",
      "Quality guarantee"
    ],
    "social_links": {}
  },
  {
    "name": "MobiTech",
    "address": "13 Main St, Montpelier, VT 05602",
    "phone": "(802) 793-0799",
    "rating": 4.0,
    "reviews": 25,
    "website": "https://mobitechvt.com/",
    "category": "Alaska-Native-owned Tablet repair in Vermont",
    "description": "A mobile device and computer repair service in Montpelier, fixing all types of phones and iPads, including screen replacements, battery issues, and water damage",
    "hours": "Mon-Fri 9AM-6PM",
    "services": [
      "Alaska-Native-owned Tablet repair in Vermont consultation",
      "Professional service",
      "Quality guarantee"
    ],
    "social_links": {}
  },
  {
    "name": "Green Mountain Geek",
    "address": "St. Albans, VT 05478 (Specific address not provided, contact for details)",
    "phone": "(802) 466-2404",
    "rating": 4.0,
    "reviews": 25,
    "website": "https://www.greenmountaingeek.com/",
    "category": "Alaska-Native-owned Tablet repair in Vermont",
    "description": "Offers services for smartphones, tablets, and other portable devices, focusing on setup, troubleshooting, and general maintenance",
    "hours": "Mon-Fri 9AM-6PM",
    "services": [
      "Alaska-Native-owned Tablet repair in Vermont consultation",
      "Professional service",
      "Quality guarantee"
    ],
    "social_links": {}
  },
  {
    "name": "All Systems Repair",
    "address": "197 Main Street, Winooski, VT 05602",
    "phone": "(802) 654-9209",
    "rating": 4.0,
    "reviews": 25,
    "website": "https://www.allsyst.com/",
    "category": "Alaska-Native-owned Tablet repair in Vermont",
    "description": "A technology shop offering PC repair, service calls, and security and networking services. They repair laptops, desktops, and Apple computers",
    "hours": "Mon-Fri 9AM-6PM",
    "services": [
      "Alaska-Native-owned Tablet repair in Vermont consultation",
      "Professional service",
      "Quality guarantee"
    ],
    "social_links": {}
  },
  {
    "name": "Tech Medics (St. Albans)",
    "address": "St. Albans, VT (Specific address not provided, contact for details)",
    "phone": "",
    "rating": 4.0,
    "reviews": 25,
    "website": "https://www.techmedics.com/st-albans/",
    "category": "Alaska-Native-owned Tablet repair in Vermont",
    "description": "Provides expert repair services for iPhones, iPads, consoles, and more, with a focus on fast and reliable solutions",
    "hours": "Mon-Fri 9AM-6PM",
    "services": [
      "Alaska-Native-owned Tablet repair in Vermont consultation",
      "Professional service",
      "Quality guarantee"
    ],
    "social_links": {}
  },
  {
    "name": "iFix and Restore",
    "address": "Not explicitly stated, but serves the southeast VT and southwest NH region",
    "phone": "",
    "rating": 4.0,
    "reviews": 25,
    "website": "https://ifixandrestore.com/",
    "category": "Alaska-Native-owned Tablet repair in Vermont",
    "description": "Specializes in phone, tablet, and computer repair, with a focus on customer satisfaction and quick turnaround times. They handle Apple, Samsung, and Microsoft devices",
    "hours": "Mon-Fri 9AM-6PM",
    "services": [
      "Alaska-Native-owned Tablet repair in Vermont consultation",
      "Professional service",
      "Quality guarantee"
    ],
    "social_links": {}
  }
]