[
  {
    "name": "Northeast Autoworks",
    "address": "650 Bridgton Rd, Westbrook, ME 04092",
    "phone": "(207) 899-1355",
    "rating": 4.0,
    "reviews": 25,
    "website": "http://www.northeastautoworks.com/",
    "category": "Chinese-speaking Engine replacement in Maine",
    "description": "An independent, family-owned auto repair shop offering a wide range of services, including engine repair, brake repair, and preventive maintenance",
    "hours": "Mon-Fri 9AM-6PM",
    "services": [
      "Chinese-speaking Engine replacement in Maine consultation",
      "Professional service",
      "Quality guarantee"
    ],
    "social_links": {}
  },
  {
    "name": "Berube's Complete Auto Care",
    "address": "Multiple locations, including Lewiston/Auburn area",
    "phone": "(207) 782-1125 or (207) 576-4156 (text)",
    "rating": 4.0,
    "reviews": 25,
    "website": "http://www.berubesautocare.com/",
    "category": "Chinese-speaking Engine replacement in Maine",
    "description": "Offers a wide range of auto repair services, from diagnostics to complete vehicle maintenance, serving central Maine",
    "hours": "Mon-Fri 9AM-6PM",
    "services": [
      "Chinese-speaking Engine replacement in Maine consultation",
      "Professional service",
      "Quality guarantee"
    ],
    "social_links": {}
  },
  {
    "name": "Maine Auto Service",
    "address": "62 Western Ave, Waterville, ME 04901 and 512 Canal Street, Lewiston, ME 04240",
    "phone": "(207) 873-7777 (Waterville) or (207) 784-7777 (Lewiston)",
    "rating": 4.0,
    "reviews": 25,
    "website": "http://www.maineautoservice.com/",
    "category": "Chinese-speaking Engine replacement in Maine",
    "description": "A locally owned and operated auto and truck service center with ASE-certified technicians, offering services like brakes, tires, and oil changes",
    "hours": "Mon-Fri 9AM-6PM",
    "services": [
      "Chinese-speaking Engine replacement in Maine consultation",
      "Professional service",
      "Quality guarantee"
    ],
    "social_links": {}
  },
  {
    "name": "South China Collision & Auto Repair",
    "address": "395 US-3, South China, ME 04358",
    "phone": "(207) 445-3073",
    "rating": 4.0,
    "reviews": 25,
    "website": "http://www.southchinacollision.com/",
    "category": "Chinese-speaking Engine replacement in Maine",
    "description": "Specializes in auto body and auto repair services for customers in Maine",
    "hours": "Mon-Fri 9AM-6PM",
    "services": [
      "Chinese-speaking Engine replacement in Maine consultation",
      "Professional service",
      "Quality guarantee"
    ],
    "social_links": {}
  },
  {
    "name": "New England Imports",
    "address": "632 Lakeview Drive, South China, ME 04358",
    "phone": "(207) 445-4583",
    "rating": 4.0,
    "reviews": 25,
    "website": "http://www.newenglandimports.com/",
    "category": "Chinese-speaking Engine replacement in Maine",
    "description": "An official Saab service center and auto dealership that also services Audis, VWs, and other foreign and domestic vehicles",
    "hours": "Mon-Fri 9AM-6PM",
    "services": [
      "Chinese-speaking Engine replacement in Maine consultation",
      "Professional service",
      "Quality guarantee"
    ],
    "social_links": {}
  },
  {
    "name": "Phil's Foreign Auto",
    "address": "15c Adams St, South Portland, ME 04106",
    "phone": "(207) 767-5008",
    "rating": 4.0,
    "reviews": 25,
    "website": "http://www.philsforeignauto.com/",
    "category": "Chinese-speaking Engine replacement in Maine",
    "description": "Specializes in foreign auto repair for makes such as Volvo, Toyota, Mazda, Nissan, Audi, Honda, VW, Saab, and BMW",
    "hours": "Mon-Fri 9AM-6PM",
    "services": [
      "Chinese-speaking Engine replacement in Maine consultation",
      "Professional service",
      "Quality guarantee"
    ],
    "social_links": {}
  },
  {
    "name": "Portland Service Center",
    "address": "518 Washington Ave, Portland, ME 04103",
    "phone": "(207) 775-2020",
    "rating": 4.0,
    "reviews": 25,
    "website": "http://www.portlandservicecenter.com/",
    "category": "Chinese-speaking Engine replacement in Maine",
    "description": "A family-owned NAPA AutoCare Center offering full-service auto repair and maintenance with a nationwide warranty",
    "hours": "Mon-Fri 9AM-6PM",
    "services": [
      "Chinese-speaking Engine replacement in Maine consultation",
      "Professional service",
      "Quality guarantee"
    ],
    "social_links": {}
  },
  {
    "name": "Jason's Auto Service",
    "address": "Multiple locations, including Biddeford and Hollis",
    "phone": "(207) 929-4131",
    "rating": 4.0,
    "reviews": 25,
    "website": "http://www.jasonsautoservice.com/",
    "category": "Chinese-speaking Engine replacement in Maine",
    "description": "Offers a broad range of automotive repair services for various makes and models",
    "hours": "Mon-Fri 9AM-6PM",
    "services": [
      "Chinese-speaking Engine replacement in Maine consultation",
      "Professional service",
      "Quality guarantee"
    ],
    "social_links": {}
  },
  {
    "name": "Chandler's Automotive",
    "address": "1002 Main St, Sanford, ME 04073",
    "phone": "(207) 850-1080",
    "rating": 4.0,
    "reviews": 25,
    "website": "http://www.chandlersautomotive.com/",
    "category": "Chinese-speaking Engine replacement in Maine",
    "description": "Provides reliable, quality, and expert automotive repair and personal, friendly customer service",
    "hours": "Mon-Fri 9AM-6PM",
    "services": [
      "Chinese-speaking Engine replacement in Maine consultation",
      "Professional service",
      "Quality guarantee"
    ],
    "social_links": {}
  },
  {
    "name": "Neil's Motors Inc.",
    "address": "414 Elm St, Biddeford, ME 04005",
    "phone": "(207) 282-3156",
    "rating": 4.0,
    "reviews": 25,
    "website": "http://www.neilsmotors.com/",
    "category": "Chinese-speaking Engine replacement in Maine",
    "description": "A dealer alternative offering auto repair and tires for all makes and models, serving Biddeford since 1970",
    "hours": "Mon-Fri 9AM-6PM",
    "services": [
      "Chinese-speaking Engine replacement in Maine consultation",
      "Professional service",
      "Quality guarantee"
    ],
    "social_links": {}
  }
]