[
  {
    "name": "Sage Law, LLP",
    "address": "7301 College Blvd Suite 200, Overland Park, KS 66210",
    "phone": "(913) 653-1000",
    "rating": 4.0,
    "reviews": 25,
    "website": "https://www.sagelawllp.com/",
    "category": "Bengali-speaking Estate planning in Kansas",
    "description": "A full-service law firm with expertise in estate planning, civil litigation, real estate, and business services",
    "hours": "Mon-Fri 9AM-6PM",
    "services": [
      "Bengali-speaking Estate planning in Kansas consultation",
      "Professional service",
      "Quality guarantee"
    ],
    "social_links": {}
  },
  {
    "name": "Foulston Siefkin LLP",
    "address": "120 S. Market, Suite 1400, Wichita, KS 67202 (also offices in Topeka and Kansas City)",
    "phone": "(316) 267-1313",
    "rating": 4.0,
    "reviews": 25,
    "website": "https://www.foulston.com/",
    "category": "Bengali-speaking Estate planning in Kansas",
    "description": "Handles a wide range of estate planning, probate, and trust services, with a focus on asset protection and tax minimization",
    "hours": "Mon-Fri 9AM-6PM",
    "services": [
      "Bengali-speaking Estate planning in Kansas consultation",
      "Professional service",
      "Quality guarantee"
    ],
    "social_links": {}
  },
  {
    "name": "Schlagel Long, LLC",
    "address": "13505 W. 87th St. Pkwy., Lenexa, KS 66215 (also an Olathe location)",
    "phone": "(913) 359-8996",
    "rating": 4.0,
    "reviews": 25,
    "website": "https://schlagellong.com/",
    "category": "Bengali-speaking Estate planning in Kansas",
    "description": "Focuses on estate planning and probate, including wills, trusts, and special needs planning",
    "hours": "Mon-Fri 9AM-6PM",
    "services": [
      "Bengali-speaking Estate planning in Kansas consultation",
      "Professional service",
      "Quality guarantee"
    ],
    "social_links": {}
  },
  {
    "name": "Heritage Law LLP",
    "address": "4901 State Line Rd, Leawood, KS 66205",
    "phone": "(913) 378-1777",
    "rating": 4.0,
    "reviews": 25,
    "website": "https://www.heritagelawllp.com/",
    "category": "Bengali-speaking Estate planning in Kansas",
    "description": "Provides estate planning services such as drafting wills and trusts, and also offers mediation services",
    "hours": "Mon-Fri 9AM-6PM",
    "services": [
      "Bengali-speaking Estate planning in Kansas consultation",
      "Professional service",
      "Quality guarantee"
    ],
    "social_links": {}
  },
  {
    "name": "Harvest Law KC",
    "address": "7301 College Blvd Suite 200, Overland Park, KS 66210",
    "phone": "(913) 322-0123",
    "rating": 4.0,
    "reviews": 25,
    "website": "https://www.harvestlawkc.com/",
    "category": "Bengali-speaking Estate planning in Kansas",
    "description": "A trusted estate planning law firm offering customized plans to protect assets and provide for loved ones",
    "hours": "Mon-Fri 9AM-6PM",
    "services": [
      "Bengali-speaking Estate planning in Kansas consultation",
      "Professional service",
      "Quality guarantee"
    ],
    "social_links": {}
  },
  {
    "name": "Kansas Legal Services",
    "address": "101 E. Douglas Ave., Suite 300, Wichita, KS 67202 (statewide services with multiple offices)",
    "phone": "(316) 267-3975",
    "rating": 4.0,
    "reviews": 25,
    "website": "https://www.kslegalservices.org/",
    "category": "Bengali-speaking Estate planning in Kansas",
    "description": "A non-profit law firm providing legal aid and estate planning assistance to low and moderate-income Kansans. They offer language options on their website, but not specifically Bengali",
    "hours": "Mon-Fri 9AM-6PM",
    "services": [
      "Bengali-speaking Estate planning in Kansas consultation",
      "Professional service",
      "Quality guarantee"
    ],
    "social_links": {}
  },
  {
    "name": "Pearson Bollman Law",
    "address": "14400 Metcalf Ave, Overland Park, KS 66223",
    "phone": "(913) 428-0111",
    "rating": 4.0,
    "reviews": 25,
    "website": "https://www.pearsonbollmanlaw.com/",
    "category": "Bengali-speaking Estate planning in Kansas",
    "description": "Offers comprehensive estate planning, elder law, and probate services with a personalized approach",
    "hours": "Mon-Fri 9AM-6PM",
    "services": [
      "Bengali-speaking Estate planning in Kansas consultation",
      "Professional service",
      "Quality guarantee"
    ],
    "social_links": {}
  },
  {
    "name": "Graber & Johnson Law Group, LLC",
    "address": "14400 Metcalf Ave, Overland Park, KS 66223 (also offices in Manhattan, Elkhart, Hugoton, Hutchinson, Garden City, Norton, McPherson)",
    "phone": "(913) 897-0000",
    "rating": 4.0,
    "reviews": 25,
    "website": "https://www.graberjohnson.com/",
    "category": "Bengali-speaking Estate planning in Kansas",
    "description": "Specializes in estate and business planning, including trusts, wills, and probate",
    "hours": "Mon-Fri 9AM-6PM",
    "services": [
      "Bengali-speaking Estate planning in Kansas consultation",
      "Professional service",
      "Quality guarantee"
    ],
    "social_links": {}
  },
  {
    "name": "Bever Dye, LC, Attorneys At Law",
    "address": "150 N. Hillside, Wichita, KS 67214",
    "phone": "(316) 685-7100",
    "rating": 4.0,
    "reviews": 25,
    "website": "https://www.beverdye.com/",
    "category": "Bengali-speaking Estate planning in Kansas",
    "description": "Provides comprehensive estate planning services, focusing on individual and family goals, and tax minimization",
    "hours": "Mon-Fri 9AM-6PM",
    "services": [
      "Bengali-speaking Estate planning in Kansas consultation",
      "Professional service",
      "Quality guarantee"
    ],
    "social_links": {}
  },
  {
    "name": "Heartland Estate Law, LLC",
    "address": "7301 College Blvd Suite 200, Overland Park, KS 66210",
    "phone": "(913) 222-3000",
    "rating": 4.0,
    "reviews": 25,
    "website": "https://www.heartlandestatelaw.com/",
    "category": "Bengali-speaking Estate planning in Kansas",
    "description": "Offers estate planning and probate services, helping families protect their loved ones and legacies",
    "hours": "Mon-Fri 9AM-6PM",
    "services": [
      "Bengali-speaking Estate planning in Kansas consultation",
      "Professional service",
      "Quality guarantee"
    ],
    "social_links": {}
  }
]