[
  {
    "name": "Adelante Healthcare",
    "address": "Multiple locations including 3130 East Roosevelt Street, Phoenix, AZ 85008",
    "phone": "480-964-2273",
    "rating": 4.0,
    "reviews": 25,
    "website": "https://www.adelantehealthcare.org/",
    "category": "Agnostic-owned Group therapy in Arizona",
    "description": "Offers integrated mental health services, including psychotherapy and behavioral health services, for individuals and families",
    "hours": "Mon-Fri 9AM-6PM",
    "services": [
      "Agnostic-owned Group therapy in Arizona consultation",
      "Professional service",
      "Quality guarantee"
    ],
    "social_links": {}
  },
  {
    "name": "Virtue Recovery Center Chandler Arizona",
    "address": "Information not available",
    "phone": "866-338-5779",
    "rating": 4.0,
    "reviews": 25,
    "website": "https://virtuerecovery.com/locations/arizona/chandler/",
    "category": "Agnostic-owned Group therapy in Arizona",
    "description": "Provides group therapy sessions in a secure and encouraging space to address challenging problems and manage stressors",
    "hours": "Mon-Fri 9AM-6PM",
    "services": [
      "Agnostic-owned Group therapy in Arizona consultation",
      "Professional service",
      "Quality guarantee"
    ],
    "social_links": {}
  },
  {
    "name": "Transitions Counseling",
    "address": "Multiple locations in Arizona",
    "phone": "602-363-0629",
    "rating": 4.0,
    "reviews": 25,
    "website": "https://www.transitionsaz.com/",
    "category": "Agnostic-owned Group therapy in Arizona",
    "description": "Offers group counseling sessions focusing on Dialectical Behavior Therapy (DBT) skills for various age groups",
    "hours": "Mon-Fri 9AM-6PM",
    "services": [
      "Agnostic-owned Group therapy in Arizona consultation",
      "Professional service",
      "Quality guarantee"
    ],
    "social_links": {}
  },
  {
    "name": "Aurora Behavioral Health",
    "address": "Information not available",
    "phone": "877-870-7012",
    "rating": 4.0,
    "reviews": 25,
    "website": "https://www.aurora-arizona.com/",
    "category": "Agnostic-owned Group therapy in Arizona",
    "description": "Arizona's largest free-standing psychiatric hospital system offering inpatient and outpatient services, including group therapy",
    "hours": "Mon-Fri 9AM-6PM",
    "services": [
      "Agnostic-owned Group therapy in Arizona consultation",
      "Professional service",
      "Quality guarantee"
    ],
    "social_links": {}
  },
  {
    "name": "Camelback Recovery",
    "address": "Phoenix, AZ",
    "phone": "602-466-9880",
    "rating": 4.0,
    "reviews": 25,
    "website": "https://camelbackrecovery.com/",
    "category": "Agnostic-owned Group therapy in Arizona",
    "description": "Offers specialized group therapy for substance abuse, incorporating evidence-based practices in a supportive environment",
    "hours": "Mon-Fri 9AM-6PM",
    "services": [
      "Agnostic-owned Group therapy in Arizona consultation",
      "Professional service",
      "Quality guarantee"
    ],
    "social_links": {}
  },
  {
    "name": "Sahara Behavioral Health",
    "address": "Glendale, Phoenix, Peoria, and surrounding areas",
    "phone": "",
    "rating": 4.0,
    "reviews": 25,
    "website": "https://saharabehavioralhealth.com/",
    "category": "Agnostic-owned Group therapy in Arizona",
    "description": "Provides psychiatric and counseling therapy services for mental health and addiction treatment, with individualized approaches",
    "hours": "Mon-Fri 9AM-6PM",
    "services": [
      "Agnostic-owned Group therapy in Arizona consultation",
      "Professional service",
      "Quality guarantee"
    ],
    "social_links": {}
  },
  {
    "name": "Mental Health Center of America (MHCA)",
    "address": "Phoenix & Mesa, Arizona",
    "phone": "",
    "rating": 4.0,
    "reviews": 25,
    "website": "https://www.mhcaaz.com/",
    "category": "Agnostic-owned Group therapy in Arizona",
    "description": "Offers comprehensive psychiatric services, including individual, couples, and group counseling, with a focus on individualized care",
    "hours": "Mon-Fri 9AM-6PM",
    "services": [
      "Agnostic-owned Group therapy in Arizona consultation",
      "Professional service",
      "Quality guarantee"
    ],
    "social_links": {}
  },
  {
    "name": "Sunshine Psychotherapy, LLC",
    "address": "Information not available",
    "phone": "623-288-0654",
    "rating": 4.0,
    "reviews": 25,
    "website": "https://www.sunshinepsychotherapy.com/",
    "category": "Agnostic-owned Group therapy in Arizona",
    "description": "Provides secular and non-religious therapy services, with a focus on personalized and integrative care for individuals and families",
    "hours": "Mon-Fri 9AM-6PM",
    "services": [
      "Agnostic-owned Group therapy in Arizona consultation",
      "Professional service",
      "Quality guarantee"
    ],
    "social_links": {}
  },
  {
    "name": "Sandstone Counseling",
    "address": "Information not available",
    "phone": "",
    "rating": 4.0,
    "reviews": 25,
    "website": "https://www.sandstonecounseling.com/",
    "category": "Agnostic-owned Group therapy in Arizona",
    "description": "Offers evidence-based techniques to help individuals cope with life stressors, adjust to changes, and reinvent themselves",
    "hours": "Mon-Fri 9AM-6PM",
    "services": [
      "Agnostic-owned Group therapy in Arizona consultation",
      "Professional service",
      "Quality guarantee"
    ],
    "social_links": {}
  },
  {
    "name": "A Beautiful Soul Holistic Counseling",
    "address": "Chandler, AZ",
    "phone": "",
    "rating": 4.0,
    "reviews": 25,
    "website": "https://www.abeautifulsoulholistic.com/",
    "category": "Agnostic-owned Group therapy in Arizona",
    "description": "Provides holistic counseling services, including group counseling, with a personalized approach to address the whole person",
    "hours": "Mon-Fri 9AM-6PM",
    "services": [
      "Agnostic-owned Group therapy in Arizona consultation",
      "Professional service",
      "Quality guarantee"
    ],
    "social_links": {}
  }
]